{"status":true,"message":"","result":[{"server_id":9,"name":"Uncletopia | Atlanta | 1 | All Maps","name_short":"atl-1","host":"atl-1.us.uncletopia.com","port":27015,"enabled":true,"region":"us-east","cc":"us","latitude":33.753746,"longitude":-84.38633,"reserved":0,"last_update":"0001-01-01T00:00:00Z","name_a2s":"Uncletopia | Atlanta | 1 | All Maps","protocol":17,"map":"pl_badwater","folder":"tf","game":"Team Fortress","app_id":440,"player_count":24,"max_players":24,"Bots":0,"server_type":"Dedicated","server_os":"Linux","password":true,"vac":true,"version":"7882260","steam_id":85568392924469982,"keywords":["nocrits","nodmgspread","payload","uncletopia"],"game_id":440,"stv_port":27016,"stv_name":"Uncletopia | Atlanta | 1 | All Maps | STV","players":[{"user_id":151,"name":"[Ààluk…ë]","steam_id":76561197984462669,"connected_time":2883000000000,"state":"active","ping":178},{"user_id":148,"name":"atl1icyy","steam_id":76561198968001329,"connected_time":3881000000000,"state":"active","ping":45},{"user_id":131,"name":"HavocsHollyTree","steam_id":76561198982631429,"connected_time":4729000000000,"state":"active","ping":94},{"user_id":152,"name":"C papi","steam_id":76561198027779564,"connected_time":2881000000000,"state":"active","ping":59},{"user_id":181,"name":"god approaches","steam_id":76561198081617990,"connected_time":1146000000000,"state":"active","ping":109},{"user_id":158,"name":"Aligote","steam_id":76561199188849493,"connected_time":2663000000000,"state":"active","ping":87},{"user_id":188,"name":"BIG HOG","steam_id":76561198079923652,"connected_time":444000000000,"state":"active","ping":66},{"user_id":100,"name":"marguerite","steam_id":76561198170873495,"connected_time":7614000000000,"state":"active","ping":48},{"user_id":153,"name":"V!CT!M","steam_id":76561198962721502,"connected_time":2881000000000,"state":"active","ping":85},{"user_id":183,"name":"thomasdee725!!!","steam_id":76561199189526173,"connected_time":532000000000,"state":"active","ping":80},{"user_id":141,"name":"HollowMan","steam_id":76561198967266827,"connected_time":4367000000000,"state":"active","ping":97},{"user_id":189,"name":"Intro Bonito","steam_id":76561198119478838,"connected_time":444000000000,"state":"active","ping":45},{"user_id":169,"name":"Mr. Dick‚Ñ¢","steam_id":76561198047309044,"connected_time":2129000000000,"state":"active","ping":42},{"user_id":144,"name":"krabby","steam_id":76561199072773402,"connected_time":4181000000000,"state":"active","ping":69},{"user_id":116,"name":"A_Malebolgia","steam_id":76561198097722818,"connected_time":6297000000000,"state":"active","ping":89},{"user_id":191,"name":"trove","steam_id":76561198110970476,"connected_time":300000000000,"state":"active","ping":45},{"user_id":176,"name":"kite","steam_id":76561198346516392,"connected_time":1769000000000,"state":"active","ping":88},{"user_id":180,"name":"Toast","steam_id":76561199243331140,"connected_time":1198000000000,"state":"active","ping":74},{"user_id":190,"name":"mremannn","steam_id":76561198241105316,"connected_time":414000000000,"state":"active","ping":119},{"user_id":124,"name":"mayhem","steam_id":76561199246637881,"connected_time":5642000000000,"state":"active","ping":53},{"user_id":177,"name":"lil hog","steam_id":76561199230929836,"connected_time":1367000000000,"state":"active","ping":81},{"user_id":174,"name":"vergil's lawn chair","steam_id":76561198066822788,"connected_time":2039000000000,"state":"active","ping":88},{"user_id":175,"name":"Mr. Hankey","steam_id":76561198872852200,"connected_time":2033000000000,"state":"active","ping":145},{"user_id":185,"name":"Inkmix(boopberrylover)","steam_id":76561198854070384,"connected_time":515000000000,"state":"active","ping":120}]},{"server_id":104,"name":"Uncletopia | Atlanta | 2 | All Maps","name_short":"atl-2","host":"atl-1.us.uncletopia.com","port":27025,"enabled":true,"region":"us-east","cc":"us","latitude":33.753746,"longitude":-84.38633,"reserved":0,"last_update":"0001-01-01T00:00:00Z","name_a2s":"Uncletopia | Atlanta | 2 | All Maps","protocol":17,"map":"cp_dustbowl","folder":"tf","game":"Team Fortress","app_id":440,"player_count":24,"max_players":24,"Bots":0,"server_type":"Dedicated","server_os":"Linux","password":true,"vac":true,"version":"7882260","steam_id":85568392924469983,"keywords":["cp","nocrits","nodmgspread","uncletopia"],"game_id":440,"stv_port":27026,"stv_name":"Uncletopia | Atlanta | 2 | All Maps | STV","players":[{"user_id":51,"name":"DiscoTraveler","steam_id":76561199240168088,"connected_time":2066000000000,"state":"active","ping":58},{"user_id":12,"name":"filet minion","steam_id":76561198067950862,"connected_time":4180000000000,"state":"active","ping":48},{"user_id":13,"name":"lodediper","steam_id":76561198049606896,"connected_time":4178000000000,"state":"active","ping":57},{"user_id":55,"name":"kermitcreeper(ZAZA)","steam_id":76561199222829972,"connected_time":1833000000000,"state":"active","ping":74},{"user_id":49,"name":"good soup guy","steam_id":76561199210237835,"connected_time":2463000000000,"state":"active","ping":92},{"user_id":73,"name":"„ÄåDaws_Dudeguy„Äç","steam_id":76561198205838645,"connected_time":476000000000,"state":"active","ping":84},{"user_id":23,"name":"SCraig64","steam_id":76561198171251965,"connected_time":3043000000000,"state":"active","ping":73},{"user_id":46,"name":"Allah-lover","steam_id":76561198076768673,"connected_time":2596000000000,"state":"active","ping":66},{"user_id":32,"name":"LeadHickory","steam_id":76561198219756521,"connected_time":2881000000000,"state":"active","ping":95},{"user_id":52,"name":"Hyunnie simon","steam_id":76561198081327929,"connected_time":1999000000000,"state":"active","ping":186},{"user_id":70,"name":"ihavebeenstarving","steam_id":76561199449852744,"connected_time":507000000000,"state":"active","ping":84},{"user_id":30,"name":"genie","steam_id":76561198014743840,"connected_time":2900000000000,"state":"active","ping":60},{"user_id":31,"name":"Hoob.egfug","steam_id":76561197980557818,"connected_time":2899000000000,"state":"active","ping":72},{"user_id":33,"name":"Peepster","steam_id":76561198297854733,"connected_time":2874000000000,"state":"active","ping":87},{"user_id":71,"name":"V_V","steam_id":76561198236031182,"connected_time":499000000000,"state":"active","ping":182},{"user_id":56,"name":"Final Boss of Hightower","steam_id":76561198034827905,"connected_time":1816000000000,"state":"active","ping":76},{"user_id":72,"name":"CantAffordManga","steam_id":76561198878632990,"connected_time":485000000000,"state":"active","ping":62},{"user_id":48,"name":"Sloppy Hoes","steam_id":76561198114922735,"connected_time":2559000000000,"state":"active","ping":59},{"user_id":66,"name":"FancyBones","steam_id":76561198180198885,"connected_time":971000000000,"state":"active","ping":68},{"user_id":68,"name":"Scampi","steam_id":76561198318349886,"connected_time":726000000000,"state":"active","ping":72},{"user_id":40,"name":"Strawberry","steam_id":76561198973740497,"connected_time":2744000000000,"state":"active","ping":98},{"user_id":60,"name":"Dannnnnn","steam_id":76561198442700385,"connected_time":1728000000000,"state":"active","ping":152},{"user_id":61,"name":"ThreatLvl 9 (she/her)","steam_id":76561198079410533,"connected_time":1712000000000,"state":"active","ping":77},{"user_id":44,"name":"Weerk","steam_id":76561199209543551,"connected_time":2677000000000,"state":"active","ping":71}]},{"server_id":400,"name":"Uncletopia | Atlanta | 3 | Community","name_short":"atl-3","host":"atl-1.us.uncletopia.com","port":27035,"enabled":true,"region":"us-east","cc":"us","latitude":33.753746,"longitude":-84.38633,"reserved":0,"last_update":"0001-01-01T00:00:00Z","name_a2s":"Uncletopia | Atlanta | 3 | Community","protocol":17,"map":"workshop/koth_ramjam_rc1.ugc459778887","folder":"tf","game":"Team Fortress","app_id":440,"player_count":0,"max_players":24,"Bots":0,"server_type":"Dedicated","server_os":"Linux","password":true,"vac":true,"version":"7882260","steam_id":85568392924515187,"keywords":["cp","nocrits","nodmgspread","uncletopia"],"game_id":440,"stv_port":27036,"stv_name":"Uncletopia | Atlanta | 3 | Community | STV","players":null},{"server_id":401,"name":"Uncletopia | Atlanta | 4 | No Payload","name_short":"atl-4","host":"atl-1.us.uncletopia.com","port":27045,"enabled":true,"region":"us-east","cc":"us","latitude":33.753746,"longitude":-84.38633,"reserved":0,"last_update":"0001-01-01T00:00:00Z","name_a2s":"","protocol":0,"map":"","folder":"","game":"","app_id":0,"player_count":0,"max_players":0,"Bots":0,"server_type":"","server_os":"","password":false,"vac":false,"version":"","steam_id":0,"keywords":null,"game_id":0,"stv_port":0,"stv_name":"","players":null},{"server_id":2,"name":"Uncletopia | Chicago | 1 | All Maps","name_short":"chi-1","host":"chi-1.us.uncletopia.com","port":27015,"enabled":true,"region":"us-central","cc":"us","latitude":41.881832,"longitude":-87.62318,"reserved":0,"last_update":"0001-01-01T00:00:00Z","name_a2s":"Uncletopia | Chicago | 1 | All Maps","protocol":17,"map":"pl_barnblitz","folder":"tf","game":"Team Fortress","app_id":440,"player_count":24,"max_players":24,"Bots":0,"server_type":"Dedicated","server_os":"Linux","password":true,"vac":true,"version":"7882260","steam_id":85568392924469984,"keywords":["nocrits","nodmgspread","payload","uncletopia"],"game_id":440,"stv_port":27016,"stv_name":"Uncletopia | Chicago | 1 | All Maps | STV","players":[{"user_id":306,"name":"Herdez Hot Salsa","steam_id":76561197991740906,"connected_time":542000000000,"state":"active","ping":62},{"user_id":299,"name":"tA.CHRONIC","steam_id":76561197960760990,"connected_time":650000000000,"state":"active","ping":51},{"user_id":278,"name":"The Incredible Fem Boy","steam_id":76561198355754259,"connected_time":2732000000000,"state":"active","ping":79},{"user_id":298,"name":"brock","steam_id":76561199015537819,"connected_time":732000000000,"state":"active","ping":71},{"user_id":297,"name":"Gamba","steam_id":76561198069264650,"connected_time":751000000000,"state":"active","ping":60},{"user_id":280,"name":"Rukks","steam_id":76561197993918954,"connected_time":2666000000000,"state":"active","ping":90},{"user_id":309,"name":"Cheese","steam_id":76561199097464238,"connected_time":395000000000,"state":"active","ping":77},{"user_id":277,"name":"sludge_wizard","steam_id":76561198054482500,"connected_time":2776000000000,"state":"active","ping":60},{"user_id":301,"name":"dandelion","steam_id":76561199483849514,"connected_time":590000000000,"state":"active","ping":53},{"user_id":82,"name":"larry","steam_id":76561198236166288,"connected_time":16800000000000,"state":"active","ping":68},{"user_id":282,"name":"Sheku \u003c3 Gegay","steam_id":76561198066426161,"connected_time":2405000000000,"state":"active","ping":52},{"user_id":303,"name":"JZ","steam_id":76561198377029198,"connected_time":569000000000,"state":"active","ping":77},{"user_id":304,"name":"groupth1nk","steam_id":76561198386858216,"connected_time":568000000000,"state":"active","ping":84},{"user_id":305,"name":"Chief Balupa","steam_id":76561198045583454,"connected_time":562000000000,"state":"active","ping":104},{"user_id":292,"name":"Sychke","steam_id":76561198067144055,"connected_time":1304000000000,"state":"active","ping":55},{"user_id":283,"name":"Hindmost","steam_id":76561199081837220,"connected_time":2369000000000,"state":"active","ping":91},{"user_id":288,"name":"HOTA","steam_id":76561199002778841,"connected_time":1675000000000,"state":"active","ping":78},{"user_id":264,"name":"|WS| Don't_Taze_Me_Bro","steam_id":76561198043289495,"connected_time":4077000000000,"state":"active","ping":74},{"user_id":240,"name":"Willy Wonker","steam_id":76561198082944789,"connected_time":5245000000000,"state":"active","ping":95},{"user_id":291,"name":"UltiSam","steam_id":76561198393741931,"connected_time":1526000000000,"state":"active","ping":57},{"user_id":307,"name":"bulbasaur890","steam_id":76561198093443639,"connected_time":539000000000,"state":"active","ping":85},{"user_id":308,"name":"bobbybasketball62","steam_id":76561198067232540,"connected_time":527000000000,"state":"active","ping":75},{"user_id":281,"name":"Cheesi","steam_id":76561199417190840,"connected_time":2457000000000,"state":"active","ping":62},{"user_id":296,"name":"Tito","steam_id":76561198041702529,"connected_time":883000000000,"state":"active","ping":85}]},{"server_id":106,"name":"Uncletopia | Chicago | 2 | All Maps","name_short":"chi-2","host":"chi-1.us.uncletopia.com","port":27025,"enabled":true,"region":"us-central","cc":"us","latitude":41.881832,"longitude":-87.62318,"reserved":0,"last_update":"0001-01-01T00:00:00Z","name_a2s":"Uncletopia | Chicago | 2 | All Maps","protocol":17,"map":"pl_pier","folder":"tf","game":"Team Fortress","app_id":440,"player_count":2,"max_players":24,"Bots":0,"server_type":"Dedicated","server_os":"Linux","password":true,"vac":true,"version":"7882260","steam_id":85568392924469985,"keywords":["nocrits","nodmgspread","payload","uncletopia"],"game_id":440,"stv_port":27026,"stv_name":"Uncletopia | Chicago | 2 | All Maps | STV","players":[{"user_id":26,"name":"Space of Pud","steam_id":76561198400468740,"connected_time":219000000000,"state":"active","ping":49},{"user_id":28,"name":"i have amazing aim","steam_id":76561199222920753,"connected_time":106000000000,"state":"active","ping":52}]},{"server_id":402,"name":"Uncletopia | Chicago | 3 | All Maps","name_short":"chi-3","host":"chi-1.us.uncletopia.com","port":27035,"enabled":true,"region":"us-central","cc":"us","latitude":41.881832,"longitude":-87.62318,"reserved":0,"last_update":"0001-01-01T00:00:00Z","name_a2s":"Uncletopia | Chicago | 3 | All Maps","protocol":17,"map":"pl_swiftwater_final1","folder":"tf","game":"Team Fortress","app_id":440,"player_count":24,"max_players":24,"Bots":0,"server_type":"Dedicated","server_os":"Linux","password":true,"vac":true,"version":"7882260","steam_id":85568392924515191,"keywords":["nocrits","nodmgspread","payload","uncletopia"],"game_id":440,"stv_port":27036,"stv_name":"Uncletopia | Chicago | 3 | All Maps | STV","players":[{"user_id":332,"name":"ATastyDonut","steam_id":76561198984819894,"connected_time":2646000000000,"state":"active","ping":63},{"user_id":362,"name":"Dr. Ogadicto","steam_id":76561198151256410,"connected_time":1180000000000,"state":"active","ping":150},{"user_id":337,"name":"Walkiing","steam_id":76561198074473413,"connected_time":2416000000000,"state":"active","ping":44},{"user_id":334,"name":"theunusualgent","steam_id":76561198882335738,"connected_time":2612000000000,"state":"active","ping":68},{"user_id":338,"name":"man in a canoe","steam_id":76561199230723152,"connected_time":2310000000000,"state":"active","ping":79},{"user_id":367,"name":"the unionwave","steam_id":76561198354125620,"connected_time":514000000000,"state":"active","ping":73},{"user_id":361,"name":"Awenova","steam_id":76561198322928940,"connected_time":1183000000000,"state":"active","ping":64},{"user_id":341,"name":"Carpigani","steam_id":76561199472897062,"connected_time":2167000000000,"state":"active","ping":145},{"user_id":364,"name":"SirJellyRolls","steam_id":76561198119277244,"connected_time":906000000000,"state":"active","ping":76},{"user_id":365,"name":"Cottontail","steam_id":76561198213634567,"connected_time":700000000000,"state":"active","ping":106},{"user_id":369,"name":"Bread","steam_id":76561198251896612,"connected_time":176000000000,"state":"active","ping":41},{"user_id":357,"name":"MJ Bombastic","steam_id":76561199132802395,"connected_time":1692000000000,"state":"active","ping":123},{"user_id":313,"name":"PaperJamming","steam_id":76561198042335495,"connected_time":4809000000000,"state":"active","ping":75},{"user_id":363,"name":"ultimate piggy","steam_id":76561198801456129,"connected_time":1163000000000,"state":"active","ping":62},{"user_id":350,"name":"DeadErebus","steam_id":76561198286117045,"connected_time":1991000000000,"state":"active","ping":33},{"user_id":208,"name":"FunH8r","steam_id":76561199013705323,"connected_time":11772000000000,"state":"active","ping":61},{"user_id":347,"name":"seldom","steam_id":76561198166193756,"connected_time":2080000000000,"state":"active","ping":56},{"user_id":348,"name":"KEDNDSC\\","steam_id":76561199079537809,"connected_time":2074000000000,"state":"active","ping":149},{"user_id":370,"name":"Noisgamer02","steam_id":76561198129665722,"connected_time":173000000000,"state":"active","ping":88},{"user_id":371,"name":"6t26j","steam_id":76561198278282836,"connected_time":169000000000,"state":"active","ping":54},{"user_id":359,"name":"Aizen","steam_id":76561199074924859,"connected_time":1663000000000,"state":"active","ping":78},{"user_id":354,"name":"Skill Saw Stan","steam_id":76561199013064727,"connected_time":1926000000000,"state":"active","ping":76},{"user_id":372,"name":"Drapph","steam_id":76561199384213314,"connected_time":149000000000,"state":"active","ping":65},{"user_id":366,"name":"footoftheday","steam_id":76561198052712449,"connected_time":671000000000,"state":"active","ping":67}]},{"server_id":403,"name":"Uncletopia | Chicago | 4 | All Maps","name_short":"chi-4","host":"chi-1.us.uncletopia.com","port":27045,"enabled":true,"region":"us-central","cc":"us","latitude":41.881832,"longitude":-87.62318,"reserved":0,"last_update":"0001-01-01T00:00:00Z","name_a2s":"Uncletopia | Chicago | 4 | All Maps","protocol":17,"map":"koth_lakeside_final","folder":"tf","game":"Team Fortress","app_id":440,"player_count":24,"max_players":24,"Bots":0,"server_type":"Dedicated","server_os":"Linux","password":true,"vac":true,"version":"7882260","steam_id":85568392924515193,"keywords":["cp","nocrits","nodmgspread","uncletopia"],"game_id":440,"stv_port":27046,"stv_name":"Uncletopia | Chicago | 4 | All Maps | STV","players":[{"user_id":157,"name":"Stryder","steam_id":76561199387418697,"connected_time":2972000000000,"state":"active","ping":88},{"user_id":196,"name":"Shattered Glass","steam_id":76561198116835391,"connected_time":147000000000,"state":"active","ping":84},{"user_id":200,"name":"Infernis","steam_id":76561197999331071,"connected_time":46000000000,"state":"active","ping":157},{"user_id":169,"name":"SaucySandwichKid","steam_id":76561199372590934,"connected_time":1752000000000,"state":"active","ping":72},{"user_id":189,"name":"Doctor Bear  ï ‚Ä¢·¥•‚Ä¢ î","steam_id":76561197968103161,"connected_time":422000000000,"state":"active","ping":56},{"user_id":147,"name":"Pib","steam_id":76561197994926573,"connected_time":3174000000000,"state":"active","ping":71},{"user_id":149,"name":"üÖúüÖîüÖîüÖöüÖ¢üÖ£üÖî\ufffd\ufffd\ufffd","steam_id":76561197999748343,"connected_time":3160000000000,"state":"active","ping":60},{"user_id":137,"name":"Blitzy","steam_id":76561198149472890,"connected_time":4369000000000,"state":"active","ping":74},{"user_id":192,"name":"kablong","steam_id":76561199094392047,"connected_time":264000000000,"state":"active","ping":114},{"user_id":197,"name":"Shoomsie","steam_id":76561198047405791,"connected_time":133000000000,"state":"active","ping":87},{"user_id":186,"name":"blunderly","steam_id":76561198131915334,"connected_time":543000000000,"state":"active","ping":66},{"user_id":136,"name":"johnson exam","steam_id":76561198838784551,"connected_time":4503000000000,"state":"active","ping":65},{"user_id":201,"name":"Victor Skull","steam_id":76561198352212864,"connected_time":41000000000,"state":"active","ping":58},{"user_id":195,"name":"D(b) Hell","steam_id":76561198067869016,"connected_time":210000000000,"state":"active","ping":39},{"user_id":153,"name":"space mann","steam_id":76561198174447043,"connected_time":3108000000000,"state":"active","ping":55},{"user_id":202,"name":"Bombadealar","steam_id":76561197992514354,"connected_time":41000000000,"state":"active","ping":160},{"user_id":194,"name":"VLC Media Player","steam_id":76561198103243847,"connected_time":244000000000,"state":"active","ping":112},{"user_id":175,"name":"ContinuedBear","steam_id":76561198265176919,"connected_time":1232000000000,"state":"active","ping":81},{"user_id":184,"name":"Amish Supremacist","steam_id":76561198396181197,"connected_time":860000000000,"state":"active","ping":84},{"user_id":155,"name":"CapnKris22","steam_id":76561198049010994,"connected_time":3077000000000,"state":"active","ping":59},{"user_id":188,"name":"Carbonated Cocaine","steam_id":76561198110678966,"connected_time":438000000000,"state":"active","ping":75},{"user_id":203,"name":"You dad","steam_id":76561198044013623,"connected_time":17000000000,"state":"active","ping":73},{"user_id":198,"name":"Cosmic sR","steam_id":76561198081738675,"connected_time":129000000000,"state":"active","ping":84},{"user_id":204,"name":"Riandox","steam_id":76561198130577326,"connected_time":0,"state":"spawning","ping":15}]},{"server_id":36,"name":"Uncletopia | Chicago | 5 | All Maps","name_short":"chi-5","host":"chi-2.us.uncletopia.com","port":27015,"enabled":true,"region":"us-central","cc":"us","latitude":41.881832,"longitude":-87.62318,"reserved":0,"last_update":"0001-01-01T00:00:00Z","name_a2s":"Uncletopia | Chicago | 5 | All Maps","protocol":17,"map":"koth_nucleus","folder":"tf","game":"Team Fortress","app_id":440,"player_count":24,"max_players":24,"Bots":0,"server_type":"Dedicated","server_os":"Linux","password":true,"vac":true,"version":"7882260","steam_id":85568392924866362,"keywords":["cp","nocrits","nodmgspread","uncletopia"],"game_id":440,"stv_port":27016,"stv_name":"Uncletopia | Chicago | 5 | All Maps | STV","players":[{"user_id":178,"name":"gabagool","steam_id":76561198012131766,"connected_time":486000000000,"state":"active","ping":47},{"user_id":185,"name":"poe","steam_id":76561198155720118,"connected_time":308000000000,"state":"active","ping":50},{"user_id":190,"name":"ash","steam_id":76561198051757010,"connected_time":254000000000,"state":"active","ping":66},{"user_id":176,"name":"Ghost Lord","steam_id":76561198088956723,"connected_time":520000000000,"state":"active","ping":101},{"user_id":186,"name":"sofa king","steam_id":76561198353638591,"connected_time":302000000000,"state":"active","ping":73},{"user_id":168,"name":"KyInKali","steam_id":76561198168963872,"connected_time":1217000000000,"state":"active","ping":105},{"user_id":188,"name":"seabird","steam_id":76561198815644949,"connected_time":275000000000,"state":"active","ping":59},{"user_id":183,"name":"poop car","steam_id":76561198051198326,"connected_time":321000000000,"state":"active","ping":68},{"user_id":170,"name":"geeWIZ","steam_id":76561198067909242,"connected_time":1042000000000,"state":"active","ping":73},{"user_id":182,"name":"breakfast","steam_id":76561198043712978,"connected_time":350000000000,"state":"active","ping":97},{"user_id":115,"name":"green bean","steam_id":76561198113099204,"connected_time":4173000000000,"state":"active","ping":76},{"user_id":144,"name":"Kim Possible's Mom","steam_id":76561198206517160,"connected_time":3216000000000,"state":"active","ping":57},{"user_id":161,"name":"canakblasteran","steam_id":76561199472518822,"connected_time":1522000000000,"state":"active","ping":100},{"user_id":138,"name":"Bonk Co.","steam_id":76561198009355408,"connected_time":3397000000000,"state":"active","ping":98},{"user_id":194,"name":"Tealim","steam_id":76561198330085713,"connected_time":120000000000,"state":"active","ping":80},{"user_id":192,"name":"Chmiken","steam_id":76561199041966499,"connected_time":226000000000,"state":"active","ping":102},{"user_id":172,"name":"Chezaus","steam_id":76561198317397837,"connected_time":865000000000,"state":"active","ping":70},{"user_id":164,"name":"Geloman","steam_id":76561198005501322,"connected_time":1474000000000,"state":"active","ping":73},{"user_id":179,"name":"Darth Phrogg","steam_id":76561198150844229,"connected_time":475000000000,"state":"active","ping":68},{"user_id":180,"name":"bwasjfdjgdasfj!!!! \u003e.\u003c","steam_id":76561198354473513,"connected_time":428000000000,"state":"active","ping":45},{"user_id":135,"name":"yeyoi","steam_id":76561198069821885,"connected_time":3472000000000,"state":"active","ping":69},{"user_id":193,"name":"UNIT 220","steam_id":76561198042243497,"connected_time":225000000000,"state":"active","ping":66},{"user_id":99,"name":"goblino","steam_id":76561198068260422,"connected_time":5216000000000,"state":"active","ping":51},{"user_id":167,"name":"lamadre07","steam_id":76561198067337453,"connected_time":1272000000000,"state":"active","ping":90}]},{"server_id":37,"name":"Uncletopia | Chicago | 6 | All Maps","name_short":"chi-6","host":"chi-2.us.uncletopia.com","port":27025,"enabled":true,"region":"us-central","cc":"us","latitude":41.881832,"longitude":-87.62318,"reserved":0,"last_update":"0001-01-01T00:00:00Z","name_a2s":"Uncletopia | Chicago | 6 | All Maps","protocol":17,"map":"koth_cascade","folder":"tf","game":"Team Fortress","app_id":440,"player_count":0,"max_players":24,"Bots":0,"server_type":"Dedicated","server_os":"Linux","password":true,"vac":true,"version":"7882260","steam_id":85568392924866363,"keywords":["cp","nocrits","nodmgspread","uncletopia"],"game_id":440,"stv_port":27026,"stv_name":"Uncletopia | Chicago | 6 | All Maps | STV","players":null},{"server_id":38,"name":"Uncletopia | Chicago | 7 | Stopwatch Beta","name_short":"chi-7","host":"chi-2.us.uncletopia.com","port":27035,"enabled":true,"region":"us-central","cc":"us","latitude":41.881832,"longitude":-87.62318,"reserved":0,"last_update":"0001-01-01T00:00:00Z","name_a2s":"Uncletopia | Chicago | 7 | Stopwatch Beta","protocol":17,"map":"koth_lakeside_final","folder":"tf","game":"Team Fortress","app_id":440,"player_count":5,"max_players":24,"Bots":0,"server_type":"Dedicated","server_os":"Linux","password":true,"vac":true,"version":"7882260","steam_id":85568392924866364,"keywords":["cp","nocrits","nodmgspread","uncletopia"],"game_id":440,"stv_port":27036,"stv_name":"Uncletopia | Chicago | 7 | Stopwatch Beta | STV","players":[{"user_id":6,"name":"Fresh Lychee","steam_id":76561198045399559,"connected_time":1385000000000,"state":"active","ping":54},{"user_id":7,"name":"wafflehamster2000","steam_id":76561198849161820,"connected_time":1110000000000,"state":"active","ping":59},{"user_id":9,"name":"Joe","steam_id":76561199246334910,"connected_time":670000000000,"state":"active","ping":75},{"user_id":10,"name":"gum bum","steam_id":76561199195104977,"connected_time":490000000000,"state":"active","ping":70},{"user_id":11,"name":"Tri-Dot","steam_id":76561199075186597,"connected_time":452000000000,"state":"active","ping":59}]},{"server_id":39,"name":"Uncletopia | Chicago | 8 | Community","name_short":"chi-8","host":"chi-2.us.uncletopia.com","port":27045,"enabled":true,"region":"us-central","cc":"us","latitude":41.881832,"longitude":-87.62318,"reserved":0,"last_update":"0001-01-01T00:00:00Z","name_a2s":"Uncletopia | Chicago | 8 | Community","protocol":17,"map":"workshop/cp_mannbase_rc2a.ugc1900737467","folder":"tf","game":"Team Fortress","app_id":440,"player_count":24,"max_players":24,"Bots":0,"server_type":"Dedicated","server_os":"Linux","password":true,"vac":true,"version":"7882260","steam_id":85568392924866365,"keywords":["cp","nocrits","nodmgspread","uncletopia"],"game_id":440,"stv_port":27046,"stv_name":"Uncletopia | Chicago | 8 | Community | STV","players":[{"user_id":125,"name":"Reno Gato","steam_id":76561198048417246,"connected_time":2189000000000,"state":"active","ping":91},{"user_id":131,"name":"moonage72","steam_id":76561199187008629,"connected_time":1996000000000,"state":"active","ping":60},{"user_id":129,"name":"Missing Minus","steam_id":76561198120822928,"connected_time":2167000000000,"state":"active","ping":60},{"user_id":160,"name":"Mighty","steam_id":76561198096569755,"connected_time":64000000000,"state":"active","ping":96},{"user_id":152,"name":"Waaagh!","steam_id":76561197995317887,"connected_time":689000000000,"state":"active","ping":62},{"user_id":86,"name":"sailaser","steam_id":76561198035752229,"connected_time":6153000000000,"state":"active","ping":66},{"user_id":153,"name":"badhorse4444","steam_id":76561198979008266,"connected_time":472000000000,"state":"active","ping":89},{"user_id":158,"name":"moldyboi_","steam_id":76561199051928811,"connected_time":120000000000,"state":"spawning","ping":2084},{"user_id":88,"name":"TJGSASQUATCH","steam_id":76561198077806921,"connected_time":6150000000000,"state":"active","ping":69},{"user_id":154,"name":"Sora the Sorcerer","steam_id":76561198162077961,"connected_time":370000000000,"state":"active","ping":69},{"user_id":156,"name":"thumb","steam_id":76561198353762582,"connected_time":203000000000,"state":"active","ping":121},{"user_id":159,"name":"IdleDueling","steam_id":76561199066633857,"connected_time":100000000000,"state":"active","ping":90},{"user_id":122,"name":"chloe when she","steam_id":76561198128537564,"connected_time":2576000000000,"state":"active","ping":47},{"user_id":140,"name":"Zoro01","steam_id":76561198407989540,"connected_time":1471000000000,"state":"active","ping":131},{"user_id":126,"name":"bAlls","steam_id":76561198976282224,"connected_time":2185000000000,"state":"active","ping":71},{"user_id":127,"name":"Spicy Within Reason","steam_id":76561198066700370,"connected_time":2177000000000,"state":"active","ping":89},{"user_id":101,"name":"Aeris","steam_id":76561198287271028,"connected_time":4209000000000,"state":"active","ping":56},{"user_id":146,"name":"oi josuke","steam_id":76561198136169355,"connected_time":1163000000000,"state":"active","ping":56},{"user_id":161,"name":"Dia_Gamer","steam_id":76561199100278734,"connected_time":11000000000,"state":"spawning","ping":178},{"user_id":157,"name":"Â∞èÂ≠êÊ•†","steam_id":76561199477245608,"connected_time":186000000000,"state":"active","ping":81},{"user_id":108,"name":"Anyar","steam_id":76561198160174097,"connected_time":3914000000000,"state":"active","ping":61},{"user_id":118,"name":"Bandit","steam_id":76561198328421159,"connected_time":3086000000000,"state":"active","ping":64},{"user_id":142,"name":"cmjgamingOHHH YEA","steam_id":76561199124037552,"connected_time":1437000000000,"state":"active","ping":57},{"user_id":155,"name":"BB Lorexav","steam_id":76561198207565988,"connected_time":271000000000,"state":"active","ping":82}]},{"server_id":8,"name":"Uncletopia | Dallas | 1 | All Maps","name_short":"dal-1","host":"dal-1.us.uncletopia.com","port":27015,"enabled":true,"region":"us-central","cc":"us","latitude":32.779167,"longitude":-96.80889,"reserved":0,"last_update":"0001-01-01T00:00:00Z","name_a2s":"Uncletopia | Dallas | 1 | All Maps","protocol":17,"map":"cp_5gorge","folder":"tf","game":"Team Fortress","app_id":440,"player_count":24,"max_players":24,"Bots":0,"server_type":"Dedicated","server_os":"Linux","password":true,"vac":true,"version":"7882260","steam_id":85568392924469986,"keywords":["cp","nocrits","nodmgspread","uncletopia"],"game_id":440,"stv_port":27016,"stv_name":"Uncletopia | Dallas | 1 | All Maps | STV","players":[{"user_id":124,"name":"the worst tf2 player ever","steam_id":76561198330205913,"connected_time":10791000000000,"state":"active","ping":100},{"user_id":242,"name":"The Chef","steam_id":76561198452002557,"connected_time":269000000000,"state":"active","ping":69},{"user_id":224,"name":"KingOyster","steam_id":76561198322567830,"connected_time":3397000000000,"state":"active","ping":81},{"user_id":241,"name":"FatGOLDENGUY","steam_id":76561198413086051,"connected_time":419000000000,"state":"active","ping":47},{"user_id":225,"name":"Rocky","steam_id":76561198048158539,"connected_time":3390000000000,"state":"active","ping":97},{"user_id":244,"name":"Smug","steam_id":76561198448205229,"connected_time":195000000000,"state":"active","ping":72},{"user_id":243,"name":"Not A Rapper","steam_id":76561198077523537,"connected_time":209000000000,"state":"active","ping":91},{"user_id":167,"name":"Dreamzapp","steam_id":76561199084936632,"connected_time":8333000000000,"state":"active","ping":95},{"user_id":228,"name":"PerliousFalcon","steam_id":76561198124801907,"connected_time":2928000000000,"state":"active","ping":110},{"user_id":233,"name":"jimbo","steam_id":76561198067867292,"connected_time":2404000000000,"state":"active","ping":112},{"user_id":219,"name":"inzang","steam_id":76561198088318074,"connected_time":4042000000000,"state":"active","ping":54},{"user_id":240,"name":"Bogey","steam_id":76561198096227944,"connected_time":573000000000,"state":"active","ping":42},{"user_id":222,"name":"Woozy","steam_id":76561198008220735,"connected_time":3432000000000,"state":"active","ping":99},{"user_id":232,"name":"Kurayami","steam_id":76561198089630547,"connected_time":2446000000000,"state":"active","ping":73},{"user_id":194,"name":"Cretronus","steam_id":76561198160854358,"connected_time":6150000000000,"state":"active","ping":82},{"user_id":230,"name":"Kid B8","steam_id":76561198086764710,"connected_time":2554000000000,"state":"active","ping":74},{"user_id":226,"name":"Shamrock Shake Oct.10.2020 @8pm","steam_id":76561198833313201,"connected_time":3386000000000,"state":"active","ping":85},{"user_id":236,"name":"Kuvorious","steam_id":76561198153729934,"connected_time":1919000000000,"state":"active","ping":55},{"user_id":235,"name":"bought this cart for 15 dollars","steam_id":76561198253731826,"connected_time":1931000000000,"state":"active","ping":73},{"user_id":245,"name":"Muffin","steam_id":76561198209987299,"connected_time":11000000000,"state":"spawning","ping":162},{"user_id":234,"name":"ErikG65USA","steam_id":76561199381735619,"connected_time":2183000000000,"state":"active","ping":60},{"user_id":82,"name":"Pyrite","steam_id":76561198158817820,"connected_time":14591000000000,"state":"active","ping":81},{"user_id":185,"name":"rawrie","steam_id":76561198005371178,"connected_time":7058000000000,"state":"active","ping":74},{"user_id":231,"name":"Certified Hood Classic","steam_id":76561199086159354,"connected_time":2554000000000,"state":"active","ping":55}]},{"server_id":108,"name":"Uncletopia | Dallas | 2 | All Maps","name_short":"dal-2","host":"dal-1.us.uncletopia.com","port":27025,"enabled":true,"region":"us-central","cc":"us","latitude":32.779167,"longitude":-96.80889,"reserved":0,"last_update":"0001-01-01T00:00:00Z","name_a2s":"Uncletopia | Dallas | 2 | All Maps","protocol":17,"map":"koth_harvest_final","folder":"tf","game":"Team Fortress","app_id":440,"player_count":24,"max_players":24,"Bots":0,"server_type":"Dedicated","server_os":"Linux","password":true,"vac":true,"version":"7882260","steam_id":85568392924469988,"keywords":["cp","nocrits","nodmgspread","uncletopia"],"game_id":440,"stv_port":27026,"stv_name":"Uncletopia | Dallas | 2 | All Maps | STV","players":[{"user_id":120,"name":"Gavial the Invincible","steam_id":76561198348354629,"connected_time":3445000000000,"state":"active","ping":65},{"user_id":101,"name":"Merekitten","steam_id":76561198066307477,"connected_time":4825000000000,"state":"active","ping":92},{"user_id":137,"name":"Sloth ‚ù¶","steam_id":76561197998378462,"connected_time":1722000000000,"state":"active","ping":98},{"user_id":121,"name":"Rasmosis","steam_id":76561198118914598,"connected_time":3421000000000,"state":"active","ping":83},{"user_id":142,"name":"SPREAD SPRING GROWTH AND WARMTH","steam_id":76561198800386026,"connected_time":807000000000,"state":"active","ping":87},{"user_id":145,"name":"WX-78","steam_id":76561199117263527,"connected_time":735000000000,"state":"active","ping":65},{"user_id":151,"name":"JACOB","steam_id":76561198211874895,"connected_time":311000000000,"state":"active","ping":99},{"user_id":134,"name":"Spinch","steam_id":76561198296224166,"connected_time":1904000000000,"state":"active","ping":78},{"user_id":143,"name":"Taco","steam_id":76561198034670953,"connected_time":765000000000,"state":"active","ping":59},{"user_id":150,"name":"TothBrush","steam_id":76561198028254471,"connected_time":574000000000,"state":"active","ping":63},{"user_id":144,"name":"Pombley","steam_id":76561198141227263,"connected_time":759000000000,"state":"active","ping":57},{"user_id":97,"name":"Scotty","steam_id":76561198268006443,"connected_time":5185000000000,"state":"active","ping":76},{"user_id":149,"name":"Commissar","steam_id":76561198137223253,"connected_time":603000000000,"state":"active","ping":47},{"user_id":140,"name":"Snivy64","steam_id":76561198423445376,"connected_time":1566000000000,"state":"active","ping":66},{"user_id":138,"name":"BRICKHOUSE BILL","steam_id":76561198799403828,"connected_time":1722000000000,"state":"active","ping":72},{"user_id":135,"name":"Pheonix","steam_id":76561199470538309,"connected_time":1861000000000,"state":"active","ping":116},{"user_id":90,"name":"Wounded","steam_id":76561199440954924,"connected_time":5946000000000,"state":"active","ping":97},{"user_id":147,"name":"TofuCat","steam_id":76561198416746118,"connected_time":706000000000,"state":"active","ping":41},{"user_id":129,"name":"Law","steam_id":76561198169960915,"connected_time":2706000000000,"state":"active","ping":55},{"user_id":136,"name":"ghetto smosh fanclub","steam_id":76561198337692867,"connected_time":1846000000000,"state":"active","ping":98},{"user_id":148,"name":"Big McThankies From McSpankies","steam_id":76561198020516880,"connected_time":665000000000,"state":"active","ping":74},{"user_id":139,"name":"997 N State Street, Orem, Utah","steam_id":76561198285931413,"connected_time":1706000000000,"state":"active","ping":67},{"user_id":99,"name":"Bolder","steam_id":76561199061754867,"connected_time":5026000000000,"state":"active","ping":100},{"user_id":106,"name":"Scooty","steam_id":76561199119671659,"connected_time":4618000000000,"state":"active","ping":103}]},{"server_id":5,"name":"Uncletopia | Frankfurt | 1 | All Maps","name_short":"frk-1","host":"frk-1.de.uncletopia.com","port":27015,"enabled":true,"region":"eu","cc":"de","latitude":50.110924,"longitude":8.682127,"reserved":0,"last_update":"0001-01-01T00:00:00Z","name_a2s":"Uncletopia | Frankfurt | 1 | All Maps","protocol":17,"map":"pl_frontier_final","folder":"tf","game":"Team Fortress","app_id":440,"player_count":24,"max_players":24,"Bots":0,"server_type":"Dedicated","server_os":"Linux","password":true,"vac":true,"version":"7882260","steam_id":85568392924469989,"keywords":["nocrits","nodmgspread","payload","uncletopia"],"game_id":440,"stv_port":27016,"stv_name":"Uncletopia | Frankfurt | 1 | All Maps | STV","players":[{"user_id":585,"name":"Clint Eastwood","steam_id":76561198021552128,"connected_time":469000000000,"state":"active","ping":99},{"user_id":554,"name":"Ketich","steam_id":76561198021772703,"connected_time":2572000000000,"state":"active","ping":77},{"user_id":578,"name":"MILKY","steam_id":76561199261620682,"connected_time":796000000000,"state":"active","ping":84},{"user_id":583,"name":"laser","steam_id":76561198036030697,"connected_time":535000000000,"state":"active","ping":64},{"user_id":559,"name":"Obvi","steam_id":76561198088735927,"connected_time":1491000000000,"state":"active","ping":62},{"user_id":590,"name":"Hey, I¬¥m Andy!","steam_id":76561198060337777,"connected_time":76000000000,"state":"active","ping":78},{"user_id":572,"name":"Noob_with_source","steam_id":76561198870362103,"connected_time":940000000000,"state":"active","ping":60},{"user_id":543,"name":"smell_my_cheese","steam_id":76561198008517427,"connected_time":2860000000000,"state":"active","ping":72},{"user_id":556,"name":"ARTI","steam_id":76561199446989613,"connected_time":2527000000000,"state":"active","ping":73},{"user_id":570,"name":"Canis[Magnus]Pectus","steam_id":76561198363775072,"connected_time":988000000000,"state":"active","ping":125},{"user_id":558,"name":"Udinese Dion","steam_id":76561198067931573,"connected_time":1493000000000,"state":"active","ping":44},{"user_id":566,"name":"Oceanic | tuesday maybe","steam_id":76561197979741827,"connected_time":1358000000000,"state":"active","ping":69},{"user_id":561,"name":"Poltron","steam_id":76561198059972377,"connected_time":1477000000000,"state":"active","ping":70},{"user_id":562,"name":"Vitamin Weee","steam_id":76561199183937747,"connected_time":1463000000000,"state":"active","ping":82},{"user_id":575,"name":"Loptater","steam_id":76561198114928860,"connected_time":901000000000,"state":"active","ping":57},{"user_id":588,"name":"_lootgoblin_","steam_id":76561198029834199,"connected_time":109000000000,"state":"active","ping":70},{"user_id":587,"name":"Alegz","steam_id":76561198287810139,"connected_time":139000000000,"state":"active","ping":74},{"user_id":584,"name":"Vidrox #savetf2","steam_id":76561199217854983,"connected_time":487000000000,"state":"active","ping":83},{"user_id":576,"name":"what are you doing step pyro?","steam_id":76561198087919713,"connected_time":900000000000,"state":"active","ping":48},{"user_id":586,"name":"Dag!","steam_id":76561198030147941,"connected_time":400000000000,"state":"active","ping":66},{"user_id":591,"name":"Gr√∏nkj√¶r","steam_id":76561198041075280,"connected_time":66000000000,"state":"active","ping":79},{"user_id":580,"name":"Homosapien","steam_id":76561197972035953,"connected_time":653000000000,"state":"active","ping":59},{"user_id":504,"name":"Emma","steam_id":76561198076724979,"connected_time":6128000000000,"state":"active","ping":62},{"user_id":532,"name":"Rambi","steam_id":76561199058078505,"connected_time":4208000000000,"state":"active","ping":154}]},{"server_id":110,"name":"Uncletopia | Frankfurt | 2 | All Maps","name_short":"frk-2","host":"frk-1.de.uncletopia.com","port":27025,"enabled":true,"region":"eu","cc":"de","latitude":50.110924,"longitude":8.682127,"reserved":0,"last_update":"0001-01-01T00:00:00Z","name_a2s":"Uncletopia | Frankfurt | 2 | All Maps","protocol":17,"map":"koth_suijin","folder":"tf","game":"Team Fortress","app_id":440,"player_count":24,"max_players":24,"Bots":0,"server_type":"Dedicated","server_os":"Linux","password":true,"vac":true,"version":"7882260","steam_id":85568392924469990,"keywords":["cp","nocrits","nodmgspread","uncletopia"],"game_id":440,"stv_port":27026,"stv_name":"Uncletopia | Frankfurt | 2 | All Maps | STV","players":[{"user_id":272,"name":"meriones","steam_id":76561198034234373,"connected_time":2353000000000,"state":"active","ping":48},{"user_id":251,"name":"honzajspv","steam_id":76561198434476343,"connected_time":3519000000000,"state":"active","ping":36},{"user_id":313,"name":"Acanda","steam_id":76561198123246537,"connected_time":75000000000,"state":"active","ping":53},{"user_id":312,"name":"trans werewolf","steam_id":76561198107235989,"connected_time":87000000000,"state":"active","ping":64},{"user_id":315,"name":"beep!","steam_id":76561198111674607,"connected_time":50000000000,"state":"spawning","ping":2937},{"user_id":281,"name":"Tre3","steam_id":76561198054795379,"connected_time":1587000000000,"state":"active","ping":51},{"user_id":297,"name":"–î–∏d–≥–ñ_CZ","steam_id":76561198312530456,"connected_time":749000000000,"state":"active","ping":109},{"user_id":311,"name":"Astyloblatta","steam_id":76561199222909666,"connected_time":180000000000,"state":"active","ping":60},{"user_id":303,"name":"no weed","steam_id":76561199024279010,"connected_time":453000000000,"state":"active","ping":71},{"user_id":288,"name":"VORTEX(COMMS OPEN)","steam_id":76561199074746528,"connected_time":1010000000000,"state":"active","ping":64},{"user_id":249,"name":"M.Bou","steam_id":76561199097750260,"connected_time":3717000000000,"state":"active","ping":126},{"user_id":285,"name":"rmz.ssj","steam_id":76561198329613930,"connected_time":1312000000000,"state":"active","ping":63},{"user_id":306,"name":"Minister of cocks","steam_id":76561198829740342,"connected_time":398000000000,"state":"active","ping":85},{"user_id":295,"name":"BLACKBIRD CLOSE [she/her]","steam_id":76561198262910410,"connected_time":838000000000,"state":"active","ping":90},{"user_id":307,"name":"Ramzus","steam_id":76561198012385070,"connected_time":394000000000,"state":"active","ping":83},{"user_id":308,"name":"CheapMeds","steam_id":76561197990309210,"connected_time":393000000000,"state":"active","ping":85},{"user_id":277,"name":"MM Murda OFFICIAL","steam_id":76561198076871529,"connected_time":1959000000000,"state":"active","ping":47},{"user_id":178,"name":"gegit08","steam_id":76561199040010283,"connected_time":8217000000000,"state":"active","ping":86},{"user_id":273,"name":"Not Medicine Addict","steam_id":76561198806658234,"connected_time":2343000000000,"state":"active","ping":85},{"user_id":316,"name":"TeaAndPancakes","steam_id":76561199039103507,"connected_time":49000000000,"state":"active","ping":84},{"user_id":274,"name":"Regi","steam_id":76561199059431636,"connected_time":2342000000000,"state":"active","ping":131},{"user_id":299,"name":"csnipery","steam_id":76561199435280050,"connected_time":683000000000,"state":"active","ping":62},{"user_id":290,"name":"Sploof","steam_id":76561199120781765,"connected_time":1001000000000,"state":"active","ping":103},{"user_id":301,"name":"viddos","steam_id":76561198987190264,"connected_time":520000000000,"state":"active","ping":92}]},{"server_id":308,"name":"Uncletopia | Frankfurt | 3 | All Maps","name_short":"frk-3","host":"frk-1.de.uncletopia.com","port":27035,"enabled":true,"region":"eu","cc":"de","latitude":50.110924,"longitude":8.682127,"reserved":0,"last_update":"0001-01-01T00:00:00Z","name_a2s":"Uncletopia | Frankfurt | 3 | All Maps","protocol":17,"map":"pl_borneo","folder":"tf","game":"Team Fortress","app_id":440,"player_count":24,"max_players":24,"Bots":0,"server_type":"Dedicated","server_os":"Linux","password":true,"vac":true,"version":"7882260","steam_id":85568392924504274,"keywords":["nocrits","nodmgspread","payload","uncletopia"],"game_id":440,"stv_port":27036,"stv_name":"Uncletopia | Frankfurt | 3 | All Maps | STV","players":[{"user_id":204,"name":"Alfred2.2","steam_id":76561198339314744,"connected_time":1389000000000,"state":"active","ping":69},{"user_id":220,"name":"Rimx","steam_id":76561198053034840,"connected_time":25000000000,"state":"active","ping":94},{"user_id":151,"name":"theBula","steam_id":76561197981756404,"connected_time":5135000000000,"state":"active","ping":79},{"user_id":152,"name":"Master Of Noob","steam_id":76561198217926783,"connected_time":5134000000000,"state":"active","ping":64},{"user_id":181,"name":"Krefa12","steam_id":76561198268375393,"connected_time":2996000000000,"state":"active","ping":114},{"user_id":183,"name":"[mine]Feirlane","steam_id":76561198000358211,"connected_time":2719000000000,"state":"active","ping":74},{"user_id":153,"name":"REN","steam_id":76561198000596385,"connected_time":5134000000000,"state":"active","ping":77},{"user_id":210,"name":"Aleknat","steam_id":76561198055379857,"connected_time":736000000000,"state":"active","ping":65},{"user_id":77,"name":"The Grave Hunter","steam_id":76561198143586002,"connected_time":10560000000000,"state":"active","ping":71},{"user_id":173,"name":"Hat Lover","steam_id":76561198312283433,"connected_time":3750000000000,"state":"active","ping":83},{"user_id":219,"name":"Toasty5050","steam_id":76561198073540881,"connected_time":108000000000,"state":"active","ping":43},{"user_id":184,"name":"Muhammad Ali","steam_id":76561198860332998,"connected_time":2674000000000,"state":"active","ping":105},{"user_id":216,"name":"Zmora","steam_id":76561199057422095,"connected_time":159000000000,"state":"active","ping":78},{"user_id":211,"name":"Superiumentarius","steam_id":76561198081642249,"connected_time":657000000000,"state":"active","ping":45},{"user_id":186,"name":"404 bomb","steam_id":76561198115755832,"connected_time":2664000000000,"state":"active","ping":100},{"user_id":209,"name":"hshs","steam_id":76561198314562513,"connected_time":981000000000,"state":"active","ping":62},{"user_id":208,"name":"Dolcelatte","steam_id":76561198038501770,"connected_time":1304000000000,"state":"active","ping":58},{"user_id":221,"name":"System","steam_id":76561199442503973,"connected_time":14000000000,"state":"active","ping":52},{"user_id":167,"name":"HelwiiHill","steam_id":76561198066730552,"connected_time":4140000000000,"state":"active","ping":87},{"user_id":206,"name":"Znoz","steam_id":76561198012093928,"connected_time":1361000000000,"state":"active","ping":94},{"user_id":213,"name":"Doriian","steam_id":76561198071438810,"connected_time":553000000000,"state":"active","ping":82},{"user_id":190,"name":"[mine]Raichely","steam_id":76561198035919382,"connected_time":2601000000000,"state":"active","ping":73},{"user_id":217,"name":"tone","steam_id":76561197975301462,"connected_time":159000000000,"state":"active","ping":84},{"user_id":203,"name":"vdl","steam_id":76561198044583116,"connected_time":1518000000000,"state":"active","ping":140}]},{"server_id":309,"name":"Uncletopia | Frankfurt | 4 | All Maps","name_short":"frk-4","host":"frk-1.de.uncletopia.com","port":27045,"enabled":true,"region":"eu","cc":"de","latitude":50.110924,"longitude":8.682127,"reserved":0,"last_update":"0001-01-01T00:00:00Z","name_a2s":"Uncletopia | Frankfurt | 4 | All Maps","protocol":17,"map":"koth_lakeside_final","folder":"tf","game":"Team Fortress","app_id":440,"player_count":0,"max_players":24,"Bots":0,"server_type":"Dedicated","server_os":"Linux","password":true,"vac":true,"version":"7882260","steam_id":85568392924504275,"keywords":["cp","nocrits","nodmgspread","uncletopia"],"game_id":440,"stv_port":27046,"stv_name":"Uncletopia | Frankfurt | 4 | All Maps | STV","players":null},{"server_id":310,"name":"Uncletopia | Frankfurt | 5 | All Maps","name_short":"frk-5","host":"frk-1.de.uncletopia.com","port":27055,"enabled":true,"region":"eu","cc":"de","latitude":50.110924,"longitude":8.682127,"reserved":0,"last_update":"0001-01-01T00:00:00Z","name_a2s":"Uncletopia | Frankfurt | 5 | All Maps","protocol":17,"map":"cp_process_final","folder":"tf","game":"Team Fortress","app_id":440,"player_count":0,"max_players":24,"Bots":0,"server_type":"Dedicated","server_os":"Linux","password":true,"vac":true,"version":"7882260","steam_id":85568392924504277,"keywords":["cp","nocrits","nodmgspread","uncletopia"],"game_id":440,"stv_port":27056,"stv_name":"Uncletopia | Frankfurt | 5 | All Maps | STV","players":null},{"server_id":311,"name":"Uncletopia | Frankfurt | 6 | All Maps","name_short":"frk-6","host":"frk-1.de.uncletopia.com","port":27065,"enabled":true,"region":"eu","cc":"de","latitude":50.110924,"longitude":8.682127,"reserved":0,"last_update":"0001-01-01T00:00:00Z","name_a2s":"Uncletopia | Frankfurt | 6 | All Maps","protocol":17,"map":"pl_borneo","folder":"tf","game":"Team Fortress","app_id":440,"player_count":1,"max_players":24,"Bots":0,"server_type":"Dedicated","server_os":"Linux","password":true,"vac":true,"version":"7882260","steam_id":85568392924504278,"keywords":["nocrits","nodmgspread","payload","uncletopia"],"game_id":440,"stv_port":27066,"stv_name":"Uncletopia | Frankfurt | 6 | All Maps | STV","players":[{"user_id":22,"name":"Cafo","steam_id":76561198063795441,"connected_time":19000000000,"state":"active","ping":59}]},{"server_id":23,"name":"Uncletopia | Frankfurt | 7 | Stopwatch Beta","name_short":"frk-7","host":"frk-1.de.uncletopia.com","port":27075,"enabled":true,"region":"eu","cc":"de","latitude":50.110924,"longitude":8.682127,"reserved":0,"last_update":"0001-01-01T00:00:00Z","name_a2s":"Uncletopia | Frankfurt | 7 | Stopwatch Beta","protocol":17,"map":"workshop/pl_summercoast_rc8e.ugc1761528829","folder":"tf","game":"Team Fortress","app_id":440,"player_count":0,"max_players":24,"Bots":0,"server_type":"Dedicated","server_os":"Linux","password":true,"vac":true,"version":"7882260","steam_id":85568392924742827,"keywords":["nocrits","nodmgspread","payload","uncletopia"],"game_id":440,"stv_port":27076,"stv_name":"Uncletopia | Frankfurt | 7 | Stopwatch Beta | STV","players":null},{"server_id":24,"name":"Uncletopia | Frankfurt | 8 | Community","name_short":"frk-8","host":"frk-1.de.uncletopia.com","port":27085,"enabled":true,"region":"eu","cc":"de","latitude":50.110924,"longitude":8.682127,"reserved":0,"last_update":"0001-01-01T00:00:00Z","name_a2s":"Uncletopia | Frankfurt | 8 | Community","protocol":17,"map":"workshop/pl_corrode_rc2.ugc546577989","folder":"tf","game":"Team Fortress","app_id":440,"player_count":24,"max_players":24,"Bots":0,"server_type":"Dedicated","server_os":"Linux","password":true,"vac":true,"version":"7882260","steam_id":85568392924742828,"keywords":["nocrits","nodmgspread","payload","uncletopia"],"game_id":440,"stv_port":27086,"stv_name":"Uncletopia | Frankfurt | 8 | Community | STV","players":[{"user_id":198,"name":"joachym","steam_id":76561198428579761,"connected_time":1387000000000,"state":"active","ping":59},{"user_id":219,"name":"danielarmvt","steam_id":76561198799723201,"connected_time":640000000000,"state":"active","ping":184},{"user_id":127,"name":"Snd","steam_id":76561198010816408,"connected_time":5639000000000,"state":"active","ping":112},{"user_id":233,"name":"Egg","steam_id":76561199360189459,"connected_time":196000000000,"state":"active","ping":71},{"user_id":189,"name":"yosif9993","steam_id":76561199294138972,"connected_time":1974000000000,"state":"active","ping":123},{"user_id":211,"name":"hud_saytext_time 0","steam_id":76561198010327228,"connected_time":916000000000,"state":"active","ping":54},{"user_id":191,"name":"Komodor","steam_id":76561198018411621,"connected_time":1778000000000,"state":"active","ping":79},{"user_id":215,"name":"gart","steam_id":76561198203394358,"connected_time":823000000000,"state":"active","ping":93},{"user_id":217,"name":"Latapi","steam_id":76561198071239933,"connected_time":775000000000,"state":"active","ping":47},{"user_id":218,"name":"wake me up before you go-go","steam_id":76561198179324075,"connected_time":745000000000,"state":"active","ping":74},{"user_id":223,"name":"PanPatrik","steam_id":76561198293331527,"connected_time":558000000000,"state":"active","ping":59},{"user_id":226,"name":"KnugenIV","steam_id":76561198127091993,"connected_time":464000000000,"state":"active","ping":56},{"user_id":234,"name":"Farao Ramses II","steam_id":76561198078722712,"connected_time":194000000000,"state":"active","ping":48},{"user_id":206,"name":"Tweedle","steam_id":76561198160141785,"connected_time":1072000000000,"state":"active","ping":55},{"user_id":207,"name":"Big Shit","steam_id":76561198035734320,"connected_time":1066000000000,"state":"active","ping":229},{"user_id":212,"name":"Tomfool","steam_id":76561197993256481,"connected_time":866000000000,"state":"active","ping":72},{"user_id":213,"name":"Herr Prinz","steam_id":76561199081182033,"connected_time":859000000000,"state":"active","ping":63},{"user_id":235,"name":"FJADL","steam_id":76561198237008214,"connected_time":134000000000,"state":"active","ping":57},{"user_id":224,"name":"the goon","steam_id":76561199024865713,"connected_time":531000000000,"state":"active","ping":60},{"user_id":232,"name":"(can't chat)mafutbolero","steam_id":76561199233664005,"connected_time":256000000000,"state":"active","ping":71},{"user_id":228,"name":"KNARRER","steam_id":76561199130777953,"connected_time":358000000000,"state":"active","ping":55},{"user_id":159,"name":"Dandroid7","steam_id":76561198947673092,"connected_time":4471000000000,"state":"active","ping":49},{"user_id":229,"name":"i heal gay people","steam_id":76561198032167311,"connected_time":304000000000,"state":"active","ping":72},{"user_id":231,"name":"MrBanana","steam_id":76561198116021623,"connected_time":273000000000,"state":"active","ping":51}]},{"server_id":202,"name":"Uncletopia | Hong Kong | 1 | All Maps","name_short":"hgk-1","host":"hgk-1.hk.uncletopia.com","port":27015,"enabled":true,"region":"asia","cc":"hk","latitude":22.302711,"longitude":114.177216,"reserved":0,"last_update":"0001-01-01T00:00:00Z","name_a2s":"Uncletopia | Hong Kong | 1 | All Maps","protocol":17,"map":"koth_cascade","folder":"tf","game":"Team Fortress","app_id":440,"player_count":0,"max_players":24,"Bots":0,"server_type":"Dedicated","server_os":"Linux","password":true,"vac":true,"version":"7882260","steam_id":85568392924494504,"keywords":["cp","nocrits","nodmgspread","uncletopia"],"game_id":440,"stv_port":27016,"stv_name":"Uncletopia | Hong Kong | 1 | All Maps | STV","players":null},{"server_id":1,"name":"Uncletopia | Los Angeles | 1 | All Maps","name_short":"lax-1","host":"lax-1.us.uncletopia.com","port":27015,"enabled":true,"region":"us-west","cc":"us","latitude":33.94279,"longitude":-118.41004,"reserved":0,"last_update":"0001-01-01T00:00:00Z","name_a2s":"Uncletopia | Los Angeles | 1 | All Maps","protocol":17,"map":"pl_upward","folder":"tf","game":"Team Fortress","app_id":440,"player_count":22,"max_players":24,"Bots":0,"server_type":"Dedicated","server_os":"Linux","password":true,"vac":true,"version":"7882260","steam_id":85568392924469991,"keywords":["nocrits","nodmgspread","payload","uncletopia"],"game_id":440,"stv_port":27016,"stv_name":"Uncletopia | Los Angeles | 1 | All Maps | STV","players":[{"user_id":118,"name":"monkey squirts","steam_id":76561197983101644,"connected_time":379000000000,"state":"active","ping":40},{"user_id":120,"name":"MrKatz","steam_id":76561199062879180,"connected_time":198000000000,"state":"active","ping":54},{"user_id":109,"name":"[GUT] RiDiK¬Æ","steam_id":76561197969756446,"connected_time":1530000000000,"state":"active","ping":99},{"user_id":100,"name":"whiteboyst0ner1997","steam_id":76561198064558316,"connected_time":2589000000000,"state":"active","ping":56},{"user_id":124,"name":"Arcueid Brunestud","steam_id":76561197998110863,"connected_time":112000000000,"state":"active","ping":75},{"user_id":125,"name":"Genius Meme","steam_id":76561198162911254,"connected_time":101000000000,"state":"active","ping":71},{"user_id":106,"name":"Void","steam_id":76561198308290211,"connected_time":1808000000000,"state":"active","ping":64},{"user_id":113,"name":"jayzak24","steam_id":76561198354267509,"connected_time":955000000000,"state":"active","ping":45},{"user_id":126,"name":"Headmouth","steam_id":76561198019789855,"connected_time":92000000000,"state":"active","ping":182},{"user_id":127,"name":"Vortiger","steam_id":76561198275813176,"connected_time":79000000000,"state":"active","ping":70},{"user_id":31,"name":"‚ú™ Y V E S","steam_id":76561198299479796,"connected_time":6872000000000,"state":"active","ping":43},{"user_id":69,"name":"Riddle","steam_id":76561198892207399,"connected_time":5092000000000,"state":"active","ping":119},{"user_id":128,"name":"PracticalProblems","steam_id":76561198962655832,"connected_time":72000000000,"state":"active","ping":76},{"user_id":129,"name":"Nictrol","steam_id":76561198294657461,"connected_time":58000000000,"state":"active","ping":88},{"user_id":111,"name":"Market.","steam_id":76561198196219378,"connected_time":1037000000000,"state":"active","ping":54},{"user_id":119,"name":"Drakon","steam_id":76561198078210822,"connected_time":321000000000,"state":"active","ping":56},{"user_id":29,"name":"james may","steam_id":76561198043857339,"connected_time":6981000000000,"state":"active","ping":53},{"user_id":121,"name":"Nibotshooter","steam_id":76561199284825579,"connected_time":196000000000,"state":"active","ping":77},{"user_id":130,"name":"Qwerds","steam_id":76561198139150581,"connected_time":33000000000,"state":"active","ping":125},{"user_id":122,"name":"sunny","steam_id":76561198069380992,"connected_time":195000000000,"state":"active","ping":80},{"user_id":131,"name":"Laxoloni","steam_id":76561199197045700,"connected_time":31000000000,"state":"active","ping":74},{"user_id":107,"name":"Simplicity","steam_id":76561198005224796,"connected_time":1690000000000,"state":"active","ping":78}]},{"server_id":112,"name":"Uncletopia | Los Angeles | 2 | All Maps","name_short":"lax-2","host":"lax-1.us.uncletopia.com","port":27025,"enabled":true,"region":"us-west","cc":"us","latitude":33.94279,"longitude":-118.41004,"reserved":0,"last_update":"0001-01-01T00:00:00Z","name_a2s":"Uncletopia | Los Angeles | 2 | All Maps","protocol":17,"map":"pl_upward","folder":"tf","game":"Team Fortress","app_id":440,"player_count":24,"max_players":24,"Bots":0,"server_type":"Dedicated","server_os":"Linux","password":true,"vac":true,"version":"7882260","steam_id":85568392924469992,"keywords":["nocrits","nodmgspread","payload","uncletopia"],"game_id":440,"stv_port":27026,"stv_name":"Uncletopia | Los Angeles | 2 | All Maps | STV","players":[{"user_id":14,"name":"loned","steam_id":76561199180338753,"connected_time":3838000000000,"state":"active","ping":81},{"user_id":15,"name":"sleck","steam_id":76561197993068585,"connected_time":3515000000000,"state":"active","ping":41},{"user_id":17,"name":"old birb man","steam_id":76561199410269097,"connected_time":3271000000000,"state":"active","ping":107},{"user_id":59,"name":"shackles on my wings","steam_id":76561198170381402,"connected_time":1150000000000,"state":"active","ping":102},{"user_id":52,"name":"Joe Biden (Deceased)","steam_id":76561198170427507,"connected_time":1980000000000,"state":"active","ping":49},{"user_id":62,"name":"JimGrimm","steam_id":76561198044573050,"connected_time":904000000000,"state":"active","ping":118},{"user_id":22,"name":"Regular player #SaveTF2","steam_id":76561198036806850,"connected_time":2925000000000,"state":"active","ping":88},{"user_id":39,"name":"APOTATO","steam_id":76561198118199858,"connected_time":2404000000000,"state":"active","ping":46},{"user_id":54,"name":"Just a Good Friend","steam_id":76561198140052403,"connected_time":1709000000000,"state":"active","ping":50},{"user_id":26,"name":"OminousNoises","steam_id":76561198263320321,"connected_time":2670000000000,"state":"active","ping":112},{"user_id":32,"name":"r u guys going trick or treatin","steam_id":76561199074585110,"connected_time":2570000000000,"state":"active","ping":45},{"user_id":67,"name":"Whisper!","steam_id":76561198119609795,"connected_time":791000000000,"state":"active","ping":54},{"user_id":34,"name":"Drw","steam_id":76561198806642539,"connected_time":2566000000000,"state":"active","ping":108},{"user_id":69,"name":"[Bandit]","steam_id":76561197986919852,"connected_time":323000000000,"state":"active","ping":73},{"user_id":65,"name":"BasedGod","steam_id":76561198061177973,"connected_time":877000000000,"state":"active","ping":60},{"user_id":37,"name":"Mint Jelly","steam_id":76561197991286751,"connected_time":2466000000000,"state":"active","ping":95},{"user_id":61,"name":"McHarbleBarf","steam_id":76561198307393107,"connected_time":1105000000000,"state":"active","ping":108},{"user_id":56,"name":"Jayty07","steam_id":76561198078041126,"connected_time":1683000000000,"state":"active","ping":49},{"user_id":70,"name":"raduski","steam_id":76561198795699119,"connected_time":175000000000,"state":"active","ping":89},{"user_id":44,"name":"momus","steam_id":76561198966979196,"connected_time":2278000000000,"state":"active","ping":56},{"user_id":57,"name":"Pah-Wraith Gul Dukat","steam_id":76561198033918106,"connected_time":1260000000000,"state":"active","ping":47},{"user_id":71,"name":"An Unhappy Clown","steam_id":76561198175516514,"connected_time":161000000000,"state":"active","ping":80},{"user_id":49,"name":"Genderneutron","steam_id":76561199022773775,"connected_time":2152000000000,"state":"active","ping":106},{"user_id":50,"name":"TheGrayShadow","steam_id":76561198348283851,"connected_time":2114000000000,"state":"active","ping":45}]},{"server_id":324,"name":"Uncletopia | Los Angeles | 3 | All Maps","name_short":"lax-3","host":"lax-1.us.uncletopia.com","port":27035,"enabled":true,"region":"us-west","cc":"us","latitude":33.94279,"longitude":-118.41004,"reserved":0,"last_update":"0001-01-01T00:00:00Z","name_a2s":"Uncletopia | Los Angeles | 3 | All Maps","protocol":17,"map":"koth_lakeside_final","folder":"tf","game":"Team Fortress","app_id":440,"player_count":5,"max_players":24,"Bots":0,"server_type":"Dedicated","server_os":"Linux","password":true,"vac":true,"version":"7882260","steam_id":85568392924510198,"keywords":["cp","nocrits","nodmgspread","uncletopia"],"game_id":440,"stv_port":27036,"stv_name":"Uncletopia | Los Angeles | 3 | All Maps | STV","players":[{"user_id":5,"name":"Sumtingwong","steam_id":76561198154503584,"connected_time":1063000000000,"state":"active","ping":87},{"user_id":6,"name":"demo gaming!","steam_id":76561198397708640,"connected_time":1044000000000,"state":"active","ping":41},{"user_id":12,"name":"I shat my pants","steam_id":76561199149875644,"connected_time":199000000000,"state":"active","ping":246},{"user_id":8,"name":"professional twelve year old","steam_id":76561198858796870,"connected_time":420000000000,"state":"active","ping":72},{"user_id":9,"name":"Turnabout","steam_id":76561198027378787,"connected_time":334000000000,"state":"active","ping":47}]},{"server_id":25,"name":"Uncletopia | Los Angeles | 4 | Stopwatch Beta","name_short":"lax-4","host":"lax-1.us.uncletopia.com","port":27045,"enabled":true,"region":"us-west","cc":"us","latitude":33.94279,"longitude":-118.41004,"reserved":0,"last_update":"0001-01-01T00:00:00Z","name_a2s":"Uncletopia | Los Angeles | 4 | Stopwatch Beta","protocol":17,"map":"workshop/pl_barnblitz_pro7.ugc582280235","folder":"tf","game":"Team Fortress","app_id":440,"player_count":0,"max_players":24,"Bots":0,"server_type":"Dedicated","server_os":"Linux","password":true,"vac":true,"version":"7882260","steam_id":85568392924510199,"keywords":["nocrits","nodmgspread","payload","uncletopia"],"game_id":440,"stv_port":27046,"stv_name":"Uncletopia | Los Angeles | 4 | Stopwatch Beta | STV","players":null},{"server_id":11,"name":"Uncletopia | London | 1 | All Maps","name_short":"lon-1","host":"lon-1.uk.uncletopia.com","port":27015,"enabled":true,"region":"eu","cc":"gb","latitude":51.509865,"longitude":-0.118092,"reserved":0,"last_update":"0001-01-01T00:00:00Z","name_a2s":"Uncletopia | London | 1 | All Maps","protocol":17,"map":"pl_badwater","folder":"tf","game":"Team Fortress","app_id":440,"player_count":24,"max_players":24,"Bots":0,"server_type":"Dedicated","server_os":"Linux","password":true,"vac":true,"version":"7882260","steam_id":85568392924367362,"keywords":["nocrits","nodmgspread","payload","uncletopia"],"game_id":440,"stv_port":27016,"stv_name":"Uncletopia | London | 1 | All Maps | STV","players":[{"user_id":326,"name":"MuffinMat","steam_id":76561198963850297,"connected_time":547000000000,"state":"active","ping":70},{"user_id":324,"name":"Open Mailbox","steam_id":76561198051933580,"connected_time":672000000000,"state":"active","ping":143},{"user_id":198,"name":"dec","steam_id":76561198009660168,"connected_time":10092000000000,"state":"active","ping":59},{"user_id":278,"name":"OxygeNxo","steam_id":76561198031632028,"connected_time":3964000000000,"state":"active","ping":57},{"user_id":304,"name":"YuraGreek","steam_id":76561198050182252,"connected_time":2152000000000,"state":"active","ping":90},{"user_id":328,"name":"jimmy bob","steam_id":76561198319583692,"connected_time":534000000000,"state":"active","ping":60},{"user_id":305,"name":"Real photograph of me","steam_id":76561198236015392,"connected_time":1923000000000,"state":"active","ping":120},{"user_id":307,"name":"LivEssense","steam_id":76561198052476979,"connected_time":1771000000000,"state":"active","ping":97},{"user_id":332,"name":"ScaryTree","steam_id":76561199384362833,"connected_time":212000000000,"state":"active","ping":52},{"user_id":296,"name":"J3LLY","steam_id":76561198048453764,"connected_time":2865000000000,"state":"active","ping":46},{"user_id":284,"name":"finbar","steam_id":76561198056812396,"connected_time":3683000000000,"state":"active","ping":115},{"user_id":262,"name":"Maridor","steam_id":76561199094592508,"connected_time":4750000000000,"state":"active","ping":76},{"user_id":300,"name":"Son Goku","steam_id":76561199383437138,"connected_time":2406000000000,"state":"active","ping":126},{"user_id":327,"name":"addicted","steam_id":76561199129801006,"connected_time":538000000000,"state":"active","ping":54},{"user_id":310,"name":"Zank Frappa","steam_id":76561199227624104,"connected_time":1743000000000,"state":"active","ping":69},{"user_id":272,"name":"Sodsboy","steam_id":76561198030482006,"connected_time":4124000000000,"state":"active","ping":47},{"user_id":285,"name":"LeonIsMooi","steam_id":76561198041524085,"connected_time":3669000000000,"state":"active","ping":63},{"user_id":331,"name":"Soph","steam_id":76561198131688853,"connected_time":349000000000,"state":"active","ping":47},{"user_id":321,"name":"Providence","steam_id":76561198003920270,"connected_time":961000000000,"state":"active","ping":69},{"user_id":329,"name":"Mugi","steam_id":76561197999353433,"connected_time":503000000000,"state":"active","ping":66},{"user_id":288,"name":"SpaceCees","steam_id":76561198128756659,"connected_time":3495000000000,"state":"active","ping":58},{"user_id":302,"name":"SlowMode","steam_id":76561198039631442,"connected_time":2376000000000,"state":"active","ping":89},{"user_id":280,"name":"PEPSI POWERED MAN","steam_id":76561198362668431,"connected_time":3893000000000,"state":"active","ping":173},{"user_id":333,"name":"pepper","steam_id":76561198059782462,"connected_time":85000000000,"state":"active","ping":60}]},{"server_id":114,"name":"Uncletopia | London | 2 | All Maps","name_short":"lon-2","host":"lon-1.uk.uncletopia.com","port":27025,"enabled":true,"region":"eu","cc":"gb","latitude":51.509865,"longitude":-0.118092,"reserved":0,"last_update":"0001-01-01T00:00:00Z","name_a2s":"Uncletopia | London | 2 | All Maps","protocol":17,"map":"cp_dustbowl","folder":"tf","game":"Team Fortress","app_id":440,"player_count":24,"max_players":24,"Bots":0,"server_type":"Dedicated","server_os":"Linux","password":true,"vac":true,"version":"7882260","steam_id":85568392924470941,"keywords":["cp","nocrits","nodmgspread","uncletopia"],"game_id":440,"stv_port":27026,"stv_name":"Uncletopia | London | 2 | All Maps | STV","players":[{"user_id":732,"name":"I no longer have a headache!","steam_id":76561198243275046,"connected_time":396000000000,"state":"active","ping":56},{"user_id":708,"name":"Sipsu","steam_id":76561198059424107,"connected_time":2072000000000,"state":"active","ping":82},{"user_id":734,"name":"WeeFatPie","steam_id":76561198188250018,"connected_time":333000000000,"state":"active","ping":57},{"user_id":745,"name":"Trendyboy","steam_id":76561197994908436,"connected_time":94000000000,"state":"active","ping":76},{"user_id":733,"name":"Marqeye","steam_id":76561198890330517,"connected_time":394000000000,"state":"active","ping":75},{"user_id":706,"name":"Imnotreal_fake","steam_id":76561199190401938,"connected_time":2134000000000,"state":"active","ping":74},{"user_id":748,"name":"cat","steam_id":76561198832231975,"connected_time":9000000000,"state":"active","ping":130},{"user_id":694,"name":"night.s","steam_id":76561198326287823,"connected_time":2703000000000,"state":"active","ping":83},{"user_id":729,"name":"Big Knoxy","steam_id":76561198291107227,"connected_time":626000000000,"state":"active","ping":69},{"user_id":747,"name":"British Disapproval","steam_id":76561198001375260,"connected_time":48000000000,"state":"active","ping":52},{"user_id":683,"name":"Open Salami","steam_id":76561198351223374,"connected_time":3586000000000,"state":"active","ping":79},{"user_id":735,"name":"differential 1-form","steam_id":76561198152138707,"connected_time":331000000000,"state":"active","ping":45},{"user_id":709,"name":"gnarly business","steam_id":76561198832688767,"connected_time":2047000000000,"state":"active","ping":51},{"user_id":722,"name":"Raulca25","steam_id":76561199068256964,"connected_time":1030000000000,"state":"active","ping":82},{"user_id":684,"name":"s a i","steam_id":76561197970379754,"connected_time":3541000000000,"state":"active","ping":61},{"user_id":715,"name":"Spectre","steam_id":76561198163819482,"connected_time":1961000000000,"state":"active","ping":70},{"user_id":736,"name":"spake","steam_id":76561198109247682,"connected_time":293000000000,"state":"active","ping":49},{"user_id":737,"name":"clunk","steam_id":76561198836460767,"connected_time":273000000000,"state":"active","ping":75},{"user_id":738,"name":"Miedzan","steam_id":76561198405250516,"connected_time":266000000000,"state":"active","ping":88},{"user_id":749,"name":"Astolfo","steam_id":76561198354584982,"connected_time":8000000000,"state":"spawning","ping":75},{"user_id":743,"name":"P a n e t t o n e","steam_id":76561198276294340,"connected_time":184000000000,"state":"active","ping":60},{"user_id":717,"name":"xiiski","steam_id":76561198152387747,"connected_time":1801000000000,"state":"active","ping":98},{"user_id":741,"name":"G6 sherlock","steam_id":76561198802967796,"connected_time":244000000000,"state":"active","ping":115},{"user_id":744,"name":"Vermilion. -ÁßÅ„ÇíÂºï„ÅçÂèó„Åë\ufffd","steam_id":76561198050555372,"connected_time":184000000000,"state":"active","ping":57}]},{"server_id":320,"name":"Uncletopia | London | 3 | All Maps","name_short":"lon-3","host":"lon-1.uk.uncletopia.com","port":27035,"enabled":true,"region":"eu","cc":"gb","latitude":51.509865,"longitude":-0.118092,"reserved":0,"last_update":"0001-01-01T00:00:00Z","name_a2s":"Uncletopia | London | 3 | All Maps","protocol":17,"map":"cp_snakewater_final1","folder":"tf","game":"Team Fortress","app_id":440,"player_count":24,"max_players":24,"Bots":0,"server_type":"Dedicated","server_os":"Linux","password":true,"vac":true,"version":"7882260","steam_id":85568392924510192,"keywords":["cp","nocrits","nodmgspread","uncletopia"],"game_id":440,"stv_port":27036,"stv_name":"Uncletopia | London | 3 | All Maps | STV","players":[{"user_id":401,"name":"two beers.","steam_id":76561198221391096,"connected_time":2038000000000,"state":"active","ping":54},{"user_id":405,"name":"[√âire] Hype!","steam_id":76561198061449287,"connected_time":1417000000000,"state":"active","ping":55},{"user_id":414,"name":"TheBeardedM1G","steam_id":76561198040208946,"connected_time":1145000000000,"state":"active","ping":47},{"user_id":388,"name":"M«ø≈ü≈¶Œµ≈ó_√ü≈ÇŒª√ßƒõ","steam_id":76561197980124891,"connected_time":3378000000000,"state":"active","ping":59},{"user_id":295,"name":"dash.","steam_id":76561198084796149,"connected_time":10027000000000,"state":"active","ping":45},{"user_id":415,"name":"wibe","steam_id":76561198002519060,"connected_time":1142000000000,"state":"active","ping":78},{"user_id":400,"name":"KeTlEr","steam_id":76561198100957443,"connected_time":2247000000000,"state":"active","ping":75},{"user_id":408,"name":"dimitrij_6ix_god","steam_id":76561199023275543,"connected_time":1388000000000,"state":"active","ping":89},{"user_id":409,"name":"K.V. #RemoveRandomCrits","steam_id":76561197994832993,"connected_time":1381000000000,"state":"active","ping":86},{"user_id":418,"name":"konyacanavarƒ±69","steam_id":76561198217273235,"connected_time":250000000000,"state":"active","ping":76},{"user_id":384,"name":"f√©nix","steam_id":76561198083199151,"connected_time":3433000000000,"state":"active","ping":60},{"user_id":410,"name":"Cakebird","steam_id":76561198085846289,"connected_time":1373000000000,"state":"active","ping":55},{"user_id":419,"name":"ImBread","steam_id":76561198347426531,"connected_time":94000000000,"state":"active","ping":57},{"user_id":417,"name":"h","steam_id":76561198273551016,"connected_time":594000000000,"state":"active","ping":74},{"user_id":389,"name":"Abigor","steam_id":76561197969316578,"connected_time":3370000000000,"state":"active","ping":60},{"user_id":386,"name":"Slowbro","steam_id":76561198010779146,"connected_time":3422000000000,"state":"active","ping":87},{"user_id":324,"name":"based tryhard","steam_id":76561198084470380,"connected_time":8393000000000,"state":"active","ping":62},{"user_id":380,"name":"los jeezos","steam_id":76561198123592400,"connected_time":3888000000000,"state":"active","ping":97},{"user_id":325,"name":"putrid weasel","steam_id":76561198012955043,"connected_time":8393000000000,"state":"active","ping":49},{"user_id":404,"name":"Dr. Funkenstein","steam_id":76561197977816210,"connected_time":1907000000000,"state":"active","ping":49},{"user_id":368,"name":"Dog ?","steam_id":76561198347020945,"connected_time":4503000000000,"state":"active","ping":95},{"user_id":396,"name":"Amy2Cute","steam_id":76561198291015553,"connected_time":2397000000000,"state":"active","ping":54},{"user_id":397,"name":"Cirox","steam_id":76561198383142404,"connected_time":2339000000000,"state":"active","ping":91},{"user_id":369,"name":"DocTwoEight","steam_id":76561198153488940,"connected_time":4501000000000,"state":"active","ping":89}]},{"server_id":321,"name":"Uncletopia | London | 4 | All Maps","name_short":"lon-4","host":"lon-1.uk.uncletopia.com","port":27045,"enabled":true,"region":"eu","cc":"gb","latitude":51.509865,"longitude":-0.118092,"reserved":0,"last_update":"0001-01-01T00:00:00Z","name_a2s":"Uncletopia | London | 4 | All Maps","protocol":17,"map":"pl_barnblitz","folder":"tf","game":"Team Fortress","app_id":440,"player_count":24,"max_players":24,"Bots":0,"server_type":"Dedicated","server_os":"Linux","password":true,"vac":true,"version":"7882260","steam_id":85568392924510193,"keywords":["nocrits","nodmgspread","payload","uncletopia"],"game_id":440,"stv_port":27046,"stv_name":"Uncletopia | London | 4 | All Maps | STV","players":[{"user_id":250,"name":"neophyte78","steam_id":76561198010009076,"connected_time":969000000000,"state":"active","ping":55},{"user_id":168,"name":"Femgineer","steam_id":76561198975667801,"connected_time":5831000000000,"state":"active","ping":56},{"user_id":242,"name":"Literally a Trans Woman","steam_id":76561198054639925,"connected_time":1382000000000,"state":"active","ping":120},{"user_id":243,"name":"Irdi","steam_id":76561198357322167,"connected_time":1381000000000,"state":"active","ping":36},{"user_id":256,"name":"Juan.Razmirez 2009","steam_id":76561198111223729,"connected_time":426000000000,"state":"active","ping":46},{"user_id":210,"name":"Zerfesh","steam_id":76561198117534358,"connected_time":3599000000000,"state":"active","ping":98},{"user_id":244,"name":"·≤º·≤º·≤º·≤º","steam_id":76561198295305088,"connected_time":1342000000000,"state":"active","ping":63},{"user_id":264,"name":"–ñ—ã–≤–µ –ë–µ–ª–∞—Ä—É—Å—å!","steam_id":76561199293036742,"connected_time":204000000000,"state":"active","ping":63},{"user_id":167,"name":"Dispenser(Dispenser)","steam_id":76561199211831658,"connected_time":5888000000000,"state":"active","ping":57},{"user_id":258,"name":"F","steam_id":76561199149462792,"connected_time":399000000000,"state":"active","ping":60},{"user_id":251,"name":"Making Coffee","steam_id":76561198138281039,"connected_time":944000000000,"state":"active","ping":78},{"user_id":213,"name":"Crunchips","steam_id":76561198004336818,"connected_time":3490000000000,"state":"active","ping":106},{"user_id":262,"name":"unconditional love","steam_id":76561199026097466,"connected_time":328000000000,"state":"active","ping":80},{"user_id":259,"name":"Volky","steam_id":76561199027614048,"connected_time":388000000000,"state":"active","ping":75},{"user_id":173,"name":"Walle","steam_id":76561197995148937,"connected_time":5782000000000,"state":"active","ping":79},{"user_id":246,"name":"Foo.","steam_id":76561198000013666,"connected_time":1315000000000,"state":"active","ping":70},{"user_id":233,"name":"doopsuiker","steam_id":76561198025916703,"connected_time":1983000000000,"state":"active","ping":96},{"user_id":252,"name":"NOTWALTER","steam_id":76561198125464744,"connected_time":702000000000,"state":"active","ping":130},{"user_id":260,"name":"quickfast","steam_id":76561199438900919,"connected_time":380000000000,"state":"active","ping":44},{"user_id":254,"name":"Meduzor","steam_id":76561198214669983,"connected_time":594000000000,"state":"active","ping":116},{"user_id":240,"name":"The Bread Bringer","steam_id":76561198264079743,"connected_time":1756000000000,"state":"active","ping":49},{"user_id":261,"name":"Pearl","steam_id":76561199102728216,"connected_time":357000000000,"state":"active","ping":96},{"user_id":228,"name":"Milk","steam_id":76561198125876588,"connected_time":2222000000000,"state":"active","ping":45},{"user_id":263,"name":"Stoneley","steam_id":76561199182443625,"connected_time":321000000000,"state":"active","ping":66}]},{"server_id":21,"name":"Uncletopia | London | 5 | All Maps","name_short":"lon-5","host":"lon-1.uk.uncletopia.com","port":27055,"enabled":true,"region":"eu","cc":"gb","latitude":51.509865,"longitude":-0.118092,"reserved":0,"last_update":"0001-01-01T00:00:00Z","name_a2s":"Uncletopia | London | 5 | All Maps","protocol":17,"map":"pl_pier","folder":"tf","game":"Team Fortress","app_id":440,"player_count":24,"max_players":24,"Bots":0,"server_type":"Dedicated","server_os":"Linux","password":true,"vac":true,"version":"7882260","steam_id":85568392924742829,"keywords":["nocrits","nodmgspread","payload","uncletopia"],"game_id":440,"stv_port":27056,"stv_name":"Uncletopia | London | 5 | All Maps | STV","players":[{"user_id":508,"name":"Ohad","steam_id":76561198067989324,"connected_time":2691000000000,"state":"active","ping":119},{"user_id":556,"name":"moseley519","steam_id":76561198045485374,"connected_time":123000000000,"state":"active","ping":46},{"user_id":499,"name":"After8","steam_id":76561198090750865,"connected_time":3599000000000,"state":"active","ping":75},{"user_id":512,"name":"Vanilla","steam_id":76561198073933435,"connected_time":2439000000000,"state":"active","ping":51},{"user_id":531,"name":"Hedge Knight","steam_id":76561198989449047,"connected_time":1334000000000,"state":"active","ping":127},{"user_id":543,"name":"cosmetical","steam_id":76561198444036574,"connected_time":670000000000,"state":"active","ping":62},{"user_id":546,"name":"DOMAIN","steam_id":76561199095640319,"connected_time":451000000000,"state":"active","ping":94},{"user_id":516,"name":"K4ne","steam_id":76561198362544562,"connected_time":2179000000000,"state":"active","ping":79},{"user_id":478,"name":"Zizman","steam_id":76561198446562910,"connected_time":5243000000000,"state":"active","ping":139},{"user_id":554,"name":"ramirez","steam_id":76561198117060048,"connected_time":239000000000,"state":"active","ping":65},{"user_id":557,"name":"Brian","steam_id":76561198077756206,"connected_time":90000000000,"state":"active","ping":43},{"user_id":511,"name":"Rubi","steam_id":76561198139410003,"connected_time":2466000000000,"state":"active","ping":88},{"user_id":539,"name":"Someone","steam_id":76561199030195879,"connected_time":889000000000,"state":"active","ping":47},{"user_id":548,"name":"dongus","steam_id":76561198042774930,"connected_time":424000000000,"state":"active","ping":71},{"user_id":527,"name":"BELADIT","steam_id":76561198011911501,"connected_time":1589000000000,"state":"active","ping":81},{"user_id":544,"name":"thatCerv","steam_id":76561198037798308,"connected_time":550000000000,"state":"active","ping":58},{"user_id":522,"name":"Hocus the Squat","steam_id":76561198230607328,"connected_time":1999000000000,"state":"active","ping":58},{"user_id":538,"name":"Egor Pomidor","steam_id":76561199175688390,"connected_time":1055000000000,"state":"active","ping":87},{"user_id":550,"name":"‰∫∫Á®ÆÂ∑ÆÂà•‰∏ªÁæ©ËÄÖ","steam_id":76561199071936222,"connected_time":354000000000,"state":"active","ping":83},{"user_id":479,"name":"ALARM","steam_id":76561198120686521,"connected_time":5224000000000,"state":"active","ping":66},{"user_id":520,"name":"svantezch","steam_id":76561198373831657,"connected_time":2106000000000,"state":"active","ping":76},{"user_id":551,"name":"lulu","steam_id":76561199147764133,"connected_time":333000000000,"state":"active","ping":83},{"user_id":530,"name":"TheKingDuck","steam_id":76561198058389343,"connected_time":1412000000000,"state":"active","ping":73},{"user_id":534,"name":"zvekan","steam_id":76561198381101196,"connected_time":1282000000000,"state":"active","ping":76}]},{"server_id":22,"name":"Uncletopia | London | 6 | All Maps","name_short":"lon-6","host":"lon-1.uk.uncletopia.com","port":27065,"enabled":true,"region":"eu","cc":"gb","latitude":51.509865,"longitude":-0.118092,"reserved":0,"last_update":"0001-01-01T00:00:00Z","name_a2s":"Uncletopia | London | 6 | All Maps","protocol":17,"map":"pl_frontier_final","folder":"tf","game":"Team Fortress","app_id":440,"player_count":21,"max_players":24,"Bots":0,"server_type":"Dedicated","server_os":"Linux","password":true,"vac":true,"version":"7882260","steam_id":85568392924742830,"keywords":["nocrits","nodmgspread","payload","uncletopia"],"game_id":440,"stv_port":27066,"stv_name":"Uncletopia | London | 6 | All Maps | STV","players":[{"user_id":522,"name":"ijustsmokeandcry","steam_id":76561198044189114,"connected_time":1227000000000,"state":"active","ping":63},{"user_id":515,"name":"Charmedelf","steam_id":76561197993611881,"connected_time":1685000000000,"state":"active","ping":60},{"user_id":553,"name":"Xx_EpicGaymer_xX","steam_id":76561198846784757,"connected_time":436000000000,"state":"active","ping":62},{"user_id":530,"name":"Big Benn","steam_id":76561199024168373,"connected_time":898000000000,"state":"active","ping":56},{"user_id":516,"name":"D0kai","steam_id":76561198389271720,"connected_time":1683000000000,"state":"active","ping":51},{"user_id":483,"name":"---","steam_id":76561198092283741,"connected_time":4079000000000,"state":"active","ping":72},{"user_id":551,"name":"Watermelon","steam_id":76561198078349914,"connected_time":476000000000,"state":"active","ping":45},{"user_id":548,"name":"Echs Dee","steam_id":76561198358258016,"connected_time":626000000000,"state":"active","ping":113},{"user_id":491,"name":"Rez","steam_id":76561198410598772,"connected_time":3189000000000,"state":"active","ping":50},{"user_id":517,"name":"Adolf gayming","steam_id":76561198830058797,"connected_time":1672000000000,"state":"active","ping":90},{"user_id":554,"name":"Wuffington","steam_id":76561198033762881,"connected_time":394000000000,"state":"active","ping":40},{"user_id":556,"name":"Kohbold","steam_id":76561198996480140,"connected_time":283000000000,"state":"active","ping":209},{"user_id":519,"name":"tete","steam_id":76561198045222850,"connected_time":1404000000000,"state":"active","ping":68},{"user_id":555,"name":"Coinc√© entre deux nichons","steam_id":76561198000866783,"connected_time":364000000000,"state":"active","ping":41},{"user_id":498,"name":"vadim_kotler","steam_id":76561199016634369,"connected_time":2940000000000,"state":"active","ping":116},{"user_id":525,"name":"Eggie","steam_id":76561199018655610,"connected_time":1144000000000,"state":"active","ping":121},{"user_id":557,"name":"Apocrypha","steam_id":76561198071551773,"connected_time":257000000000,"state":"active","ping":99},{"user_id":538,"name":"20BB Raxor","steam_id":76561198239927434,"connected_time":840000000000,"state":"active","ping":77},{"user_id":539,"name":"smk","steam_id":76561198068027379,"connected_time":837000000000,"state":"active","ping":75},{"user_id":518,"name":"silicon based life form","steam_id":76561199127121346,"connected_time":1660000000000,"state":"active","ping":53},{"user_id":549,"name":"The Punch","steam_id":76561198212488780,"connected_time":617000000000,"state":"active","ping":70}]},{"server_id":40,"name":"Uncletopia | London | 7 | No Payload","name_short":"lon-7","host":"lon-1.uk.uncletopia.com","port":27075,"enabled":true,"region":"eu","cc":"gb","latitude":51.509865,"longitude":-0.118092,"reserved":0,"last_update":"0001-01-01T00:00:00Z","name_a2s":"Uncletopia | London | 7 | No Payload","protocol":17,"map":"cp_steel","folder":"tf","game":"Team Fortress","app_id":440,"player_count":24,"max_players":24,"Bots":0,"server_type":"Dedicated","server_os":"Linux","password":true,"vac":true,"version":"7882260","steam_id":85568392924964314,"keywords":["cp","nocrits","nodmgspread","uncletopia"],"game_id":440,"stv_port":27076,"stv_name":"Uncletopia | London | 7 | No Payload | STV","players":[{"user_id":395,"name":"Pinkchup","steam_id":76561198106802803,"connected_time":950000000000,"state":"active","ping":90},{"user_id":281,"name":"FATTY","steam_id":76561198087962709,"connected_time":6459000000000,"state":"active","ping":80},{"user_id":390,"name":"Minimi","steam_id":76561198873850443,"connected_time":1246000000000,"state":"active","ping":37},{"user_id":402,"name":"‚ô• Emma ‚ô•","steam_id":76561198046796406,"connected_time":742000000000,"state":"active","ping":59},{"user_id":289,"name":"ARABACIYOKKI","steam_id":76561198928074216,"connected_time":5736000000000,"state":"active","ping":116},{"user_id":387,"name":"G√©n√©ral Crevette","steam_id":76561198043949133,"connected_time":1452000000000,"state":"active","ping":70},{"user_id":403,"name":"Sebab","steam_id":76561198122706821,"connected_time":710000000000,"state":"active","ping":57},{"user_id":401,"name":"yer_nerd","steam_id":76561199435454093,"connected_time":780000000000,"state":"active","ping":131},{"user_id":409,"name":"‚ô• Mohammed ‚ô•","steam_id":76561198043836847,"connected_time":129000000000,"state":"active","ping":75},{"user_id":408,"name":"obscure","steam_id":76561198119532381,"connected_time":316000000000,"state":"active","ping":52},{"user_id":346,"name":"Envy","steam_id":76561198132723219,"connected_time":3175000000000,"state":"active","ping":111},{"user_id":363,"name":"Mr. Shadow | Folfie","steam_id":76561198037028507,"connected_time":2585000000000,"state":"active","ping":70},{"user_id":393,"name":"Gordon","steam_id":76561198303652059,"connected_time":1126000000000,"state":"active","ping":95},{"user_id":398,"name":"ThatGamingKiwi","steam_id":76561199170522237,"connected_time":844000000000,"state":"active","ping":151},{"user_id":364,"name":"Turbo","steam_id":76561197973697756,"connected_time":2475000000000,"state":"active","ping":46},{"user_id":352,"name":"M2rtRa","steam_id":76561198111036466,"connected_time":2914000000000,"state":"active","ping":81},{"user_id":365,"name":"Spurt","steam_id":76561198078523852,"connected_time":2469000000000,"state":"active","ping":46},{"user_id":383,"name":"wise ukrainian shaman","steam_id":76561198989398023,"connected_time":1490000000000,"state":"active","ping":115},{"user_id":384,"name":"MayTheFennec","steam_id":76561198859299567,"connected_time":1466000000000,"state":"active","ping":164},{"user_id":404,"name":"Dave The Sloth","steam_id":76561199135831355,"connected_time":689000000000,"state":"active","ping":65},{"user_id":311,"name":"big poo","steam_id":76561199088284199,"connected_time":5039000000000,"state":"active","ping":67},{"user_id":406,"name":"Goose of Wisdom","steam_id":76561198233465044,"connected_time":567000000000,"state":"active","ping":143},{"user_id":354,"name":"FUKAYU","steam_id":76561198380484033,"connected_time":2892000000000,"state":"active","ping":53},{"user_id":314,"name":"Penis Contortionist","steam_id":76561198073663784,"connected_time":4951000000000,"state":"active","ping":39}]},{"server_id":41,"name":"Uncletopia | London | 8 | Community","name_short":"lon-8","host":"lon-1.uk.uncletopia.com","port":27085,"enabled":true,"region":"eu","cc":"gb","latitude":51.509865,"longitude":-0.118092,"reserved":0,"last_update":"0001-01-01T00:00:00Z","name_a2s":"Uncletopia | London | 8 | Community","protocol":17,"map":"workshop/koth_trenchfoot_b1a.ugc731436616","folder":"tf","game":"Team Fortress","app_id":440,"player_count":0,"max_players":24,"Bots":0,"server_type":"Dedicated","server_os":"Linux","password":true,"vac":true,"version":"7882260","steam_id":85568392924964315,"keywords":["cp","nocrits","nodmgspread","uncletopia"],"game_id":440,"stv_port":27086,"stv_name":"Uncletopia | London | 8 | Community | STV","players":null},{"server_id":300,"name":"Uncletopia | Montr√©al | 1 | All Maps","name_short":"mtl-1","host":"mtl-1.ca.uncletopia.com","port":27015,"enabled":true,"region":"us-east","cc":"ca","latitude":45.50889,"longitude":-73.56167,"reserved":0,"last_update":"0001-01-01T00:00:00Z","name_a2s":"Uncletopia | Montr√©al | 1 | All Maps","protocol":17,"map":"pl_upward","folder":"tf","game":"Team Fortress","app_id":440,"player_count":0,"max_players":24,"Bots":0,"server_type":"Dedicated","server_os":"Linux","password":true,"vac":true,"version":"7882260","steam_id":85568392924500087,"keywords":["nocrits","nodmgspread","payload","uncletopia"],"game_id":440,"stv_port":27016,"stv_name":"Uncletopia | Montr√©al | 1 | All Maps | STV","players":null},{"server_id":301,"name":"Uncletopia | Montr√©al | 2 | All Maps","name_short":"mtl-2","host":"mtl-1.ca.uncletopia.com","port":27025,"enabled":true,"region":"us-east","cc":"ca","latitude":45.50889,"longitude":-73.56167,"reserved":0,"last_update":"0001-01-01T00:00:00Z","name_a2s":"Uncletopia | Montr√©al | 2 | All Maps","protocol":17,"map":"cp_sunshine","folder":"tf","game":"Team Fortress","app_id":440,"player_count":0,"max_players":24,"Bots":0,"server_type":"Dedicated","server_os":"Linux","password":true,"vac":true,"version":"7882260","steam_id":85568392924500088,"keywords":["cp","nocrits","nodmgspread","uncletopia"],"game_id":440,"stv_port":27026,"stv_name":"Uncletopia | Montr√©al | 2 | All Maps | STV","players":null},{"server_id":302,"name":"Uncletopia | Montr√©al | 3 | All Maps","name_short":"mtl-3","host":"mtl-1.ca.uncletopia.com","port":27035,"enabled":true,"region":"us-east","cc":"ca","latitude":45.50889,"longitude":-73.56167,"reserved":0,"last_update":"0001-01-01T00:00:00Z","name_a2s":"Uncletopia | Montr√©al | 3 | All Maps","protocol":17,"map":"cp_sunshine","folder":"tf","game":"Team Fortress","app_id":440,"player_count":0,"max_players":24,"Bots":0,"server_type":"Dedicated","server_os":"Linux","password":true,"vac":true,"version":"7882260","steam_id":85568392924500089,"keywords":["cp","nocrits","nodmgspread","uncletopia"],"game_id":440,"stv_port":27036,"stv_name":"Uncletopia | Montr√©al | 3 | All Maps | STV","players":null},{"server_id":303,"name":"Uncletopia | Montr√©al | 4 | No Payload","name_short":"mtl-4","host":"mtl-1.ca.uncletopia.com","port":27045,"enabled":true,"region":"us-east","cc":"ca","latitude":45.50889,"longitude":-73.56167,"reserved":0,"last_update":"0001-01-01T00:00:00Z","name_a2s":"Uncletopia | Montr√©al | 4 | No Payload","protocol":17,"map":"cp_dustbowl","folder":"tf","game":"Team Fortress","app_id":440,"player_count":0,"max_players":24,"Bots":0,"server_type":"Dedicated","server_os":"Linux","password":true,"vac":true,"version":"7882260","steam_id":85568392924500090,"keywords":["cp","nocrits","nodmgspread","uncletopia"],"game_id":440,"stv_port":27046,"stv_name":"Uncletopia | Montr√©al | 4 | No Payload | STV","players":null},{"server_id":13,"name":"Uncletopia | New York City | 1 | All Maps","name_short":"nyc-1","host":"nyc-1.us.uncletopia.com","port":27015,"enabled":true,"region":"us-east","cc":"us","latitude":40.73061,"longitude":-73.93524,"reserved":0,"last_update":"0001-01-01T00:00:00Z","name_a2s":"Uncletopia | New York City | 1 | All Maps","protocol":17,"map":"pl_upward","folder":"tf","game":"Team Fortress","app_id":440,"player_count":24,"max_players":24,"Bots":0,"server_type":"Dedicated","server_os":"Linux","password":true,"vac":true,"version":"7882260","steam_id":85568392924469993,"keywords":["nocrits","nodmgspread","payload","uncletopia"],"game_id":440,"stv_port":27016,"stv_name":"Uncletopia | New York City | 1 | All Maps | STV","players":[{"user_id":234,"name":"F0restFerret","steam_id":76561199112458876,"connected_time":562000000000,"state":"active","ping":51},{"user_id":245,"name":"Don't ask me to talk","steam_id":76561199388826335,"connected_time":181000000000,"state":"active","ping":59},{"user_id":235,"name":"10KO!","steam_id":76561199134895220,"connected_time":555000000000,"state":"active","ping":54},{"user_id":188,"name":"retinz","steam_id":76561198135563495,"connected_time":5593000000000,"state":"active","ping":53},{"user_id":214,"name":"Heropon","steam_id":76561198105224481,"connected_time":2150000000000,"state":"active","ping":56},{"user_id":217,"name":"Pockets","steam_id":76561198001742296,"connected_time":1942000000000,"state":"active","ping":74},{"user_id":243,"name":"Coolshroomish","steam_id":76561199109440924,"connected_time":198000000000,"state":"active","ping":122},{"user_id":250,"name":"Hearing Aid Salesman","steam_id":76561197960489193,"connected_time":107000000000,"state":"active","ping":65},{"user_id":216,"name":"ThatComicStenzo","steam_id":76561198312325408,"connected_time":1998000000000,"state":"active","ping":68},{"user_id":240,"name":"SevereDiamond84","steam_id":76561198822568903,"connected_time":297000000000,"state":"active","ping":83},{"user_id":198,"name":"Major Woody","steam_id":76561198835541533,"connected_time":4893000000000,"state":"active","ping":55},{"user_id":227,"name":"NotThatGuyPal","steam_id":76561199127607812,"connected_time":998000000000,"state":"active","ping":167},{"user_id":207,"name":"Gir Gaming","steam_id":76561198156782359,"connected_time":3352000000000,"state":"active","ping":58},{"user_id":233,"name":"Scooter O'Boyl","steam_id":76561197971687069,"connected_time":613000000000,"state":"active","ping":55},{"user_id":232,"name":"Mecha","steam_id":76561198014927379,"connected_time":649000000000,"state":"active","ping":76},{"user_id":230,"name":"The Pope","steam_id":76561198313560302,"connected_time":725000000000,"state":"active","ping":60},{"user_id":251,"name":"99RM","steam_id":76561198107382571,"connected_time":104000000000,"state":"active","ping":165},{"user_id":246,"name":"Aribari (She/Her)","steam_id":76561198117327938,"connected_time":176000000000,"state":"active","ping":80},{"user_id":190,"name":"Broadway Rose","steam_id":76561198046083342,"connected_time":5500000000000,"state":"active","ping":42},{"user_id":236,"name":"Your Local NPR Station","steam_id":76561198143830279,"connected_time":540000000000,"state":"active","ping":54},{"user_id":229,"name":"Dream Witch","steam_id":76561198060135722,"connected_time":818000000000,"state":"active","ping":79},{"user_id":248,"name":"perc the third","steam_id":76561198073269122,"connected_time":169000000000,"state":"active","ping":48},{"user_id":208,"name":"CRAZY engineer","steam_id":76561198887937902,"connected_time":3342000000000,"state":"active","ping":55},{"user_id":249,"name":"Krusty Nut","steam_id":76561198120637924,"connected_time":166000000000,"state":"active","ping":58}]},{"server_id":14,"name":"Uncletopia | New York City | 2 | All Maps","name_short":"nyc-2","host":"nyc-1.us.uncletopia.com","port":27025,"enabled":true,"region":"us-east","cc":"us","latitude":40.73061,"longitude":-73.93524,"reserved":0,"last_update":"0001-01-01T00:00:00Z","name_a2s":"Uncletopia | New York City | 2 | All Maps","protocol":17,"map":"pl_snowycoast","folder":"tf","game":"Team Fortress","app_id":440,"player_count":24,"max_players":24,"Bots":0,"server_type":"Dedicated","server_os":"Linux","password":true,"vac":true,"version":"7882260","steam_id":85568392924469994,"keywords":["nocrits","nodmgspread","payload","uncletopia"],"game_id":440,"stv_port":27026,"stv_name":"Uncletopia | New York City | 2 | All Maps | STV","players":[{"user_id":194,"name":"ShaqtusHD(She/Her)","steam_id":76561199138286233,"connected_time":1214000000000,"state":"active","ping":61},{"user_id":210,"name":"lwyr","steam_id":76561198007982579,"connected_time":335000000000,"state":"active","ping":39},{"user_id":195,"name":"tasty","steam_id":76561198083839061,"connected_time":1207000000000,"state":"active","ping":67},{"user_id":178,"name":"meat glasses","steam_id":76561198046742645,"connected_time":2309000000000,"state":"active","ping":60},{"user_id":212,"name":"Poncho","steam_id":76561198015258710,"connected_time":318000000000,"state":"active","ping":176},{"user_id":177,"name":"sqerkbo","steam_id":76561198080012700,"connected_time":2637000000000,"state":"active","ping":44},{"user_id":179,"name":"glue sniffer","steam_id":76561198044689778,"connected_time":2308000000000,"state":"active","ping":49},{"user_id":138,"name":"SHADY SWEATER SALESMAN","steam_id":76561198014616865,"connected_time":5253000000000,"state":"active","ping":65},{"user_id":214,"name":"BlazLoch","steam_id":76561198872613199,"connected_time":258000000000,"state":"active","ping":60},{"user_id":192,"name":"nilftb","steam_id":76561198161952186,"connected_time":1311000000000,"state":"active","ping":55},{"user_id":208,"name":"Testicular Torsion","steam_id":76561199157775955,"connected_time":445000000000,"state":"active","ping":80},{"user_id":198,"name":"g00bur","steam_id":76561197993622520,"connected_time":1120000000000,"state":"active","ping":59},{"user_id":204,"name":"dooby","steam_id":76561198304712507,"connected_time":835000000000,"state":"active","ping":46},{"user_id":207,"name":"capeeKo","steam_id":76561197970346623,"connected_time":499000000000,"state":"active","ping":59},{"user_id":203,"name":"deadboylife","steam_id":76561198349675499,"connected_time":918000000000,"state":"active","ping":48},{"user_id":185,"name":"Oh no","steam_id":76561198123441203,"connected_time":2060000000000,"state":"active","ping":60},{"user_id":186,"name":"[EUP]Echo1","steam_id":76561198045478827,"connected_time":2038000000000,"state":"active","ping":70},{"user_id":130,"name":"‚ô°a femboy‚ô°","steam_id":76561199212971864,"connected_time":5722000000000,"state":"active","ping":58},{"user_id":209,"name":"neet","steam_id":76561197968115168,"connected_time":417000000000,"state":"active","ping":50},{"user_id":164,"name":"MrrPamplemousse","steam_id":76561198072241333,"connected_time":3513000000000,"state":"active","ping":51},{"user_id":201,"name":"When in Doubt Pinky Out","steam_id":76561198081397645,"connected_time":1056000000000,"state":"active","ping":68},{"user_id":205,"name":"Diarrhea Gaming","steam_id":76561198090589784,"connected_time":819000000000,"state":"active","ping":78},{"user_id":213,"name":"cactus eater","steam_id":76561199107499844,"connected_time":303000000000,"state":"active","ping":133},{"user_id":175,"name":"Training Arc","steam_id":76561198038832034,"connected_time":2969000000000,"state":"active","ping":120}]},{"server_id":15,"name":"Uncletopia | New York City | 3 | Stopwatch Beta","name_short":"nyc-3","host":"nyc-1.us.uncletopia.com","port":27035,"enabled":true,"region":"us-east","cc":"us","latitude":40.73061,"longitude":-73.93524,"reserved":0,"last_update":"0001-01-01T00:00:00Z","name_a2s":"Uncletopia | New York City | 3 | Stopwatch Beta","protocol":17,"map":"workshop/koth_bagel_rc6.ugc2514036946","folder":"tf","game":"Team Fortress","app_id":440,"player_count":0,"max_players":24,"Bots":0,"server_type":"Dedicated","server_os":"Linux","password":true,"vac":true,"version":"7882260","steam_id":85568392924742820,"keywords":["cp","nocrits","nodmgspread","uncletopia"],"game_id":440,"stv_port":27036,"stv_name":"Uncletopia | New York City | 3 | Stopwatch Beta | STV","players":null},{"server_id":16,"name":"Uncletopia | New York City | 4 | Community","name_short":"nyc-4","host":"nyc-1.us.uncletopia.com","port":27045,"enabled":true,"region":"us-east","cc":"us","latitude":40.73061,"longitude":-73.93524,"reserved":0,"last_update":"0001-01-01T00:00:00Z","name_a2s":"Uncletopia | New York City | 4 | Community","protocol":17,"map":"workshop/koth_ramjam_rc1.ugc459778887","folder":"tf","game":"Team Fortress","app_id":440,"player_count":0,"max_players":24,"Bots":0,"server_type":"Dedicated","server_os":"Linux","password":true,"vac":true,"version":"7882260","steam_id":85568392924742821,"keywords":["cp","nocrits","nodmgspread","uncletopia"],"game_id":440,"stv_port":27046,"stv_name":"Uncletopia | New York City | 4 | Community | STV","players":null},{"server_id":142,"name":"Uncletopia | S√£o Paulo | 1 | All Maps","name_short":"sao-1","host":"sao-1.br.uncletopia.com","port":27015,"enabled":true,"region":"sa","cc":"br","latitude":-23.533773,"longitude":-46.62529,"reserved":0,"last_update":"0001-01-01T00:00:00Z","name_a2s":"Uncletopia | S√£o Paulo | 1 | All Maps","protocol":17,"map":"koth_lakeside_final","folder":"tf","game":"Team Fortress","app_id":440,"player_count":0,"max_players":24,"Bots":0,"server_type":"Dedicated","server_os":"Linux","password":true,"vac":true,"version":"7882260","steam_id":85568392924469996,"keywords":["cp","nocrits","nodmgspread","uncletopia"],"game_id":440,"stv_port":27016,"stv_name":"Uncletopia | S√£o Paulo | 1 | All Maps | STV","players":null},{"server_id":143,"name":"Uncletopia | S√£o Paulo | 2 | All Maps","name_short":"sao-2","host":"sao-2.br.uncletopia.com","port":27015,"enabled":true,"region":"sa","cc":"br","latitude":-23.533773,"longitude":-46.62529,"reserved":0,"last_update":"0001-01-01T00:00:00Z","name_a2s":"Uncletopia | S√£o Paulo | 2 | All Maps","protocol":17,"map":"pl_barnblitz","folder":"tf","game":"Team Fortress","app_id":440,"player_count":0,"max_players":24,"Bots":0,"server_type":"Dedicated","server_os":"Linux","password":true,"vac":true,"version":"7882260","steam_id":85568392924485349,"keywords":["nocrits","nodmgspread","payload","uncletopia"],"game_id":440,"stv_port":27016,"stv_name":"Uncletopia | S√£o Paulo | 2 | All Maps | STV","players":null},{"server_id":7,"name":"Uncletopia | Seattle | 1 | All Maps","name_short":"sea-1","host":"sea-1.us.uncletopia.com","port":27015,"enabled":true,"region":"us-west","cc":"us","latitude":47.608013,"longitude":-122.33517,"reserved":0,"last_update":"0001-01-01T00:00:00Z","name_a2s":"Uncletopia | Seattle | 1 | All Maps","protocol":17,"map":"cp_egypt_final","folder":"tf","game":"Team Fortress","app_id":440,"player_count":24,"max_players":24,"Bots":0,"server_type":"Dedicated","server_os":"Linux","password":true,"vac":true,"version":"7882260","steam_id":85568392924469997,"keywords":["cp","nocrits","nodmgspread","uncletopia"],"game_id":440,"stv_port":27016,"stv_name":"Uncletopia | Seattle | 1 | All Maps | STV","players":[{"user_id":176,"name":"veryscaryreaper","steam_id":76561198380018244,"connected_time":2269000000000,"state":"active","ping":60},{"user_id":209,"name":"Random Person","steam_id":76561198990531385,"connected_time":308000000000,"state":"active","ping":62},{"user_id":197,"name":"The Undone Sage","steam_id":76561198261998561,"connected_time":1408000000000,"state":"active","ping":47},{"user_id":188,"name":"DrD","steam_id":76561198067266383,"connected_time":1853000000000,"state":"active","ping":29},{"user_id":198,"name":"Yoru","steam_id":76561198145072434,"connected_time":1398000000000,"state":"active","ping":82},{"user_id":155,"name":"some nerd","steam_id":76561198297272878,"connected_time":5451000000000,"state":"active","ping":73},{"user_id":152,"name":"cludkydoyfoydyo","steam_id":76561198313470079,"connected_time":5467000000000,"state":"active","ping":45},{"user_id":195,"name":"Bottom Ramen","steam_id":76561197970450546,"connected_time":1459000000000,"state":"active","ping":68},{"user_id":142,"name":"\\m/ Cyfun (she/it)","steam_id":76561197960882221,"connected_time":7291000000000,"state":"active","ping":90},{"user_id":194,"name":"KFC Delivery","steam_id":76561198104952649,"connected_time":1526000000000,"state":"active","ping":44},{"user_id":170,"name":"ursa","steam_id":76561198025394298,"connected_time":4019000000000,"state":"active","ping":98},{"user_id":179,"name":"Za Zombie","steam_id":76561198055545262,"connected_time":2246000000000,"state":"active","ping":91},{"user_id":205,"name":"handsincarnadine","steam_id":76561198102422084,"connected_time":792000000000,"state":"active","ping":77},{"user_id":203,"name":"havarti gaming","steam_id":76561198069895678,"connected_time":894000000000,"state":"active","ping":70},{"user_id":135,"name":"Tibetan Pop Star","steam_id":76561198844903984,"connected_time":7524000000000,"state":"active","ping":83},{"user_id":183,"name":"JayTheMonkeyMan","steam_id":76561198932836256,"connected_time":2111000000000,"state":"active","ping":59},{"user_id":177,"name":"Pocket Snipers","steam_id":76561198207987376,"connected_time":2261000000000,"state":"active","ping":117},{"user_id":145,"name":" ≥·µí ∏·µí","steam_id":76561198155447646,"connected_time":6673000000000,"state":"active","ping":75},{"user_id":172,"name":"PopcornBucketGames","steam_id":76561199089562026,"connected_time":3087000000000,"state":"active","ping":54},{"user_id":207,"name":"challen","steam_id":76561197961277967,"connected_time":774000000000,"state":"active","ping":66},{"user_id":206,"name":"Flesh Eating Turtle","steam_id":76561198116742139,"connected_time":791000000000,"state":"active","ping":57},{"user_id":165,"name":"Fh","steam_id":76561198000903511,"connected_time":4186000000000,"state":"active","ping":74},{"user_id":211,"name":"Dirt Mammal","steam_id":76561198040781653,"connected_time":76000000000,"state":"active","ping":59},{"user_id":210,"name":"nehruvian","steam_id":76561198846756785,"connected_time":234000000000,"state":"active","ping":55}]},{"server_id":119,"name":"Uncletopia | Seattle | 2 | All Maps","name_short":"sea-2","host":"sea-1.us.uncletopia.com","port":27025,"enabled":true,"region":"us-west","cc":"us","latitude":47.608013,"longitude":-122.33517,"reserved":0,"last_update":"0001-01-01T00:00:00Z","name_a2s":"Uncletopia | Seattle | 2 | All Maps","protocol":17,"map":"cp_5gorge","folder":"tf","game":"Team Fortress","app_id":440,"player_count":23,"max_players":24,"Bots":0,"server_type":"Dedicated","server_os":"Linux","password":true,"vac":true,"version":"7882260","steam_id":85568392924469998,"keywords":["cp","nocrits","nodmgspread","uncletopia"],"game_id":440,"stv_port":27026,"stv_name":"Uncletopia | Seattle | 2 | All Maps | STV","players":[{"user_id":88,"name":"Grill Skills","steam_id":76561198053575147,"connected_time":101000000000,"state":"active","ping":63},{"user_id":85,"name":"Ôº≤Ôº•Ôº§","steam_id":76561198030282308,"connected_time":247000000000,"state":"active","ping":66},{"user_id":8,"name":"TheCowledWiz","steam_id":76561198016735868,"connected_time":5272000000000,"state":"active","ping":46},{"user_id":84,"name":"Caspar","steam_id":76561198202378258,"connected_time":347000000000,"state":"active","ping":45},{"user_id":56,"name":"Serene Salamander","steam_id":76561198001094770,"connected_time":3453000000000,"state":"active","ping":82},{"user_id":86,"name":"Wafflemuscle","steam_id":76561198868628982,"connected_time":218000000000,"state":"active","ping":50},{"user_id":80,"name":"EleventhGoose","steam_id":76561198912390211,"connected_time":769000000000,"state":"active","ping":89},{"user_id":61,"name":"Foxtrot Uniform","steam_id":76561199236576844,"connected_time":3046000000000,"state":"active","ping":115},{"user_id":16,"name":"2Fort Cactus","steam_id":76561199273395913,"connected_time":4888000000000,"state":"active","ping":76},{"user_id":76,"name":"Nocturnal","steam_id":76561198207837977,"connected_time":830000000000,"state":"active","ping":125},{"user_id":73,"name":"greens beans","steam_id":76561198153611491,"connected_time":917000000000,"state":"active","ping":38},{"user_id":63,"name":"deus sex","steam_id":76561198048007844,"connected_time":2242000000000,"state":"active","ping":71},{"user_id":78,"name":"CozzyEh","steam_id":76561199137063042,"connected_time":787000000000,"state":"active","ping":50},{"user_id":72,"name":"worker","steam_id":76561198039608940,"connected_time":921000000000,"state":"active","ping":65},{"user_id":50,"name":"Deja Vu","steam_id":76561198062090620,"connected_time":3841000000000,"state":"active","ping":85},{"user_id":83,"name":"YouAreReadingThis","steam_id":76561198367831600,"connected_time":504000000000,"state":"active","ping":89},{"user_id":29,"name":"oo","steam_id":76561198119626492,"connected_time":4595000000000,"state":"active","ping":80},{"user_id":79,"name":"vfa","steam_id":76561198055729118,"connected_time":787000000000,"state":"active","ping":56},{"user_id":62,"name":"Meet The Kazoo","steam_id":76561199229748300,"connected_time":2746000000000,"state":"active","ping":85},{"user_id":58,"name":"Sectus","steam_id":76561198034616577,"connected_time":3445000000000,"state":"active","ping":92},{"user_id":87,"name":"EEBIGAA","steam_id":76561198056535988,"connected_time":158000000000,"state":"active","ping":70},{"user_id":81,"name":"Tigros","steam_id":76561198021569362,"connected_time":757000000000,"state":"active","ping":130},{"user_id":51,"name":"sokodarou","steam_id":76561198401100177,"connected_time":3841000000000,"state":"active","ping":119}]},{"server_id":406,"name":"Uncletopia | Seattle | 3 | Stopwatch Beta","name_short":"sea-3","host":"sea-1.us.uncletopia.com","port":27035,"enabled":true,"region":"us-west","cc":"us","latitude":47.608013,"longitude":-122.33517,"reserved":0,"last_update":"0001-01-01T00:00:00Z","name_a2s":"Uncletopia | Seattle | 3 | Stopwatch Beta","protocol":17,"map":"workshop/koth_ashville_final.ugc2130459942","folder":"tf","game":"Team Fortress","app_id":440,"player_count":0,"max_players":24,"Bots":0,"server_type":"Dedicated","server_os":"Linux","password":true,"vac":true,"version":"7882260","steam_id":85568392924515217,"keywords":["cp","nocrits","nodmgspread","uncletopia"],"game_id":440,"stv_port":27036,"stv_name":"Uncletopia | Seattle | 3 | Stopwatch Beta | STV","players":null},{"server_id":17,"name":"Uncletopia | San Francisco | 1 | All Maps","name_short":"sfo-1","host":"sfo-1.us.uncletopia.com","port":27015,"enabled":true,"region":"us-west","cc":"us","latitude":37.77397,"longitude":-122.4313,"reserved":0,"last_update":"0001-01-01T00:00:00Z","name_a2s":"Uncletopia | San Francisco | 1 | All Maps","protocol":17,"map":"cp_process_final","folder":"tf","game":"Team Fortress","app_id":440,"player_count":0,"max_players":24,"Bots":0,"server_type":"Dedicated","server_os":"Linux","password":true,"vac":true,"version":"7757534","steam_id":85568392924469999,"keywords":["cp","nocrits","nodmgspread","uncletopia"],"game_id":440,"stv_port":27016,"stv_name":"Uncletopia | San Francisco | 1 | All Maps | STV","players":null},{"server_id":18,"name":"Uncletopia | San Francisco | 2 | All Maps","name_short":"sfo-2","host":"sfo-1.us.uncletopia.com","port":27025,"enabled":true,"region":"us-west","cc":"us","latitude":37.77397,"longitude":-122.4313,"reserved":0,"last_update":"0001-01-01T00:00:00Z","name_a2s":"Uncletopia | San Francisco | 2 | All Maps","protocol":17,"map":"koth_highpass","folder":"tf","game":"Team Fortress","app_id":440,"player_count":0,"max_players":24,"Bots":0,"server_type":"Dedicated","server_os":"Linux","password":true,"vac":true,"version":"7757534","steam_id":85568392924470000,"keywords":["cp","nocrits","nodmgspread","uncletopia"],"game_id":440,"stv_port":27026,"stv_name":"Uncletopia | San Francisco | 2 | All Maps | STV","players":null},{"server_id":19,"name":"Uncletopia | San Francisco | 3 | Stopwatch Beta","name_short":"sfo-3","host":"sfo-1.us.uncletopia.com","port":27035,"enabled":true,"region":"us-west","cc":"us","latitude":37.77397,"longitude":-122.4313,"reserved":0,"last_update":"0001-01-01T00:00:00Z","name_a2s":"Uncletopia | San Francisco | 3 | Stopwatch Beta","protocol":17,"map":"koth_lakeside_final","folder":"tf","game":"Team Fortress","app_id":440,"player_count":0,"max_players":24,"Bots":0,"server_type":"Dedicated","server_os":"Linux","password":true,"vac":true,"version":"7757534","steam_id":85568392924742824,"keywords":["cp","nocrits","nodmgspread","uncletopia"],"game_id":440,"stv_port":27036,"stv_name":"Uncletopia | San Francisco | 3 | Stopwatch Beta | STV","players":null},{"server_id":20,"name":"Uncletopia | San Francisco | 4 | Community","name_short":"sfo-4","host":"sfo-1.us.uncletopia.com","port":27045,"enabled":true,"region":"us-west","cc":"us","latitude":37.77397,"longitude":-122.4313,"reserved":0,"last_update":"0001-01-01T00:00:00Z","name_a2s":"Uncletopia | San Francisco | 4 | Community","protocol":17,"map":"cp_altitude","folder":"tf","game":"Team Fortress","app_id":440,"player_count":0,"max_players":24,"Bots":0,"server_type":"Dedicated","server_os":"Linux","password":true,"vac":true,"version":"7757534","steam_id":85568392924742826,"keywords":["cp","nocrits","nodmgspread","uncletopia"],"game_id":440,"stv_port":27046,"stv_name":"Uncletopia | San Francisco | 4 | Community | STV","players":null},{"server_id":141,"name":"Uncletopia | Sydney | 1 | All Maps","name_short":"syd-1","host":"syd-1.au.uncletopia.com","port":27015,"enabled":true,"region":"au","cc":"au","latitude":-33.865143,"longitude":151.2099,"reserved":0,"last_update":"0001-01-01T00:00:00Z","name_a2s":"Uncletopia | Sydney | 1 | All Maps","protocol":17,"map":"cp_snakewater_final1","folder":"tf","game":"Team Fortress","app_id":440,"player_count":0,"max_players":24,"Bots":0,"server_type":"Dedicated","server_os":"Linux","password":true,"vac":true,"version":"7882260","steam_id":85568392924470001,"keywords":["cp","nocrits","nodmgspread","uncletopia"],"game_id":440,"stv_port":27016,"stv_name":"Uncletopia | Sydney | 1 | All Maps | STV","players":null},{"server_id":123,"name":"Uncletopia | Sydney | 2 | All Maps","name_short":"syd-2","host":"syd-1.au.uncletopia.com","port":27025,"enabled":true,"region":"au","cc":"au","latitude":-33.865143,"longitude":151.2099,"reserved":0,"last_update":"0001-01-01T00:00:00Z","name_a2s":"Uncletopia | Sydney | 2 | All Maps","protocol":17,"map":"pl_barnblitz","folder":"tf","game":"Team Fortress","app_id":440,"player_count":0,"max_players":24,"Bots":0,"server_type":"Dedicated","server_os":"Linux","password":true,"vac":true,"version":"7882260","steam_id":85568392924470002,"keywords":["nocrits","nodmgspread","payload","uncletopia"],"game_id":440,"stv_port":27026,"stv_name":"Uncletopia | Sydney | 2 | All Maps | STV","players":null},{"server_id":395,"name":"Uncletopia | Sydney | 3 | All Maps","name_short":"syd-3","host":"syd-1.au.uncletopia.com","port":27035,"enabled":true,"region":"au","cc":"au","latitude":-33.865143,"longitude":151.2099,"reserved":0,"last_update":"0001-01-01T00:00:00Z","name_a2s":"Uncletopia | Sydney | 3 | All Maps","protocol":17,"map":"pl_badwater","folder":"tf","game":"Team Fortress","app_id":440,"player_count":0,"max_players":24,"Bots":0,"server_type":"Dedicated","server_os":"Linux","password":true,"vac":true,"version":"7882260","steam_id":85568392925194467,"keywords":["nocrits","nodmgspread","payload","uncletopia"],"game_id":440,"stv_port":27036,"stv_name":"Uncletopia | Sydney | 3 | All Maps | STV","players":null},{"server_id":396,"name":"Uncletopia | Sydney | 4 | All Maps","name_short":"syd-4","host":"syd-1.au.uncletopia.com","port":27045,"enabled":true,"region":"au","cc":"au","latitude":-33.865143,"longitude":151.2099,"reserved":0,"last_update":"0001-01-01T00:00:00Z","name_a2s":"Uncletopia | Sydney | 4 | All Maps","protocol":17,"map":"cp_dustbowl","folder":"tf","game":"Team Fortress","app_id":440,"player_count":0,"max_players":24,"Bots":0,"server_type":"Dedicated","server_os":"Linux","password":true,"vac":true,"version":"7882260","steam_id":85568392925397958,"keywords":["cp","nocrits","nodmgspread","uncletopia"],"game_id":440,"stv_port":27046,"stv_name":"Uncletopia | Sydney | 4 | All Maps | STV","players":null},{"server_id":58,"name":"Uncletopia | Sydney | 5 | Stopwatch Beta","name_short":"syd-5","host":"syd-1.au.uncletopia.com","port":27055,"enabled":true,"region":"au","cc":"au","latitude":-33.865143,"longitude":151.2099,"reserved":0,"last_update":"0001-01-01T00:00:00Z","name_a2s":"Uncletopia | Sydney | 5 | Stopwatch Beta","protocol":17,"map":"cp_snakewater_final1","folder":"tf","game":"Team Fortress","app_id":440,"player_count":0,"max_players":24,"Bots":0,"server_type":"Dedicated","server_os":"Linux","password":true,"vac":true,"version":"7882260","steam_id":85568392925397959,"keywords":["cp","nocrits","nodmgspread","uncletopia"],"game_id":440,"stv_port":27056,"stv_name":"Uncletopia | Sydney | 5 | Stopwatch Beta | STV","players":null},{"server_id":59,"name":"Uncletopia | Sydney | 6 | Community","name_short":"syd-6","host":"syd-1.au.uncletopia.com","port":27065,"enabled":true,"region":"au","cc":"au","latitude":-33.865143,"longitude":151.2099,"reserved":0,"last_update":"0001-01-01T00:00:00Z","name_a2s":"Uncletopia | Sydney | 6 | Community","protocol":17,"map":"pl_snowycoast","folder":"tf","game":"Team Fortress","app_id":440,"player_count":0,"max_players":24,"Bots":0,"server_type":"Dedicated","server_os":"Linux","password":true,"vac":true,"version":"7882260","steam_id":85568392925397960,"keywords":["nocrits","nodmgspread","payload","uncletopia"],"game_id":440,"stv_port":27066,"stv_name":"Uncletopia | Sydney | 6 | Community | STV","players":null},{"server_id":49,"name":"Uncletopia | Warsaw | 1 | All Maps","name_short":"waw-1","host":"waw-1.pl.uncletopia.com","port":27015,"enabled":true,"region":"eu","cc":"pl","latitude":52.2297,"longitude":21.017532,"reserved":0,"last_update":"0001-01-01T00:00:00Z","name_a2s":"","protocol":0,"map":"","folder":"","game":"","app_id":0,"player_count":0,"max_players":0,"Bots":0,"server_type":"","server_os":"","password":false,"vac":false,"version":"","steam_id":0,"keywords":null,"game_id":0,"stv_port":0,"stv_name":"","players":null},{"server_id":50,"name":"Uncletopia | Warsaw | 2 | All Maps","name_short":"waw-2","host":"waw-1.pl.uncletopia.com","port":27025,"enabled":true,"region":"eu","cc":"pl","latitude":52.2297,"longitude":21.017532,"reserved":0,"last_update":"0001-01-01T00:00:00Z","name_a2s":"Uncletopia | Warsaw | 2 | All Maps","protocol":17,"map":"pl_upward","folder":"tf","game":"Team Fortress","app_id":440,"player_count":5,"max_players":24,"Bots":0,"server_type":"Dedicated","server_os":"Linux","password":true,"vac":true,"version":"7882260","steam_id":85568392925397851,"keywords":["nocrits","nodmgspread","payload","uncletopia"],"game_id":440,"stv_port":27026,"stv_name":"Uncletopia | Warsaw | 2 | All Maps | STV","players":[{"user_id":17,"name":"Ghoxes","steam_id":76561198068444715,"connected_time":2726000000000,"state":"active","ping":100},{"user_id":15,"name":"krissz._.","steam_id":76561199445458247,"connected_time":3213000000000,"state":"active","ping":102},{"user_id":19,"name":"walt","steam_id":76561198871381636,"connected_time":746000000000,"state":"active","ping":79},{"user_id":20,"name":"2003 Volkswagen passat 1.6 tdi","steam_id":76561199148666369,"connected_time":447000000000,"state":"active","ping":55},{"user_id":21,"name":"mom, grab the shotty","steam_id":76561198815271970,"connected_time":153000000000,"state":"active","ping":75}]},{"server_id":51,"name":"Uncletopia | Warsaw | 3 | All Maps","name_short":"waw-3","host":"waw-1.pl.uncletopia.com","port":27035,"enabled":true,"region":"eu","cc":"pl","latitude":52.2297,"longitude":21.017532,"reserved":0,"last_update":"0001-01-01T00:00:00Z","name_a2s":"Uncletopia | Warsaw | 3 | All Maps","protocol":17,"map":"koth_viaduct","folder":"tf","game":"Team Fortress","app_id":440,"player_count":0,"max_players":24,"Bots":0,"server_type":"Dedicated","server_os":"Linux","password":true,"vac":true,"version":"7882260","steam_id":85568392925397852,"keywords":["cp","nocrits","nodmgspread","uncletopia"],"game_id":440,"stv_port":27036,"stv_name":"Uncletopia | Warsaw | 3 | All Maps | STV","players":null},{"server_id":52,"name":"Uncletopia | Warsaw | 4 | All Maps","name_short":"waw-4","host":"waw-1.pl.uncletopia.com","port":27045,"enabled":true,"region":"eu","cc":"pl","latitude":52.2297,"longitude":21.017532,"reserved":0,"last_update":"0001-01-01T00:00:00Z","name_a2s":"Uncletopia | Warsaw | 4 | All Maps","protocol":17,"map":"cp_dustbowl","folder":"tf","game":"Team Fortress","app_id":440,"player_count":0,"max_players":24,"Bots":0,"server_type":"Dedicated","server_os":"Linux","password":true,"vac":true,"version":"7882260","steam_id":85568392925397853,"keywords":["cp","nocrits","nodmgspread","uncletopia"],"game_id":440,"stv_port":27046,"stv_name":"Uncletopia | Warsaw | 4 | All Maps | STV","players":null},{"server_id":53,"name":"Uncletopia | Warsaw | 5 | Stopwatch Beta","name_short":"waw-5","host":"waw-1.pl.uncletopia.com","port":27055,"enabled":true,"region":"eu","cc":"pl","latitude":52.2297,"longitude":21.017532,"reserved":0,"last_update":"0001-01-01T00:00:00Z","name_a2s":"Uncletopia | Warsaw | 5 | Stopwatch Beta","protocol":17,"map":"cp_gullywash_final1","folder":"tf","game":"Team Fortress","app_id":440,"player_count":0,"max_players":24,"Bots":0,"server_type":"Dedicated","server_os":"Linux","password":true,"vac":true,"version":"7882260","steam_id":85568392925397854,"keywords":["cp","nocrits","nodmgspread","uncletopia"],"game_id":440,"stv_port":27056,"stv_name":"Uncletopia | Warsaw | 5 | Stopwatch Beta | STV","players":null},{"server_id":54,"name":"Uncletopia | Warsaw | 6 | Community","name_short":"waw-6","host":"waw-1.pl.uncletopia.com","port":27065,"enabled":true,"region":"eu","cc":"pl","latitude":52.2297,"longitude":21.017532,"reserved":0,"last_update":"0001-01-01T00:00:00Z","name_a2s":"Uncletopia | Warsaw | 6 | Community","protocol":17,"map":"workshop/koth_bagel_rc6.ugc2514036946","folder":"tf","game":"Team Fortress","app_id":440,"player_count":0,"max_players":24,"Bots":0,"server_type":"Dedicated","server_os":"Linux","password":true,"vac":true,"version":"7882260","steam_id":85568392925397856,"keywords":["cp","nocrits","nodmgspread","uncletopia"],"game_id":440,"stv_port":27066,"stv_name":"Uncletopia | Warsaw | 6 | Community | STV","players":null}]}