{"status":true,"message":"","result":[{"server_id":9,"name":"Uncletopia | Atlanta | 1 | All Maps","name_short":"atl-1","host":"atl-1.us.uncletopia.com","port":27015,"enabled":true,"region":"us-east","cc":"us","latitude":33.753746,"longitude":-84.38633,"reserved":0,"last_update":"0001-01-01T00:00:00Z","name_a2s":"Uncletopia | Atlanta | 1 | All Maps","protocol":17,"map":"pl_borneo","folder":"tf","game":"Team Fortress","app_id":440,"player_count":24,"max_players":24,"Bots":0,"server_type":"Dedicated","server_os":"Linux","password":true,"vac":true,"version":"7961495","steam_id":85568392924469982,"keywords":["nocrits","nodmgspread","payload","uncletopia"],"game_id":440,"stv_port":27016,"stv_name":"Uncletopia | Atlanta | 1 | All Maps | STV","players":[{"user_id":802,"name":"doughboy","steam_id":76561198219012928,"connected_time":1065000000000,"state":"active","ping":105},{"user_id":783,"name":"arse77","steam_id":76561198169613105,"connected_time":3457000000000,"state":"active","ping":88},{"user_id":772,"name":"Ludcmorais","steam_id":76561198359217809,"connected_time":3803000000000,"state":"active","ping":179},{"user_id":803,"name":"Breach","steam_id":76561198045060392,"connected_time":1023000000000,"state":"active","ping":59},{"user_id":728,"name":"Obelisk","steam_id":76561198049416866,"connected_time":7650000000000,"state":"active","ping":47},{"user_id":707,"name":"Jag","steam_id":76561198001220471,"connected_time":8859000000000,"state":"active","ping":49},{"user_id":812,"name":"chexo4","steam_id":76561198150532531,"connected_time":637000000000,"state":"active","ping":51},{"user_id":811,"name":"adam0o0","steam_id":76561198052250279,"connected_time":739000000000,"state":"active","ping":82},{"user_id":796,"name":"TÖZI","steam_id":76561198045268695,"connected_time":1493000000000,"state":"active","ping":113},{"user_id":821,"name":"Fever Dreams","steam_id":76561198116614620,"connected_time":386000000000,"state":"active","ping":72},{"user_id":789,"name":"Chin","steam_id":76561198247426906,"connected_time":1988000000000,"state":"active","ping":75},{"user_id":813,"name":"com lag","steam_id":76561198019019392,"connected_time":561000000000,"state":"active","ping":60},{"user_id":815,"name":"Major_Pippy","steam_id":76561198004482878,"connected_time":464000000000,"state":"active","ping":115},{"user_id":743,"name":"Yongle","steam_id":76561198068591156,"connected_time":6081000000000,"state":"active","ping":73},{"user_id":816,"name":"who ate the cheese","steam_id":76561198275408467,"connected_time":456000000000,"state":"active","ping":48},{"user_id":817,"name":"Strange Child","steam_id":76561198082523009,"connected_time":452000000000,"state":"active","ping":84},{"user_id":804,"name":"crunchy obama","steam_id":76561198044485217,"connected_time":1015000000000,"state":"active","ping":111},{"user_id":805,"name":"firulais #ILOVETHOMAS","steam_id":76561198860460013,"connected_time":992000000000,"state":"active","ping":108},{"user_id":826,"name":"Geep","steam_id":76561198171880691,"connected_time":250000000000,"state":"active","ping":60},{"user_id":778,"name":"Liver stealer","steam_id":76561199029954287,"connected_time":3694000000000,"state":"active","ping":130},{"user_id":825,"name":"Pure Moisture","steam_id":76561198031965521,"connected_time":293000000000,"state":"active","ping":73},{"user_id":809,"name":"roman","steam_id":76561198170066797,"connected_time":866000000000,"state":"active","ping":45},{"user_id":819,"name":"Indigolake","steam_id":76561198202215807,"connected_time":414000000000,"state":"active","ping":89},{"user_id":824,"name":"nobody","steam_id":76561198148059714,"connected_time":295000000000,"state":"active","ping":67}]},{"server_id":104,"name":"Uncletopia | Atlanta | 2 | All Maps","name_short":"atl-2","host":"atl-1.us.uncletopia.com","port":27025,"enabled":true,"region":"us-east","cc":"us","latitude":33.753746,"longitude":-84.38633,"reserved":0,"last_update":"0001-01-01T00:00:00Z","name_a2s":"Uncletopia | Atlanta | 2 | All Maps","protocol":17,"map":"cp_dustbowl","folder":"tf","game":"Team Fortress","app_id":440,"player_count":24,"max_players":24,"Bots":0,"server_type":"Dedicated","server_os":"Linux","password":true,"vac":true,"version":"7961495","steam_id":85568392924469983,"keywords":["cp","nocrits","nodmgspread","uncletopia"],"game_id":440,"stv_port":27026,"stv_name":"Uncletopia | Atlanta | 2 | All Maps | STV","players":[{"user_id":689,"name":"HalfDead","steam_id":76561198049700226,"connected_time":2145000000000,"state":"active","ping":88},{"user_id":608,"name":"George Holdin' W Bush","steam_id":76561198030066204,"connected_time":6954000000000,"state":"active","ping":54},{"user_id":673,"name":"donut dan","steam_id":76561198132222035,"connected_time":3004000000000,"state":"active","ping":92},{"user_id":703,"name":"Black Bear.","steam_id":76561198806203328,"connected_time":916000000000,"state":"active","ping":122},{"user_id":704,"name":"himbo destroyer","steam_id":76561198268006443,"connected_time":913000000000,"state":"active","ping":61},{"user_id":686,"name":"silvanae324","steam_id":76561199150642573,"connected_time":2323000000000,"state":"active","ping":115},{"user_id":607,"name":"Starfruit66","steam_id":76561198069917277,"connected_time":6975000000000,"state":"active","ping":100},{"user_id":706,"name":"raccocooon","steam_id":76561199138602425,"connected_time":283000000000,"state":"active","ping":70},{"user_id":707,"name":"AndrewTron","steam_id":76561198301605457,"connected_time":199000000000,"state":"active","ping":93},{"user_id":694,"name":"Engineer2650","steam_id":76561198121410799,"connected_time":1546000000000,"state":"active","ping":77},{"user_id":317,"name":"V","steam_id":76561199223266577,"connected_time":18805000000000,"state":"active","ping":102},{"user_id":705,"name":"Temina","steam_id":76561198978778718,"connected_time":522000000000,"state":"active","ping":118},{"user_id":696,"name":"QuesaDiaz","steam_id":76561198355667850,"connected_time":1493000000000,"state":"active","ping":104},{"user_id":708,"name":"Edgy Red Gamer","steam_id":76561198208743000,"connected_time":37000000000,"state":"spawning","ping":75},{"user_id":702,"name":"Seshreb","steam_id":76561198846614634,"connected_time":1070000000000,"state":"active","ping":111},{"user_id":614,"name":"1-800-GHOST-DANCE","steam_id":76561198835430429,"connected_time":6851000000000,"state":"active","ping":105},{"user_id":695,"name":"tail slap +36 (4d12+18)","steam_id":76561198040425096,"connected_time":1515000000000,"state":"active","ping":56},{"user_id":698,"name":"a quiet animal","steam_id":76561198061756216,"connected_time":1471000000000,"state":"active","ping":96},{"user_id":653,"name":"PackingPeanutt :]","steam_id":76561199053229413,"connected_time":4247000000000,"state":"active","ping":86},{"user_id":678,"name":"Dragus","steam_id":76561198032967285,"connected_time":2832000000000,"state":"active","ping":73},{"user_id":692,"name":"Azazellotl","steam_id":76561198824814392,"connected_time":1617000000000,"state":"active","ping":68},{"user_id":654,"name":"Filthy Hobo","steam_id":76561198174373015,"connected_time":4243000000000,"state":"active","ping":114},{"user_id":699,"name":"Salt","steam_id":76561198418001135,"connected_time":1454000000000,"state":"active","ping":58},{"user_id":684,"name":"Titan Exodos","steam_id":76561198063852935,"connected_time":2347000000000,"state":"active","ping":119}]},{"server_id":400,"name":"Uncletopia | Atlanta | 3 | Stopwatch","name_short":"atl-3","host":"atl-1.us.uncletopia.com","port":27035,"enabled":true,"region":"us-east","cc":"us","latitude":33.753746,"longitude":-84.38633,"reserved":0,"last_update":"0001-01-01T00:00:00Z","name_a2s":"Uncletopia | Atlanta | 3 | Stopwatch","protocol":17,"map":"workshop/cp_reckoner_rc6.ugc674719999","folder":"tf","game":"Team Fortress","app_id":440,"player_count":0,"max_players":24,"Bots":0,"server_type":"Dedicated","server_os":"Linux","password":true,"vac":true,"version":"7961495","steam_id":85568392924515187,"keywords":["cp","nocrits","nodmgspread","uncletopia"],"game_id":440,"stv_port":27036,"stv_name":"Uncletopia | Atlanta | 3 | Stopwatch | STV","players":null},{"server_id":401,"name":"Uncletopia | Atlanta | 4 | Community","name_short":"atl-4","host":"atl-1.us.uncletopia.com","port":27045,"enabled":true,"region":"us-east","cc":"us","latitude":33.753746,"longitude":-84.38633,"reserved":0,"last_update":"0001-01-01T00:00:00Z","name_a2s":"Uncletopia | Atlanta | 4 | Community","protocol":17,"map":"workshop/pl_cashworks_final1.ugc2904065412","folder":"tf","game":"Team Fortress","app_id":440,"player_count":0,"max_players":24,"Bots":0,"server_type":"Dedicated","server_os":"Linux","password":true,"vac":true,"version":"7961495","steam_id":85568392924515188,"keywords":["nocrits","nodmgspread","payload","uncletopia"],"game_id":440,"stv_port":27046,"stv_name":"Uncletopia | Atlanta | 4 | Community | STV","players":null},{"server_id":2,"name":"Uncletopia | Chicago | 1 | All Maps","name_short":"chi-1","host":"chi-1.us.uncletopia.com","port":27015,"enabled":true,"region":"us-central","cc":"us","latitude":41.881832,"longitude":-87.62318,"reserved":0,"last_update":"0001-01-01T00:00:00Z","name_a2s":"Uncletopia | Chicago | 1 | All Maps","protocol":17,"map":"cp_process_final","folder":"tf","game":"Team Fortress","app_id":440,"player_count":24,"max_players":24,"Bots":0,"server_type":"Dedicated","server_os":"Linux","password":true,"vac":true,"version":"7961495","steam_id":85568392924469984,"keywords":["cp","nocrits","nodmgspread","uncletopia"],"game_id":440,"stv_port":27016,"stv_name":"Uncletopia | Chicago | 1 | All Maps | STV","players":[{"user_id":690,"name":"baedeker","steam_id":76561199081837220,"connected_time":6032000000000,"state":"active","ping":68},{"user_id":712,"name":"RealStanzy","steam_id":76561199060261003,"connected_time":4596000000000,"state":"active","ping":76},{"user_id":678,"name":"loser","steam_id":76561198259380127,"connected_time":6445000000000,"state":"active","ping":60},{"user_id":730,"name":"Dzhoshua","steam_id":76561198071915251,"connected_time":2103000000000,"state":"active","ping":68},{"user_id":748,"name":"Werm","steam_id":76561198149601897,"connected_time":460000000000,"state":"active","ping":73},{"user_id":726,"name":"Robot Rocker","steam_id":76561198050718267,"connected_time":2755000000000,"state":"active","ping":59},{"user_id":753,"name":"Simplicity","steam_id":76561198005224796,"connected_time":371000000000,"state":"active","ping":100},{"user_id":747,"name":"SemiNation","steam_id":76561198040854288,"connected_time":1392000000000,"state":"active","ping":69},{"user_id":746,"name":"Jeffardo","steam_id":76561197997564762,"connected_time":1428000000000,"state":"active","ping":80},{"user_id":749,"name":"Wolfking450","steam_id":76561198399975373,"connected_time":458000000000,"state":"active","ping":84},{"user_id":734,"name":"Jamal27","steam_id":76561198068654532,"connected_time":2041000000000,"state":"active","ping":72},{"user_id":758,"name":"uufyfuu","steam_id":76561198142787212,"connected_time":203000000000,"state":"active","ping":76},{"user_id":717,"name":"Da Walrus","steam_id":76561198045190191,"connected_time":3796000000000,"state":"active","ping":72},{"user_id":759,"name":"Arthur SSJ2","steam_id":76561198043678479,"connected_time":170000000000,"state":"active","ping":49},{"user_id":754,"name":"Coffeemelon","steam_id":76561198285891257,"connected_time":364000000000,"state":"active","ping":114},{"user_id":751,"name":"CatLike Pigeon","steam_id":76561198171716030,"connected_time":439000000000,"state":"active","ping":115},{"user_id":752,"name":"turnip","steam_id":76561197999375941,"connected_time":434000000000,"state":"active","ping":84},{"user_id":720,"name":"Brawns","steam_id":76561198045190199,"connected_time":3790000000000,"state":"active","ping":75},{"user_id":707,"name":"poopybutt420","steam_id":76561199000805315,"connected_time":5043000000000,"state":"active","ping":107},{"user_id":755,"name":"for the king","steam_id":76561197973488858,"connected_time":321000000000,"state":"active","ping":60},{"user_id":740,"name":"the keebler","steam_id":76561199486326945,"connected_time":1917000000000,"state":"active","ping":83},{"user_id":756,"name":"2STAR","steam_id":76561198126709382,"connected_time":310000000000,"state":"active","ping":78},{"user_id":691,"name":"Azure","steam_id":76561198260328183,"connected_time":6032000000000,"state":"active","ping":64},{"user_id":744,"name":"Your Local Queer Librarian","steam_id":76561198013077080,"connected_time":1648000000000,"state":"active","ping":57}]},{"server_id":106,"name":"Uncletopia | Chicago | 2 | All Maps","name_short":"chi-2","host":"chi-1.us.uncletopia.com","port":27025,"enabled":true,"region":"us-central","cc":"us","latitude":41.881832,"longitude":-87.62318,"reserved":0,"last_update":"0001-01-01T00:00:00Z","name_a2s":"Uncletopia | Chicago | 2 | All Maps","protocol":17,"map":"pl_upward","folder":"tf","game":"Team Fortress","app_id":440,"player_count":24,"max_players":24,"Bots":0,"server_type":"Dedicated","server_os":"Linux","password":true,"vac":true,"version":"7961495","steam_id":85568392924469985,"keywords":["nocrits","nodmgspread","payload","uncletopia"],"game_id":440,"stv_port":27026,"stv_name":"Uncletopia | Chicago | 2 | All Maps | STV","players":[{"user_id":540,"name":"Monte","steam_id":76561198097499917,"connected_time":12306000000000,"state":"active","ping":100},{"user_id":663,"name":"Rat Smacker","steam_id":76561198043629646,"connected_time":1103000000000,"state":"active","ping":82},{"user_id":639,"name":"FROYO donovin","steam_id":76561198045679387,"connected_time":3259000000000,"state":"active","ping":47},{"user_id":669,"name":"slep.py","steam_id":76561197988287144,"connected_time":328000000000,"state":"active","ping":52},{"user_id":653,"name":"1 2 buckle my shoe","steam_id":76561198040741271,"connected_time":1674000000000,"state":"active","ping":60},{"user_id":646,"name":"Crab","steam_id":76561198067628664,"connected_time":2631000000000,"state":"active","ping":106},{"user_id":657,"name":"Xel'Naga","steam_id":76561198049461668,"connected_time":1636000000000,"state":"active","ping":55},{"user_id":661,"name":"[GU1Z] Palamute Jho","steam_id":76561199219936729,"connected_time":1428000000000,"state":"active","ping":84},{"user_id":638,"name":"Owls = Government Drones","steam_id":76561198439793697,"connected_time":3325000000000,"state":"active","ping":74},{"user_id":666,"name":"Ms Twig","steam_id":76561198144111736,"connected_time":691000000000,"state":"active","ping":52},{"user_id":593,"name":"Moonflower ✦","steam_id":76561198191782483,"connected_time":7751000000000,"state":"active","ping":74},{"user_id":671,"name":"Fatass Hennessy Sargent","steam_id":76561198363267009,"connected_time":139000000000,"state":"active","ping":64},{"user_id":640,"name":"sheeesh","steam_id":76561198038080028,"connected_time":3219000000000,"state":"active","ping":88},{"user_id":592,"name":"stuffedidiot","steam_id":76561199181513019,"connected_time":7766000000000,"state":"active","ping":123},{"user_id":673,"name":"I'm doing tomes, Im sorry","steam_id":76561198260451626,"connected_time":23000000000,"state":"spawning","ping":64},{"user_id":664,"name":"St. Michael","steam_id":76561198037611052,"connected_time":1024000000000,"state":"active","ping":66},{"user_id":665,"name":"roast pig with apple in mouth","steam_id":76561198051353647,"connected_time":789000000000,"state":"active","ping":68},{"user_id":659,"name":"wincel hampton","steam_id":76561198083095146,"connected_time":1614000000000,"state":"active","ping":98},{"user_id":667,"name":"Orca?","steam_id":76561198164341099,"connected_time":665000000000,"state":"active","ping":87},{"user_id":629,"name":"Mug","steam_id":76561198000672907,"connected_time":5131000000000,"state":"active","ping":72},{"user_id":630,"name":"Shystie","steam_id":76561198025371440,"connected_time":5123000000000,"state":"active","ping":92},{"user_id":660,"name":"boffo","steam_id":76561198096978718,"connected_time":1586000000000,"state":"active","ping":88},{"user_id":644,"name":"the cart is not movin lads","steam_id":76561199184578185,"connected_time":3053000000000,"state":"active","ping":166},{"user_id":668,"name":"MoonWolf","steam_id":76561198095735033,"connected_time":637000000000,"state":"active","ping":75}]},{"server_id":402,"name":"Uncletopia | Chicago | 3 | All Maps","name_short":"chi-3","host":"chi-1.us.uncletopia.com","port":27035,"enabled":true,"region":"us-central","cc":"us","latitude":41.881832,"longitude":-87.62318,"reserved":0,"last_update":"0001-01-01T00:00:00Z","name_a2s":"Uncletopia | Chicago | 3 | All Maps","protocol":17,"map":"pl_upward","folder":"tf","game":"Team Fortress","app_id":440,"player_count":24,"max_players":24,"Bots":0,"server_type":"Dedicated","server_os":"Linux","password":true,"vac":true,"version":"7961495","steam_id":85568392924515191,"keywords":["nocrits","nodmgspread","payload","uncletopia"],"game_id":440,"stv_port":27036,"stv_name":"Uncletopia | Chicago | 3 | All Maps | STV","players":[{"user_id":573,"name":"J O S H³²","steam_id":76561198122603779,"connected_time":2328000000000,"state":"active","ping":98},{"user_id":574,"name":"robot with human hair","steam_id":76561198018691308,"connected_time":2322000000000,"state":"active","ping":75},{"user_id":575,"name":"saucy jack","steam_id":76561198307012859,"connected_time":2317000000000,"state":"active","ping":63},{"user_id":576,"name":"rum nitty","steam_id":76561198174788846,"connected_time":2110000000000,"state":"active","ping":56},{"user_id":615,"name":"Hank P. Hill","steam_id":76561198165256317,"connected_time":27000000000,"state":"active","ping":66},{"user_id":578,"name":"Keith Cozart","steam_id":76561198146090015,"connected_time":2007000000000,"state":"active","ping":47},{"user_id":579,"name":"Seojer","steam_id":76561198234965408,"connected_time":1987000000000,"state":"active","ping":126},{"user_id":612,"name":"37 septillion tapeworms","steam_id":76561198186128723,"connected_time":195000000000,"state":"active","ping":74},{"user_id":582,"name":"Unc4nny","steam_id":76561198131507408,"connected_time":1813000000000,"state":"active","ping":47},{"user_id":604,"name":"noah7","steam_id":76561197962607364,"connected_time":1249000000000,"state":"active","ping":67},{"user_id":584,"name":"Dosario","steam_id":76561198298095535,"connected_time":1704000000000,"state":"active","ping":110},{"user_id":590,"name":"scooterre","steam_id":76561198055068182,"connected_time":1522000000000,"state":"active","ping":63},{"user_id":606,"name":"The Final Transfer","steam_id":76561198206523304,"connected_time":1194000000000,"state":"active","ping":90},{"user_id":591,"name":"Pub Lass","steam_id":76561198119483989,"connected_time":1512000000000,"state":"active","ping":76},{"user_id":609,"name":"SugrStrz","steam_id":76561198105199852,"connected_time":756000000000,"state":"active","ping":51},{"user_id":610,"name":"Weebmcgee","steam_id":76561198081231557,"connected_time":756000000000,"state":"active","ping":66},{"user_id":613,"name":"Beta Fish","steam_id":76561198073504861,"connected_time":118000000000,"state":"active","ping":63},{"user_id":595,"name":"c00kie","steam_id":76561198418178297,"connected_time":1428000000000,"state":"active","ping":46},{"user_id":614,"name":"GangstaPuddin","steam_id":76561198045414782,"connected_time":118000000000,"state":"active","ping":68},{"user_id":597,"name":"sen","steam_id":76561198211308328,"connected_time":1424000000000,"state":"active","ping":64},{"user_id":598,"name":"Insectoid","steam_id":76561198122677314,"connected_time":1423000000000,"state":"active","ping":74},{"user_id":599,"name":"pim","steam_id":76561198095163441,"connected_time":1417000000000,"state":"active","ping":61},{"user_id":607,"name":"Useless","steam_id":76561198116079299,"connected_time":1193000000000,"state":"active","ping":93},{"user_id":608,"name":"L to the OG","steam_id":76561199215811448,"connected_time":1190000000000,"state":"active","ping":66}]},{"server_id":403,"name":"Uncletopia | Chicago | 4 | All Maps","name_short":"chi-4","host":"chi-1.us.uncletopia.com","port":27045,"enabled":true,"region":"us-central","cc":"us","latitude":41.881832,"longitude":-87.62318,"reserved":0,"last_update":"0001-01-01T00:00:00Z","name_a2s":"Uncletopia | Chicago | 4 | All Maps","protocol":17,"map":"pl_frontier_final","folder":"tf","game":"Team Fortress","app_id":440,"player_count":24,"max_players":24,"Bots":0,"server_type":"Dedicated","server_os":"Linux","password":true,"vac":true,"version":"7961495","steam_id":85568392924515193,"keywords":["nocrits","nodmgspread","payload","uncletopia"],"game_id":440,"stv_port":27046,"stv_name":"Uncletopia | Chicago | 4 | All Maps | STV","players":[{"user_id":651,"name":"Lyfull (Rip Rick May)","steam_id":76561198273398361,"connected_time":8761000000000,"state":"active","ping":63},{"user_id":742,"name":"UUUURT","steam_id":76561198047468140,"connected_time":696000000000,"state":"active","ping":94},{"user_id":685,"name":"frank","steam_id":76561198137777483,"connected_time":7094000000000,"state":"active","ping":62},{"user_id":733,"name":"Missing Minus","steam_id":76561198120822928,"connected_time":2100000000000,"state":"active","ping":61},{"user_id":705,"name":"C4K3","steam_id":76561197996963285,"connected_time":5058000000000,"state":"active","ping":74},{"user_id":698,"name":"NovaSc6ut","steam_id":76561198277163301,"connected_time":6333000000000,"state":"active","ping":66},{"user_id":709,"name":"Invictus","steam_id":76561198079517075,"connected_time":4378000000000,"state":"active","ping":73},{"user_id":744,"name":"Irpetod","steam_id":76561198048751440,"connected_time":375000000000,"state":"active","ping":122},{"user_id":707,"name":"Bigburgers","steam_id":76561198165013808,"connected_time":4395000000000,"state":"active","ping":59},{"user_id":708,"name":"CabezaGrande","steam_id":76561197972555502,"connected_time":4392000000000,"state":"active","ping":58},{"user_id":710,"name":"Worst Scenario","steam_id":76561199052130229,"connected_time":4372000000000,"state":"active","ping":63},{"user_id":743,"name":"dont ban pudge","steam_id":76561198044210264,"connected_time":593000000000,"state":"active","ping":76},{"user_id":720,"name":"Jupe","steam_id":76561198059874851,"connected_time":3010000000000,"state":"active","ping":56},{"user_id":735,"name":"Walnut","steam_id":76561198320544849,"connected_time":1592000000000,"state":"active","ping":69},{"user_id":722,"name":"story","steam_id":76561199088496817,"connected_time":2994000000000,"state":"active","ping":83},{"user_id":702,"name":"C Papi","steam_id":76561198027779564,"connected_time":5960000000000,"state":"active","ping":56},{"user_id":729,"name":"GoldtoothFour","steam_id":76561198055529332,"connected_time":2408000000000,"state":"active","ping":56},{"user_id":715,"name":"pathways","steam_id":76561198054832333,"connected_time":4286000000000,"state":"active","ping":39},{"user_id":734,"name":"rf","steam_id":76561198195359229,"connected_time":1713000000000,"state":"active","ping":90},{"user_id":649,"name":"justyoureventualruler","steam_id":76561198410993481,"connected_time":9379000000000,"state":"active","ping":68},{"user_id":747,"name":"GameboyAdvancedSPMobileHotspot","steam_id":76561198413739460,"connected_time":229000000000,"state":"active","ping":113},{"user_id":748,"name":"Andallfor","steam_id":76561198350143349,"connected_time":16000000000,"state":"active","ping":89},{"user_id":741,"name":"ViserofJustice","steam_id":76561198267918559,"connected_time":888000000000,"state":"active","ping":70},{"user_id":687,"name":"mini boss","steam_id":76561198062763756,"connected_time":7070000000000,"state":"active","ping":45}]},{"server_id":36,"name":"Uncletopia | Chicago | 5 | All Maps","name_short":"chi-5","host":"chi-2.us.uncletopia.com","port":27015,"enabled":true,"region":"us-central","cc":"us","latitude":41.881832,"longitude":-87.62318,"reserved":0,"last_update":"0001-01-01T00:00:00Z","name_a2s":"Uncletopia | Chicago | 5 | All Maps","protocol":17,"map":"cp_mountainlab","folder":"tf","game":"Team Fortress","app_id":440,"player_count":19,"max_players":24,"Bots":0,"server_type":"Dedicated","server_os":"Linux","password":true,"vac":true,"version":"7961495","steam_id":85568392924866362,"keywords":["cp","nocrits","nodmgspread","uncletopia"],"game_id":440,"stv_port":27016,"stv_name":"Uncletopia | Chicago | 5 | All Maps | STV","players":[{"user_id":661,"name":"Lifial","steam_id":76561198271885819,"connected_time":233000000000,"state":"active","ping":74},{"user_id":663,"name":"Big Black Dawg","steam_id":76561198050136796,"connected_time":104000000000,"state":"active","ping":87},{"user_id":609,"name":"jus a lil dude","steam_id":76561198013326889,"connected_time":4222000000000,"state":"active","ping":77},{"user_id":615,"name":"Grand Piano Tuna","steam_id":76561198135137213,"connected_time":3484000000000,"state":"active","ping":48},{"user_id":662,"name":"vengeance","steam_id":76561198362365605,"connected_time":215000000000,"state":"active","ping":57},{"user_id":664,"name":"uhooter","steam_id":76561198007829078,"connected_time":101000000000,"state":"active","ping":50},{"user_id":653,"name":"FireQuiz","steam_id":76561198107357249,"connected_time":679000000000,"state":"active","ping":103},{"user_id":665,"name":"Reisen Udongein Inaba","steam_id":76561198051082314,"connected_time":57000000000,"state":"active","ping":91},{"user_id":658,"name":"9gon Danmar33","steam_id":76561198056453091,"connected_time":506000000000,"state":"active","ping":45},{"user_id":641,"name":"Bakedmellon","steam_id":76561198104492181,"connected_time":1672000000000,"state":"active","ping":83},{"user_id":541,"name":"Giggles™","steam_id":76561198058708019,"connected_time":8305000000000,"state":"active","ping":53},{"user_id":659,"name":"Absurdly Obese Cat","steam_id":76561198073202543,"connected_time":379000000000,"state":"active","ping":89},{"user_id":619,"name":"kim wexler","steam_id":76561199199795741,"connected_time":3475000000000,"state":"active","ping":83},{"user_id":632,"name":"LaunchpadMcQuack","steam_id":76561198022302377,"connected_time":2567000000000,"state":"active","ping":60},{"user_id":593,"name":"Kuyumiester","steam_id":76561198126835302,"connected_time":5844000000000,"state":"active","ping":64},{"user_id":649,"name":"Ket","steam_id":76561198241951244,"connected_time":1323000000000,"state":"active","ping":67},{"user_id":636,"name":"The Foolish Samurai","steam_id":76561198094494945,"connected_time":2170000000000,"state":"active","ping":106},{"user_id":648,"name":"J197382645","steam_id":76561198014742440,"connected_time":1523000000000,"state":"active","ping":70},{"user_id":656,"name":"Shoe-flipper","steam_id":76561198045964573,"connected_time":658000000000,"state":"active","ping":105}]},{"server_id":37,"name":"Uncletopia | Chicago | 6 | All Maps","name_short":"chi-6","host":"chi-2.us.uncletopia.com","port":27025,"enabled":true,"region":"us-central","cc":"us","latitude":41.881832,"longitude":-87.62318,"reserved":0,"last_update":"0001-01-01T00:00:00Z","name_a2s":"Uncletopia | Chicago | 6 | All Maps","protocol":17,"map":"pl_pier","folder":"tf","game":"Team Fortress","app_id":440,"player_count":24,"max_players":24,"Bots":0,"server_type":"Dedicated","server_os":"Linux","password":true,"vac":true,"version":"7961495","steam_id":85568392924866363,"keywords":["nocrits","nodmgspread","payload","uncletopia"],"game_id":440,"stv_port":27026,"stv_name":"Uncletopia | Chicago | 6 | All Maps | STV","players":[{"user_id":435,"name":"A skill issue","steam_id":76561198246701796,"connected_time":4506000000000,"state":"active","ping":74},{"user_id":466,"name":"AlecTheNefarious","steam_id":76561198035291230,"connected_time":1478000000000,"state":"active","ping":71},{"user_id":443,"name":"Grishlock","steam_id":76561198000366744,"connected_time":3971000000000,"state":"active","ping":111},{"user_id":491,"name":"Gwuf","steam_id":76561198091503282,"connected_time":622000000000,"state":"active","ping":119},{"user_id":486,"name":"java","steam_id":76561198030276792,"connected_time":859000000000,"state":"active","ping":60},{"user_id":487,"name":"sithreis","steam_id":76561198000564263,"connected_time":847000000000,"state":"active","ping":70},{"user_id":481,"name":"Extome","steam_id":76561198097801342,"connected_time":1138000000000,"state":"active","ping":57},{"user_id":494,"name":"MUZZY","steam_id":76561198179199046,"connected_time":393000000000,"state":"active","ping":97},{"user_id":495,"name":"TTVPlumSmug","steam_id":76561198103960265,"connected_time":387000000000,"state":"active","ping":71},{"user_id":492,"name":"smalFox","steam_id":76561198041243017,"connected_time":548000000000,"state":"active","ping":59},{"user_id":500,"name":"Cosmic sR","steam_id":76561198081738675,"connected_time":56000000000,"state":"active","ping":82},{"user_id":474,"name":"TheClap (Gonnorhea)","steam_id":76561198068370276,"connected_time":1265000000000,"state":"active","ping":62},{"user_id":496,"name":"Mooffan","steam_id":76561198046009593,"connected_time":374000000000,"state":"active","ping":70},{"user_id":497,"name":"Eat Another Brownie","steam_id":76561198077787052,"connected_time":369000000000,"state":"active","ping":81},{"user_id":462,"name":"lanoc","steam_id":76561198055415367,"connected_time":1613000000000,"state":"active","ping":73},{"user_id":444,"name":"SNEPPY","steam_id":76561198065040243,"connected_time":3968000000000,"state":"active","ping":67},{"user_id":488,"name":"coopcumber","steam_id":76561198289728181,"connected_time":787000000000,"state":"active","ping":74},{"user_id":459,"name":"SNUPPY","steam_id":76561198010019214,"connected_time":2219000000000,"state":"active","ping":66},{"user_id":498,"name":"Cay","steam_id":76561198150167284,"connected_time":362000000000,"state":"active","ping":90},{"user_id":499,"name":"tac","steam_id":76561198408477421,"connected_time":345000000000,"state":"active","ping":87},{"user_id":436,"name":"winning","steam_id":76561198003206947,"connected_time":4426000000000,"state":"active","ping":65},{"user_id":493,"name":"Mad Cuz Smol","steam_id":76561198306774478,"connected_time":530000000000,"state":"active","ping":110},{"user_id":484,"name":"milkmana","steam_id":76561198068583958,"connected_time":1035000000000,"state":"active","ping":51},{"user_id":485,"name":"twisted fucking cycle path","steam_id":76561198840210218,"connected_time":1030000000000,"state":"active","ping":112}]},{"server_id":38,"name":"Uncletopia | Chicago | 7 | Stopwatch","name_short":"chi-7","host":"chi-2.us.uncletopia.com","port":27035,"enabled":true,"region":"us-central","cc":"us","latitude":41.881832,"longitude":-87.62318,"reserved":0,"last_update":"0001-01-01T00:00:00Z","name_a2s":"Uncletopia | Chicago | 7 | Stopwatch","protocol":17,"map":"koth_highpass","folder":"tf","game":"Team Fortress","app_id":440,"player_count":0,"max_players":24,"Bots":0,"server_type":"Dedicated","server_os":"Linux","password":true,"vac":true,"version":"7961495","steam_id":85568392924866364,"keywords":["cp","nocrits","nodmgspread","uncletopia"],"game_id":440,"stv_port":27036,"stv_name":"Uncletopia | Chicago | 7 | Stopwatch | STV","players":null},{"server_id":39,"name":"Uncletopia | Chicago | 8 | Community","name_short":"chi-8","host":"chi-2.us.uncletopia.com","port":27045,"enabled":true,"region":"us-central","cc":"us","latitude":41.881832,"longitude":-87.62318,"reserved":0,"last_update":"0001-01-01T00:00:00Z","name_a2s":"Uncletopia | Chicago | 8 | Community","protocol":17,"map":"pl_pier","folder":"tf","game":"Team Fortress","app_id":440,"player_count":0,"max_players":24,"Bots":0,"server_type":"Dedicated","server_os":"Linux","password":true,"vac":true,"version":"7961495","steam_id":85568392924866365,"keywords":["nocrits","nodmgspread","payload","uncletopia"],"game_id":440,"stv_port":27046,"stv_name":"Uncletopia | Chicago | 8 | Community | STV","players":null},{"server_id":8,"name":"Uncletopia | Dallas | 1 | All Maps","name_short":"dal-1","host":"dal-1.us.uncletopia.com","port":27015,"enabled":true,"region":"us-central","cc":"us","latitude":32.779167,"longitude":-96.80889,"reserved":0,"last_update":"0001-01-01T00:00:00Z","name_a2s":"Uncletopia | Dallas | 1 | All Maps","protocol":17,"map":"pl_pier","folder":"tf","game":"Team Fortress","app_id":440,"player_count":18,"max_players":24,"Bots":0,"server_type":"Dedicated","server_os":"Linux","password":true,"vac":true,"version":"7961495","steam_id":85568392924469986,"keywords":["nocrits","nodmgspread","payload","uncletopia"],"game_id":440,"stv_port":27016,"stv_name":"Uncletopia | Dallas | 1 | All Maps | STV","players":[{"user_id":706,"name":"Caught a Thundah","steam_id":76561198054495572,"connected_time":266000000000,"state":"active","ping":52},{"user_id":698,"name":"Fridgidaere","steam_id":76561198131467867,"connected_time":742000000000,"state":"active","ping":74},{"user_id":708,"name":"crankshaft","steam_id":76561197992798282,"connected_time":217000000000,"state":"active","ping":76},{"user_id":611,"name":"errant","steam_id":76561197961758410,"connected_time":6158000000000,"state":"active","ping":45},{"user_id":704,"name":"Truce","steam_id":76561198044334346,"connected_time":307000000000,"state":"active","ping":83},{"user_id":682,"name":"spoonlift","steam_id":76561198167075606,"connected_time":1575000000000,"state":"active","ping":74},{"user_id":707,"name":"Franticraven177","steam_id":76561198334105579,"connected_time":237000000000,"state":"active","ping":71},{"user_id":702,"name":"Moth Beam","steam_id":76561198005069202,"connected_time":335000000000,"state":"active","ping":54},{"user_id":680,"name":"Gr8alex #KILLTF2","steam_id":76561198227675960,"connected_time":1666000000000,"state":"active","ping":83},{"user_id":713,"name":"GMFD! Juustin","steam_id":76561198121922413,"connected_time":11000000000,"state":"spawning","ping":75},{"user_id":709,"name":"ecumber","steam_id":76561198169958831,"connected_time":161000000000,"state":"active","ping":90},{"user_id":695,"name":"PatrickJahomes","steam_id":76561198158837265,"connected_time":807000000000,"state":"active","ping":69},{"user_id":710,"name":"TheComrade","steam_id":76561198885877773,"connected_time":147000000000,"state":"active","ping":73},{"user_id":678,"name":"+","steam_id":76561198262422184,"connected_time":1954000000000,"state":"active","ping":56},{"user_id":712,"name":"Fancy Idiot","steam_id":76561199167868263,"connected_time":40000000000,"state":"active","ping":75},{"user_id":711,"name":"erm... krill yourself?","steam_id":76561198095121758,"connected_time":70000000000,"state":"active","ping":82},{"user_id":714,"name":"lily","steam_id":76561198420237035,"connected_time":10000000000,"state":"spawning","ping":78},{"user_id":690,"name":"Killerfish360","steam_id":76561198115029584,"connected_time":893000000000,"state":"active","ping":72}]},{"server_id":108,"name":"Uncletopia | Dallas | 2 | All Maps","name_short":"dal-2","host":"dal-1.us.uncletopia.com","port":27025,"enabled":true,"region":"us-central","cc":"us","latitude":32.779167,"longitude":-96.80889,"reserved":0,"last_update":"0001-01-01T00:00:00Z","name_a2s":"Uncletopia | Dallas | 2 | All Maps","protocol":17,"map":"koth_lakeside_final","folder":"tf","game":"Team Fortress","app_id":440,"player_count":24,"max_players":24,"Bots":0,"server_type":"Dedicated","server_os":"Linux","password":true,"vac":true,"version":"7961495","steam_id":85568392924469988,"keywords":["cp","nocrits","nodmgspread","uncletopia"],"game_id":440,"stv_port":27026,"stv_name":"Uncletopia | Dallas | 2 | All Maps | STV","players":[{"user_id":652,"name":"Periergos","steam_id":76561198062030412,"connected_time":2747000000000,"state":"active","ping":62},{"user_id":557,"name":"Certified Hood Classic","steam_id":76561199086159354,"connected_time":10321000000000,"state":"active","ping":57},{"user_id":631,"name":"mayonnaise","steam_id":76561198120753890,"connected_time":4870000000000,"state":"active","ping":49},{"user_id":678,"name":"MayKay","steam_id":76561199016092265,"connected_time":62000000000,"state":"active","ping":76},{"user_id":680,"name":"Chica","steam_id":76561198381832158,"connected_time":41000000000,"state":"active","ping":42},{"user_id":675,"name":"AWGER","steam_id":76561198284683624,"connected_time":157000000000,"state":"active","ping":78},{"user_id":625,"name":"StudioMania (#SAVETF2)","steam_id":76561198211315795,"connected_time":5329000000000,"state":"active","ping":74},{"user_id":630,"name":"Not a Can","steam_id":76561198064264767,"connected_time":5175000000000,"state":"active","ping":80},{"user_id":657,"name":"Junk","steam_id":76561198024382753,"connected_time":1801000000000,"state":"active","ping":60},{"user_id":667,"name":"Satori Komeiji","steam_id":76561198158211423,"connected_time":1603000000000,"state":"active","ping":79},{"user_id":679,"name":"Bambaroo","steam_id":76561198248667988,"connected_time":62000000000,"state":"active","ping":77},{"user_id":663,"name":"The Notorious T.A.F.T.","steam_id":76561198073012352,"connected_time":1733000000000,"state":"active","ping":62},{"user_id":590,"name":"room temp IQ","steam_id":76561198018724712,"connected_time":8051000000000,"state":"active","ping":34},{"user_id":661,"name":"d5","steam_id":76561199339997328,"connected_time":1773000000000,"state":"active","ping":56},{"user_id":668,"name":"YaBoyUlyssesG","steam_id":76561198042482742,"connected_time":1500000000000,"state":"active","ping":74},{"user_id":602,"name":"rAnch","steam_id":76561198024562587,"connected_time":6434000000000,"state":"active","ping":32},{"user_id":669,"name":"effy","steam_id":76561198087137066,"connected_time":1281000000000,"state":"active","ping":77},{"user_id":664,"name":"Maid 'n' China","steam_id":76561198423392976,"connected_time":1721000000000,"state":"active","ping":91},{"user_id":681,"name":"TacoMan4Life","steam_id":76561198832562728,"connected_time":40000000000,"state":"active","ping":94},{"user_id":672,"name":"Fairlife Cow","steam_id":76561198242227952,"connected_time":738000000000,"state":"active","ping":74},{"user_id":682,"name":"pipikopf","steam_id":76561198064196489,"connected_time":3000000000,"state":"spawning","ping":79},{"user_id":649,"name":"Shrebbie","steam_id":76561198875230824,"connected_time":3495000000000,"state":"active","ping":116},{"user_id":666,"name":"Dogvan","steam_id":76561198176708643,"connected_time":1702000000000,"state":"active","ping":97},{"user_id":677,"name":"Queuetimeevent","steam_id":76561198079438423,"connected_time":85000000000,"state":"active","ping":52}]},{"server_id":404,"name":"Uncletopia | Dallas | 3 | All Maps","name_short":"dal-3","host":"dal-1.us.uncletopia.com","port":27035,"enabled":true,"region":"us-central","cc":"us","latitude":32.779167,"longitude":-96.80889,"reserved":0,"last_update":"0001-01-01T00:00:00Z","name_a2s":"Uncletopia | Dallas | 3 | All Maps","protocol":17,"map":"cp_sunshine","folder":"tf","game":"Team Fortress","app_id":440,"player_count":0,"max_players":24,"Bots":0,"server_type":"Dedicated","server_os":"Linux","password":true,"vac":true,"version":"7961495","steam_id":85568392924515219,"keywords":["cp","nocrits","nodmgspread","uncletopia"],"game_id":440,"stv_port":27036,"stv_name":"Uncletopia | Dallas | 3 | All Maps | STV","players":null},{"server_id":405,"name":"Uncletopia | Dallas | 4 | Community","name_short":"dal-4","host":"dal-1.us.uncletopia.com","port":27045,"enabled":true,"region":"us-central","cc":"us","latitude":32.779167,"longitude":-96.80889,"reserved":0,"last_update":"0001-01-01T00:00:00Z","name_a2s":"Uncletopia | Dallas | 4 | Community","protocol":17,"map":"workshop/koth_ramjam_rc1.ugc459778887","folder":"tf","game":"Team Fortress","app_id":440,"player_count":0,"max_players":24,"Bots":0,"server_type":"Dedicated","server_os":"Linux","password":true,"vac":true,"version":"7961495","steam_id":85568392924515220,"keywords":["cp","nocrits","nodmgspread","uncletopia"],"game_id":440,"stv_port":27046,"stv_name":"Uncletopia | Dallas | 4 | Community | STV","players":null},{"server_id":5,"name":"Uncletopia | Frankfurt | 1 | All Maps","name_short":"frk-1","host":"frk-1.de.uncletopia.com","port":27015,"enabled":true,"region":"eu","cc":"de","latitude":50.110924,"longitude":8.682127,"reserved":0,"last_update":"0001-01-01T00:00:00Z","name_a2s":"Uncletopia | Frankfurt | 1 | All Maps","protocol":17,"map":"koth_highpass","folder":"tf","game":"Team Fortress","app_id":440,"player_count":0,"max_players":24,"Bots":0,"server_type":"Dedicated","server_os":"Linux","password":true,"vac":true,"version":"7961495","steam_id":85568392924469989,"keywords":["cp","nocrits","nodmgspread","uncletopia"],"game_id":440,"stv_port":27016,"stv_name":"Uncletopia | Frankfurt | 1 | All Maps | STV","players":null},{"server_id":110,"name":"Uncletopia | Frankfurt | 2 | All Maps","name_short":"frk-2","host":"frk-1.de.uncletopia.com","port":27025,"enabled":true,"region":"eu","cc":"de","latitude":50.110924,"longitude":8.682127,"reserved":0,"last_update":"0001-01-01T00:00:00Z","name_a2s":"Uncletopia | Frankfurt | 2 | All Maps","protocol":17,"map":"cp_dustbowl","folder":"tf","game":"Team Fortress","app_id":440,"player_count":0,"max_players":24,"Bots":0,"server_type":"Dedicated","server_os":"Linux","password":true,"vac":true,"version":"7961495","steam_id":85568392924469990,"keywords":["cp","nocrits","nodmgspread","uncletopia"],"game_id":440,"stv_port":27026,"stv_name":"Uncletopia | Frankfurt | 2 | All Maps | STV","players":null},{"server_id":308,"name":"Uncletopia | Frankfurt | 3 | All Maps","name_short":"frk-3","host":"frk-1.de.uncletopia.com","port":27035,"enabled":true,"region":"eu","cc":"de","latitude":50.110924,"longitude":8.682127,"reserved":0,"last_update":"0001-01-01T00:00:00Z","name_a2s":"Uncletopia | Frankfurt | 3 | All Maps","protocol":17,"map":"pl_barnblitz","folder":"tf","game":"Team Fortress","app_id":440,"player_count":0,"max_players":24,"Bots":0,"server_type":"Dedicated","server_os":"Linux","password":true,"vac":true,"version":"7961495","steam_id":85568392924504274,"keywords":["nocrits","nodmgspread","payload","uncletopia"],"game_id":440,"stv_port":27036,"stv_name":"Uncletopia | Frankfurt | 3 | All Maps | STV","players":null},{"server_id":309,"name":"Uncletopia | Frankfurt | 4 | All Maps","name_short":"frk-4","host":"frk-1.de.uncletopia.com","port":27045,"enabled":true,"region":"eu","cc":"de","latitude":50.110924,"longitude":8.682127,"reserved":0,"last_update":"0001-01-01T00:00:00Z","name_a2s":"Uncletopia | Frankfurt | 4 | All Maps","protocol":17,"map":"koth_highpass","folder":"tf","game":"Team Fortress","app_id":440,"player_count":0,"max_players":24,"Bots":0,"server_type":"Dedicated","server_os":"Linux","password":true,"vac":true,"version":"7961495","steam_id":85568392924504275,"keywords":["cp","nocrits","nodmgspread","uncletopia"],"game_id":440,"stv_port":27046,"stv_name":"Uncletopia | Frankfurt | 4 | All Maps | STV","players":null},{"server_id":310,"name":"Uncletopia | Frankfurt | 5 | All Maps","name_short":"frk-5","host":"frk-1.de.uncletopia.com","port":27055,"enabled":true,"region":"eu","cc":"de","latitude":50.110924,"longitude":8.682127,"reserved":0,"last_update":"0001-01-01T00:00:00Z","name_a2s":"Uncletopia | Frankfurt | 5 | All Maps","protocol":17,"map":"pl_badwater","folder":"tf","game":"Team Fortress","app_id":440,"player_count":0,"max_players":24,"Bots":0,"server_type":"Dedicated","server_os":"Linux","password":true,"vac":true,"version":"7961495","steam_id":85568392924504277,"keywords":["nocrits","nodmgspread","payload","uncletopia"],"game_id":440,"stv_port":27056,"stv_name":"Uncletopia | Frankfurt | 5 | All Maps | STV","players":null},{"server_id":311,"name":"Uncletopia | Frankfurt | 6 | All Maps","name_short":"frk-6","host":"frk-1.de.uncletopia.com","port":27065,"enabled":true,"region":"eu","cc":"de","latitude":50.110924,"longitude":8.682127,"reserved":0,"last_update":"0001-01-01T00:00:00Z","name_a2s":"Uncletopia | Frankfurt | 6 | All Maps","protocol":17,"map":"cp_altitude","folder":"tf","game":"Team Fortress","app_id":440,"player_count":0,"max_players":24,"Bots":0,"server_type":"Dedicated","server_os":"Linux","password":true,"vac":true,"version":"7961495","steam_id":85568392924504278,"keywords":["cp","nocrits","nodmgspread","uncletopia"],"game_id":440,"stv_port":27066,"stv_name":"Uncletopia | Frankfurt | 6 | All Maps | STV","players":null},{"server_id":23,"name":"Uncletopia | Frankfurt | 7 | Stopwatch","name_short":"frk-7","host":"frk-1.de.uncletopia.com","port":27075,"enabled":true,"region":"eu","cc":"de","latitude":50.110924,"longitude":8.682127,"reserved":0,"last_update":"0001-01-01T00:00:00Z","name_a2s":"Uncletopia | Frankfurt | 7 | Stopwatch","protocol":17,"map":"pl_frontier_final","folder":"tf","game":"Team Fortress","app_id":440,"player_count":0,"max_players":24,"Bots":0,"server_type":"Dedicated","server_os":"Linux","password":true,"vac":true,"version":"7961495","steam_id":85568392924742827,"keywords":["nocrits","nodmgspread","payload","uncletopia"],"game_id":440,"stv_port":27076,"stv_name":"Uncletopia | Frankfurt | 7 | Stopwatch | STV","players":null},{"server_id":24,"name":"Uncletopia | Frankfurt | 8 | Community","name_short":"frk-8","host":"frk-1.de.uncletopia.com","port":27085,"enabled":true,"region":"eu","cc":"de","latitude":50.110924,"longitude":8.682127,"reserved":0,"last_update":"0001-01-01T00:00:00Z","name_a2s":"Uncletopia | Frankfurt | 8 | Community","protocol":17,"map":"cp_mountainlab","folder":"tf","game":"Team Fortress","app_id":440,"player_count":0,"max_players":24,"Bots":0,"server_type":"Dedicated","server_os":"Linux","password":true,"vac":true,"version":"7961495","steam_id":85568392924742828,"keywords":["cp","nocrits","nodmgspread","uncletopia"],"game_id":440,"stv_port":27086,"stv_name":"Uncletopia | Frankfurt | 8 | Community | STV","players":null},{"server_id":202,"name":"Uncletopia | Hong Kong | 1 | All Maps","name_short":"hgk-1","host":"hgk-1.hk.uncletopia.com","port":27015,"enabled":true,"region":"asia","cc":"hk","latitude":22.302711,"longitude":114.177216,"reserved":0,"last_update":"0001-01-01T00:00:00Z","name_a2s":"Uncletopia | Hong Kong | 1 | All Maps","protocol":17,"map":"cp_mountainlab","folder":"tf","game":"Team Fortress","app_id":440,"player_count":0,"max_players":24,"Bots":0,"server_type":"Dedicated","server_os":"Linux","password":true,"vac":true,"version":"7961495","steam_id":85568392924494504,"keywords":["cp","nocrits","nodmgspread","uncletopia"],"game_id":440,"stv_port":27016,"stv_name":"Uncletopia | Hong Kong | 1 | All Maps | STV","players":null},{"server_id":1,"name":"Uncletopia | Los Angeles | 1 | All Maps","name_short":"lax-1","host":"lax-1.us.uncletopia.com","port":27015,"enabled":true,"region":"us-west","cc":"us","latitude":33.94279,"longitude":-118.41004,"reserved":0,"last_update":"0001-01-01T00:00:00Z","name_a2s":"Uncletopia | Los Angeles | 1 | All Maps","protocol":17,"map":"koth_harvest_final","folder":"tf","game":"Team Fortress","app_id":440,"player_count":22,"max_players":24,"Bots":0,"server_type":"Dedicated","server_os":"Linux","password":true,"vac":true,"version":"7961495","steam_id":85568392924469991,"keywords":["cp","nocrits","nodmgspread","uncletopia"],"game_id":440,"stv_port":27016,"stv_name":"Uncletopia | Los Angeles | 1 | All Maps | STV","players":[{"user_id":243,"name":"johnny","steam_id":76561198050225055,"connected_time":5566000000000,"state":"active","ping":44},{"user_id":305,"name":"Dova","steam_id":76561198079481047,"connected_time":1252000000000,"state":"active","ping":45},{"user_id":271,"name":"SomeStranger17","steam_id":76561199488770736,"connected_time":3826000000000,"state":"active","ping":56},{"user_id":300,"name":"Mihalys","steam_id":76561198076645019,"connected_time":1631000000000,"state":"active","ping":72},{"user_id":327,"name":"unprofessional golf player","steam_id":76561198308071306,"connected_time":85000000000,"state":"active","ping":45},{"user_id":304,"name":"bwah...! :3","steam_id":76561198084708100,"connected_time":1287000000000,"state":"active","ping":48},{"user_id":287,"name":"Y1719","steam_id":76561198284034248,"connected_time":2745000000000,"state":"active","ping":92},{"user_id":294,"name":"Human Resources Manager","steam_id":76561198066386411,"connected_time":2077000000000,"state":"active","ping":62},{"user_id":319,"name":"kebo","steam_id":76561198237159430,"connected_time":346000000000,"state":"active","ping":61},{"user_id":307,"name":"TheTalentlessChicken","steam_id":76561198148390834,"connected_time":1237000000000,"state":"active","ping":79},{"user_id":323,"name":"ROTTINGGIRL","steam_id":76561198051445358,"connected_time":161000000000,"state":"active","ping":31},{"user_id":282,"name":"Therapy Goth","steam_id":76561198048448497,"connected_time":3554000000000,"state":"active","ping":116},{"user_id":260,"name":"celestia ludenberg","steam_id":76561199196437823,"connected_time":4489000000000,"state":"active","ping":58},{"user_id":321,"name":"Seriously Bruh","steam_id":76561198070408485,"connected_time":200000000000,"state":"active","ping":73},{"user_id":253,"name":"SanitysEdge","steam_id":76561198130732813,"connected_time":5049000000000,"state":"active","ping":48},{"user_id":320,"name":"what the fuck is that !?","steam_id":76561198145669711,"connected_time":346000000000,"state":"active","ping":43},{"user_id":322,"name":"Gully","steam_id":76561198215799192,"connected_time":194000000000,"state":"active","ping":77},{"user_id":325,"name":"Mom","steam_id":76561198207936000,"connected_time":138000000000,"state":"active","ping":47},{"user_id":318,"name":"Owl_eyes","steam_id":76561198066199203,"connected_time":552000000000,"state":"active","ping":74},{"user_id":312,"name":"poyo","steam_id":76561198067745657,"connected_time":1059000000000,"state":"active","ping":86},{"user_id":315,"name":"ERR://23¤Y/","steam_id":76561197991015780,"connected_time":980000000000,"state":"active","ping":76},{"user_id":291,"name":"Violet The Derg","steam_id":76561198002525691,"connected_time":2618000000000,"state":"active","ping":80}]},{"server_id":112,"name":"Uncletopia | Los Angeles | 2 | All Maps","name_short":"lax-2","host":"lax-1.us.uncletopia.com","port":27025,"enabled":true,"region":"us-west","cc":"us","latitude":33.94279,"longitude":-118.41004,"reserved":0,"last_update":"0001-01-01T00:00:00Z","name_a2s":"Uncletopia | Los Angeles | 2 | All Maps","protocol":17,"map":"koth_highpass","folder":"tf","game":"Team Fortress","app_id":440,"player_count":0,"max_players":24,"Bots":0,"server_type":"Dedicated","server_os":"Linux","password":true,"vac":true,"version":"7961495","steam_id":85568392924469992,"keywords":["cp","nocrits","nodmgspread","uncletopia"],"game_id":440,"stv_port":27026,"stv_name":"Uncletopia | Los Angeles | 2 | All Maps | STV","players":null},{"server_id":324,"name":"Uncletopia | Los Angeles | 3 | All Maps","name_short":"lax-3","host":"lax-1.us.uncletopia.com","port":27035,"enabled":true,"region":"us-west","cc":"us","latitude":33.94279,"longitude":-118.41004,"reserved":0,"last_update":"0001-01-01T00:00:00Z","name_a2s":"Uncletopia | Los Angeles | 3 | All Maps","protocol":17,"map":"pl_borneo","folder":"tf","game":"Team Fortress","app_id":440,"player_count":23,"max_players":24,"Bots":0,"server_type":"Dedicated","server_os":"Linux","password":true,"vac":true,"version":"7961495","steam_id":85568392924510198,"keywords":["nocrits","nodmgspread","payload","uncletopia"],"game_id":440,"stv_port":27036,"stv_name":"Uncletopia | Los Angeles | 3 | All Maps | STV","players":[{"user_id":471,"name":"ashwee","steam_id":76561198204926435,"connected_time":1212000000000,"state":"active","ping":57},{"user_id":485,"name":"GLXy","steam_id":76561198207551544,"connected_time":784000000000,"state":"active","ping":69},{"user_id":490,"name":"Money Gang","steam_id":76561199167836944,"connected_time":453000000000,"state":"active","ping":95},{"user_id":497,"name":"Gyr0sphere","steam_id":76561198183900735,"connected_time":38000000000,"state":"active","ping":60},{"user_id":462,"name":"Paperclip","steam_id":76561198057076337,"connected_time":2246000000000,"state":"active","ping":83},{"user_id":476,"name":"SwaggyDingo","steam_id":76561198066500928,"connected_time":945000000000,"state":"active","ping":71},{"user_id":358,"name":"rat","steam_id":76561198130412963,"connected_time":6564000000000,"state":"active","ping":79},{"user_id":472,"name":"ZombieSlayer77","steam_id":76561199023974356,"connected_time":1198000000000,"state":"active","ping":108},{"user_id":493,"name":"Neopolitan","steam_id":76561198065000185,"connected_time":294000000000,"state":"active","ping":60},{"user_id":451,"name":"moe","steam_id":76561198929586245,"connected_time":2606000000000,"state":"active","ping":37},{"user_id":477,"name":"shreklover69","steam_id":76561198054070811,"connected_time":921000000000,"state":"active","ping":55},{"user_id":478,"name":"sophia!!! (killer)","steam_id":76561198049802690,"connected_time":910000000000,"state":"active","ping":74},{"user_id":470,"name":"Soap","steam_id":76561198117342640,"connected_time":1631000000000,"state":"active","ping":59},{"user_id":480,"name":"Risky","steam_id":76561198231029328,"connected_time":878000000000,"state":"active","ping":64},{"user_id":495,"name":"supcupman","steam_id":76561198051513866,"connected_time":82000000000,"state":"active","ping":78},{"user_id":486,"name":"Timewaves","steam_id":76561198000186054,"connected_time":665000000000,"state":"active","ping":45},{"user_id":481,"name":"Frosted Lighted Ornament","steam_id":76561197971250619,"connected_time":853000000000,"state":"active","ping":53},{"user_id":482,"name":"LuxBuster","steam_id":76561198319592435,"connected_time":840000000000,"state":"active","ping":70},{"user_id":494,"name":"Spoilet","steam_id":76561198144594945,"connected_time":226000000000,"state":"active","ping":102},{"user_id":457,"name":"HopeTheNeko","steam_id":76561199159285465,"connected_time":2493000000000,"state":"active","ping":61},{"user_id":487,"name":"PainInTheRuss","steam_id":76561197977960543,"connected_time":640000000000,"state":"active","ping":51},{"user_id":496,"name":"lordstinkdemon666","steam_id":76561198073914311,"connected_time":81000000000,"state":"active","ping":44},{"user_id":386,"name":"wormie","steam_id":76561199486473985,"connected_time":5213000000000,"state":"active","ping":48}]},{"server_id":25,"name":"Uncletopia | Los Angeles | 4 | Stopwatch","name_short":"lax-4","host":"lax-1.us.uncletopia.com","port":27045,"enabled":true,"region":"us-west","cc":"us","latitude":33.94279,"longitude":-118.41004,"reserved":0,"last_update":"0001-01-01T00:00:00Z","name_a2s":"Uncletopia | Los Angeles | 4 | Stopwatch","protocol":17,"map":"workshop/koth_ashville_final.ugc2130459942","folder":"tf","game":"Team Fortress","app_id":440,"player_count":0,"max_players":24,"Bots":0,"server_type":"Dedicated","server_os":"Linux","password":true,"vac":true,"version":"7961495","steam_id":85568392924510199,"keywords":["cp","nocrits","nodmgspread","uncletopia"],"game_id":440,"stv_port":27046,"stv_name":"Uncletopia | Los Angeles | 4 | Stopwatch | STV","players":null},{"server_id":11,"name":"Uncletopia | London | 1 | All Maps","name_short":"lon-1","host":"lon-1.uk.uncletopia.com","port":27015,"enabled":true,"region":"eu","cc":"gb","latitude":51.509865,"longitude":-0.118092,"reserved":0,"last_update":"0001-01-01T00:00:00Z","name_a2s":"Uncletopia | London | 1 | All Maps","protocol":17,"map":"pl_snowycoast","folder":"tf","game":"Team Fortress","app_id":440,"player_count":24,"max_players":24,"Bots":0,"server_type":"Dedicated","server_os":"Linux","password":true,"vac":true,"version":"7961495","steam_id":85568392924367362,"keywords":["nocrits","nodmgspread","payload","uncletopia"],"game_id":440,"stv_port":27016,"stv_name":"Uncletopia | London | 1 | All Maps | STV","players":[{"user_id":778,"name":"james_bondage","steam_id":76561199476062624,"connected_time":594000000000,"state":"active","ping":146},{"user_id":777,"name":"Shkeeee","steam_id":76561198055372905,"connected_time":658000000000,"state":"active","ping":45},{"user_id":736,"name":"Calsim","steam_id":76561198164877219,"connected_time":3613000000000,"state":"active","ping":35},{"user_id":779,"name":"SenitorD","steam_id":76561198088916978,"connected_time":560000000000,"state":"active","ping":55},{"user_id":765,"name":"Rui","steam_id":76561198263735498,"connected_time":1855000000000,"state":"active","ping":85},{"user_id":753,"name":"Chef__7","steam_id":76561199056921540,"connected_time":2244000000000,"state":"active","ping":147},{"user_id":774,"name":"lan","steam_id":76561198198519262,"connected_time":1090000000000,"state":"active","ping":48},{"user_id":780,"name":"Бомж по им. Джек","steam_id":76561198164988015,"connected_time":490000000000,"state":"active","ping":89},{"user_id":756,"name":"MIRU","steam_id":76561198053022629,"connected_time":2140000000000,"state":"active","ping":85},{"user_id":757,"name":"Monkey","steam_id":76561198093301834,"connected_time":2139000000000,"state":"active","ping":70},{"user_id":764,"name":"TeazFuzz","steam_id":76561198094609931,"connected_time":1977000000000,"state":"active","ping":71},{"user_id":746,"name":"B_Rocka","steam_id":76561198039425580,"connected_time":2596000000000,"state":"active","ping":50},{"user_id":771,"name":"Koranae","steam_id":76561198343198306,"connected_time":1146000000000,"state":"active","ping":59},{"user_id":747,"name":"Wersser","steam_id":76561198371172588,"connected_time":2548000000000,"state":"active","ping":146},{"user_id":759,"name":"去吃胡萝卜笨蛋","steam_id":76561198069649097,"connected_time":2136000000000,"state":"active","ping":54},{"user_id":760,"name":"valera","steam_id":76561198188478409,"connected_time":2107000000000,"state":"active","ping":98},{"user_id":767,"name":"Shallaska","steam_id":76561198019030896,"connected_time":1405000000000,"state":"active","ping":59},{"user_id":761,"name":"Lyncurion","steam_id":76561199260022725,"connected_time":2081000000000,"state":"active","ping":81},{"user_id":782,"name":"scott steiners strongest warrio","steam_id":76561198148888622,"connected_time":351000000000,"state":"active","ping":65},{"user_id":763,"name":"1# Crazy Frog Fan","steam_id":76561198090215149,"connected_time":2047000000000,"state":"active","ping":55},{"user_id":725,"name":"Syke Jr","steam_id":76561198038479641,"connected_time":4621000000000,"state":"active","ping":65},{"user_id":748,"name":"Relativity92","steam_id":76561198167075182,"connected_time":2528000000000,"state":"active","ping":157},{"user_id":776,"name":"...","steam_id":76561199043420118,"connected_time":1022000000000,"state":"active","ping":118},{"user_id":714,"name":"geroxe cruo","steam_id":76561199480942903,"connected_time":5517000000000,"state":"active","ping":75}]},{"server_id":114,"name":"Uncletopia | London | 2 | All Maps","name_short":"lon-2","host":"lon-1.uk.uncletopia.com","port":27025,"enabled":true,"region":"eu","cc":"gb","latitude":51.509865,"longitude":-0.118092,"reserved":0,"last_update":"0001-01-01T00:00:00Z","name_a2s":"Uncletopia | London | 2 | All Maps","protocol":17,"map":"koth_cascade","folder":"tf","game":"Team Fortress","app_id":440,"player_count":0,"max_players":24,"Bots":0,"server_type":"Dedicated","server_os":"Linux","password":true,"vac":true,"version":"7961495","steam_id":85568392924470941,"keywords":["cp","nocrits","nodmgspread","uncletopia"],"game_id":440,"stv_port":27026,"stv_name":"Uncletopia | London | 2 | All Maps | STV","players":null},{"server_id":320,"name":"Uncletopia | London | 3 | All Maps","name_short":"lon-3","host":"lon-1.uk.uncletopia.com","port":27035,"enabled":true,"region":"eu","cc":"gb","latitude":51.509865,"longitude":-0.118092,"reserved":0,"last_update":"0001-01-01T00:00:00Z","name_a2s":"Uncletopia | London | 3 | All Maps","protocol":17,"map":"pl_badwater","folder":"tf","game":"Team Fortress","app_id":440,"player_count":0,"max_players":24,"Bots":0,"server_type":"Dedicated","server_os":"Linux","password":true,"vac":true,"version":"7961495","steam_id":85568392924510192,"keywords":["nocrits","nodmgspread","payload","uncletopia"],"game_id":440,"stv_port":27036,"stv_name":"Uncletopia | London | 3 | All Maps | STV","players":null},{"server_id":321,"name":"Uncletopia | London | 4 | All Maps","name_short":"lon-4","host":"lon-1.uk.uncletopia.com","port":27045,"enabled":true,"region":"eu","cc":"gb","latitude":51.509865,"longitude":-0.118092,"reserved":0,"last_update":"0001-01-01T00:00:00Z","name_a2s":"Uncletopia | London | 4 | All Maps","protocol":17,"map":"koth_harvest_final","folder":"tf","game":"Team Fortress","app_id":440,"player_count":3,"max_players":24,"Bots":0,"server_type":"Dedicated","server_os":"Linux","password":true,"vac":true,"version":"7961495","steam_id":85568392924510193,"keywords":["cp","nocrits","nodmgspread","uncletopia"],"game_id":440,"stv_port":27046,"stv_name":"Uncletopia | London | 4 | All Maps | STV","players":[{"user_id":718,"name":"vert2spooky / / 月読命","steam_id":76561198914976373,"connected_time":1100000000000,"state":"active","ping":31},{"user_id":722,"name":"Rick Makakezzz","steam_id":76561198057495653,"connected_time":271000000000,"state":"active","ping":82},{"user_id":677,"name":"yuno appreciator","steam_id":76561198083286511,"connected_time":6664000000000,"state":"active","ping":30}]},{"server_id":21,"name":"Uncletopia | London | 5 | All Maps","name_short":"lon-5","host":"lon-1.uk.uncletopia.com","port":27055,"enabled":true,"region":"eu","cc":"gb","latitude":51.509865,"longitude":-0.118092,"reserved":0,"last_update":"0001-01-01T00:00:00Z","name_a2s":"Uncletopia | London | 5 | All Maps","protocol":17,"map":"koth_lakeside_final","folder":"tf","game":"Team Fortress","app_id":440,"player_count":0,"max_players":24,"Bots":0,"server_type":"Dedicated","server_os":"Linux","password":true,"vac":true,"version":"7961495","steam_id":85568392924742829,"keywords":["cp","nocrits","nodmgspread","uncletopia"],"game_id":440,"stv_port":27056,"stv_name":"Uncletopia | London | 5 | All Maps | STV","players":null},{"server_id":22,"name":"Uncletopia | London | 6 | All Maps","name_short":"lon-6","host":"lon-1.uk.uncletopia.com","port":27065,"enabled":true,"region":"eu","cc":"gb","latitude":51.509865,"longitude":-0.118092,"reserved":0,"last_update":"0001-01-01T00:00:00Z","name_a2s":"Uncletopia | London | 6 | All Maps","protocol":17,"map":"cp_snakewater_final1","folder":"tf","game":"Team Fortress","app_id":440,"player_count":0,"max_players":24,"Bots":0,"server_type":"Dedicated","server_os":"Linux","password":true,"vac":true,"version":"7961495","steam_id":85568392924742830,"keywords":["cp","nocrits","nodmgspread","uncletopia"],"game_id":440,"stv_port":27066,"stv_name":"Uncletopia | London | 6 | All Maps | STV","players":null},{"server_id":40,"name":"Uncletopia | London | 7 | Stopwatch","name_short":"lon-7","host":"lon-1.uk.uncletopia.com","port":27075,"enabled":true,"region":"eu","cc":"gb","latitude":51.509865,"longitude":-0.118092,"reserved":0,"last_update":"0001-01-01T00:00:00Z","name_a2s":"Uncletopia | London | 7 | Stopwatch","protocol":17,"map":"workshop/koth_ramjam_rc1.ugc459778887","folder":"tf","game":"Team Fortress","app_id":440,"player_count":0,"max_players":24,"Bots":0,"server_type":"Dedicated","server_os":"Linux","password":true,"vac":true,"version":"7961495","steam_id":85568392924964314,"keywords":["cp","nocrits","nodmgspread","uncletopia"],"game_id":440,"stv_port":27076,"stv_name":"Uncletopia | London | 7 | Stopwatch | STV","players":null},{"server_id":41,"name":"Uncletopia | London | 8 | Community","name_short":"lon-8","host":"lon-1.uk.uncletopia.com","port":27085,"enabled":true,"region":"eu","cc":"gb","latitude":51.509865,"longitude":-0.118092,"reserved":0,"last_update":"0001-01-01T00:00:00Z","name_a2s":"Uncletopia | London | 8 | Community","protocol":17,"map":"workshop/cp_reckoner_rc6.ugc674719999","folder":"tf","game":"Team Fortress","app_id":440,"player_count":0,"max_players":24,"Bots":0,"server_type":"Dedicated","server_os":"Linux","password":true,"vac":true,"version":"7961495","steam_id":85568392924964315,"keywords":["cp","nocrits","nodmgspread","uncletopia"],"game_id":440,"stv_port":27086,"stv_name":"Uncletopia | London | 8 | Community | STV","players":null},{"server_id":300,"name":"Uncletopia | Montréal | 1 | One Thousand Uncles","name_short":"mtl-1","host":"mtl-1.ca.uncletopia.com","port":27015,"enabled":true,"region":"us-east","cc":"ca","latitude":45.50889,"longitude":-73.56167,"reserved":0,"last_update":"0001-01-01T00:00:00Z","name_a2s":"","protocol":0,"map":"","folder":"","game":"","app_id":0,"player_count":3,"max_players":0,"Bots":0,"server_type":"","server_os":"","password":false,"vac":false,"version":"","steam_id":0,"keywords":null,"game_id":0,"stv_port":0,"stv_name":"","players":[{"user_id":63,"name":"KnightMan","steam_id":76561198143531192,"connected_time":9810000000000,"state":"active","ping":77},{"user_id":108,"name":"Feet Bandit","steam_id":76561199152252878,"connected_time":178000000000,"state":"active","ping":68},{"user_id":86,"name":"Whompert","steam_id":76561198042939624,"connected_time":3445000000000,"state":"active","ping":73}]},{"server_id":301,"name":"Uncletopia | Montréal | 2 | One Thousand Uncles","name_short":"mtl-2","host":"mtl-1.ca.uncletopia.com","port":27025,"enabled":true,"region":"us-east","cc":"ca","latitude":45.50889,"longitude":-73.56167,"reserved":0,"last_update":"0001-01-01T00:00:00Z","name_a2s":"","protocol":0,"map":"","folder":"","game":"","app_id":0,"player_count":1,"max_players":0,"Bots":0,"server_type":"","server_os":"","password":false,"vac":false,"version":"","steam_id":0,"keywords":null,"game_id":0,"stv_port":0,"stv_name":"","players":[{"user_id":356,"name":"Holiday Fartcruise","steam_id":76561198043851584,"connected_time":421000000000,"state":"active","ping":129}]},{"server_id":302,"name":"Uncletopia | Montréal | 3 | One Thousand Uncles","name_short":"mtl-3","host":"mtl-1.ca.uncletopia.com","port":27035,"enabled":true,"region":"us-east","cc":"ca","latitude":45.50889,"longitude":-73.56167,"reserved":0,"last_update":"0001-01-01T00:00:00Z","name_a2s":"","protocol":0,"map":"","folder":"","game":"","app_id":0,"player_count":0,"max_players":0,"Bots":0,"server_type":"","server_os":"","password":false,"vac":false,"version":"","steam_id":0,"keywords":null,"game_id":0,"stv_port":0,"stv_name":"","players":null},{"server_id":13,"name":"Uncletopia | New York City | 1 | All Maps","name_short":"nyc-1","host":"nyc-1.us.uncletopia.com","port":27015,"enabled":true,"region":"us-east","cc":"us","latitude":40.73061,"longitude":-73.93524,"reserved":0,"last_update":"0001-01-01T00:00:00Z","name_a2s":"Uncletopia | New York City | 1 | All Maps","protocol":17,"map":"pl_barnblitz","folder":"tf","game":"Team Fortress","app_id":440,"player_count":24,"max_players":24,"Bots":0,"server_type":"Dedicated","server_os":"Linux","password":true,"vac":true,"version":"7961495","steam_id":85568392924469993,"keywords":["nocrits","nodmgspread","payload","uncletopia"],"game_id":440,"stv_port":27016,"stv_name":"Uncletopia | New York City | 1 | All Maps | STV","players":[{"user_id":692,"name":"kefkja","steam_id":76561198283963218,"connected_time":3571000000000,"state":"active","ping":48},{"user_id":712,"name":"gnome zone","steam_id":76561198883349445,"connected_time":2458000000000,"state":"active","ping":123},{"user_id":693,"name":"Professor Shaggy","steam_id":76561198276926724,"connected_time":3565000000000,"state":"active","ping":46},{"user_id":722,"name":"ndvr","steam_id":76561199379200102,"connected_time":1024000000000,"state":"active","ping":52},{"user_id":710,"name":"Mr.Bady","steam_id":76561199094651706,"connected_time":2573000000000,"state":"active","ping":59},{"user_id":630,"name":"on that zaza?","steam_id":76561198038713198,"connected_time":8653000000000,"state":"active","ping":49},{"user_id":676,"name":"space man","steam_id":76561198066333670,"connected_time":5687000000000,"state":"active","ping":60},{"user_id":716,"name":"a single slightly peeled banana","steam_id":76561198088228092,"connected_time":1846000000000,"state":"active","ping":134},{"user_id":697,"name":"joyeuxnoelle","steam_id":76561198062423120,"connected_time":3415000000000,"state":"active","ping":59},{"user_id":717,"name":"kips","steam_id":76561198047171706,"connected_time":1746000000000,"state":"active","ping":114},{"user_id":727,"name":"WalrusNyetheBonkGuy","steam_id":76561197995626774,"connected_time":424000000000,"state":"active","ping":129},{"user_id":686,"name":"An Untitled PNG","steam_id":76561198155511529,"connected_time":3973000000000,"state":"active","ping":97},{"user_id":619,"name":"Emberdened","steam_id":76561199163688421,"connected_time":9702000000000,"state":"active","ping":100},{"user_id":725,"name":"Triple Lizard","steam_id":76561198188459654,"connected_time":627000000000,"state":"active","ping":51},{"user_id":698,"name":"Luka Doncic","steam_id":76561198072779843,"connected_time":3396000000000,"state":"active","ping":44},{"user_id":728,"name":"John Fortnite","steam_id":76561198076608253,"connected_time":363000000000,"state":"active","ping":56},{"user_id":713,"name":"Genetic Komodo (He/Him)","steam_id":76561198174806758,"connected_time":2441000000000,"state":"active","ping":86},{"user_id":721,"name":"Sicko Mode (Chris Pratt Cover)","steam_id":76561198315786174,"connected_time":1560000000000,"state":"active","ping":63},{"user_id":718,"name":"Dullahan","steam_id":76561198119668908,"connected_time":1688000000000,"state":"active","ping":120},{"user_id":702,"name":"finish that puzzle","steam_id":76561198054815524,"connected_time":3329000000000,"state":"active","ping":49},{"user_id":723,"name":"𝑑𝑜𝑙𝑝ℎ𝑖𝑛.","steam_id":76561198294013916,"connected_time":838000000000,"state":"active","ping":45},{"user_id":719,"name":"Stunner","steam_id":76561198063197896,"connected_time":1642000000000,"state":"active","ping":130},{"user_id":711,"name":"A Puppy","steam_id":76561198828184456,"connected_time":2572000000000,"state":"active","ping":56},{"user_id":720,"name":"GreenApples","steam_id":76561198120559543,"connected_time":1602000000000,"state":"active","ping":124}]},{"server_id":14,"name":"Uncletopia | New York City | 2 | All Maps","name_short":"nyc-2","host":"nyc-1.us.uncletopia.com","port":27025,"enabled":true,"region":"us-east","cc":"us","latitude":40.73061,"longitude":-73.93524,"reserved":0,"last_update":"0001-01-01T00:00:00Z","name_a2s":"Uncletopia | New York City | 2 | All Maps","protocol":17,"map":"cp_snakewater_final1","folder":"tf","game":"Team Fortress","app_id":440,"player_count":24,"max_players":24,"Bots":0,"server_type":"Dedicated","server_os":"Linux","password":true,"vac":true,"version":"7961495","steam_id":85568392924469994,"keywords":["cp","nocrits","nodmgspread","uncletopia"],"game_id":440,"stv_port":27026,"stv_name":"Uncletopia | New York City | 2 | All Maps | STV","players":[{"user_id":580,"name":"Shemply","steam_id":76561198193658910,"connected_time":3109000000000,"state":"active","ping":88},{"user_id":618,"name":"feed lips","steam_id":76561197971152439,"connected_time":485000000000,"state":"active","ping":76},{"user_id":556,"name":"Two-Teste Tommy","steam_id":76561198064308936,"connected_time":4167000000000,"state":"active","ping":62},{"user_id":607,"name":"AMistake","steam_id":76561199379196708,"connected_time":1098000000000,"state":"active","ping":73},{"user_id":610,"name":"Snoopist","steam_id":76561198144023761,"connected_time":914000000000,"state":"active","ping":59},{"user_id":600,"name":"bongwater","steam_id":76561198101899047,"connected_time":2266000000000,"state":"active","ping":75},{"user_id":620,"name":"eh dab","steam_id":76561198051448404,"connected_time":121000000000,"state":"active","ping":87},{"user_id":611,"name":"Venumb Bengal","steam_id":76561198156498290,"connected_time":881000000000,"state":"active","ping":85},{"user_id":603,"name":"Person","steam_id":76561198093244204,"connected_time":1682000000000,"state":"active","ping":71},{"user_id":597,"name":"quack","steam_id":76561198138783216,"connected_time":2521000000000,"state":"active","ping":37},{"user_id":612,"name":"Phillip Jeffries","steam_id":76561198064052174,"connected_time":862000000000,"state":"active","ping":56},{"user_id":613,"name":"PsychoGhoul","steam_id":76561198105201552,"connected_time":678000000000,"state":"active","ping":100},{"user_id":614,"name":"Lemoncurry","steam_id":76561198045356414,"connected_time":628000000000,"state":"active","ping":66},{"user_id":602,"name":"WitheringLeo","steam_id":76561198046722918,"connected_time":1814000000000,"state":"active","ping":72},{"user_id":615,"name":"exten-z","steam_id":76561198004359190,"connected_time":584000000000,"state":"active","ping":47},{"user_id":592,"name":"Trouser Snivy","steam_id":76561198073788829,"connected_time":2642000000000,"state":"active","ping":123},{"user_id":543,"name":"Zephyr","steam_id":76561198063155482,"connected_time":5613000000000,"state":"active","ping":79},{"user_id":616,"name":"ms. capgras","steam_id":76561199080209996,"connected_time":581000000000,"state":"active","ping":80},{"user_id":569,"name":"Mixed Up","steam_id":76561198042570322,"connected_time":3662000000000,"state":"active","ping":76},{"user_id":527,"name":"The Winter Medic","steam_id":76561198197112922,"connected_time":6592000000000,"state":"active","ping":76},{"user_id":606,"name":"Shrimp Fried Rice","steam_id":76561198247688228,"connected_time":1515000000000,"state":"active","ping":91},{"user_id":598,"name":"werecat","steam_id":76561198005091213,"connected_time":2504000000000,"state":"active","ping":46},{"user_id":617,"name":"SteveC","steam_id":76561197994786195,"connected_time":572000000000,"state":"active","ping":56},{"user_id":619,"name":"kogasira","steam_id":76561198094152516,"connected_time":479000000000,"state":"active","ping":55}]},{"server_id":15,"name":"Uncletopia | New York City | 3 | Stopwatch","name_short":"nyc-3","host":"nyc-1.us.uncletopia.com","port":27035,"enabled":true,"region":"us-east","cc":"us","latitude":40.73061,"longitude":-73.93524,"reserved":0,"last_update":"0001-01-01T00:00:00Z","name_a2s":"Uncletopia | New York City | 3 | Stopwatch","protocol":17,"map":"workshop/koth_ashville_final.ugc2130459942","folder":"tf","game":"Team Fortress","app_id":440,"player_count":0,"max_players":24,"Bots":0,"server_type":"Dedicated","server_os":"Linux","password":true,"vac":true,"version":"7961495","steam_id":85568392924742820,"keywords":["cp","nocrits","nodmgspread","uncletopia"],"game_id":440,"stv_port":27036,"stv_name":"Uncletopia | New York City | 3 | Stopwatch | STV","players":null},{"server_id":16,"name":"Uncletopia | New York City | 4 | Community","name_short":"nyc-4","host":"nyc-1.us.uncletopia.com","port":27045,"enabled":true,"region":"us-east","cc":"us","latitude":40.73061,"longitude":-73.93524,"reserved":0,"last_update":"0001-01-01T00:00:00Z","name_a2s":"Uncletopia | New York City | 4 | Community","protocol":17,"map":"workshop/rd_asteroid_redux_b1.ugc2154902912","folder":"tf","game":"Team Fortress","app_id":440,"player_count":0,"max_players":24,"Bots":0,"server_type":"Dedicated","server_os":"Linux","password":true,"vac":true,"version":"7961495","steam_id":85568392924742821,"keywords":["beta","nocrits","nodmgspread","rd","uncletopia"],"game_id":440,"stv_port":27046,"stv_name":"Uncletopia | New York City | 4 | Community | STV","players":null},{"server_id":142,"name":"Uncletopia | São Paulo | 1 | All Maps","name_short":"sao-1","host":"sao-1.br.uncletopia.com","port":27015,"enabled":true,"region":"sa","cc":"br","latitude":-23.533773,"longitude":-46.62529,"reserved":0,"last_update":"0001-01-01T00:00:00Z","name_a2s":"Uncletopia | São Paulo | 1 | All Maps","protocol":17,"map":"koth_lakeside_final","folder":"tf","game":"Team Fortress","app_id":440,"player_count":0,"max_players":24,"Bots":0,"server_type":"Dedicated","server_os":"Linux","password":true,"vac":true,"version":"7961495","steam_id":85568392924469996,"keywords":["cp","nocrits","nodmgspread","uncletopia"],"game_id":440,"stv_port":27016,"stv_name":"Uncletopia | São Paulo | 1 | All Maps | STV","players":null},{"server_id":143,"name":"Uncletopia | São Paulo | 2 | Community","name_short":"sao-2","host":"sao-2.br.uncletopia.com","port":27015,"enabled":true,"region":"sa","cc":"br","latitude":-23.533773,"longitude":-46.62529,"reserved":0,"last_update":"0001-01-01T00:00:00Z","name_a2s":"Uncletopia | São Paulo | 2 | Community","protocol":17,"map":"workshop/koth_kemptown_rc1.ugc767410655","folder":"tf","game":"Team Fortress","app_id":440,"player_count":0,"max_players":24,"Bots":0,"server_type":"Dedicated","server_os":"Linux","password":true,"vac":true,"version":"7961495","steam_id":85568392924485349,"keywords":["cp","nocrits","nodmgspread","uncletopia"],"game_id":440,"stv_port":27016,"stv_name":"Uncletopia | São Paulo | 2 | Community | STV","players":null},{"server_id":7,"name":"Uncletopia | Seattle | 1 | All Maps","name_short":"sea-1","host":"sea-1.us.uncletopia.com","port":27015,"enabled":true,"region":"us-west","cc":"us","latitude":47.608013,"longitude":-122.33517,"reserved":0,"last_update":"0001-01-01T00:00:00Z","name_a2s":"Uncletopia | Seattle | 1 | All Maps","protocol":17,"map":"pl_badwater","folder":"tf","game":"Team Fortress","app_id":440,"player_count":24,"max_players":24,"Bots":0,"server_type":"Dedicated","server_os":"Linux","password":true,"vac":true,"version":"7961495","steam_id":85568392924469997,"keywords":["nocrits","nodmgspread","payload","uncletopia"],"game_id":440,"stv_port":27016,"stv_name":"Uncletopia | Seattle | 1 | All Maps | STV","players":[{"user_id":546,"name":"PopcornBucketGames","steam_id":76561199089562026,"connected_time":3124000000000,"state":"active","ping":42},{"user_id":574,"name":"O","steam_id":76561198450073779,"connected_time":421000000000,"state":"active","ping":38},{"user_id":575,"name":"Sailor","steam_id":76561199081983517,"connected_time":8000000000,"state":"spawning","ping":83},{"user_id":516,"name":"oo","steam_id":76561198119626492,"connected_time":5694000000000,"state":"active","ping":113},{"user_id":559,"name":"Sniff","steam_id":76561198010270922,"connected_time":1767000000000,"state":"active","ping":58},{"user_id":560,"name":"cerious","steam_id":76561197994365894,"connected_time":1498000000000,"state":"active","ping":36},{"user_id":544,"name":"Octopus","steam_id":76561198114639980,"connected_time":3394000000000,"state":"active","ping":66},{"user_id":569,"name":"WaffleWithNoToppings","steam_id":76561199088280111,"connected_time":852000000000,"state":"active","ping":49},{"user_id":418,"name":"Corbezy","steam_id":76561197993398349,"connected_time":16568000000000,"state":"active","ping":125},{"user_id":549,"name":"Havi","steam_id":76561198197832829,"connected_time":2297000000000,"state":"active","ping":50},{"user_id":564,"name":"Cam","steam_id":76561198285054047,"connected_time":1217000000000,"state":"active","ping":80},{"user_id":310,"name":"DaddyGalaxy","steam_id":76561198139697796,"connected_time":28652000000000,"state":"active","ping":50},{"user_id":547,"name":"Warlock","steam_id":76561199033164093,"connected_time":2842000000000,"state":"active","ping":33},{"user_id":540,"name":"DubiousDodo","steam_id":76561198828172686,"connected_time":3856000000000,"state":"active","ping":71},{"user_id":573,"name":"ed","steam_id":76561198080475712,"connected_time":544000000000,"state":"active","ping":75},{"user_id":535,"name":"Mignyanne :3","steam_id":76561198048754056,"connected_time":4365000000000,"state":"active","ping":64},{"user_id":554,"name":"Neptune˖⁺｡˚⋆˙♥","steam_id":76561199054203198,"connected_time":2242000000000,"state":"active","ping":116},{"user_id":555,"name":"Sweets","steam_id":76561198998446307,"connected_time":2242000000000,"state":"active","ping":60},{"user_id":525,"name":"Supersonic","steam_id":76561198042167127,"connected_time":5524000000000,"state":"active","ping":53},{"user_id":567,"name":"Nom Skirrett","steam_id":76561198014600788,"connected_time":889000000000,"state":"active","ping":65},{"user_id":502,"name":"Arsonist Goose","steam_id":76561198147441830,"connected_time":7179000000000,"state":"active","ping":73},{"user_id":570,"name":"Nobody121","steam_id":76561199227292137,"connected_time":772000000000,"state":"active","ping":47},{"user_id":572,"name":"Hithereeric","steam_id":76561199455086806,"connected_time":595000000000,"state":"active","ping":38},{"user_id":500,"name":"Gm_Sweet","steam_id":76561199445091548,"connected_time":7708000000000,"state":"active","ping":51}]},{"server_id":119,"name":"Uncletopia | Seattle | 2 | All Maps","name_short":"sea-2","host":"sea-1.us.uncletopia.com","port":27025,"enabled":true,"region":"us-west","cc":"us","latitude":47.608013,"longitude":-122.33517,"reserved":0,"last_update":"0001-01-01T00:00:00Z","name_a2s":"Uncletopia | Seattle | 2 | All Maps","protocol":17,"map":"pl_upward","folder":"tf","game":"Team Fortress","app_id":440,"player_count":24,"max_players":24,"Bots":0,"server_type":"Dedicated","server_os":"Linux","password":true,"vac":true,"version":"7961495","steam_id":85568392924469998,"keywords":["nocrits","nodmgspread","payload","uncletopia"],"game_id":440,"stv_port":27026,"stv_name":"Uncletopia | Seattle | 2 | All Maps | STV","players":[{"user_id":513,"name":"top 10 sidewalks","steam_id":76561198844273999,"connected_time":863000000000,"state":"active","ping":44},{"user_id":508,"name":"Clockwork0613","steam_id":76561198987121123,"connected_time":1322000000000,"state":"active","ping":74},{"user_id":453,"name":"lukamine","steam_id":76561198166827208,"connected_time":5861000000000,"state":"active","ping":44},{"user_id":496,"name":"dodecadron","steam_id":76561198027397222,"connected_time":1970000000000,"state":"active","ping":71},{"user_id":519,"name":"Toxic Medic Main (he/they)","steam_id":76561198009314845,"connected_time":389000000000,"state":"active","ping":63},{"user_id":392,"name":"ilun","steam_id":76561198042913843,"connected_time":10249000000000,"state":"active","ping":55},{"user_id":512,"name":"TheBrocklobster","steam_id":76561198039682984,"connected_time":919000000000,"state":"active","ping":86},{"user_id":497,"name":"scout","steam_id":76561199067766868,"connected_time":1959000000000,"state":"active","ping":47},{"user_id":507,"name":"[Industrial] A_HUMBLEBUMBLED","steam_id":76561198064771878,"connected_time":1344000000000,"state":"active","ping":30},{"user_id":491,"name":"2 Point Tom","steam_id":76561198087617008,"connected_time":2486000000000,"state":"active","ping":56},{"user_id":518,"name":"the Milky pirate","steam_id":76561198834350355,"connected_time":625000000000,"state":"active","ping":61},{"user_id":353,"name":"a familiar cat","steam_id":76561198080046542,"connected_time":13491000000000,"state":"active","ping":43},{"user_id":468,"name":"Strikerbolt","steam_id":76561199095622897,"connected_time":4579000000000,"state":"active","ping":77},{"user_id":515,"name":"C^a^L","steam_id":76561198241124222,"connected_time":836000000000,"state":"active","ping":70},{"user_id":451,"name":"Mocha Josie","steam_id":76561198066452726,"connected_time":5921000000000,"state":"active","ping":71},{"user_id":517,"name":"Giddy","steam_id":76561198271951969,"connected_time":694000000000,"state":"active","ping":78},{"user_id":494,"name":"Dr. Inkulus | snlnʞuI ˙ɹᗡ","steam_id":76561198212231033,"connected_time":2006000000000,"state":"active","ping":39},{"user_id":516,"name":"Johnny","steam_id":76561198126676516,"connected_time":779000000000,"state":"active","ping":62},{"user_id":511,"name":"Windows Vista Home Premium","steam_id":76561198043764863,"connected_time":949000000000,"state":"active","ping":73},{"user_id":481,"name":"Jazz Hands","steam_id":76561199225708271,"connected_time":3201000000000,"state":"active","ping":50},{"user_id":520,"name":"Tommy Two-Fists","steam_id":76561198354094084,"connected_time":132000000000,"state":"active","ping":85},{"user_id":489,"name":"get off the toilet","steam_id":76561198168492250,"connected_time":2884000000000,"state":"active","ping":62},{"user_id":408,"name":"Elijah123","steam_id":76561199037648021,"connected_time":9196000000000,"state":"active","ping":117},{"user_id":500,"name":"Julio Quantez","steam_id":76561198216600608,"connected_time":1903000000000,"state":"active","ping":70}]},{"server_id":406,"name":"Uncletopia | Seattle | 3 | Stopwatch","name_short":"sea-3","host":"sea-1.us.uncletopia.com","port":27035,"enabled":true,"region":"us-west","cc":"us","latitude":47.608013,"longitude":-122.33517,"reserved":0,"last_update":"0001-01-01T00:00:00Z","name_a2s":"Uncletopia | Seattle | 3 | Stopwatch","protocol":17,"map":"workshop/pl_badwater_pro_v12.ugc2142942074","folder":"tf","game":"Team Fortress","app_id":440,"player_count":0,"max_players":24,"Bots":0,"server_type":"Dedicated","server_os":"Linux","password":true,"vac":true,"version":"7961495","steam_id":85568392924515217,"keywords":["nocrits","nodmgspread","payload","uncletopia"],"game_id":440,"stv_port":27036,"stv_name":"Uncletopia | Seattle | 3 | Stopwatch | STV","players":null},{"server_id":17,"name":"Uncletopia | San Francisco | 1 | All Maps","name_short":"sfo-1","host":"sfo-1.us.uncletopia.com","port":27015,"enabled":true,"region":"us-west","cc":"us","latitude":37.77397,"longitude":-122.4313,"reserved":0,"last_update":"0001-01-01T00:00:00Z","name_a2s":"Uncletopia | San Francisco | 1 | All Maps","protocol":17,"map":"cp_dustbowl","folder":"tf","game":"Team Fortress","app_id":440,"player_count":24,"max_players":24,"Bots":0,"server_type":"Dedicated","server_os":"Linux","password":true,"vac":true,"version":"7961495","steam_id":85568392924469999,"keywords":["cp","nocrits","nodmgspread","uncletopia"],"game_id":440,"stv_port":27016,"stv_name":"Uncletopia | San Francisco | 1 | All Maps | STV","players":[{"user_id":87,"name":"Philanatidae","steam_id":76561198072652934,"connected_time":7469000000000,"state":"active","ping":82},{"user_id":156,"name":"rach9411","steam_id":76561198256535721,"connected_time":1200000000000,"state":"active","ping":193},{"user_id":112,"name":"Cats pretend they're smart","steam_id":76561197987182097,"connected_time":5093000000000,"state":"active","ping":50},{"user_id":167,"name":"the pizza is aggressive","steam_id":76561198057040611,"connected_time":860000000000,"state":"active","ping":65},{"user_id":158,"name":"......","steam_id":76561198067612741,"connected_time":1155000000000,"state":"active","ping":65},{"user_id":136,"name":"sincerelymagicmeister","steam_id":76561198393923543,"connected_time":3112000000000,"state":"active","ping":70},{"user_id":159,"name":"Dealer","steam_id":76561198801450794,"connected_time":1128000000000,"state":"active","ping":113},{"user_id":147,"name":"meph","steam_id":76561198149683030,"connected_time":2209000000000,"state":"active","ping":76},{"user_id":148,"name":"Zetta","steam_id":76561198045710113,"connected_time":2191000000000,"state":"active","ping":82},{"user_id":174,"name":"Lucky","steam_id":76561198124910662,"connected_time":127000000000,"state":"active","ping":58},{"user_id":169,"name":"Alice Hiiragi","steam_id":76561198094078478,"connected_time":726000000000,"state":"active","ping":61},{"user_id":88,"name":"Bige Rone","steam_id":76561198066718191,"connected_time":7469000000000,"state":"active","ping":62},{"user_id":152,"name":"Pissless Pissmass Pissman","steam_id":76561198409907417,"connected_time":2073000000000,"state":"active","ping":78},{"user_id":153,"name":"D class hero","steam_id":76561198066091050,"connected_time":1752000000000,"state":"active","ping":61},{"user_id":165,"name":"SQbuilder","steam_id":76561198076473375,"connected_time":942000000000,"state":"active","ping":60},{"user_id":75,"name":"big play","steam_id":76561198011675372,"connected_time":7844000000000,"state":"active","ping":73},{"user_id":154,"name":"TüCold","steam_id":76561198111278197,"connected_time":1582000000000,"state":"active","ping":53},{"user_id":173,"name":"Barn Dog","steam_id":76561198043850377,"connected_time":480000000000,"state":"active","ping":145},{"user_id":170,"name":"Goob","steam_id":76561198256918638,"connected_time":668000000000,"state":"active","ping":47},{"user_id":164,"name":"beefskewer","steam_id":76561198049992949,"connected_time":997000000000,"state":"active","ping":54},{"user_id":172,"name":"Red-Raven","steam_id":76561197971130794,"connected_time":610000000000,"state":"active","ping":82},{"user_id":166,"name":"JACK BRUNO","steam_id":76561198027957690,"connected_time":926000000000,"state":"active","ping":55},{"user_id":171,"name":"owl","steam_id":76561198088403016,"connected_time":667000000000,"state":"active","ping":150},{"user_id":151,"name":"lol","steam_id":76561198026491738,"connected_time":2107000000000,"state":"active","ping":54}]},{"server_id":18,"name":"Uncletopia | San Francisco | 2 | All Maps","name_short":"sfo-2","host":"sfo-1.us.uncletopia.com","port":27025,"enabled":true,"region":"us-west","cc":"us","latitude":37.77397,"longitude":-122.4313,"reserved":0,"last_update":"0001-01-01T00:00:00Z","name_a2s":"Uncletopia | San Francisco | 2 | All Maps","protocol":17,"map":"pl_badwater","folder":"tf","game":"Team Fortress","app_id":440,"player_count":0,"max_players":24,"Bots":0,"server_type":"Dedicated","server_os":"Linux","password":true,"vac":true,"version":"7961495","steam_id":85568392924470000,"keywords":["nocrits","nodmgspread","payload","uncletopia"],"game_id":440,"stv_port":27026,"stv_name":"Uncletopia | San Francisco | 2 | All Maps | STV","players":null},{"server_id":19,"name":"Uncletopia | San Francisco | 3 | Stopwatch","name_short":"sfo-3","host":"sfo-1.us.uncletopia.com","port":27035,"enabled":true,"region":"us-west","cc":"us","latitude":37.77397,"longitude":-122.4313,"reserved":0,"last_update":"0001-01-01T00:00:00Z","name_a2s":"Uncletopia | San Francisco | 3 | Stopwatch","protocol":17,"map":"workshop/koth_bagel_rc6.ugc2514036946","folder":"tf","game":"Team Fortress","app_id":440,"player_count":0,"max_players":24,"Bots":0,"server_type":"Dedicated","server_os":"Linux","password":true,"vac":true,"version":"7961495","steam_id":85568392924742824,"keywords":["cp","nocrits","nodmgspread","uncletopia"],"game_id":440,"stv_port":27036,"stv_name":"Uncletopia | San Francisco | 3 | Stopwatch | STV","players":null},{"server_id":20,"name":"Uncletopia | San Francisco | 4 | Community","name_short":"sfo-4","host":"sfo-1.us.uncletopia.com","port":27045,"enabled":true,"region":"us-west","cc":"us","latitude":37.77397,"longitude":-122.4313,"reserved":0,"last_update":"0001-01-01T00:00:00Z","name_a2s":"Uncletopia | San Francisco | 4 | Community","protocol":17,"map":"pl_pier","folder":"tf","game":"Team Fortress","app_id":440,"player_count":0,"max_players":24,"Bots":0,"server_type":"Dedicated","server_os":"Linux","password":true,"vac":true,"version":"7961495","steam_id":85568392924742826,"keywords":["nocrits","nodmgspread","payload","uncletopia"],"game_id":440,"stv_port":27046,"stv_name":"Uncletopia | San Francisco | 4 | Community | STV","players":null},{"server_id":141,"name":"Uncletopia | Sydney | 1 | All Maps","name_short":"syd-1","host":"syd-1.au.uncletopia.com","port":27015,"enabled":true,"region":"au","cc":"au","latitude":-33.865143,"longitude":151.2099,"reserved":0,"last_update":"0001-01-01T00:00:00Z","name_a2s":"Uncletopia | Sydney | 1 | All Maps","protocol":17,"map":"pl_badwater","folder":"tf","game":"Team Fortress","app_id":440,"player_count":7,"max_players":24,"Bots":0,"server_type":"Dedicated","server_os":"Linux","password":true,"vac":true,"version":"7961495","steam_id":85568392924470001,"keywords":["nocrits","nodmgspread","payload","uncletopia"],"game_id":440,"stv_port":27016,"stv_name":"Uncletopia | Sydney | 1 | All Maps | STV","players":[{"user_id":6,"name":"APVC","steam_id":76561199090168813,"connected_time":2539000000000,"state":"active","ping":45},{"user_id":8,"name":"i love cornflakes so much","steam_id":76561198238031616,"connected_time":2267000000000,"state":"active","ping":80},{"user_id":17,"name":"Dadszoo","steam_id":76561198296611122,"connected_time":974000000000,"state":"active","ping":62},{"user_id":18,"name":"UnknownProfile","steam_id":76561199274801264,"connected_time":216000000000,"state":"active","ping":78},{"user_id":19,"name":"ayyboiss","steam_id":76561199016434155,"connected_time":8000000000,"state":"spawning","ping":92},{"user_id":14,"name":"slime","steam_id":76561199176020333,"connected_time":1361000000000,"state":"active","ping":58},{"user_id":16,"name":"Sheen","steam_id":76561198203031976,"connected_time":1070000000000,"state":"active","ping":71}]},{"server_id":123,"name":"Uncletopia | Sydney | 2 | All Maps","name_short":"syd-2","host":"syd-1.au.uncletopia.com","port":27025,"enabled":true,"region":"au","cc":"au","latitude":-33.865143,"longitude":151.2099,"reserved":0,"last_update":"0001-01-01T00:00:00Z","name_a2s":"Uncletopia | Sydney | 2 | All Maps","protocol":17,"map":"koth_lakeside_final","folder":"tf","game":"Team Fortress","app_id":440,"player_count":0,"max_players":24,"Bots":0,"server_type":"Dedicated","server_os":"Linux","password":true,"vac":true,"version":"7961495","steam_id":85568392924470002,"keywords":["cp","nocrits","nodmgspread","uncletopia"],"game_id":440,"stv_port":27026,"stv_name":"Uncletopia | Sydney | 2 | All Maps | STV","players":null},{"server_id":395,"name":"Uncletopia | Sydney | 3 | All Maps","name_short":"syd-3","host":"syd-1.au.uncletopia.com","port":27035,"enabled":true,"region":"au","cc":"au","latitude":-33.865143,"longitude":151.2099,"reserved":0,"last_update":"0001-01-01T00:00:00Z","name_a2s":"Uncletopia | Sydney | 3 | All Maps","protocol":17,"map":"pl_frontier_final","folder":"tf","game":"Team Fortress","app_id":440,"player_count":0,"max_players":24,"Bots":0,"server_type":"Dedicated","server_os":"Linux","password":true,"vac":true,"version":"7961495","steam_id":85568392925194467,"keywords":["nocrits","nodmgspread","payload","uncletopia"],"game_id":440,"stv_port":27036,"stv_name":"Uncletopia | Sydney | 3 | All Maps | STV","players":null},{"server_id":396,"name":"Uncletopia | Sydney | 4 | All Maps","name_short":"syd-4","host":"syd-1.au.uncletopia.com","port":27045,"enabled":true,"region":"au","cc":"au","latitude":-33.865143,"longitude":151.2099,"reserved":0,"last_update":"0001-01-01T00:00:00Z","name_a2s":"Uncletopia | Sydney | 4 | All Maps","protocol":17,"map":"koth_lakeside_final","folder":"tf","game":"Team Fortress","app_id":440,"player_count":0,"max_players":24,"Bots":0,"server_type":"Dedicated","server_os":"Linux","password":true,"vac":true,"version":"7961495","steam_id":85568392925397958,"keywords":["cp","nocrits","nodmgspread","uncletopia"],"game_id":440,"stv_port":27046,"stv_name":"Uncletopia | Sydney | 4 | All Maps | STV","players":null},{"server_id":58,"name":"Uncletopia | Sydney | 5 | Stopwatch","name_short":"syd-5","host":"syd-1.au.uncletopia.com","port":27055,"enabled":true,"region":"au","cc":"au","latitude":-33.865143,"longitude":151.2099,"reserved":0,"last_update":"0001-01-01T00:00:00Z","name_a2s":"Uncletopia | Sydney | 5 | Stopwatch","protocol":17,"map":"cp_snakewater_final1","folder":"tf","game":"Team Fortress","app_id":440,"player_count":0,"max_players":24,"Bots":0,"server_type":"Dedicated","server_os":"Linux","password":true,"vac":true,"version":"7961495","steam_id":85568392925397959,"keywords":["cp","nocrits","nodmgspread","uncletopia"],"game_id":440,"stv_port":27056,"stv_name":"Uncletopia | Sydney | 5 | Stopwatch | STV","players":null},{"server_id":59,"name":"Uncletopia | Sydney | 6 | Community","name_short":"syd-6","host":"syd-1.au.uncletopia.com","port":27065,"enabled":true,"region":"au","cc":"au","latitude":-33.865143,"longitude":151.2099,"reserved":0,"last_update":"0001-01-01T00:00:00Z","name_a2s":"Uncletopia | Sydney | 6 | Community","protocol":17,"map":"cp_sunshine","folder":"tf","game":"Team Fortress","app_id":440,"player_count":0,"max_players":24,"Bots":0,"server_type":"Dedicated","server_os":"Linux","password":true,"vac":true,"version":"7961495","steam_id":85568392925397960,"keywords":["cp","nocrits","nodmgspread","uncletopia"],"game_id":440,"stv_port":27066,"stv_name":"Uncletopia | Sydney | 6 | Community | STV","players":null},{"server_id":49,"name":"Uncletopia | Warsaw | 1 | One Thousand Uncles","name_short":"waw-1","host":"waw-1.pl.uncletopia.com","port":27015,"enabled":true,"region":"eu","cc":"pl","latitude":52.2297,"longitude":21.017532,"reserved":0,"last_update":"0001-01-01T00:00:00Z","name_a2s":"Uncletopia | Warsaw | 1 | One Thousand Uncles","protocol":17,"map":"koth_highpass","folder":"tf","game":"Team Fortress","app_id":440,"player_count":0,"max_players":32,"Bots":0,"server_type":"Dedicated","server_os":"Linux","password":true,"vac":true,"version":"7961495","steam_id":85568392925397850,"keywords":["alltalk","cp","danepve","increased_maxplayers","nocrits","norespawntime","uncletopia"],"game_id":440,"stv_port":0,"stv_name":"","players":null},{"server_id":50,"name":"Uncletopia | Warsaw | 2 | One Thousand Uncles","name_short":"waw-2","host":"waw-1.pl.uncletopia.com","port":27025,"enabled":true,"region":"eu","cc":"pl","latitude":52.2297,"longitude":21.017532,"reserved":0,"last_update":"0001-01-01T00:00:00Z","name_a2s":"Uncletopia | Warsaw | 2 | One Thousand Uncles","protocol":17,"map":"pl_goldrush","folder":"tf","game":"Team Fortress","app_id":440,"player_count":0,"max_players":32,"Bots":0,"server_type":"Dedicated","server_os":"Linux","password":true,"vac":true,"version":"7961495","steam_id":85568392925397851,"keywords":["alltalk","danepve","increased_maxplayers","nocrits","norespawntime","payload","uncletopia"],"game_id":440,"stv_port":0,"stv_name":"","players":null},{"server_id":51,"name":"Uncletopia | Warsaw | 3 | All Maps","name_short":"waw-3","host":"waw-1.pl.uncletopia.com","port":27035,"enabled":true,"region":"eu","cc":"pl","latitude":52.2297,"longitude":21.017532,"reserved":0,"last_update":"0001-01-01T00:00:00Z","name_a2s":"Uncletopia | Warsaw | 3 | All Maps","protocol":17,"map":"plr_pipeline","folder":"tf","game":"Team Fortress","app_id":440,"player_count":0,"max_players":24,"Bots":0,"server_type":"Dedicated","server_os":"Linux","password":true,"vac":true,"version":"7961495","steam_id":85568392925397852,"keywords":["nocrits","nodmgspread","payload","uncletopia"],"game_id":440,"stv_port":27036,"stv_name":"Uncletopia | Warsaw | 3 | All Maps | STV","players":null},{"server_id":52,"name":"Uncletopia | Warsaw | 4 | All Maps","name_short":"waw-4","host":"waw-1.pl.uncletopia.com","port":27045,"enabled":true,"region":"eu","cc":"pl","latitude":52.2297,"longitude":21.017532,"reserved":0,"last_update":"0001-01-01T00:00:00Z","name_a2s":"Uncletopia | Warsaw | 4 | All Maps","protocol":17,"map":"cp_coldfront","folder":"tf","game":"Team Fortress","app_id":440,"player_count":0,"max_players":24,"Bots":0,"server_type":"Dedicated","server_os":"Linux","password":true,"vac":true,"version":"7961495","steam_id":85568392925397853,"keywords":["cp","nocrits","nodmgspread","uncletopia"],"game_id":440,"stv_port":27046,"stv_name":"Uncletopia | Warsaw | 4 | All Maps | STV","players":null},{"server_id":53,"name":"Uncletopia | Warsaw | 5 | Stopwatch","name_short":"waw-5","host":"waw-1.pl.uncletopia.com","port":27055,"enabled":true,"region":"eu","cc":"pl","latitude":52.2297,"longitude":21.017532,"reserved":0,"last_update":"0001-01-01T00:00:00Z","name_a2s":"Uncletopia | Warsaw | 5 | Stopwatch","protocol":17,"map":"workshop/koth_bagel_rc6.ugc2514036946","folder":"tf","game":"Team Fortress","app_id":440,"player_count":0,"max_players":24,"Bots":0,"server_type":"Dedicated","server_os":"Linux","password":true,"vac":true,"version":"7961495","steam_id":85568392925397854,"keywords":["cp","nocrits","nodmgspread","uncletopia"],"game_id":440,"stv_port":27056,"stv_name":"Uncletopia | Warsaw | 5 | Stopwatch | STV","players":null},{"server_id":54,"name":"Uncletopia | Warsaw | 6 | Community","name_short":"waw-6","host":"waw-1.pl.uncletopia.com","port":27065,"enabled":true,"region":"eu","cc":"pl","latitude":52.2297,"longitude":21.017532,"reserved":0,"last_update":"0001-01-01T00:00:00Z","name_a2s":"Uncletopia | Warsaw | 6 | Community","protocol":17,"map":"workshop/pl_badwater_pro_v12.ugc2142942074","folder":"tf","game":"Team Fortress","app_id":440,"player_count":0,"max_players":24,"Bots":0,"server_type":"Dedicated","server_os":"Linux","password":true,"vac":true,"version":"7961495","steam_id":85568392925397856,"keywords":["nocrits","nodmgspread","payload","uncletopia"],"game_id":440,"stv_port":27066,"stv_name":"Uncletopia | Warsaw | 6 | Community | STV","players":null}]}