{"status":true,"message":"","result":[{"server_id":9,"name":"Uncletopia | Atlanta | 1 | All Maps","name_short":"atl-1","host":"atl-1.us.uncletopia.com","port":27015,"enabled":true,"region":"us-east","cc":"us","latitude":33.753746,"longitude":-84.38633,"reserved":0,"last_update":"0001-01-01T00:00:00Z","name_a2s":"Uncletopia | Atlanta | 1 | All Maps","protocol":17,"map":"pl_upward","folder":"tf","game":"Team Fortress","app_id":440,"player_count":24,"max_players":24,"Bots":0,"server_type":"Dedicated","server_os":"Linux","password":true,"vac":true,"version":"7961495","steam_id":85568392924469982,"keywords":["nocrits","nodmgspread","payload","uncletopia"],"game_id":440,"stv_port":27016,"stv_name":"Uncletopia | Atlanta | 1 | All Maps | STV","players":[{"user_id":613,"name":"Transfem Bumblebee","steam_id":76561198119393205,"connected_time":846000000000,"state":"active","ping":59},{"user_id":594,"name":"Waffle Wannabe","steam_id":76561198064510650,"connected_time":2098000000000,"state":"active","ping":59},{"user_id":595,"name":"chexo4","steam_id":76561198150532531,"connected_time":2097000000000,"state":"active","ping":50},{"user_id":619,"name":"Jared","steam_id":76561198027210228,"connected_time":246000000000,"state":"active","ping":84},{"user_id":622,"name":"Sinta","steam_id":76561198098398841,"connected_time":127000000000,"state":"active","ping":59},{"user_id":547,"name":"Punchy","steam_id":76561198200000641,"connected_time":7442000000000,"state":"active","ping":53},{"user_id":616,"name":"Drilly22","steam_id":76561198068838338,"connected_time":806000000000,"state":"active","ping":77},{"user_id":610,"name":"kite","steam_id":76561198346516392,"connected_time":1061000000000,"state":"active","ping":86},{"user_id":486,"name":"Heathcliff","steam_id":76561198044288534,"connected_time":12524000000000,"state":"active","ping":75},{"user_id":582,"name":"hayes","steam_id":76561198057101042,"connected_time":4004000000000,"state":"active","ping":74},{"user_id":611,"name":"Echo","steam_id":76561198072092594,"connected_time":1008000000000,"state":"active","ping":51},{"user_id":604,"name":"SynthRider","steam_id":76561198014297889,"connected_time":1413000000000,"state":"active","ping":67},{"user_id":607,"name":"ATL1 | to4st","steam_id":76561198981009008,"connected_time":1302000000000,"state":"active","ping":68},{"user_id":614,"name":"jackass","steam_id":76561198209380493,"connected_time":831000000000,"state":"active","ping":60},{"user_id":612,"name":"Scita","steam_id":76561198066861559,"connected_time":875000000000,"state":"active","ping":67},{"user_id":620,"name":"HL1 | A girl named Lavie","steam_id":76561198825997674,"connected_time":192000000000,"state":"active","ping":50},{"user_id":605,"name":"z","steam_id":76561198377478982,"connected_time":1403000000000,"state":"active","ping":68},{"user_id":623,"name":"chrisblue2005","steam_id":76561199385222289,"connected_time":117000000000,"state":"active","ping":123},{"user_id":624,"name":"Danny Deleto","steam_id":76561199165126320,"connected_time":115000000000,"state":"active","ping":64},{"user_id":602,"name":"King Cotton","steam_id":76561198292444376,"connected_time":1546000000000,"state":"active","ping":93},{"user_id":617,"name":"stankboxers #savetf2","steam_id":76561198058609582,"connected_time":803000000000,"state":"active","ping":83},{"user_id":606,"name":"Dreszerg","steam_id":76561198838757422,"connected_time":1345000000000,"state":"active","ping":87},{"user_id":609,"name":"PK","steam_id":76561198368722500,"connected_time":1079000000000,"state":"active","ping":77},{"user_id":625,"name":"TheGamingCobra","steam_id":76561198077403309,"connected_time":69000000000,"state":"active","ping":70}]},{"server_id":104,"name":"Uncletopia | Atlanta | 2 | All Maps","name_short":"atl-2","host":"atl-1.us.uncletopia.com","port":27025,"enabled":true,"region":"us-east","cc":"us","latitude":33.753746,"longitude":-84.38633,"reserved":0,"last_update":"0001-01-01T00:00:00Z","name_a2s":"Uncletopia | Atlanta | 2 | All Maps","protocol":17,"map":"pl_borneo","folder":"tf","game":"Team Fortress","app_id":440,"player_count":24,"max_players":24,"Bots":0,"server_type":"Dedicated","server_os":"Linux","password":true,"vac":true,"version":"7961495","steam_id":85568392924469983,"keywords":["nocrits","nodmgspread","payload","uncletopia"],"game_id":440,"stv_port":27026,"stv_name":"Uncletopia | Atlanta | 2 | All Maps | STV","players":[{"user_id":421,"name":"Dreamer","steam_id":76561198800478056,"connected_time":1217000000000,"state":"active","ping":98},{"user_id":430,"name":"FreshlyBrewed","steam_id":76561198181099881,"connected_time":121000000000,"state":"active","ping":91},{"user_id":422,"name":"Howell at the Moon","steam_id":76561198060827426,"connected_time":676000000000,"state":"active","ping":65},{"user_id":385,"name":"NAEM CHEGG","steam_id":76561199074984482,"connected_time":3007000000000,"state":"active","ping":82},{"user_id":388,"name":"GingerToePics","steam_id":76561199418178639,"connected_time":2809000000000,"state":"active","ping":69},{"user_id":373,"name":"ChocoMcFudgeCake","steam_id":76561197994591295,"connected_time":3649000000000,"state":"active","ping":73},{"user_id":409,"name":"denzell05","steam_id":76561198086987061,"connected_time":1527000000000,"state":"active","ping":91},{"user_id":398,"name":"quack","steam_id":76561198138783216,"connected_time":2428000000000,"state":"active","ping":51},{"user_id":428,"name":"DarkenedPolarity","steam_id":76561199073099596,"connected_time":145000000000,"state":"active","ping":67},{"user_id":356,"name":"aisu","steam_id":76561198043768507,"connected_time":4948000000000,"state":"active","ping":90},{"user_id":395,"name":"lalman","steam_id":76561198196605887,"connected_time":2537000000000,"state":"active","ping":63},{"user_id":427,"name":"kat","steam_id":76561198099191938,"connected_time":198000000000,"state":"active","ping":67},{"user_id":417,"name":"CHIEF_JUSTICE_FUCKASS","steam_id":76561199261675844,"connected_time":1343000000000,"state":"active","ping":135},{"user_id":426,"name":"0bliv","steam_id":76561198122715915,"connected_time":462000000000,"state":"active","ping":182},{"user_id":423,"name":"dunky donut","steam_id":76561198070574618,"connected_time":619000000000,"state":"active","ping":73},{"user_id":429,"name":"Strider1","steam_id":76561198117980228,"connected_time":126000000000,"state":"active","ping":70},{"user_id":415,"name":"-W3E- grim10465","steam_id":76561198045698581,"connected_time":1357000000000,"state":"active","ping":60},{"user_id":416,"name":"scrapheap","steam_id":76561198202407087,"connected_time":1354000000000,"state":"active","ping":80},{"user_id":413,"name":"Mr. Beans","steam_id":76561198859924231,"connected_time":1381000000000,"state":"active","ping":59},{"user_id":392,"name":"Lolxdloldx","steam_id":76561198136887125,"connected_time":2768000000000,"state":"active","ping":96},{"user_id":383,"name":"Garfield","steam_id":76561199251237007,"connected_time":3091000000000,"state":"active","ping":120},{"user_id":407,"name":"melvyn","steam_id":76561198113226381,"connected_time":1617000000000,"state":"active","ping":60},{"user_id":393,"name":"Crystall","steam_id":76561198346607700,"connected_time":2767000000000,"state":"active","ping":80},{"user_id":420,"name":"I came (up)","steam_id":76561198057745131,"connected_time":1251000000000,"state":"active","ping":39}]},{"server_id":400,"name":"Uncletopia | Atlanta | 3 | Stopwatch","name_short":"atl-3","host":"atl-1.us.uncletopia.com","port":27035,"enabled":true,"region":"us-east","cc":"us","latitude":33.753746,"longitude":-84.38633,"reserved":0,"last_update":"0001-01-01T00:00:00Z","name_a2s":"Uncletopia | Atlanta | 3 | Stopwatch","protocol":17,"map":"pl_badwater","folder":"tf","game":"Team Fortress","app_id":440,"player_count":0,"max_players":24,"Bots":0,"server_type":"Dedicated","server_os":"Linux","password":true,"vac":true,"version":"7961495","steam_id":85568392924515187,"keywords":["nocrits","nodmgspread","payload","uncletopia"],"game_id":440,"stv_port":27036,"stv_name":"Uncletopia | Atlanta | 3 | Stopwatch | STV","players":null},{"server_id":401,"name":"Uncletopia | Atlanta | 4 | Community","name_short":"atl-4","host":"atl-1.us.uncletopia.com","port":27045,"enabled":true,"region":"us-east","cc":"us","latitude":33.753746,"longitude":-84.38633,"reserved":0,"last_update":"0001-01-01T00:00:00Z","name_a2s":"Uncletopia | Atlanta | 4 | Community","protocol":17,"map":"workshop/cp_overgrown_rc8.ugc503939302","folder":"tf","game":"Team Fortress","app_id":440,"player_count":0,"max_players":24,"Bots":0,"server_type":"Dedicated","server_os":"Linux","password":true,"vac":true,"version":"7961495","steam_id":85568392924515188,"keywords":["cp","nocrits","nodmgspread","uncletopia"],"game_id":440,"stv_port":27046,"stv_name":"Uncletopia | Atlanta | 4 | Community | STV","players":null},{"server_id":2,"name":"Uncletopia | Chicago | 1 | All Maps","name_short":"chi-1","host":"chi-1.us.uncletopia.com","port":27015,"enabled":true,"region":"us-central","cc":"us","latitude":41.881832,"longitude":-87.62318,"reserved":0,"last_update":"0001-01-01T00:00:00Z","name_a2s":"Uncletopia | Chicago | 1 | All Maps","protocol":17,"map":"pl_upward","folder":"tf","game":"Team Fortress","app_id":440,"player_count":24,"max_players":24,"Bots":0,"server_type":"Dedicated","server_os":"Linux","password":true,"vac":true,"version":"7961495","steam_id":85568392924469984,"keywords":["nocrits","nodmgspread","payload","uncletopia"],"game_id":440,"stv_port":27016,"stv_name":"Uncletopia | Chicago | 1 | All Maps | STV","players":[{"user_id":451,"name":"cookies","steam_id":76561198280864779,"connected_time":2020000000000,"state":"active","ping":82},{"user_id":423,"name":"Baka!‚ë®‚ë®‚ë®‚ë®","steam_id":76561198152948254,"connected_time":5401000000000,"state":"active","ping":65},{"user_id":438,"name":"Der Krieger105","steam_id":76561197978384609,"connected_time":3515000000000,"state":"active","ping":84},{"user_id":444,"name":"I came (up)","steam_id":76561198057745131,"connected_time":2799000000000,"state":"active","ping":51},{"user_id":478,"name":"Kuato","steam_id":76561198070591328,"connected_time":961000000000,"state":"active","ping":53},{"user_id":479,"name":"Praise_to_the_Flashlight!","steam_id":76561199001728789,"connected_time":953000000000,"state":"active","ping":63},{"user_id":450,"name":"Snom","steam_id":76561198333827920,"connected_time":2393000000000,"state":"active","ping":102},{"user_id":440,"name":"donatello „ÉÑ","steam_id":76561198091157081,"connected_time":3507000000000,"state":"active","ping":58},{"user_id":463,"name":"Scheduled Program","steam_id":76561198196911453,"connected_time":1781000000000,"state":"active","ping":57},{"user_id":452,"name":"‚ô•Bunny‚ô•Slut‚ô•","steam_id":76561198206376851,"connected_time":2018000000000,"state":"active","ping":95},{"user_id":474,"name":"Phos","steam_id":76561198122339506,"connected_time":1339000000000,"state":"active","ping":75},{"user_id":475,"name":"Steve","steam_id":76561199066660022,"connected_time":1260000000000,"state":"active","ping":84},{"user_id":466,"name":"joyeuxnoelle","steam_id":76561198062423120,"connected_time":1731000000000,"state":"active","ping":72},{"user_id":435,"name":"richard clock","steam_id":76561198048455671,"connected_time":4195000000000,"state":"active","ping":56},{"user_id":441,"name":"TehOneZoot","steam_id":76561198121944243,"connected_time":3504000000000,"state":"active","ping":48},{"user_id":476,"name":"Emperor J","steam_id":76561199014663561,"connected_time":1141000000000,"state":"active","ping":51},{"user_id":470,"name":"[TF2Apples] Intense Green Apple","steam_id":76561198803561622,"connected_time":1425000000000,"state":"active","ping":91},{"user_id":477,"name":"Bear bird","steam_id":76561198166769479,"connected_time":1084000000000,"state":"active","ping":93},{"user_id":462,"name":"capybara","steam_id":76561198798828328,"connected_time":1946000000000,"state":"active","ping":52},{"user_id":468,"name":"Kattnesta","steam_id":76561198210927551,"connected_time":1691000000000,"state":"active","ping":59},{"user_id":422,"name":"daffodil","steam_id":76561198049480053,"connected_time":5498000000000,"state":"active","ping":62},{"user_id":443,"name":"wiiblob","steam_id":76561198109106242,"connected_time":3488000000000,"state":"active","ping":144},{"user_id":480,"name":"ATL1 | to4st","steam_id":76561198981009008,"connected_time":1000000000,"state":"spawning","ping":48},{"user_id":405,"name":"Lia_Rein","steam_id":76561198151569597,"connected_time":8469000000000,"state":"active","ping":135}]},{"server_id":106,"name":"Uncletopia | Chicago | 2 | All Maps","name_short":"chi-2","host":"chi-1.us.uncletopia.com","port":27025,"enabled":true,"region":"us-central","cc":"us","latitude":41.881832,"longitude":-87.62318,"reserved":0,"last_update":"0001-01-01T00:00:00Z","name_a2s":"Uncletopia | Chicago | 2 | All Maps","protocol":17,"map":"koth_sawmill","folder":"tf","game":"Team Fortress","app_id":440,"player_count":21,"max_players":24,"Bots":0,"server_type":"Dedicated","server_os":"Linux","password":true,"vac":true,"version":"7961495","steam_id":85568392924469985,"keywords":["cp","nocrits","nodmgspread","uncletopia"],"game_id":440,"stv_port":27026,"stv_name":"Uncletopia | Chicago | 2 | All Maps | STV","players":[{"user_id":351,"name":"aisu","steam_id":76561198043768507,"connected_time":1410000000000,"state":"active","ping":68},{"user_id":361,"name":"Blaze","steam_id":76561198043797702,"connected_time":342000000000,"state":"active","ping":96},{"user_id":352,"name":"scrungle","steam_id":76561198041102272,"connected_time":1401000000000,"state":"active","ping":70},{"user_id":338,"name":"Beau","steam_id":76561198162587622,"connected_time":2365000000000,"state":"active","ping":69},{"user_id":367,"name":"CapitainPyro","steam_id":76561199444396180,"connected_time":150000000000,"state":"active","ping":71},{"user_id":365,"name":"Divinitas","steam_id":76561199079034911,"connected_time":223000000000,"state":"active","ping":59},{"user_id":334,"name":"Skiddy","steam_id":76561198125942665,"connected_time":2504000000000,"state":"active","ping":87},{"user_id":314,"name":"Artemisia (She/They)","steam_id":76561198265616793,"connected_time":3518000000000,"state":"active","ping":76},{"user_id":349,"name":"UwU","steam_id":76561198971629959,"connected_time":1503000000000,"state":"active","ping":134},{"user_id":360,"name":"Maestro","steam_id":76561198157325020,"connected_time":349000000000,"state":"active","ping":79},{"user_id":343,"name":"Bunni","steam_id":76561198065169997,"connected_time":2095000000000,"state":"active","ping":83},{"user_id":316,"name":"failure of a gamer... maybe","steam_id":76561199499794979,"connected_time":3482000000000,"state":"active","ping":103},{"user_id":368,"name":"xXConManABQXx","steam_id":76561198875469297,"connected_time":121000000000,"state":"active","ping":45},{"user_id":319,"name":"Engineer Gaming","steam_id":76561198840761529,"connected_time":3453000000000,"state":"active","ping":60},{"user_id":346,"name":"what","steam_id":76561198062459671,"connected_time":1994000000000,"state":"active","ping":105},{"user_id":366,"name":"XIV ‚ôÇ I R O N ‚ôÇ M I K E ‚ôÇ","steam_id":76561199405378993,"connected_time":202000000000,"state":"active","ping":61},{"user_id":321,"name":"Soupcan","steam_id":76561198012807915,"connected_time":3450000000000,"state":"active","ping":73},{"user_id":324,"name":"kicks","steam_id":76561199228854923,"connected_time":3387000000000,"state":"active","ping":52},{"user_id":364,"name":"object permanence","steam_id":76561198050393061,"connected_time":308000000000,"state":"active","ping":74},{"user_id":326,"name":"Junipyre","steam_id":76561198044819364,"connected_time":3364000000000,"state":"active","ping":77},{"user_id":359,"name":"TF2 Enjoyer","steam_id":76561199151545966,"connected_time":746000000000,"state":"active","ping":63}]},{"server_id":402,"name":"Uncletopia | Chicago | 3 | All Maps","name_short":"chi-3","host":"chi-1.us.uncletopia.com","port":27035,"enabled":true,"region":"us-central","cc":"us","latitude":41.881832,"longitude":-87.62318,"reserved":0,"last_update":"0001-01-01T00:00:00Z","name_a2s":"Uncletopia | Chicago | 3 | All Maps","protocol":17,"map":"pl_frontier_final","folder":"tf","game":"Team Fortress","app_id":440,"player_count":24,"max_players":24,"Bots":0,"server_type":"Dedicated","server_os":"Linux","password":true,"vac":true,"version":"7961495","steam_id":85568392924515191,"keywords":["nocrits","nodmgspread","payload","uncletopia"],"game_id":440,"stv_port":27036,"stv_name":"Uncletopia | Chicago | 3 | All Maps | STV","players":[{"user_id":316,"name":"Kaestal","steam_id":76561198033174157,"connected_time":1990000000000,"state":"active","ping":76},{"user_id":336,"name":"Bartholomew Avery Bernald Ediso","steam_id":76561198156617970,"connected_time":368000000000,"state":"active","ping":100},{"user_id":321,"name":"A gnome with a globe","steam_id":76561199025698552,"connected_time":1866000000000,"state":"active","ping":77},{"user_id":328,"name":"Andrew's Taint","steam_id":76561198131400543,"connected_time":791000000000,"state":"active","ping":71},{"user_id":325,"name":"PK","steam_id":76561198368722500,"connected_time":1552000000000,"state":"active","ping":81},{"user_id":309,"name":"dirty30","steam_id":76561198021226566,"connected_time":2533000000000,"state":"active","ping":92},{"user_id":330,"name":"viva la vida","steam_id":76561198072179483,"connected_time":482000000000,"state":"active","ping":90},{"user_id":332,"name":"Uwu Micster","steam_id":76561198843890616,"connected_time":459000000000,"state":"active","ping":86},{"user_id":281,"name":"IdkProlly","steam_id":76561198269212968,"connected_time":4549000000000,"state":"active","ping":58},{"user_id":282,"name":"the foreskin collector","steam_id":76561198034377946,"connected_time":4529000000000,"state":"active","ping":76},{"user_id":303,"name":"president card holder","steam_id":76561198375348510,"connected_time":2658000000000,"state":"active","ping":84},{"user_id":307,"name":"vcx","steam_id":76561198139371143,"connected_time":2558000000000,"state":"active","ping":75},{"user_id":335,"name":"The strongest ‚ë® ball","steam_id":76561198126760743,"connected_time":434000000000,"state":"active","ping":75},{"user_id":293,"name":"Hankel Tom","steam_id":76561199446367874,"connected_time":3763000000000,"state":"active","ping":45},{"user_id":337,"name":"Beef Wellington","steam_id":76561198049837377,"connected_time":208000000000,"state":"active","ping":48},{"user_id":329,"name":"poopybutt420","steam_id":76561199000805315,"connected_time":673000000000,"state":"active","ping":113},{"user_id":320,"name":"aversa","steam_id":76561198840460101,"connected_time":1887000000000,"state":"active","ping":63},{"user_id":323,"name":"Bush.exe","steam_id":76561198124385307,"connected_time":1859000000000,"state":"active","ping":69},{"user_id":331,"name":"SmiteSight","steam_id":76561199122315920,"connected_time":478000000000,"state":"active","ping":62},{"user_id":167,"name":"Gen-E  TTV/geneoftf2","steam_id":76561199497800989,"connected_time":12089000000000,"state":"active","ping":91},{"user_id":313,"name":"BananaMangoFestival2013","steam_id":76561198218558897,"connected_time":2410000000000,"state":"active","ping":146},{"user_id":314,"name":"Volteer","steam_id":76561198069395024,"connected_time":2382000000000,"state":"active","ping":75},{"user_id":326,"name":"WumpisWumbo","steam_id":76561199238214734,"connected_time":1213000000000,"state":"active","ping":92},{"user_id":334,"name":"vareh","steam_id":76561197993190926,"connected_time":456000000000,"state":"active","ping":105}]},{"server_id":403,"name":"Uncletopia | Chicago | 4 | All Maps","name_short":"chi-4","host":"chi-1.us.uncletopia.com","port":27045,"enabled":true,"region":"us-central","cc":"us","latitude":41.881832,"longitude":-87.62318,"reserved":0,"last_update":"0001-01-01T00:00:00Z","name_a2s":"Uncletopia | Chicago | 4 | All Maps","protocol":17,"map":"pl_frontier_final","folder":"tf","game":"Team Fortress","app_id":440,"player_count":24,"max_players":24,"Bots":0,"server_type":"Dedicated","server_os":"Linux","password":true,"vac":true,"version":"7961495","steam_id":85568392924515193,"keywords":["nocrits","nodmgspread","payload","uncletopia"],"game_id":440,"stv_port":27046,"stv_name":"Uncletopia | Chicago | 4 | All Maps | STV","players":[{"user_id":309,"name":"og biden pack cart","steam_id":76561198253731826,"connected_time":4287000000000,"state":"active","ping":58},{"user_id":348,"name":"Big Bill Haywood","steam_id":76561198142290733,"connected_time":1569000000000,"state":"active","ping":67},{"user_id":363,"name":"Weary","steam_id":76561198145767546,"connected_time":260000000000,"state":"active","ping":73},{"user_id":356,"name":"undigestedcorn","steam_id":76561198033451312,"connected_time":1336000000000,"state":"active","ping":121},{"user_id":278,"name":"thetroupegang","steam_id":76561198340510098,"connected_time":6140000000000,"state":"active","ping":69},{"user_id":357,"name":"Epha","steam_id":76561198079379951,"connected_time":725000000000,"state":"active","ping":61},{"user_id":347,"name":"slep.py","steam_id":76561197988287144,"connected_time":1589000000000,"state":"active","ping":52},{"user_id":343,"name":"I'll wrestle ya!","steam_id":76561198077249707,"connected_time":1964000000000,"state":"active","ping":81},{"user_id":336,"name":"Harpua","steam_id":76561197988020228,"connected_time":2732000000000,"state":"active","ping":72},{"user_id":362,"name":"guac","steam_id":76561198025481672,"connected_time":275000000000,"state":"active","ping":71},{"user_id":345,"name":"HenryHJ","steam_id":76561198206291528,"connected_time":1636000000000,"state":"active","ping":100},{"user_id":332,"name":"J4el","steam_id":76561199218545556,"connected_time":2988000000000,"state":"active","ping":169},{"user_id":349,"name":"RedCo","steam_id":76561198335366889,"connected_time":1529000000000,"state":"active","ping":60},{"user_id":340,"name":"mp4 ?","steam_id":76561198826820952,"connected_time":2050000000000,"state":"active","ping":59},{"user_id":358,"name":"MikeLovesRabbit","steam_id":76561197997742625,"connected_time":591000000000,"state":"active","ping":61},{"user_id":361,"name":"Citizen‚Åµ","steam_id":76561198053856640,"connected_time":376000000000,"state":"active","ping":72},{"user_id":339,"name":"Deathbringer097","steam_id":76561198806994937,"connected_time":2360000000000,"state":"active","ping":54},{"user_id":351,"name":"ChocoMcFudgeCake","steam_id":76561197994591295,"connected_time":1525000000000,"state":"active","ping":47},{"user_id":352,"name":"SpringSloth","steam_id":76561199211310022,"connected_time":1523000000000,"state":"active","ping":78},{"user_id":353,"name":"kup","steam_id":76561198046816932,"connected_time":1522000000000,"state":"active","ping":69},{"user_id":315,"name":"Splexiey","steam_id":76561199122155213,"connected_time":3719000000000,"state":"active","ping":97},{"user_id":271,"name":"Baby gaming","steam_id":76561198867319323,"connected_time":6582000000000,"state":"active","ping":68},{"user_id":259,"name":"Pants Charming","steam_id":76561198217858291,"connected_time":7473000000000,"state":"active","ping":69},{"user_id":355,"name":"AMistake","steam_id":76561199379196708,"connected_time":1402000000000,"state":"active","ping":62}]},{"server_id":36,"name":"Uncletopia | Chicago | 5 | All Maps","name_short":"chi-5","host":"chi-2.us.uncletopia.com","port":27015,"enabled":true,"region":"us-central","cc":"us","latitude":41.881832,"longitude":-87.62318,"reserved":0,"last_update":"0001-01-01T00:00:00Z","name_a2s":"Uncletopia | Chicago | 5 | All Maps","protocol":17,"map":"pl_pier","folder":"tf","game":"Team Fortress","app_id":440,"player_count":23,"max_players":24,"Bots":0,"server_type":"Dedicated","server_os":"Linux","password":true,"vac":true,"version":"7961495","steam_id":85568392924866362,"keywords":["nocrits","nodmgspread","payload","uncletopia"],"game_id":440,"stv_port":27016,"stv_name":"Uncletopia | Chicago | 5 | All Maps | STV","players":[{"user_id":112,"name":"Steve (from Minecraft)","steam_id":76561198232026076,"connected_time":3289000000000,"state":"active","ping":61},{"user_id":155,"name":"Sack Stomper","steam_id":76561198154616010,"connected_time":128000000000,"state":"active","ping":87},{"user_id":35,"name":"Elias","steam_id":76561198106431732,"connected_time":10051000000000,"state":"active","ping":58},{"user_id":148,"name":"Space Captainface","steam_id":76561197995103493,"connected_time":410000000000,"state":"active","ping":795},{"user_id":141,"name":"berserker_tf2 )HE/SHE(","steam_id":76561198303464488,"connected_time":480000000000,"state":"active","ping":63},{"user_id":142,"name":"Propaniac Gaming ‚òë","steam_id":76561198133963270,"connected_time":473000000000,"state":"active","ping":67},{"user_id":151,"name":"Scootermouse","steam_id":76561198008665354,"connected_time":367000000000,"state":"active","ping":71},{"user_id":138,"name":"guitarfreak","steam_id":76561198139851357,"connected_time":761000000000,"state":"active","ping":90},{"user_id":153,"name":"melancholy","steam_id":76561198024301465,"connected_time":246000000000,"state":"active","ping":60},{"user_id":109,"name":"Slavaskii","steam_id":76561198046673499,"connected_time":3532000000000,"state":"active","ping":79},{"user_id":154,"name":"alright","steam_id":76561199074875663,"connected_time":183000000000,"state":"active","ping":79},{"user_id":110,"name":"/JELL-E/","steam_id":76561198031000001,"connected_time":3516000000000,"state":"active","ping":340},{"user_id":140,"name":"Forevershooting","steam_id":76561198124213574,"connected_time":517000000000,"state":"active","ping":89},{"user_id":131,"name":"Pork Soda","steam_id":76561198119575082,"connected_time":1750000000000,"state":"active","ping":86},{"user_id":149,"name":"Don Beatle","steam_id":76561198046129368,"connected_time":410000000000,"state":"active","ping":85},{"user_id":125,"name":"GasterDog","steam_id":76561198844423506,"connected_time":2299000000000,"state":"active","ping":104},{"user_id":130,"name":"flarifier","steam_id":76561198315072848,"connected_time":1803000000000,"state":"active","ping":78},{"user_id":133,"name":"BoyWithTheBeanie","steam_id":76561199435079308,"connected_time":1650000000000,"state":"active","ping":162},{"user_id":152,"name":"Female Gamer","steam_id":76561199366482682,"connected_time":262000000000,"state":"active","ping":111},{"user_id":132,"name":"Method Mon Mothma","steam_id":76561197976110189,"connected_time":1733000000000,"state":"active","ping":70},{"user_id":150,"name":"cee","steam_id":76561198420893458,"connected_time":409000000000,"state":"active","ping":95},{"user_id":113,"name":"White","steam_id":76561198305863331,"connected_time":3236000000000,"state":"active","ping":81},{"user_id":135,"name":"Gaming","steam_id":76561198107080532,"connected_time":1197000000000,"state":"active","ping":69}]},{"server_id":37,"name":"Uncletopia | Chicago | 6 | All Maps","name_short":"chi-6","host":"chi-2.us.uncletopia.com","port":27025,"enabled":true,"region":"us-central","cc":"us","latitude":41.881832,"longitude":-87.62318,"reserved":0,"last_update":"0001-01-01T00:00:00Z","name_a2s":"Uncletopia | Chicago | 6 | All Maps","protocol":17,"map":"cp_dustbowl","folder":"tf","game":"Team Fortress","app_id":440,"player_count":24,"max_players":24,"Bots":0,"server_type":"Dedicated","server_os":"Linux","password":true,"vac":true,"version":"7961495","steam_id":85568392924866363,"keywords":["cp","nocrits","nodmgspread","uncletopia"],"game_id":440,"stv_port":27026,"stv_name":"Uncletopia | Chicago | 6 | All Maps | STV","players":[{"user_id":284,"name":"bkiller","steam_id":76561198029265697,"connected_time":2530000000000,"state":"active","ping":76},{"user_id":263,"name":"SpongedSocks","steam_id":76561198374009086,"connected_time":3388000000000,"state":"active","ping":69},{"user_id":276,"name":"Coup de Grass","steam_id":76561198011643226,"connected_time":2821000000000,"state":"active","ping":64},{"user_id":285,"name":"Frontier Psychiatrist","steam_id":76561198038689088,"connected_time":2523000000000,"state":"active","ping":84},{"user_id":182,"name":"RusticCarp42989","steam_id":76561198361151865,"connected_time":8557000000000,"state":"active","ping":124},{"user_id":293,"name":"Voodo133","steam_id":76561198042670351,"connected_time":1257000000000,"state":"active","ping":87},{"user_id":294,"name":"p1zza","steam_id":76561197967631939,"connected_time":1250000000000,"state":"active","ping":50},{"user_id":180,"name":"SiltyStar85","steam_id":76561198309175923,"connected_time":8586000000000,"state":"active","ping":102},{"user_id":244,"name":"Dr Smeggman","steam_id":76561197966614845,"connected_time":5208000000000,"state":"active","ping":134},{"user_id":301,"name":"Mailguy","steam_id":76561199066183834,"connected_time":430000000000,"state":"active","ping":56},{"user_id":304,"name":"ATL1 | cola","steam_id":76561198374390458,"connected_time":50000000000,"state":"active","ping":77},{"user_id":287,"name":"Sammich Slinger","steam_id":76561198007644532,"connected_time":2488000000000,"state":"active","ping":89},{"user_id":297,"name":"squaggles!","steam_id":76561197994995011,"connected_time":1193000000000,"state":"active","ping":60},{"user_id":267,"name":"Bullwinkle J. Moose","steam_id":76561198075977196,"connected_time":3298000000000,"state":"active","ping":90},{"user_id":291,"name":"boo_thefeared","steam_id":76561198127967685,"connected_time":1977000000000,"state":"active","ping":148},{"user_id":228,"name":"Magnus Rex","steam_id":76561197987091236,"connected_time":6000000000000,"state":"active","ping":78},{"user_id":288,"name":"Kantamoe","steam_id":76561198046661611,"connected_time":2470000000000,"state":"active","ping":86},{"user_id":198,"name":"Boofenshmirtz","steam_id":76561198071649858,"connected_time":7567000000000,"state":"active","ping":69},{"user_id":249,"name":"yobany","steam_id":76561198339606152,"connected_time":4946000000000,"state":"active","ping":114},{"user_id":298,"name":"Ace Chromatica","steam_id":76561198042211131,"connected_time":1174000000000,"state":"active","ping":71},{"user_id":247,"name":"Doubie","steam_id":76561198104492019,"connected_time":5104000000000,"state":"active","ping":85},{"user_id":302,"name":"Dieu-Sama","steam_id":76561198002075862,"connected_time":348000000000,"state":"active","ping":83},{"user_id":299,"name":"(‚à©'-¬¥)‚äÉ ‚òÜ Lezbean Cat","steam_id":76561199500664171,"connected_time":1104000000000,"state":"active","ping":75},{"user_id":300,"name":"Takeover","steam_id":76561197996081461,"connected_time":1070000000000,"state":"active","ping":61}]},{"server_id":38,"name":"Uncletopia | Chicago | 7 | Stopwatch","name_short":"chi-7","host":"chi-2.us.uncletopia.com","port":27035,"enabled":true,"region":"us-central","cc":"us","latitude":41.881832,"longitude":-87.62318,"reserved":0,"last_update":"0001-01-01T00:00:00Z","name_a2s":"Uncletopia | Chicago | 7 | Stopwatch","protocol":17,"map":"workshop/pl_barnblitz_pro7.ugc582280235","folder":"tf","game":"Team Fortress","app_id":440,"player_count":23,"max_players":24,"Bots":0,"server_type":"Dedicated","server_os":"Linux","password":true,"vac":true,"version":"7961495","steam_id":85568392924866364,"keywords":["nocrits","nodmgspread","payload","uncletopia"],"game_id":440,"stv_port":27036,"stv_name":"Uncletopia | Chicago | 7 | Stopwatch | STV","players":[{"user_id":90,"name":"Sock Box Crab","steam_id":76561198154115187,"connected_time":1138000000000,"state":"active","ping":120},{"user_id":69,"name":"LordOfTheNoobs","steam_id":76561197962697523,"connected_time":3809000000000,"state":"active","ping":62},{"user_id":85,"name":"whirlybird","steam_id":76561198353887173,"connected_time":2116000000000,"state":"active","ping":32},{"user_id":105,"name":"neeko gaming","steam_id":76561198180174734,"connected_time":414000000000,"state":"active","ping":81},{"user_id":93,"name":"truck freak","steam_id":76561198062712676,"connected_time":981000000000,"state":"active","ping":100},{"user_id":91,"name":"plaguecrow","steam_id":76561198312524974,"connected_time":1124000000000,"state":"active","ping":103},{"user_id":40,"name":"Captain Malarkey","steam_id":76561198869924281,"connected_time":6075000000000,"state":"active","ping":78},{"user_id":92,"name":"Schizoid","steam_id":76561198088687988,"connected_time":1075000000000,"state":"active","ping":59},{"user_id":55,"name":"wajanta","steam_id":76561199040280852,"connected_time":4948000000000,"state":"active","ping":81},{"user_id":94,"name":"shellaa","steam_id":76561198044124102,"connected_time":980000000000,"state":"active","ping":69},{"user_id":99,"name":"Ignatius J. Reilly","steam_id":76561198066958868,"connected_time":558000000000,"state":"active","ping":74},{"user_id":97,"name":"Johnny Lawrence #JohnnyMaxxing","steam_id":76561199367141671,"connected_time":590000000000,"state":"active","ping":74},{"user_id":109,"name":"B \u003c3","steam_id":76561198078026715,"connected_time":135000000000,"state":"active","ping":81},{"user_id":102,"name":"jordanfer111","steam_id":76561198044993097,"connected_time":551000000000,"state":"active","ping":105},{"user_id":103,"name":"Reiner","steam_id":76561199201762178,"connected_time":548000000000,"state":"active","ping":95},{"user_id":77,"name":"Wawa","steam_id":76561198077716836,"connected_time":3198000000000,"state":"active","ping":60},{"user_id":95,"name":"Skeeter Squash","steam_id":76561198129162464,"connected_time":972000000000,"state":"active","ping":81},{"user_id":104,"name":"TheBrocklobster","steam_id":76561198039682984,"connected_time":542000000000,"state":"active","ping":110},{"user_id":32,"name":"DJ_Ohm","steam_id":76561198147746914,"connected_time":6456000000000,"state":"active","ping":68},{"user_id":78,"name":"TwistyBoi","steam_id":76561198201410603,"connected_time":3051000000000,"state":"active","ping":66},{"user_id":96,"name":"Rein","steam_id":76561198300340427,"connected_time":600000000000,"state":"active","ping":61},{"user_id":35,"name":"toritora","steam_id":76561198023859737,"connected_time":6451000000000,"state":"active","ping":70},{"user_id":67,"name":"Natsuki the Scunt","steam_id":76561199175922684,"connected_time":3938000000000,"state":"active","ping":118}]},{"server_id":39,"name":"Uncletopia | Chicago | 8 | Community","name_short":"chi-8","host":"chi-2.us.uncletopia.com","port":27045,"enabled":true,"region":"us-central","cc":"us","latitude":41.881832,"longitude":-87.62318,"reserved":0,"last_update":"0001-01-01T00:00:00Z","name_a2s":"Uncletopia | Chicago | 8 | Community","protocol":17,"map":"workshop/rd_asteroid_redux_b1.ugc2154902912","folder":"tf","game":"Team Fortress","app_id":440,"player_count":0,"max_players":24,"Bots":0,"server_type":"Dedicated","server_os":"Linux","password":true,"vac":true,"version":"7961495","steam_id":85568392924866365,"keywords":["beta","nocrits","nodmgspread","rd","uncletopia"],"game_id":440,"stv_port":27046,"stv_name":"Uncletopia | Chicago | 8 | Community | STV","players":null},{"server_id":8,"name":"Uncletopia | Dallas | 1 | All Maps","name_short":"dal-1","host":"dal-1.us.uncletopia.com","port":27015,"enabled":true,"region":"us-central","cc":"us","latitude":32.779167,"longitude":-96.80889,"reserved":0,"last_update":"0001-01-01T00:00:00Z","name_a2s":"Uncletopia | Dallas | 1 | All Maps","protocol":17,"map":"cp_process_final","folder":"tf","game":"Team Fortress","app_id":440,"player_count":22,"max_players":24,"Bots":0,"server_type":"Dedicated","server_os":"Linux","password":true,"vac":true,"version":"7961495","steam_id":85568392924469986,"keywords":["cp","nocrits","nodmgspread","uncletopia"],"game_id":440,"stv_port":27016,"stv_name":"Uncletopia | Dallas | 1 | All Maps | STV","players":[{"user_id":779,"name":"{ST} Oxythemoron","steam_id":76561198060089965,"connected_time":3975000000000,"state":"spawning","ping":42},{"user_id":748,"name":"fish","steam_id":76561198182052198,"connected_time":5891000000000,"state":"spawning","ping":478},{"user_id":805,"name":"caiptaincreemo","steam_id":76561198221714116,"connected_time":2592000000000,"state":"spawning","ping":45},{"user_id":780,"name":"chrischrischris3018@yahoo.com","steam_id":76561198137316053,"connected_time":3971000000000,"state":"spawning","ping":74},{"user_id":795,"name":"The Pootis'd Berd","steam_id":76561198141903490,"connected_time":3153000000000,"state":"spawning","ping":97},{"user_id":823,"name":"‚ô•Katia‚ô•","steam_id":76561198977212642,"connected_time":957000000000,"state":"spawning","ping":83},{"user_id":824,"name":"Q47","steam_id":76561198087128341,"connected_time":799000000000,"state":"spawning","ping":146},{"user_id":819,"name":"Monkey Mode","steam_id":76561197961267543,"connected_time":1065000000000,"state":"spawning","ping":79},{"user_id":796,"name":"Toasterduds","steam_id":76561198163477584,"connected_time":3140000000000,"state":"spawning","ping":79},{"user_id":810,"name":"sebjzy ‚ô•","steam_id":76561198009959034,"connected_time":2001000000000,"state":"spawning","ping":64},{"user_id":817,"name":"barker bill","steam_id":76561198018451994,"connected_time":1121000000000,"state":"spawning","ping":58},{"user_id":830,"name":"rocketspires","steam_id":76561198800386026,"connected_time":5000000000,"state":"spawning","ping":114},{"user_id":828,"name":"xFactr","steam_id":76561198129007422,"connected_time":20000000000,"state":"spawning","ping":90},{"user_id":782,"name":"Swag Messiah","steam_id":76561198290152114,"connected_time":3954000000000,"state":"spawning","ping":85},{"user_id":816,"name":"pool man","steam_id":76561198093145483,"connected_time":1125000000000,"state":"spawning","ping":56},{"user_id":797,"name":"Fatpoob","steam_id":76561198056730096,"connected_time":3130000000000,"state":"spawning","ping":85},{"user_id":821,"name":"Agent Bowtie","steam_id":76561198175839279,"connected_time":1035000000000,"state":"spawning","ping":44},{"user_id":812,"name":"Howell at the Moon","steam_id":76561198060827426,"connected_time":1996000000000,"state":"spawning","ping":59},{"user_id":826,"name":"Azazellotl","steam_id":76561198824814392,"connected_time":33000000000,"state":"spawning","ping":84},{"user_id":802,"name":"FreshlyBrewed","steam_id":76561198181099881,"connected_time":2873000000000,"state":"spawning","ping":75},{"user_id":827,"name":"Fyr","steam_id":76561198048507556,"connected_time":32000000000,"state":"spawning","ping":49},{"user_id":746,"name":"Scremz","steam_id":76561198090314229,"connected_time":6219000000000,"state":"spawning","ping":72}]},{"server_id":108,"name":"Uncletopia | Dallas | 2 | All Maps","name_short":"dal-2","host":"dal-1.us.uncletopia.com","port":27025,"enabled":true,"region":"us-central","cc":"us","latitude":32.779167,"longitude":-96.80889,"reserved":0,"last_update":"0001-01-01T00:00:00Z","name_a2s":"Uncletopia | Dallas | 2 | All Maps","protocol":17,"map":"cp_gorge","folder":"tf","game":"Team Fortress","app_id":440,"player_count":24,"max_players":24,"Bots":0,"server_type":"Dedicated","server_os":"Linux","password":true,"vac":true,"version":"7961495","steam_id":85568392924469988,"keywords":["cp","nocrits","nodmgspread","uncletopia"],"game_id":440,"stv_port":27026,"stv_name":"Uncletopia | Dallas | 2 | All Maps | STV","players":[{"user_id":665,"name":"Valenhart","steam_id":76561198354036240,"connected_time":1980000000000,"state":"active","ping":79},{"user_id":675,"name":"Robo Boss","steam_id":76561199067098696,"connected_time":1257000000000,"state":"active","ping":88},{"user_id":650,"name":"BatMatt","steam_id":76561198045910433,"connected_time":2921000000000,"state":"active","ping":51},{"user_id":621,"name":"Gubbington","steam_id":76561198959381302,"connected_time":5325000000000,"state":"active","ping":75},{"user_id":622,"name":"TwelvePackofSaltyBones","steam_id":76561198224764664,"connected_time":5311000000000,"state":"active","ping":76},{"user_id":645,"name":"Gemmma","steam_id":76561198102160302,"connected_time":3034000000000,"state":"active","ping":65},{"user_id":656,"name":"Proud Swift City Resident","steam_id":76561198036283992,"connected_time":2091000000000,"state":"active","ping":82},{"user_id":678,"name":"RC","steam_id":76561198048127881,"connected_time":1178000000000,"state":"active","ping":63},{"user_id":691,"name":"sailor","steam_id":76561198091015050,"connected_time":643000000000,"state":"active","ping":74},{"user_id":692,"name":"jek","steam_id":76561198097816136,"connected_time":642000000000,"state":"active","ping":88},{"user_id":647,"name":"menonamed","steam_id":76561198199564382,"connected_time":3025000000000,"state":"active","ping":86},{"user_id":687,"name":"despicable gamer","steam_id":76561198312055294,"connected_time":656000000000,"state":"active","ping":84},{"user_id":672,"name":"Luffliet.","steam_id":76561198186593707,"connected_time":1331000000000,"state":"active","ping":56},{"user_id":625,"name":"bluebluepickles","steam_id":76561198119503953,"connected_time":5283000000000,"state":"active","ping":84},{"user_id":651,"name":"Lolxdloldx","steam_id":76561198136887125,"connected_time":2916000000000,"state":"active","ping":73},{"user_id":693,"name":"da goofy gamer! ^_^ \u003c3","steam_id":76561198832230598,"connected_time":279000000000,"state":"active","ping":89},{"user_id":673,"name":"TamerMushroom64","steam_id":76561199128190180,"connected_time":1296000000000,"state":"active","ping":155},{"user_id":688,"name":"Mr. Soupman","steam_id":76561198021649598,"connected_time":656000000000,"state":"active","ping":81},{"user_id":681,"name":"zogs","steam_id":76561198323491654,"connected_time":1157000000000,"state":"active","ping":45},{"user_id":694,"name":"G4Vi","steam_id":76561197998117895,"connected_time":226000000000,"state":"active","ping":90},{"user_id":639,"name":"EightySix","steam_id":76561198186678831,"connected_time":4007000000000,"state":"active","ping":87},{"user_id":482,"name":"rat ü•≤üò∂üå´","steam_id":76561198130412963,"connected_time":14597000000000,"state":"active","ping":72},{"user_id":662,"name":"akkasami","steam_id":76561198055695987,"connected_time":2016000000000,"state":"active","ping":97},{"user_id":690,"name":"men kisser","steam_id":76561199026721822,"connected_time":654000000000,"state":"active","ping":89}]},{"server_id":404,"name":"Uncletopia | Dallas | 3 | All Maps","name_short":"dal-3","host":"dal-1.us.uncletopia.com","port":27035,"enabled":true,"region":"us-central","cc":"us","latitude":32.779167,"longitude":-96.80889,"reserved":0,"last_update":"0001-01-01T00:00:00Z","name_a2s":"Uncletopia | Dallas | 3 | All Maps","protocol":17,"map":"cp_metalworks","folder":"tf","game":"Team Fortress","app_id":440,"player_count":24,"max_players":24,"Bots":0,"server_type":"Dedicated","server_os":"Linux","password":true,"vac":true,"version":"7961495","steam_id":85568392924515219,"keywords":["cp","nocrits","nodmgspread","uncletopia"],"game_id":440,"stv_port":27036,"stv_name":"Uncletopia | Dallas | 3 | All Maps | STV","players":[{"user_id":445,"name":"Fishandfish","steam_id":76561198298483804,"connected_time":1398000000000,"state":"active","ping":107},{"user_id":451,"name":"checkswing","steam_id":76561198999816132,"connected_time":245000000000,"state":"active","ping":100},{"user_id":448,"name":"BB Lorexav","steam_id":76561198207565988,"connected_time":521000000000,"state":"active","ping":73},{"user_id":412,"name":"Jordan Schlansky","steam_id":76561198127395608,"connected_time":5220000000000,"state":"active","ping":93},{"user_id":419,"name":"cupsovietxeno","steam_id":76561198997539399,"connected_time":4600000000000,"state":"active","ping":94},{"user_id":411,"name":"Intrepid","steam_id":76561198125321034,"connected_time":5640000000000,"state":"active","ping":72},{"user_id":452,"name":"Wons","steam_id":76561198088815414,"connected_time":102000000000,"state":"active","ping":67},{"user_id":444,"name":"greg","steam_id":76561198051075489,"connected_time":1419000000000,"state":"active","ping":59},{"user_id":447,"name":"Hovg9000","steam_id":76561199191556710,"connected_time":1063000000000,"state":"active","ping":87},{"user_id":374,"name":"J The Jounin","steam_id":76561198034583622,"connected_time":8630000000000,"state":"active","ping":81},{"user_id":397,"name":"Decapitation Station","steam_id":76561198201796098,"connected_time":7057000000000,"state":"active","ping":83},{"user_id":394,"name":"B0B_Bobson","steam_id":76561198400694217,"connected_time":7479000000000,"state":"active","ping":90},{"user_id":414,"name":"Blake...","steam_id":76561198064090974,"connected_time":5189000000000,"state":"active","ping":94},{"user_id":373,"name":"Boxxed","steam_id":76561198255787237,"connected_time":8679000000000,"state":"active","ping":59},{"user_id":393,"name":"Sku11yy","steam_id":76561198378094265,"connected_time":7566000000000,"state":"active","ping":83},{"user_id":439,"name":"Mcfighter2","steam_id":76561198168073956,"connected_time":1974000000000,"state":"active","ping":84},{"user_id":442,"name":"joebot","steam_id":76561197975606100,"connected_time":1785000000000,"state":"active","ping":92},{"user_id":446,"name":"YoteDab McFapDab.jpg","steam_id":76561197984870380,"connected_time":1296000000000,"state":"active","ping":110},{"user_id":435,"name":"adam0o0","steam_id":76561198052250279,"connected_time":2515000000000,"state":"active","ping":72},{"user_id":422,"name":"Damian0gre","steam_id":76561197970831355,"connected_time":4533000000000,"state":"active","ping":52},{"user_id":432,"name":"meth","steam_id":76561198118715586,"connected_time":3157000000000,"state":"active","ping":75},{"user_id":450,"name":"sheeesh","steam_id":76561198038080028,"connected_time":438000000000,"state":"active","ping":90},{"user_id":433,"name":"Raz","steam_id":76561198002426150,"connected_time":3155000000000,"state":"active","ping":53},{"user_id":440,"name":"rach9411","steam_id":76561198256535721,"connected_time":1927000000000,"state":"active","ping":146}]},{"server_id":405,"name":"Uncletopia | Dallas | 4 | Community","name_short":"dal-4","host":"dal-1.us.uncletopia.com","port":27045,"enabled":true,"region":"us-central","cc":"us","latitude":32.779167,"longitude":-96.80889,"reserved":0,"last_update":"0001-01-01T00:00:00Z","name_a2s":"Uncletopia | Dallas | 4 | Community","protocol":17,"map":"workshop/cp_mannbase_rc2a.ugc1900737467","folder":"tf","game":"Team Fortress","app_id":440,"player_count":7,"max_players":24,"Bots":0,"server_type":"Dedicated","server_os":"Linux","password":true,"vac":true,"version":"7961495","steam_id":85568392924515220,"keywords":["cp","nocrits","nodmgspread","uncletopia"],"game_id":440,"stv_port":27046,"stv_name":"Uncletopia | Dallas | 4 | Community | STV","players":[{"user_id":23,"name":"flamingo","steam_id":76561198854099251,"connected_time":2088000000000,"state":"active","ping":208},{"user_id":21,"name":"DeadlyPinkSheep","steam_id":76561198271773858,"connected_time":2288000000000,"state":"active","ping":55},{"user_id":31,"name":"the brown shit on the banana","steam_id":76561198807719872,"connected_time":255000000000,"state":"active","ping":62},{"user_id":27,"name":"polarbub","steam_id":76561198991022799,"connected_time":1470000000000,"state":"active","ping":72},{"user_id":26,"name":"My Beloved","steam_id":76561198427996315,"connected_time":1577000000000,"state":"active","ping":128},{"user_id":32,"name":"elliblahblahblah","steam_id":76561198203162766,"connected_time":248000000000,"state":"active","ping":95},{"user_id":33,"name":"General Sherman","steam_id":76561198044769376,"connected_time":126000000000,"state":"active","ping":69}]},{"server_id":5,"name":"Uncletopia | Frankfurt | 1 | All Maps","name_short":"frk-1","host":"frk-1.de.uncletopia.com","port":27015,"enabled":true,"region":"eu","cc":"de","latitude":50.110924,"longitude":8.682127,"reserved":0,"last_update":"0001-01-01T00:00:00Z","name_a2s":"Uncletopia | Frankfurt | 1 | All Maps","protocol":17,"map":"koth_lakeside_final","folder":"tf","game":"Team Fortress","app_id":440,"player_count":0,"max_players":24,"Bots":0,"server_type":"Dedicated","server_os":"Linux","password":true,"vac":true,"version":"7961495","steam_id":85568392924469989,"keywords":["cp","nocrits","nodmgspread","uncletopia"],"game_id":440,"stv_port":27016,"stv_name":"Uncletopia | Frankfurt | 1 | All Maps | STV","players":null},{"server_id":110,"name":"Uncletopia | Frankfurt | 2 | All Maps","name_short":"frk-2","host":"frk-1.de.uncletopia.com","port":27025,"enabled":true,"region":"eu","cc":"de","latitude":50.110924,"longitude":8.682127,"reserved":0,"last_update":"0001-01-01T00:00:00Z","name_a2s":"Uncletopia | Frankfurt | 2 | All Maps","protocol":17,"map":"cp_dustbowl","folder":"tf","game":"Team Fortress","app_id":440,"player_count":0,"max_players":24,"Bots":0,"server_type":"Dedicated","server_os":"Linux","password":true,"vac":true,"version":"7961495","steam_id":85568392924469990,"keywords":["cp","nocrits","nodmgspread","uncletopia"],"game_id":440,"stv_port":27026,"stv_name":"Uncletopia | Frankfurt | 2 | All Maps | STV","players":null},{"server_id":308,"name":"Uncletopia | Frankfurt | 3 | All Maps","name_short":"frk-3","host":"frk-1.de.uncletopia.com","port":27035,"enabled":true,"region":"eu","cc":"de","latitude":50.110924,"longitude":8.682127,"reserved":0,"last_update":"0001-01-01T00:00:00Z","name_a2s":"Uncletopia | Frankfurt | 3 | All Maps","protocol":17,"map":"pl_pier","folder":"tf","game":"Team Fortress","app_id":440,"player_count":0,"max_players":24,"Bots":0,"server_type":"Dedicated","server_os":"Linux","password":true,"vac":true,"version":"7961495","steam_id":85568392924504274,"keywords":["nocrits","nodmgspread","payload","uncletopia"],"game_id":440,"stv_port":27036,"stv_name":"Uncletopia | Frankfurt | 3 | All Maps | STV","players":null},{"server_id":309,"name":"Uncletopia | Frankfurt | 4 | All Maps","name_short":"frk-4","host":"frk-1.de.uncletopia.com","port":27045,"enabled":true,"region":"eu","cc":"de","latitude":50.110924,"longitude":8.682127,"reserved":0,"last_update":"0001-01-01T00:00:00Z","name_a2s":"Uncletopia | Frankfurt | 4 | All Maps","protocol":17,"map":"koth_cascade","folder":"tf","game":"Team Fortress","app_id":440,"player_count":0,"max_players":24,"Bots":0,"server_type":"Dedicated","server_os":"Linux","password":true,"vac":true,"version":"7961495","steam_id":85568392924504275,"keywords":["cp","nocrits","nodmgspread","uncletopia"],"game_id":440,"stv_port":27046,"stv_name":"Uncletopia | Frankfurt | 4 | All Maps | STV","players":null},{"server_id":310,"name":"Uncletopia | Frankfurt | 5 | All Maps","name_short":"frk-5","host":"frk-1.de.uncletopia.com","port":27055,"enabled":true,"region":"eu","cc":"de","latitude":50.110924,"longitude":8.682127,"reserved":0,"last_update":"0001-01-01T00:00:00Z","name_a2s":"Uncletopia | Frankfurt | 5 | All Maps","protocol":17,"map":"cp_dustbowl","folder":"tf","game":"Team Fortress","app_id":440,"player_count":0,"max_players":24,"Bots":0,"server_type":"Dedicated","server_os":"Linux","password":true,"vac":true,"version":"7961495","steam_id":85568392924504277,"keywords":["cp","nocrits","nodmgspread","uncletopia"],"game_id":440,"stv_port":27056,"stv_name":"Uncletopia | Frankfurt | 5 | All Maps | STV","players":null},{"server_id":311,"name":"Uncletopia | Frankfurt | 6 | All Maps","name_short":"frk-6","host":"frk-1.de.uncletopia.com","port":27065,"enabled":true,"region":"eu","cc":"de","latitude":50.110924,"longitude":8.682127,"reserved":0,"last_update":"0001-01-01T00:00:00Z","name_a2s":"Uncletopia | Frankfurt | 6 | All Maps","protocol":17,"map":"plr_pipeline","folder":"tf","game":"Team Fortress","app_id":440,"player_count":0,"max_players":24,"Bots":0,"server_type":"Dedicated","server_os":"Linux","password":true,"vac":true,"version":"7961495","steam_id":85568392924504278,"keywords":["nocrits","nodmgspread","payload","uncletopia"],"game_id":440,"stv_port":27066,"stv_name":"Uncletopia | Frankfurt | 6 | All Maps | STV","players":null},{"server_id":23,"name":"Uncletopia | Frankfurt | 7 | Stopwatch","name_short":"frk-7","host":"frk-1.de.uncletopia.com","port":27075,"enabled":true,"region":"eu","cc":"de","latitude":50.110924,"longitude":8.682127,"reserved":0,"last_update":"0001-01-01T00:00:00Z","name_a2s":"Uncletopia | Frankfurt | 7 | Stopwatch","protocol":17,"map":"workshop/koth_ashville_final.ugc2130459942","folder":"tf","game":"Team Fortress","app_id":440,"player_count":0,"max_players":24,"Bots":0,"server_type":"Dedicated","server_os":"Linux","password":true,"vac":true,"version":"7961495","steam_id":85568392924742827,"keywords":["cp","nocrits","nodmgspread","uncletopia"],"game_id":440,"stv_port":27076,"stv_name":"Uncletopia | Frankfurt | 7 | Stopwatch | STV","players":null},{"server_id":24,"name":"Uncletopia | Frankfurt | 8 | Community","name_short":"frk-8","host":"frk-1.de.uncletopia.com","port":27085,"enabled":true,"region":"eu","cc":"de","latitude":50.110924,"longitude":8.682127,"reserved":0,"last_update":"0001-01-01T00:00:00Z","name_a2s":"Uncletopia | Frankfurt | 8 | Community","protocol":17,"map":"workshop/rd_asteroid_redux_b1.ugc2154902912","folder":"tf","game":"Team Fortress","app_id":440,"player_count":0,"max_players":24,"Bots":0,"server_type":"Dedicated","server_os":"Linux","password":true,"vac":true,"version":"7961495","steam_id":85568392924742828,"keywords":["beta","nocrits","nodmgspread","rd","uncletopia"],"game_id":440,"stv_port":27086,"stv_name":"Uncletopia | Frankfurt | 8 | Community | STV","players":null},{"server_id":202,"name":"Uncletopia | Hong Kong | 1 | All Maps","name_short":"hgk-1","host":"hgk-1.hk.uncletopia.com","port":27015,"enabled":true,"region":"asia","cc":"hk","latitude":22.302711,"longitude":114.177216,"reserved":0,"last_update":"0001-01-01T00:00:00Z","name_a2s":"Uncletopia | Hong Kong | 1 | All Maps","protocol":17,"map":"koth_cascade","folder":"tf","game":"Team Fortress","app_id":440,"player_count":0,"max_players":24,"Bots":0,"server_type":"Dedicated","server_os":"Linux","password":true,"vac":true,"version":"7961495","steam_id":85568392924494504,"keywords":["cp","nocrits","nodmgspread","uncletopia"],"game_id":440,"stv_port":27016,"stv_name":"Uncletopia | Hong Kong | 1 | All Maps | STV","players":null},{"server_id":1,"name":"Uncletopia | Los Angeles | 1 | All Maps","name_short":"lax-1","host":"lax-1.us.uncletopia.com","port":27015,"enabled":true,"region":"us-west","cc":"us","latitude":33.94279,"longitude":-118.41004,"reserved":0,"last_update":"0001-01-01T00:00:00Z","name_a2s":"Uncletopia | Los Angeles | 1 | All Maps","protocol":17,"map":"koth_highpass","folder":"tf","game":"Team Fortress","app_id":440,"player_count":0,"max_players":24,"Bots":0,"server_type":"Dedicated","server_os":"Linux","password":true,"vac":true,"version":"7961495","steam_id":85568392924469991,"keywords":["cp","nocrits","nodmgspread","uncletopia"],"game_id":440,"stv_port":27016,"stv_name":"Uncletopia | Los Angeles | 1 | All Maps | STV","players":null},{"server_id":112,"name":"Uncletopia | Los Angeles | 2 | All Maps","name_short":"lax-2","host":"lax-1.us.uncletopia.com","port":27025,"enabled":true,"region":"us-west","cc":"us","latitude":33.94279,"longitude":-118.41004,"reserved":0,"last_update":"0001-01-01T00:00:00Z","name_a2s":"Uncletopia | Los Angeles | 2 | All Maps","protocol":17,"map":"pl_badwater","folder":"tf","game":"Team Fortress","app_id":440,"player_count":24,"max_players":24,"Bots":0,"server_type":"Dedicated","server_os":"Linux","password":true,"vac":true,"version":"7961495","steam_id":85568392924469992,"keywords":["nocrits","nodmgspread","payload","uncletopia"],"game_id":440,"stv_port":27026,"stv_name":"Uncletopia | Los Angeles | 2 | All Maps | STV","players":[{"user_id":107,"name":"level 7 firemancer","steam_id":76561198209571677,"connected_time":295000000000,"state":"active","ping":93},{"user_id":102,"name":"Comrade","steam_id":76561199056721863,"connected_time":376000000000,"state":"active","ping":68},{"user_id":94,"name":"Robogineer","steam_id":76561198026994739,"connected_time":901000000000,"state":"active","ping":45},{"user_id":108,"name":"a chicken","steam_id":76561198313121580,"connected_time":132000000000,"state":"active","ping":57},{"user_id":58,"name":"(TTV) The_Astrum_Guardian","steam_id":76561198130134103,"connected_time":3002000000000,"state":"active","ping":92},{"user_id":95,"name":"bear","steam_id":76561198909415646,"connected_time":895000000000,"state":"active","ping":102},{"user_id":103,"name":"laughs bigman","steam_id":76561198067714032,"connected_time":376000000000,"state":"active","ping":58},{"user_id":96,"name":"Thexx ‚ù§","steam_id":76561198113823050,"connected_time":882000000000,"state":"active","ping":66},{"user_id":76,"name":"Eden","steam_id":76561198081284664,"connected_time":2471000000000,"state":"active","ping":60},{"user_id":88,"name":"TheColdChiliPepper","steam_id":76561199027155811,"connected_time":1488000000000,"state":"active","ping":123},{"user_id":60,"name":"Tacobell_nugget","steam_id":76561199248567851,"connected_time":2997000000000,"state":"active","ping":135},{"user_id":92,"name":"Schnitz","steam_id":76561198265484253,"connected_time":1349000000000,"state":"active","ping":58},{"user_id":97,"name":"Sak","steam_id":76561198307655707,"connected_time":829000000000,"state":"active","ping":48},{"user_id":109,"name":"Cresant Ape","steam_id":76561198127425559,"connected_time":45000000000,"state":"active","ping":75},{"user_id":64,"name":"Pontifex Maximus","steam_id":76561198060281192,"connected_time":2844000000000,"state":"active","ping":110},{"user_id":65,"name":"BIG DICK BANDITO","steam_id":76561198047945799,"connected_time":2816000000000,"state":"active","ping":103},{"user_id":66,"name":"Weegee","steam_id":76561198140095755,"connected_time":2814000000000,"state":"active","ping":49},{"user_id":67,"name":"Frankenstitch","steam_id":76561198027590921,"connected_time":2799000000000,"state":"active","ping":100},{"user_id":104,"name":"EliteSpartan","steam_id":76561198174023582,"connected_time":350000000000,"state":"active","ping":143},{"user_id":105,"name":"Antifa Supersoldier","steam_id":76561198141816516,"connected_time":349000000000,"state":"active","ping":75},{"user_id":81,"name":"corg","steam_id":76561198338740292,"connected_time":1931000000000,"state":"active","ping":55},{"user_id":106,"name":"The Grim Heaper","steam_id":76561197987759101,"connected_time":341000000000,"state":"active","ping":88},{"user_id":73,"name":"N√º√æ","steam_id":76561198043956703,"connected_time":2699000000000,"state":"active","ping":46},{"user_id":84,"name":"Smokey The VietCong Veteran","steam_id":76561198030988939,"connected_time":1799000000000,"state":"active","ping":111}]},{"server_id":324,"name":"Uncletopia | Los Angeles | 3 | All Maps","name_short":"lax-3","host":"lax-1.us.uncletopia.com","port":27035,"enabled":true,"region":"us-west","cc":"us","latitude":33.94279,"longitude":-118.41004,"reserved":0,"last_update":"0001-01-01T00:00:00Z","name_a2s":"Uncletopia | Los Angeles | 3 | All Maps","protocol":17,"map":"pl_swiftwater_final1","folder":"tf","game":"Team Fortress","app_id":440,"player_count":24,"max_players":24,"Bots":0,"server_type":"Dedicated","server_os":"Linux","password":true,"vac":true,"version":"7961495","steam_id":85568392924510198,"keywords":["nocrits","nodmgspread","payload","uncletopia"],"game_id":440,"stv_port":27036,"stv_name":"Uncletopia | Los Angeles | 3 | All Maps | STV","players":[{"user_id":149,"name":"Bhx625","steam_id":76561198041943090,"connected_time":5888000000000,"state":"active","ping":94},{"user_id":185,"name":"duddlee","steam_id":76561198030052564,"connected_time":3702000000000,"state":"active","ping":81},{"user_id":235,"name":"jesus marie they're minerals","steam_id":76561198168492250,"connected_time":163000000000,"state":"active","ping":63},{"user_id":191,"name":"Taco+Taco=Burrito","steam_id":76561198063128663,"connected_time":3418000000000,"state":"active","ping":46},{"user_id":102,"name":"GRONT","steam_id":76561198040464533,"connected_time":8823000000000,"state":"active","ping":101},{"user_id":224,"name":"mo wangs","steam_id":76561198045992418,"connected_time":541000000000,"state":"active","ping":77},{"user_id":228,"name":"GalaxyDoug32","steam_id":76561197997126305,"connected_time":390000000000,"state":"active","ping":84},{"user_id":232,"name":"Highly Nonexistent","steam_id":76561198323583939,"connected_time":286000000000,"state":"active","ping":114},{"user_id":229,"name":"‚ô•CharaÂñúÁîüÂ≠ê‚ô•","steam_id":76561198080500920,"connected_time":388000000000,"state":"active","ping":118},{"user_id":204,"name":"mellowhype","steam_id":76561198040675606,"connected_time":2341000000000,"state":"active","ping":77},{"user_id":222,"name":"Lawrence of Arabia","steam_id":76561198065728034,"connected_time":633000000000,"state":"active","ping":126},{"user_id":230,"name":"monsterkill4567","steam_id":76561198272986367,"connected_time":359000000000,"state":"active","ping":57},{"user_id":192,"name":"Quetzalcoatl","steam_id":76561198094826250,"connected_time":3367000000000,"state":"active","ping":48},{"user_id":239,"name":"AlejandritoXDS","steam_id":76561199147041246,"connected_time":35000000000,"state":"spawning","ping":64},{"user_id":188,"name":"roody","steam_id":76561198066260405,"connected_time":3666000000000,"state":"active","ping":75},{"user_id":157,"name":"sunroof defecation alliance","steam_id":76561198054260599,"connected_time":5629000000000,"state":"active","ping":87},{"user_id":223,"name":"bob1444","steam_id":76561198110258432,"connected_time":566000000000,"state":"active","ping":83},{"user_id":233,"name":"Riltreks","steam_id":76561198800482183,"connected_time":277000000000,"state":"active","ping":95},{"user_id":237,"name":"purple hatsune miku","steam_id":76561198108844158,"connected_time":90000000000,"state":"active","ping":55},{"user_id":238,"name":"papi_00lopez","steam_id":76561198873402574,"connected_time":75000000000,"state":"active","ping":67},{"user_id":203,"name":"dogerich404","steam_id":76561199124102546,"connected_time":2721000000000,"state":"active","ping":60},{"user_id":240,"name":"Game.","steam_id":76561198053571826,"connected_time":34000000000,"state":"active","ping":116},{"user_id":241,"name":"Future Tusk","steam_id":76561198199635217,"connected_time":22000000000,"state":"active","ping":59},{"user_id":117,"name":"Jimmy","steam_id":76561198857959855,"connected_time":8111000000000,"state":"active","ping":50}]},{"server_id":25,"name":"Uncletopia | Los Angeles | 4 | Stopwatch","name_short":"lax-4","host":"lax-1.us.uncletopia.com","port":27045,"enabled":true,"region":"us-west","cc":"us","latitude":33.94279,"longitude":-118.41004,"reserved":0,"last_update":"0001-01-01T00:00:00Z","name_a2s":"Uncletopia | Los Angeles | 4 | Stopwatch","protocol":17,"map":"workshop/koth_bagel_rc6.ugc2514036946","folder":"tf","game":"Team Fortress","app_id":440,"player_count":0,"max_players":24,"Bots":0,"server_type":"Dedicated","server_os":"Linux","password":true,"vac":true,"version":"7961495","steam_id":85568392924510199,"keywords":["cp","nocrits","nodmgspread","uncletopia"],"game_id":440,"stv_port":27046,"stv_name":"Uncletopia | Los Angeles | 4 | Stopwatch | STV","players":null},{"server_id":11,"name":"Uncletopia | London | 1 | All Maps","name_short":"lon-1","host":"lon-1.uk.uncletopia.com","port":27015,"enabled":true,"region":"eu","cc":"gb","latitude":51.509865,"longitude":-0.118092,"reserved":0,"last_update":"0001-01-01T00:00:00Z","name_a2s":"Uncletopia | London | 1 | All Maps","protocol":17,"map":"pl_borneo","folder":"tf","game":"Team Fortress","app_id":440,"player_count":22,"max_players":24,"Bots":0,"server_type":"Dedicated","server_os":"Linux","password":true,"vac":true,"version":"7961495","steam_id":85568392924367362,"keywords":["nocrits","nodmgspread","payload","uncletopia"],"game_id":440,"stv_port":27016,"stv_name":"Uncletopia | London | 1 | All Maps | STV","players":[{"user_id":1408,"name":"scungo","steam_id":76561198316654855,"connected_time":2276000000000,"state":"active","ping":155},{"user_id":1425,"name":"Panchol√≠n","steam_id":76561198262777640,"connected_time":1254000000000,"state":"active","ping":83},{"user_id":1393,"name":"dvn","steam_id":76561198119495788,"connected_time":3056000000000,"state":"active","ping":64},{"user_id":1410,"name":"bro.Scrub[MicBroke]","steam_id":76561197971095217,"connected_time":2232000000000,"state":"active","ping":68},{"user_id":1429,"name":"audiotrack a08","steam_id":76561197998776185,"connected_time":1093000000000,"state":"active","ping":47},{"user_id":1436,"name":"Qdarks","steam_id":76561198013391340,"connected_time":31000000000,"state":"active","ping":124},{"user_id":1434,"name":"Open Mailbox","steam_id":76561198051933580,"connected_time":857000000000,"state":"active","ping":141},{"user_id":1418,"name":"^-^","steam_id":76561198127480206,"connected_time":1675000000000,"state":"active","ping":60},{"user_id":1431,"name":"I might knife you","steam_id":76561199267543998,"connected_time":1083000000000,"state":"active","ping":69},{"user_id":1417,"name":"SuperBob103","steam_id":76561199175360012,"connected_time":1872000000000,"state":"active","ping":45},{"user_id":1440,"name":"Pan","steam_id":76561198436871448,"connected_time":11000000000,"state":"spawning","ping":42},{"user_id":1420,"name":"TobyM88","steam_id":76561198073691812,"connected_time":1629000000000,"state":"active","ping":118},{"user_id":1360,"name":"◊ê◊ë◊ê","steam_id":76561198184360615,"connected_time":5501000000000,"state":"active","ping":116},{"user_id":1396,"name":"your heavy","steam_id":76561198346638308,"connected_time":2965000000000,"state":"active","ping":54},{"user_id":1381,"name":"SnareBreaker","steam_id":76561198854045058,"connected_time":4118000000000,"state":"active","ping":67},{"user_id":1439,"name":"Blondelashes19","steam_id":76561197989281781,"connected_time":18000000000,"state":"active","ping":59},{"user_id":1414,"name":"Penis Contortionist","steam_id":76561198073663784,"connected_time":2158000000000,"state":"active","ping":37},{"user_id":1415,"name":"Refurbished Boy","steam_id":76561197995834697,"connected_time":2111000000000,"state":"active","ping":101},{"user_id":1421,"name":"Peat","steam_id":76561197992168067,"connected_time":1506000000000,"state":"active","ping":66},{"user_id":1435,"name":"doomed user","steam_id":76561198010299230,"connected_time":295000000000,"state":"active","ping":91},{"user_id":1432,"name":"DayneDragon","steam_id":76561198088728883,"connected_time":1044000000000,"state":"active","ping":50},{"user_id":1437,"name":"AyCe","steam_id":76561198036082570,"connected_time":31000000000,"state":"active","ping":55}]},{"server_id":114,"name":"Uncletopia | London | 2 | All Maps","name_short":"lon-2","host":"lon-1.uk.uncletopia.com","port":27025,"enabled":true,"region":"eu","cc":"gb","latitude":51.509865,"longitude":-0.118092,"reserved":0,"last_update":"0001-01-01T00:00:00Z","name_a2s":"Uncletopia | London | 2 | All Maps","protocol":17,"map":"koth_cascade","folder":"tf","game":"Team Fortress","app_id":440,"player_count":0,"max_players":24,"Bots":0,"server_type":"Dedicated","server_os":"Linux","password":true,"vac":true,"version":"7961495","steam_id":85568392924470941,"keywords":["cp","nocrits","nodmgspread","uncletopia"],"game_id":440,"stv_port":27026,"stv_name":"Uncletopia | London | 2 | All Maps | STV","players":null},{"server_id":320,"name":"Uncletopia | London | 3 | All Maps","name_short":"lon-3","host":"lon-1.uk.uncletopia.com","port":27035,"enabled":true,"region":"eu","cc":"gb","latitude":51.509865,"longitude":-0.118092,"reserved":0,"last_update":"0001-01-01T00:00:00Z","name_a2s":"Uncletopia | London | 3 | All Maps","protocol":17,"map":"cp_snakewater_final1","folder":"tf","game":"Team Fortress","app_id":440,"player_count":0,"max_players":24,"Bots":0,"server_type":"Dedicated","server_os":"Linux","password":true,"vac":true,"version":"7961495","steam_id":85568392924510192,"keywords":["cp","nocrits","nodmgspread","uncletopia"],"game_id":440,"stv_port":27036,"stv_name":"Uncletopia | London | 3 | All Maps | STV","players":null},{"server_id":321,"name":"Uncletopia | London | 4 | All Maps","name_short":"lon-4","host":"lon-1.uk.uncletopia.com","port":27045,"enabled":true,"region":"eu","cc":"gb","latitude":51.509865,"longitude":-0.118092,"reserved":0,"last_update":"0001-01-01T00:00:00Z","name_a2s":"Uncletopia | London | 4 | All Maps","protocol":17,"map":"cp_snakewater_final1","folder":"tf","game":"Team Fortress","app_id":440,"player_count":0,"max_players":24,"Bots":0,"server_type":"Dedicated","server_os":"Linux","password":true,"vac":true,"version":"7961495","steam_id":85568392924510193,"keywords":["cp","nocrits","nodmgspread","uncletopia"],"game_id":440,"stv_port":27046,"stv_name":"Uncletopia | London | 4 | All Maps | STV","players":null},{"server_id":21,"name":"Uncletopia | London | 5 | All Maps","name_short":"lon-5","host":"lon-1.uk.uncletopia.com","port":27055,"enabled":true,"region":"eu","cc":"gb","latitude":51.509865,"longitude":-0.118092,"reserved":0,"last_update":"0001-01-01T00:00:00Z","name_a2s":"Uncletopia | London | 5 | All Maps","protocol":17,"map":"cp_sunshine","folder":"tf","game":"Team Fortress","app_id":440,"player_count":14,"max_players":24,"Bots":0,"server_type":"Dedicated","server_os":"Linux","password":true,"vac":true,"version":"7961495","steam_id":85568392924742829,"keywords":["cp","nocrits","nodmgspread","uncletopia"],"game_id":440,"stv_port":27056,"stv_name":"Uncletopia | London | 5 | All Maps | STV","players":[{"user_id":626,"name":"Arkainiel Silver","steam_id":76561198188302519,"connected_time":132000000000,"state":"active","ping":61},{"user_id":610,"name":"‡∏∏","steam_id":76561197992023317,"connected_time":577000000000,"state":"active","ping":82},{"user_id":591,"name":"DNA","steam_id":76561198095477557,"connected_time":2139000000000,"state":"active","ping":65},{"user_id":607,"name":"Lewylow","steam_id":76561198005425686,"connected_time":700000000000,"state":"active","ping":56},{"user_id":614,"name":"jjkun786","steam_id":76561199438517484,"connected_time":467000000000,"state":"active","ping":75},{"user_id":605,"name":"Garry","steam_id":76561198070584586,"connected_time":776000000000,"state":"active","ping":109},{"user_id":571,"name":"Nyhde","steam_id":76561198012771416,"connected_time":4410000000000,"state":"active","ping":102},{"user_id":618,"name":"shr","steam_id":76561198449852071,"connected_time":423000000000,"state":"active","ping":30},{"user_id":619,"name":"Outer","steam_id":76561199085041734,"connected_time":412000000000,"state":"active","ping":84},{"user_id":609,"name":"SkoranShogun","steam_id":76561198091811218,"connected_time":652000000000,"state":"active","ping":170},{"user_id":611,"name":"i pity the drool.","steam_id":76561199330937686,"connected_time":572000000000,"state":"active","ping":79},{"user_id":600,"name":"chillrend_morphs_high_lod6","steam_id":76561198452963141,"connected_time":1711000000000,"state":"active","ping":93},{"user_id":599,"name":"Nomakh","steam_id":76561198096414653,"connected_time":1729000000000,"state":"active","ping":89},{"user_id":620,"name":"hbdie_","steam_id":76561198109996675,"connected_time":335000000000,"state":"active","ping":30}]},{"server_id":22,"name":"Uncletopia | London | 6 | All Maps","name_short":"lon-6","host":"lon-1.uk.uncletopia.com","port":27065,"enabled":true,"region":"eu","cc":"gb","latitude":51.509865,"longitude":-0.118092,"reserved":0,"last_update":"0001-01-01T00:00:00Z","name_a2s":"Uncletopia | London | 6 | All Maps","protocol":17,"map":"koth_lakeside_final","folder":"tf","game":"Team Fortress","app_id":440,"player_count":0,"max_players":24,"Bots":0,"server_type":"Dedicated","server_os":"Linux","password":true,"vac":true,"version":"7961495","steam_id":85568392924742830,"keywords":["cp","nocrits","nodmgspread","uncletopia"],"game_id":440,"stv_port":27066,"stv_name":"Uncletopia | London | 6 | All Maps | STV","players":null},{"server_id":40,"name":"Uncletopia | London | 7 | Stopwatch","name_short":"lon-7","host":"lon-1.uk.uncletopia.com","port":27075,"enabled":true,"region":"eu","cc":"gb","latitude":51.509865,"longitude":-0.118092,"reserved":0,"last_update":"0001-01-01T00:00:00Z","name_a2s":"Uncletopia | London | 7 | Stopwatch","protocol":17,"map":"cp_snakewater_final1","folder":"tf","game":"Team Fortress","app_id":440,"player_count":0,"max_players":24,"Bots":0,"server_type":"Dedicated","server_os":"Linux","password":true,"vac":true,"version":"7961495","steam_id":85568392924964314,"keywords":["cp","nocrits","nodmgspread","uncletopia"],"game_id":440,"stv_port":27076,"stv_name":"Uncletopia | London | 7 | Stopwatch | STV","players":null},{"server_id":41,"name":"Uncletopia | London | 8 | Community","name_short":"lon-8","host":"lon-1.uk.uncletopia.com","port":27085,"enabled":true,"region":"eu","cc":"gb","latitude":51.509865,"longitude":-0.118092,"reserved":0,"last_update":"0001-01-01T00:00:00Z","name_a2s":"Uncletopia | London | 8 | Community","protocol":17,"map":"workshop/pl_cashworks_final1.ugc2904065412","folder":"tf","game":"Team Fortress","app_id":440,"player_count":0,"max_players":24,"Bots":0,"server_type":"Dedicated","server_os":"Linux","password":true,"vac":true,"version":"7961495","steam_id":85568392924964315,"keywords":["nocrits","nodmgspread","payload","uncletopia"],"game_id":440,"stv_port":27086,"stv_name":"Uncletopia | London | 8 | Community | STV","players":null},{"server_id":300,"name":"Uncletopia | Montr√©al | 1 | One Thousand Uncles","name_short":"mtl-1","host":"mtl-1.ca.uncletopia.com","port":27015,"enabled":true,"region":"us-east","cc":"ca","latitude":45.50889,"longitude":-73.56167,"reserved":0,"last_update":"0001-01-01T00:00:00Z","name_a2s":"","protocol":0,"map":"","folder":"","game":"","app_id":0,"player_count":0,"max_players":0,"Bots":0,"server_type":"","server_os":"","password":false,"vac":false,"version":"","steam_id":0,"keywords":null,"game_id":0,"stv_port":0,"stv_name":"","players":null},{"server_id":301,"name":"Uncletopia | Montr√©al | 2 | One Thousand Uncles","name_short":"mtl-2","host":"mtl-1.ca.uncletopia.com","port":27025,"enabled":true,"region":"us-east","cc":"ca","latitude":45.50889,"longitude":-73.56167,"reserved":0,"last_update":"0001-01-01T00:00:00Z","name_a2s":"","protocol":0,"map":"","folder":"","game":"","app_id":0,"player_count":4,"max_players":0,"Bots":0,"server_type":"","server_os":"","password":false,"vac":false,"version":"","steam_id":0,"keywords":null,"game_id":0,"stv_port":0,"stv_name":"","players":[{"user_id":98,"name":"Lots0","steam_id":76561198043143145,"connected_time":1967000000000,"state":"active","ping":88},{"user_id":115,"name":"Why not Zoidberg?","steam_id":76561197982207556,"connected_time":1785000000000,"state":"active","ping":71},{"user_id":119,"name":"Terratrox","steam_id":76561198207115731,"connected_time":615000000000,"state":"active","ping":75},{"user_id":118,"name":"Sinta","steam_id":76561198098398841,"connected_time":1096000000000,"state":"active","ping":50}]},{"server_id":302,"name":"Uncletopia | Montr√©al | 3 | One Thousand Uncles","name_short":"mtl-3","host":"mtl-1.ca.uncletopia.com","port":27035,"enabled":true,"region":"us-east","cc":"ca","latitude":45.50889,"longitude":-73.56167,"reserved":0,"last_update":"0001-01-01T00:00:00Z","name_a2s":"","protocol":0,"map":"","folder":"","game":"","app_id":0,"player_count":0,"max_players":0,"Bots":0,"server_type":"","server_os":"","password":false,"vac":false,"version":"","steam_id":0,"keywords":null,"game_id":0,"stv_port":0,"stv_name":"","players":null},{"server_id":13,"name":"Uncletopia | New York City | 1 | All Maps","name_short":"nyc-1","host":"nyc-1.us.uncletopia.com","port":27015,"enabled":true,"region":"us-east","cc":"us","latitude":40.73061,"longitude":-73.93524,"reserved":0,"last_update":"0001-01-01T00:00:00Z","name_a2s":"Uncletopia | New York City | 1 | All Maps","protocol":17,"map":"pl_pier","folder":"tf","game":"Team Fortress","app_id":440,"player_count":22,"max_players":24,"Bots":0,"server_type":"Dedicated","server_os":"Linux","password":true,"vac":true,"version":"7961495","steam_id":85568392924469993,"keywords":["nocrits","nodmgspread","payload","uncletopia"],"game_id":440,"stv_port":27016,"stv_name":"Uncletopia | New York City | 1 | All Maps | STV","players":[{"user_id":489,"name":"Cervid√©","steam_id":76561198098579497,"connected_time":72000000000,"state":"active","ping":81},{"user_id":457,"name":"Tarot Warden","steam_id":76561198284383023,"connected_time":3026000000000,"state":"active","ping":77},{"user_id":485,"name":"Yuzu","steam_id":76561198417913035,"connected_time":1036000000000,"state":"active","ping":61},{"user_id":492,"name":"Shipmunk","steam_id":76561198063062670,"connected_time":59000000000,"state":"active","ping":47},{"user_id":499,"name":"Big Juice","steam_id":76561198356931946,"connected_time":33000000000,"state":"active","ping":91},{"user_id":493,"name":"Jack \"Hee Ho\" Frost","steam_id":76561198353395198,"connected_time":45000000000,"state":"spawning","ping":115},{"user_id":495,"name":"smocc","steam_id":76561197993726746,"connected_time":39000000000,"state":"active","ping":60},{"user_id":468,"name":"SCATTER","steam_id":76561198405168492,"connected_time":2604000000000,"state":"active","ping":67},{"user_id":488,"name":"John Fortnite","steam_id":76561198076608253,"connected_time":85000000000,"state":"active","ping":56},{"user_id":491,"name":"the pest","steam_id":76561198826298849,"connected_time":67000000000,"state":"active","ping":86},{"user_id":443,"name":"Elvis Dwarvley","steam_id":76561198117231611,"connected_time":4214000000000,"state":"active","ping":138},{"user_id":461,"name":"GoodleShoes/ttv","steam_id":76561198030993521,"connected_time":2992000000000,"state":"active","ping":76},{"user_id":498,"name":"Dr. Heinz Doofenshmirtz","steam_id":76561198107908456,"connected_time":35000000000,"state":"active","ping":913},{"user_id":500,"name":"Aristotle Voulton","steam_id":76561198100174923,"connected_time":30000000000,"state":"active","ping":96},{"user_id":501,"name":"bigSMALL","steam_id":76561198964101426,"connected_time":28000000000,"state":"active","ping":40},{"user_id":503,"name":"PurPle","steam_id":76561198050393396,"connected_time":7000000000,"state":"spawning","ping":1062},{"user_id":481,"name":"Dareu","steam_id":76561198081781710,"connected_time":1764000000000,"state":"active","ping":45},{"user_id":467,"name":"Bigsumoslammer","steam_id":76561198044505076,"connected_time":2633000000000,"state":"active","ping":35},{"user_id":472,"name":"Sentry Gun Main Man","steam_id":76561198327938247,"connected_time":2290000000000,"state":"active","ping":76},{"user_id":487,"name":"Dan","steam_id":76561199236719411,"connected_time":136000000000,"state":"active","ping":98},{"user_id":504,"name":"Fish Fisherman","steam_id":76561198018656022,"connected_time":3000000000,"state":"spawning","ping":55},{"user_id":402,"name":"non professional nouns.","steam_id":76561198294013916,"connected_time":6906000000000,"state":"active","ping":45}]},{"server_id":14,"name":"Uncletopia | New York City | 2 | All Maps","name_short":"nyc-2","host":"nyc-1.us.uncletopia.com","port":27025,"enabled":true,"region":"us-east","cc":"us","latitude":40.73061,"longitude":-73.93524,"reserved":0,"last_update":"0001-01-01T00:00:00Z","name_a2s":"Uncletopia | New York City | 2 | All Maps","protocol":17,"map":"pl_thundermountain","folder":"tf","game":"Team Fortress","app_id":440,"player_count":25,"max_players":24,"Bots":0,"server_type":"Dedicated","server_os":"Linux","password":true,"vac":true,"version":"7961495","steam_id":85568392924469994,"keywords":["nocrits","nodmgspread","payload","uncletopia"],"game_id":440,"stv_port":27026,"stv_name":"Uncletopia | New York City | 2 | All Maps | STV","players":[{"user_id":234,"name":"z","steam_id":76561198377478982,"connected_time":1050000000000,"state":"active","ping":69},{"user_id":211,"name":"DREW PEACOCK","steam_id":76561198065057392,"connected_time":4167000000000,"state":"active","ping":129},{"user_id":220,"name":"Jeffypoo","steam_id":76561198066384337,"connected_time":3102000000000,"state":"active","ping":80},{"user_id":247,"name":"HalfDead","steam_id":76561198049700226,"connected_time":16000000000,"state":"active","ping":76},{"user_id":224,"name":"Skyline","steam_id":76561198018382060,"connected_time":2706000000000,"state":"active","ping":45},{"user_id":235,"name":"Remix.SMG","steam_id":76561198052895933,"connected_time":1045000000000,"state":"active","ping":69},{"user_id":248,"name":"Pomegranate88","steam_id":76561198056385456,"connected_time":1000000000,"state":"spawning","ping":58},{"user_id":199,"name":"‚ú™Type_Alpha","steam_id":76561198122780598,"connected_time":4612000000000,"state":"active","ping":60},{"user_id":200,"name":"Bee_Pirate","steam_id":76561199000599111,"connected_time":4595000000000,"state":"active","ping":57},{"user_id":238,"name":"Girl Liker","steam_id":76561198022302843,"connected_time":1026000000000,"state":"active","ping":87},{"user_id":174,"name":"castronaut2000","steam_id":76561198263221039,"connected_time":6436000000000,"state":"active","ping":46},{"user_id":222,"name":"jackass","steam_id":76561198209380493,"connected_time":2816000000000,"state":"active","ping":43},{"user_id":225,"name":"Frost ‚ô•","steam_id":76561198168870617,"connected_time":2705000000000,"state":"active","ping":56},{"user_id":236,"name":"Poyo Boyo","steam_id":76561198010201227,"connected_time":1044000000000,"state":"active","ping":86},{"user_id":216,"name":"–ü–≤—Ç –î–∏–Ω–≥–æ","steam_id":76561198119683217,"connected_time":3349000000000,"state":"active","ping":113},{"user_id":186,"name":"MrPebbsGaming","steam_id":76561199075070296,"connected_time":5869000000000,"state":"active","ping":75},{"user_id":237,"name":"tommy","steam_id":76561198111753974,"connected_time":1044000000000,"state":"active","ping":36},{"user_id":227,"name":"Tara","steam_id":76561198020696265,"connected_time":2699000000000,"state":"active","ping":114},{"user_id":223,"name":"YesMargaret","steam_id":76561198127971751,"connected_time":2814000000000,"state":"active","ping":80},{"user_id":219,"name":"DededeMain | trade.tf","steam_id":76561198310951632,"connected_time":3300000000000,"state":"active","ping":47},{"user_id":242,"name":"Shemply","steam_id":76561198193658910,"connected_time":835000000000,"state":"active","ping":101},{"user_id":240,"name":"Vaude","steam_id":76561198369187511,"connected_time":954000000000,"state":"active","ping":67},{"user_id":244,"name":"Unholy","steam_id":76561198058312481,"connected_time":35000000000,"state":"active","ping":49},{"user_id":196,"name":"Squiddysquibbles","steam_id":76561198268476001,"connected_time":4995000000000,"state":"active","ping":48},{"user_id":249,"name":"TheBoneyBitt","steam_id":76561199085471091,"connected_time":1000000000,"state":"spawning","ping":32}]},{"server_id":15,"name":"Uncletopia | New York City | 3 | Stopwatch","name_short":"nyc-3","host":"nyc-1.us.uncletopia.com","port":27035,"enabled":true,"region":"us-east","cc":"us","latitude":40.73061,"longitude":-73.93524,"reserved":0,"last_update":"0001-01-01T00:00:00Z","name_a2s":"Uncletopia | New York City | 3 | Stopwatch","protocol":17,"map":"workshop/cp_process_f12.ugc2302948105","folder":"tf","game":"Team Fortress","app_id":440,"player_count":0,"max_players":24,"Bots":0,"server_type":"Dedicated","server_os":"Linux","password":true,"vac":true,"version":"7961495","steam_id":85568392924742820,"keywords":["cp","nocrits","nodmgspread","uncletopia"],"game_id":440,"stv_port":27036,"stv_name":"Uncletopia | New York City | 3 | Stopwatch | STV","players":null},{"server_id":16,"name":"Uncletopia | New York City | 4 | Community","name_short":"nyc-4","host":"nyc-1.us.uncletopia.com","port":27045,"enabled":true,"region":"us-east","cc":"us","latitude":40.73061,"longitude":-73.93524,"reserved":0,"last_update":"0001-01-01T00:00:00Z","name_a2s":"Uncletopia | New York City | 4 | Community","protocol":17,"map":"workshop/koth_slaughter_rc1.ugc1712845210","folder":"tf","game":"Team Fortress","app_id":440,"player_count":0,"max_players":24,"Bots":0,"server_type":"Dedicated","server_os":"Linux","password":true,"vac":true,"version":"7961495","steam_id":85568392924742821,"keywords":["cp","nocrits","nodmgspread","uncletopia"],"game_id":440,"stv_port":27046,"stv_name":"Uncletopia | New York City | 4 | Community | STV","players":null},{"server_id":142,"name":"Uncletopia | S√£o Paulo | 1 | All Maps","name_short":"sao-1","host":"sao-1.br.uncletopia.com","port":27015,"enabled":true,"region":"sa","cc":"br","latitude":-23.533773,"longitude":-46.62529,"reserved":0,"last_update":"0001-01-01T00:00:00Z","name_a2s":"Uncletopia | S√£o Paulo | 1 | All Maps","protocol":17,"map":"koth_lakeside_final","folder":"tf","game":"Team Fortress","app_id":440,"player_count":0,"max_players":24,"Bots":0,"server_type":"Dedicated","server_os":"Linux","password":true,"vac":true,"version":"7961495","steam_id":85568392924469996,"keywords":["cp","nocrits","nodmgspread","uncletopia"],"game_id":440,"stv_port":27016,"stv_name":"Uncletopia | S√£o Paulo | 1 | All Maps | STV","players":null},{"server_id":143,"name":"Uncletopia | S√£o Paulo | 2 | Community","name_short":"sao-2","host":"sao-2.br.uncletopia.com","port":27015,"enabled":true,"region":"sa","cc":"br","latitude":-23.533773,"longitude":-46.62529,"reserved":0,"last_update":"0001-01-01T00:00:00Z","name_a2s":"Uncletopia | S√£o Paulo | 2 | Community","protocol":17,"map":"workshop/koth_slaughter_rc1.ugc1712845210","folder":"tf","game":"Team Fortress","app_id":440,"player_count":0,"max_players":24,"Bots":0,"server_type":"Dedicated","server_os":"Linux","password":true,"vac":true,"version":"7961495","steam_id":85568392924485349,"keywords":["cp","nocrits","nodmgspread","uncletopia"],"game_id":440,"stv_port":27016,"stv_name":"Uncletopia | S√£o Paulo | 2 | Community | STV","players":null},{"server_id":7,"name":"Uncletopia | Seattle | 1 | All Maps","name_short":"sea-1","host":"sea-1.us.uncletopia.com","port":27015,"enabled":true,"region":"us-west","cc":"us","latitude":47.608013,"longitude":-122.33517,"reserved":0,"last_update":"0001-01-01T00:00:00Z","name_a2s":"Uncletopia | Seattle | 1 | All Maps","protocol":17,"map":"pl_barnblitz","folder":"tf","game":"Team Fortress","app_id":440,"player_count":24,"max_players":24,"Bots":0,"server_type":"Dedicated","server_os":"Linux","password":true,"vac":true,"version":"7961495","steam_id":85568392924469997,"keywords":["nocrits","nodmgspread","payload","uncletopia"],"game_id":440,"stv_port":27016,"stv_name":"Uncletopia | Seattle | 1 | All Maps | STV","players":[{"user_id":1078,"name":"hart","steam_id":76561198046073848,"connected_time":197000000000,"state":"active","ping":46},{"user_id":1055,"name":"Common","steam_id":76561198041083863,"connected_time":1130000000000,"state":"active","ping":51},{"user_id":1056,"name":"William P. Ennis","steam_id":76561198073464877,"connected_time":1130000000000,"state":"active","ping":92},{"user_id":1042,"name":"Bomby24","steam_id":76561199224779013,"connected_time":2744000000000,"state":"active","ping":86},{"user_id":997,"name":"toes","steam_id":76561198221151676,"connected_time":6309000000000,"state":"active","ping":60},{"user_id":1059,"name":"Shah","steam_id":76561198047508851,"connected_time":1105000000000,"state":"active","ping":49},{"user_id":966,"name":"Timemx63","steam_id":76561198062377543,"connected_time":8760000000000,"state":"active","ping":40},{"user_id":1073,"name":"Mega_Man23","steam_id":76561198138341391,"connected_time":484000000000,"state":"active","ping":130},{"user_id":1051,"name":"TROY","steam_id":76561197983852176,"connected_time":2245000000000,"state":"active","ping":76},{"user_id":1070,"name":"TimeSnake","steam_id":76561198052098233,"connected_time":828000000000,"state":"active","ping":69},{"user_id":1054,"name":"Spectre‚Åπ‚Åπ‚Åπ","steam_id":76561198037535169,"connected_time":1138000000000,"state":"active","ping":71},{"user_id":1012,"name":"no.1 medic boyfriend","steam_id":76561198873478305,"connected_time":5466000000000,"state":"active","ping":48},{"user_id":1072,"name":"Nom Skirrett","steam_id":76561198014600788,"connected_time":627000000000,"state":"active","ping":74},{"user_id":1060,"name":"Furry Femboy Hooters (CEO)","steam_id":76561198097745857,"connected_time":1068000000000,"state":"active","ping":50},{"user_id":1061,"name":"AWGER (don't uber)","steam_id":76561198284683624,"connected_time":1046000000000,"state":"active","ping":83},{"user_id":1079,"name":"GoGo","steam_id":76561198023080645,"connected_time":132000000000,"state":"active","ping":135},{"user_id":1020,"name":"valley","steam_id":76561199433415153,"connected_time":4605000000000,"state":"active","ping":57},{"user_id":1074,"name":"cielael","steam_id":76561198043971956,"connected_time":438000000000,"state":"active","ping":75},{"user_id":1035,"name":"Keamy","steam_id":76561199471434875,"connected_time":3443000000000,"state":"active","ping":40},{"user_id":1027,"name":"squart guy","steam_id":76561199411560141,"connected_time":4241000000000,"state":"active","ping":40},{"user_id":1077,"name":"Chili","steam_id":76561198042942046,"connected_time":281000000000,"state":"active","ping":98},{"user_id":1057,"name":"Greenwood RN","steam_id":76561198088641060,"connected_time":1129000000000,"state":"active","ping":45},{"user_id":1050,"name":"Hazel Nutts \u003c3","steam_id":76561199247095754,"connected_time":2282000000000,"state":"active","ping":55},{"user_id":1058,"name":"Kc","steam_id":76561198210734407,"connected_time":1129000000000,"state":"active","ping":118}]},{"server_id":119,"name":"Uncletopia | Seattle | 2 | All Maps","name_short":"sea-2","host":"sea-1.us.uncletopia.com","port":27025,"enabled":true,"region":"us-west","cc":"us","latitude":47.608013,"longitude":-122.33517,"reserved":0,"last_update":"0001-01-01T00:00:00Z","name_a2s":"Uncletopia | Seattle | 2 | All Maps","protocol":17,"map":"pl_swiftwater_final1","folder":"tf","game":"Team Fortress","app_id":440,"player_count":24,"max_players":24,"Bots":0,"server_type":"Dedicated","server_os":"Linux","password":true,"vac":true,"version":"7961495","steam_id":85568392924469998,"keywords":["nocrits","nodmgspread","payload","uncletopia"],"game_id":440,"stv_port":27026,"stv_name":"Uncletopia | Seattle | 2 | All Maps | STV","players":[{"user_id":260,"name":"TeriyakiDynamite","steam_id":76561198050049346,"connected_time":1426000000000,"state":"active","ping":80},{"user_id":272,"name":"southern hospitality","steam_id":76561198862785401,"connected_time":843000000000,"state":"active","ping":85},{"user_id":271,"name":"Headshotsnake","steam_id":76561198067130248,"connected_time":883000000000,"state":"active","ping":96},{"user_id":279,"name":"zpalmtree","steam_id":76561198134307620,"connected_time":357000000000,"state":"active","ping":108},{"user_id":259,"name":"Other Players, My One Weakness","steam_id":76561197989247588,"connected_time":1598000000000,"state":"active","ping":74},{"user_id":276,"name":"·≤º·≤º·≤º","steam_id":76561198845246815,"connected_time":791000000000,"state":"active","ping":69},{"user_id":265,"name":"Mayor McCheese","steam_id":76561198347579460,"connected_time":1046000000000,"state":"active","ping":68},{"user_id":278,"name":"Arkell","steam_id":76561198135884882,"connected_time":663000000000,"state":"active","ping":46},{"user_id":253,"name":"Dullahan","steam_id":76561198119668908,"connected_time":2020000000000,"state":"active","ping":93},{"user_id":220,"name":"spes","steam_id":76561198081496581,"connected_time":3899000000000,"state":"active","ping":52},{"user_id":280,"name":"H\u0026K G36 with pronouns","steam_id":76561199217503417,"connected_time":320000000000,"state":"active","ping":55},{"user_id":264,"name":"Gwuf","steam_id":76561198091503282,"connected_time":1129000000000,"state":"active","ping":89},{"user_id":277,"name":"cool beans","steam_id":76561198321591685,"connected_time":753000000000,"state":"active","ping":75},{"user_id":266,"name":"blueboy23","steam_id":76561199121889873,"connected_time":1019000000000,"state":"active","ping":42},{"user_id":216,"name":"Butteryback","steam_id":76561198049642485,"connected_time":4065000000000,"state":"active","ping":70},{"user_id":221,"name":"Kazoo","steam_id":76561199229748300,"connected_time":3876000000000,"state":"active","ping":75},{"user_id":281,"name":"V A R M I N T","steam_id":76561198417042268,"connected_time":104000000000,"state":"active","ping":56},{"user_id":267,"name":"Double Cheeseburger","steam_id":76561198107807617,"connected_time":1005000000000,"state":"active","ping":64},{"user_id":268,"name":"Deku_2667","steam_id":76561199232121911,"connected_time":968000000000,"state":"active","ping":38},{"user_id":225,"name":"Arkus","steam_id":76561199092478198,"connected_time":3760000000000,"state":"active","ping":51},{"user_id":224,"name":"Weed Pyro (real)","steam_id":76561199388058358,"connected_time":3776000000000,"state":"active","ping":62},{"user_id":255,"name":"GreenApples","steam_id":76561198120559543,"connected_time":2013000000000,"state":"active","ping":95},{"user_id":275,"name":"JeffTrash","steam_id":76561198975550775,"connected_time":808000000000,"state":"active","ping":123},{"user_id":263,"name":"wrongthink","steam_id":76561198830293087,"connected_time":1163000000000,"state":"active","ping":91}]},{"server_id":406,"name":"Uncletopia | Seattle | 3 | Stopwatch","name_short":"sea-3","host":"sea-1.us.uncletopia.com","port":27035,"enabled":true,"region":"us-west","cc":"us","latitude":47.608013,"longitude":-122.33517,"reserved":0,"last_update":"0001-01-01T00:00:00Z","name_a2s":"Uncletopia | Seattle | 3 | Stopwatch","protocol":17,"map":"workshop/koth_ramjam_rc1.ugc459778887","folder":"tf","game":"Team Fortress","app_id":440,"player_count":0,"max_players":24,"Bots":0,"server_type":"Dedicated","server_os":"Linux","password":true,"vac":true,"version":"7961495","steam_id":85568392924515217,"keywords":["cp","nocrits","nodmgspread","uncletopia"],"game_id":440,"stv_port":27036,"stv_name":"Uncletopia | Seattle | 3 | Stopwatch | STV","players":null},{"server_id":17,"name":"Uncletopia | San Francisco | 1 | All Maps","name_short":"sfo-1","host":"sfo-1.us.uncletopia.com","port":27015,"enabled":true,"region":"us-west","cc":"us","latitude":37.77397,"longitude":-122.4313,"reserved":0,"last_update":"0001-01-01T00:00:00Z","name_a2s":"Uncletopia | San Francisco | 1 | All Maps","protocol":17,"map":"pl_frontier_final","folder":"tf","game":"Team Fortress","app_id":440,"player_count":21,"max_players":24,"Bots":0,"server_type":"Dedicated","server_os":"Linux","password":true,"vac":true,"version":"7961495","steam_id":85568392924469999,"keywords":["nocrits","nodmgspread","payload","uncletopia"],"game_id":440,"stv_port":27016,"stv_name":"Uncletopia | San Francisco | 1 | All Maps | STV","players":[{"user_id":196,"name":"Zycorge","steam_id":76561198049414191,"connected_time":2360000000000,"state":"active","ping":74},{"user_id":228,"name":"lytewerk","steam_id":76561198002819791,"connected_time":1289000000000,"state":"active","ping":80},{"user_id":248,"name":"MayKay","steam_id":76561199016092265,"connected_time":129000000000,"state":"active","ping":72},{"user_id":250,"name":"rontu","steam_id":76561199072955534,"connected_time":17000000000,"state":"spawning","ping":93},{"user_id":206,"name":"Dob16","steam_id":76561198176738623,"connected_time":2103000000000,"state":"active","ping":73},{"user_id":241,"name":"ImagineExisting","steam_id":76561198860261731,"connected_time":370000000000,"state":"active","ping":76},{"user_id":242,"name":"[DATS‚û°] Sugar Meowth","steam_id":76561197995251793,"connected_time":291000000000,"state":"active","ping":60},{"user_id":233,"name":"Phantom Boss","steam_id":76561198119329027,"connected_time":1110000000000,"state":"active","ping":116},{"user_id":234,"name":"WeAreTheSpirits","steam_id":76561198191555728,"connected_time":988000000000,"state":"active","ping":48},{"user_id":224,"name":"One Frame","steam_id":76561198143287731,"connected_time":1566000000000,"state":"active","ping":58},{"user_id":214,"name":"lordstinkdemon666","steam_id":76561198073914311,"connected_time":1985000000000,"state":"active","ping":48},{"user_id":209,"name":"amaricantanker#574","steam_id":76561198343584037,"connected_time":2079000000000,"state":"active","ping":61},{"user_id":244,"name":"Amateur Glaswegian","steam_id":76561198030851956,"connected_time":232000000000,"state":"active","ping":64},{"user_id":249,"name":"frog_pond_park","steam_id":76561198309010627,"connected_time":94000000000,"state":"active","ping":55},{"user_id":246,"name":"toast","steam_id":76561198843031197,"connected_time":175000000000,"state":"active","ping":57},{"user_id":236,"name":"cowboy","steam_id":76561198266320078,"connected_time":783000000000,"state":"active","ping":112},{"user_id":229,"name":"Brando","steam_id":76561198078306678,"connected_time":1273000000000,"state":"active","ping":75},{"user_id":231,"name":"Gojira19","steam_id":76561198206384351,"connected_time":1219000000000,"state":"active","ping":112},{"user_id":121,"name":"Lambchop","steam_id":76561198043900363,"connected_time":7697000000000,"state":"active","ping":60},{"user_id":154,"name":"pat","steam_id":76561198040595468,"connected_time":5384000000000,"state":"active","ping":71},{"user_id":181,"name":"rad killl raccoon","steam_id":76561198980975595,"connected_time":3458000000000,"state":"active","ping":81}]},{"server_id":18,"name":"Uncletopia | San Francisco | 2 | All Maps","name_short":"sfo-2","host":"sfo-1.us.uncletopia.com","port":27025,"enabled":true,"region":"us-west","cc":"us","latitude":37.77397,"longitude":-122.4313,"reserved":0,"last_update":"0001-01-01T00:00:00Z","name_a2s":"Uncletopia | San Francisco | 2 | All Maps","protocol":17,"map":"pl_frontier_final","folder":"tf","game":"Team Fortress","app_id":440,"player_count":2,"max_players":24,"Bots":0,"server_type":"Dedicated","server_os":"Linux","password":true,"vac":true,"version":"7961495","steam_id":85568392924470000,"keywords":["nocrits","nodmgspread","payload","uncletopia"],"game_id":440,"stv_port":27026,"stv_name":"Uncletopia | San Francisco | 2 | All Maps | STV","players":[{"user_id":91,"name":"Blake","steam_id":76561198884871311,"connected_time":198000000000,"state":"active","ping":82},{"user_id":92,"name":"NotAToaster","steam_id":76561198349938357,"connected_time":195000000000,"state":"active","ping":98}]},{"server_id":19,"name":"Uncletopia | San Francisco | 3 | Stopwatch","name_short":"sfo-3","host":"sfo-1.us.uncletopia.com","port":27035,"enabled":true,"region":"us-west","cc":"us","latitude":37.77397,"longitude":-122.4313,"reserved":0,"last_update":"0001-01-01T00:00:00Z","name_a2s":"Uncletopia | San Francisco | 3 | Stopwatch","protocol":17,"map":"pl_borneo","folder":"tf","game":"Team Fortress","app_id":440,"player_count":0,"max_players":24,"Bots":0,"server_type":"Dedicated","server_os":"Linux","password":true,"vac":true,"version":"7961495","steam_id":85568392924742824,"keywords":["nocrits","nodmgspread","payload","uncletopia"],"game_id":440,"stv_port":27036,"stv_name":"Uncletopia | San Francisco | 3 | Stopwatch | STV","players":null},{"server_id":20,"name":"Uncletopia | San Francisco | 4 | Community","name_short":"sfo-4","host":"sfo-1.us.uncletopia.com","port":27045,"enabled":true,"region":"us-west","cc":"us","latitude":37.77397,"longitude":-122.4313,"reserved":0,"last_update":"0001-01-01T00:00:00Z","name_a2s":"Uncletopia | San Francisco | 4 | Community","protocol":17,"map":"pl_pier","folder":"tf","game":"Team Fortress","app_id":440,"player_count":24,"max_players":24,"Bots":0,"server_type":"Dedicated","server_os":"Linux","password":true,"vac":true,"version":"7961495","steam_id":85568392924742826,"keywords":["nocrits","nodmgspread","payload","uncletopia"],"game_id":440,"stv_port":27046,"stv_name":"Uncletopia | San Francisco | 4 | Community | STV","players":[{"user_id":4,"name":"CHIEF_JUSTICE_FUCKASS","steam_id":76561199261675844,"connected_time":2388000000000,"state":"active","ping":64},{"user_id":5,"name":"Dreamer","steam_id":76561198800478056,"connected_time":2339000000000,"state":"active","ping":127},{"user_id":6,"name":"Sun","steam_id":76561198201205911,"connected_time":2221000000000,"state":"active","ping":64},{"user_id":8,"name":"NoobNoob","steam_id":76561198447655340,"connected_time":1270000000000,"state":"active","ping":120},{"user_id":9,"name":"Soap","steam_id":76561198074619142,"connected_time":1252000000000,"state":"active","ping":90},{"user_id":10,"name":"Kitsunian","steam_id":76561199223189107,"connected_time":1231000000000,"state":"active","ping":166},{"user_id":11,"name":"Bones0010","steam_id":76561198096186958,"connected_time":1064000000000,"state":"active","ping":100},{"user_id":12,"name":"NovaDome","steam_id":76561198292309598,"connected_time":876000000000,"state":"active","ping":89},{"user_id":32,"name":"ichster killed","steam_id":76561198011675372,"connected_time":152000000000,"state":"active","ping":73},{"user_id":14,"name":"Chap","steam_id":76561198294226443,"connected_time":730000000000,"state":"active","ping":63},{"user_id":28,"name":"Lordofthekevins","steam_id":76561198169066956,"connected_time":318000000000,"state":"active","ping":110},{"user_id":16,"name":"Cinnifox","steam_id":76561198068773971,"connected_time":701000000000,"state":"active","ping":83},{"user_id":17,"name":"clavin","steam_id":76561198069380992,"connected_time":687000000000,"state":"active","ping":92},{"user_id":22,"name":"Slope115117","steam_id":76561199028794627,"connected_time":607000000000,"state":"active","ping":74},{"user_id":19,"name":"Birby","steam_id":76561198884009768,"connected_time":647000000000,"state":"active","ping":60},{"user_id":20,"name":"DJ Pierce","steam_id":76561198394241466,"connected_time":645000000000,"state":"active","ping":114},{"user_id":21,"name":"Smiles","steam_id":76561198107197973,"connected_time":629000000000,"state":"active","ping":100},{"user_id":26,"name":"Captain Crunch","steam_id":76561199141538581,"connected_time":492000000000,"state":"active","ping":62},{"user_id":24,"name":"leumas","steam_id":76561198240408540,"connected_time":556000000000,"state":"active","ping":104},{"user_id":27,"name":"TruthHut","steam_id":76561198093452436,"connected_time":369000000000,"state":"active","ping":82},{"user_id":29,"name":"DiegoVal12","steam_id":76561198408509079,"connected_time":267000000000,"state":"active","ping":75},{"user_id":30,"name":"DoxPlaysGames","steam_id":76561198240339332,"connected_time":238000000000,"state":"active","ping":86},{"user_id":31,"name":"plsplsplslol","steam_id":76561198868084626,"connected_time":235000000000,"state":"active","ping":67},{"user_id":33,"name":"Daminknight","steam_id":76561198194870615,"connected_time":131000000000,"state":"active","ping":126}]},{"server_id":141,"name":"Uncletopia | Sydney | 1 | All Maps","name_short":"syd-1","host":"syd-1.au.uncletopia.com","port":27015,"enabled":true,"region":"au","cc":"au","latitude":-33.865143,"longitude":151.2099,"reserved":0,"last_update":"0001-01-01T00:00:00Z","name_a2s":"Uncletopia | Sydney | 1 | All Maps","protocol":17,"map":"koth_viaduct","folder":"tf","game":"Team Fortress","app_id":440,"player_count":0,"max_players":24,"Bots":0,"server_type":"Dedicated","server_os":"Linux","password":true,"vac":true,"version":"7961495","steam_id":85568392924470001,"keywords":["cp","nocrits","nodmgspread","uncletopia"],"game_id":440,"stv_port":27016,"stv_name":"Uncletopia | Sydney | 1 | All Maps | STV","players":null},{"server_id":123,"name":"Uncletopia | Sydney | 2 | All Maps","name_short":"syd-2","host":"syd-1.au.uncletopia.com","port":27025,"enabled":true,"region":"au","cc":"au","latitude":-33.865143,"longitude":151.2099,"reserved":0,"last_update":"0001-01-01T00:00:00Z","name_a2s":"Uncletopia | Sydney | 2 | All Maps","protocol":17,"map":"koth_lakeside_final","folder":"tf","game":"Team Fortress","app_id":440,"player_count":0,"max_players":24,"Bots":0,"server_type":"Dedicated","server_os":"Linux","password":true,"vac":true,"version":"7961495","steam_id":85568392924470002,"keywords":["cp","nocrits","nodmgspread","uncletopia"],"game_id":440,"stv_port":27026,"stv_name":"Uncletopia | Sydney | 2 | All Maps | STV","players":null},{"server_id":395,"name":"Uncletopia | Sydney | 3 | All Maps","name_short":"syd-3","host":"syd-1.au.uncletopia.com","port":27035,"enabled":true,"region":"au","cc":"au","latitude":-33.865143,"longitude":151.2099,"reserved":0,"last_update":"0001-01-01T00:00:00Z","name_a2s":"Uncletopia | Sydney | 3 | All Maps","protocol":17,"map":"pl_frontier_final","folder":"tf","game":"Team Fortress","app_id":440,"player_count":0,"max_players":24,"Bots":0,"server_type":"Dedicated","server_os":"Linux","password":true,"vac":true,"version":"7961495","steam_id":85568392925194467,"keywords":["nocrits","nodmgspread","payload","uncletopia"],"game_id":440,"stv_port":27036,"stv_name":"Uncletopia | Sydney | 3 | All Maps | STV","players":null},{"server_id":396,"name":"Uncletopia | Sydney | 4 | All Maps","name_short":"syd-4","host":"syd-1.au.uncletopia.com","port":27045,"enabled":true,"region":"au","cc":"au","latitude":-33.865143,"longitude":151.2099,"reserved":0,"last_update":"0001-01-01T00:00:00Z","name_a2s":"Uncletopia | Sydney | 4 | All Maps","protocol":17,"map":"cp_process_final","folder":"tf","game":"Team Fortress","app_id":440,"player_count":0,"max_players":24,"Bots":0,"server_type":"Dedicated","server_os":"Linux","password":true,"vac":true,"version":"7961495","steam_id":85568392925397958,"keywords":["cp","nocrits","nodmgspread","uncletopia"],"game_id":440,"stv_port":27046,"stv_name":"Uncletopia | Sydney | 4 | All Maps | STV","players":null},{"server_id":58,"name":"Uncletopia | Sydney | 5 | Stopwatch","name_short":"syd-5","host":"syd-1.au.uncletopia.com","port":27055,"enabled":true,"region":"au","cc":"au","latitude":-33.865143,"longitude":151.2099,"reserved":0,"last_update":"0001-01-01T00:00:00Z","name_a2s":"Uncletopia | Sydney | 5 | Stopwatch","protocol":17,"map":"pl_frontier_final","folder":"tf","game":"Team Fortress","app_id":440,"player_count":0,"max_players":24,"Bots":0,"server_type":"Dedicated","server_os":"Linux","password":true,"vac":true,"version":"7961495","steam_id":85568392925397959,"keywords":["nocrits","nodmgspread","payload","uncletopia"],"game_id":440,"stv_port":27056,"stv_name":"Uncletopia | Sydney | 5 | Stopwatch | STV","players":null},{"server_id":59,"name":"Uncletopia | Sydney | 6 | Community","name_short":"syd-6","host":"syd-1.au.uncletopia.com","port":27065,"enabled":true,"region":"au","cc":"au","latitude":-33.865143,"longitude":151.2099,"reserved":0,"last_update":"0001-01-01T00:00:00Z","name_a2s":"Uncletopia | Sydney | 6 | Community","protocol":17,"map":"cp_sunshine","folder":"tf","game":"Team Fortress","app_id":440,"player_count":0,"max_players":24,"Bots":0,"server_type":"Dedicated","server_os":"Linux","password":true,"vac":true,"version":"7961495","steam_id":85568392925397960,"keywords":["cp","nocrits","nodmgspread","uncletopia"],"game_id":440,"stv_port":27066,"stv_name":"Uncletopia | Sydney | 6 | Community | STV","players":null},{"server_id":49,"name":"Uncletopia | Warsaw | 1 | One Thousand Uncles","name_short":"waw-1","host":"waw-1.pl.uncletopia.com","port":27015,"enabled":true,"region":"eu","cc":"pl","latitude":52.2297,"longitude":21.017532,"reserved":0,"last_update":"0001-01-01T00:00:00Z","name_a2s":"Uncletopia | Warsaw | 1 | One Thousand Uncles","protocol":17,"map":"cp_dustbowl","folder":"tf","game":"Team Fortress","app_id":440,"player_count":0,"max_players":32,"Bots":0,"server_type":"Dedicated","server_os":"Linux","password":true,"vac":true,"version":"7961495","steam_id":85568392925397850,"keywords":["alltalk","cp","danepve","increased_maxplayers","nocrits","norespawntime","uncletopia"],"game_id":440,"stv_port":0,"stv_name":"","players":null},{"server_id":50,"name":"Uncletopia | Warsaw | 2 | One Thousand Uncles","name_short":"waw-2","host":"waw-1.pl.uncletopia.com","port":27025,"enabled":true,"region":"eu","cc":"pl","latitude":52.2297,"longitude":21.017532,"reserved":0,"last_update":"0001-01-01T00:00:00Z","name_a2s":"Uncletopia | Warsaw | 2 | One Thousand Uncles","protocol":17,"map":"pl_goldrush","folder":"tf","game":"Team Fortress","app_id":440,"player_count":0,"max_players":32,"Bots":0,"server_type":"Dedicated","server_os":"Linux","password":true,"vac":true,"version":"7961495","steam_id":85568392925397851,"keywords":["alltalk","danepve","increased_maxplayers","nocrits","norespawntime","payload","uncletopia"],"game_id":440,"stv_port":0,"stv_name":"","players":null},{"server_id":51,"name":"Uncletopia | Warsaw | 3 | All Maps","name_short":"waw-3","host":"waw-1.pl.uncletopia.com","port":27035,"enabled":true,"region":"eu","cc":"pl","latitude":52.2297,"longitude":21.017532,"reserved":0,"last_update":"0001-01-01T00:00:00Z","name_a2s":"Uncletopia | Warsaw | 3 | All Maps","protocol":17,"map":"cp_process_final","folder":"tf","game":"Team Fortress","app_id":440,"player_count":0,"max_players":24,"Bots":0,"server_type":"Dedicated","server_os":"Linux","password":true,"vac":true,"version":"7961495","steam_id":85568392925397852,"keywords":["cp","nocrits","nodmgspread","uncletopia"],"game_id":440,"stv_port":27036,"stv_name":"Uncletopia | Warsaw | 3 | All Maps | STV","players":null},{"server_id":52,"name":"Uncletopia | Warsaw | 4 | All Maps","name_short":"waw-4","host":"waw-1.pl.uncletopia.com","port":27045,"enabled":true,"region":"eu","cc":"pl","latitude":52.2297,"longitude":21.017532,"reserved":0,"last_update":"0001-01-01T00:00:00Z","name_a2s":"Uncletopia | Warsaw | 4 | All Maps","protocol":17,"map":"pl_snowycoast","folder":"tf","game":"Team Fortress","app_id":440,"player_count":0,"max_players":24,"Bots":0,"server_type":"Dedicated","server_os":"Linux","password":true,"vac":true,"version":"7961495","steam_id":85568392925397853,"keywords":["nocrits","nodmgspread","payload","uncletopia"],"game_id":440,"stv_port":27046,"stv_name":"Uncletopia | Warsaw | 4 | All Maps | STV","players":null},{"server_id":53,"name":"Uncletopia | Warsaw | 5 | Stopwatch","name_short":"waw-5","host":"waw-1.pl.uncletopia.com","port":27055,"enabled":true,"region":"eu","cc":"pl","latitude":52.2297,"longitude":21.017532,"reserved":0,"last_update":"0001-01-01T00:00:00Z","name_a2s":"Uncletopia | Warsaw | 5 | Stopwatch","protocol":17,"map":"koth_lakeside_final","folder":"tf","game":"Team Fortress","app_id":440,"player_count":0,"max_players":24,"Bots":0,"server_type":"Dedicated","server_os":"Linux","password":true,"vac":true,"version":"7961495","steam_id":85568392925397854,"keywords":["cp","nocrits","nodmgspread","uncletopia"],"game_id":440,"stv_port":27056,"stv_name":"Uncletopia | Warsaw | 5 | Stopwatch | STV","players":null},{"server_id":54,"name":"Uncletopia | Warsaw | 6 | Community","name_short":"waw-6","host":"waw-1.pl.uncletopia.com","port":27065,"enabled":true,"region":"eu","cc":"pl","latitude":52.2297,"longitude":21.017532,"reserved":0,"last_update":"0001-01-01T00:00:00Z","name_a2s":"Uncletopia | Warsaw | 6 | Community","protocol":17,"map":"workshop/pl_corrode_rc2.ugc546577989","folder":"tf","game":"Team Fortress","app_id":440,"player_count":0,"max_players":24,"Bots":0,"server_type":"Dedicated","server_os":"Linux","password":true,"vac":true,"version":"7961495","steam_id":85568392925397856,"keywords":["nocrits","nodmgspread","payload","uncletopia"],"game_id":440,"stv_port":27066,"stv_name":"Uncletopia | Warsaw | 6 | Community | STV","players":null}]}