{"status":true,"message":"","result":[{"server_id":9,"name":"Uncletopia | Atlanta | 1 | All Maps","name_short":"atl-1","host":"atl-1.us.uncletopia.com","port":27015,"enabled":true,"region":"us-east","cc":"us","latitude":33.753746,"longitude":-84.38633,"reserved":0,"last_update":"0001-01-01T00:00:00Z","name_a2s":"Uncletopia | Atlanta | 1 | All Maps","protocol":17,"map":"pl_pier","folder":"tf","game":"Team Fortress","app_id":440,"player_count":24,"max_players":24,"Bots":0,"server_type":"Dedicated","server_os":"Linux","password":true,"vac":true,"version":"7757534","steam_id":85568392924469982,"keywords":["nocrits","nodmgspread","payload","uncletopia"],"game_id":440,"stv_port":27016,"stv_name":"Uncletopia | Atlanta | 1 | All Maps | STV","players":[{"user_id":587,"name":"Snuwly","steam_id":76561198144015097,"connected_time":2065000000000,"state":"active","ping":85},{"user_id":589,"name":"uhooter","steam_id":76561198007829078,"connected_time":2038000000000,"state":"active","ping":74},{"user_id":613,"name":"*****setget","steam_id":76561198118824188,"connected_time":894000000000,"state":"active","ping":103},{"user_id":618,"name":"LiquidDip","steam_id":76561198090529456,"connected_time":728000000000,"state":"active","ping":91},{"user_id":622,"name":"offensive rick and morty memes","steam_id":76561198367019006,"connected_time":661000000000,"state":"active","ping":92},{"user_id":616,"name":"Marshall","steam_id":76561198042570322,"connected_time":811000000000,"state":"active","ping":74},{"user_id":632,"name":"Makina","steam_id":76561198057475567,"connected_time":467000000000,"state":"active","ping":95},{"user_id":617,"name":"OrangeCrab","steam_id":76561198982248872,"connected_time":796000000000,"state":"active","ping":75},{"user_id":627,"name":"Ranch Style Beans","steam_id":76561198126791566,"connected_time":533000000000,"state":"active","ping":102},{"user_id":586,"name":"jmp","steam_id":76561198168283286,"connected_time":2094000000000,"state":"active","ping":164},{"user_id":628,"name":"[T]aKer","steam_id":76561198001778013,"connected_time":523000000000,"state":"active","ping":140},{"user_id":629,"name":"luk12ash","steam_id":76561198079514068,"connected_time":523000000000,"state":"active","ping":97},{"user_id":630,"name":"Modified Lesbian Space Bear","steam_id":76561198101233304,"connected_time":516000000000,"state":"active","ping":96},{"user_id":566,"name":"Orangecrust26","steam_id":76561199232443221,"connected_time":4717000000000,"state":"active","ping":74},{"user_id":633,"name":"aversa","steam_id":76561198840460101,"connected_time":462000000000,"state":"active","ping":66},{"user_id":638,"name":"Kris","steam_id":76561198240638652,"connected_time":202000000000,"state":"active","ping":147},{"user_id":614,"name":"TheDarkTitan","steam_id":76561198304794068,"connected_time":887000000000,"state":"active","ping":78},{"user_id":600,"name":"RokkitFrog","steam_id":76561198046465850,"connected_time":1639000000000,"state":"active","ping":85},{"user_id":619,"name":"Bigsumoslammer","steam_id":76561198044505076,"connected_time":719000000000,"state":"active","ping":61},{"user_id":611,"name":"jimbo","steam_id":76561198143442725,"connected_time":994000000000,"state":"active","ping":72},{"user_id":568,"name":"Iron","steam_id":76561198247918478,"connected_time":4599000000000,"state":"active","ping":85},{"user_id":637,"name":"bikerkid207","steam_id":76561198390782783,"connected_time":281000000000,"state":"active","ping":70},{"user_id":621,"name":"Katty Prab","steam_id":76561198026503779,"connected_time":694000000000,"state":"active","ping":65},{"user_id":605,"name":"Yuhh","steam_id":76561199112894955,"connected_time":1578000000000,"state":"active","ping":90}]},{"server_id":400,"name":"Uncletopia | Atlanta | 3 | Community","name_short":"atl-3","host":"atl-1.us.uncletopia.com","port":27035,"enabled":true,"region":"us-east","cc":"us","latitude":33.753746,"longitude":-84.38633,"reserved":0,"last_update":"0001-01-01T00:00:00Z","name_a2s":"Uncletopia | Atlanta | 3 | Community","protocol":17,"map":"workshop/koth_ramjam_rc1.ugc459778887","folder":"tf","game":"Team Fortress","app_id":440,"player_count":22,"max_players":24,"Bots":0,"server_type":"Dedicated","server_os":"Linux","password":true,"vac":true,"version":"7757534","steam_id":85568392924515187,"keywords":["cp","nocrits","nodmgspread","uncletopia"],"game_id":440,"stv_port":27036,"stv_name":"Uncletopia | Atlanta | 3 | Community | STV","players":[{"user_id":182,"name":"Little Minty","steam_id":76561198070061535,"connected_time":97000000000,"state":"active","ping":73},{"user_id":184,"name":"nox","steam_id":76561198054390505,"connected_time":73000000000,"state":"active","ping":67},{"user_id":132,"name":"Robert E.T.","steam_id":76561197986439371,"connected_time":3126000000000,"state":"active","ping":112},{"user_id":159,"name":"TheTruthOfTheCessationOfDukkha","steam_id":76561198214370515,"connected_time":1935000000000,"state":"active","ping":66},{"user_id":185,"name":"Elmerfudd3","steam_id":76561198209528367,"connected_time":73000000000,"state":"active","ping":76},{"user_id":89,"name":"Calypso","steam_id":76561198082939544,"connected_time":6486000000000,"state":"active","ping":135},{"user_id":187,"name":"MR. MODE","steam_id":76561198046775352,"connected_time":45000000000,"state":"active","ping":119},{"user_id":154,"name":"Aldinach","steam_id":76561198079912615,"connected_time":2098000000000,"state":"active","ping":61},{"user_id":163,"name":"DiscoTraveler","steam_id":76561199240168088,"connected_time":1867000000000,"state":"active","ping":54},{"user_id":188,"name":"ZekeN0Tech","steam_id":76561198042151365,"connected_time":35000000000,"state":"spawning","ping":210},{"user_id":86,"name":"MetalTao","steam_id":76561198189408110,"connected_time":6996000000000,"state":"active","ping":90},{"user_id":141,"name":"MrhobbitRequiem","steam_id":76561198976215013,"connected_time":2658000000000,"state":"active","ping":58},{"user_id":108,"name":"nin nin","steam_id":76561198055445565,"connected_time":4406000000000,"state":"active","ping":176},{"user_id":165,"name":"BlueKirbvii","steam_id":76561199021459412,"connected_time":1808000000000,"state":"active","ping":102},{"user_id":189,"name":"2D","steam_id":76561197995324870,"connected_time":14000000000,"state":"spawning","ping":124},{"user_id":164,"name":"Rokkon Shojo","steam_id":76561198082071180,"connected_time":1858000000000,"state":"active","ping":176},{"user_id":190,"name":"camilb50","steam_id":76561198027878466,"connected_time":13000000000,"state":"active","ping":47},{"user_id":166,"name":"owlbortch","steam_id":76561198042849350,"connected_time":1760000000000,"state":"active","ping":60},{"user_id":170,"name":"Wiseguy","steam_id":76561198043971271,"connected_time":1017000000000,"state":"active","ping":107},{"user_id":70,"name":"Warzard","steam_id":76561199154051413,"connected_time":8805000000000,"state":"active","ping":149},{"user_id":191,"name":"choi","steam_id":76561198053669887,"connected_time":5000000000,"state":"spawning","ping":145},{"user_id":81,"name":"Local Talent","steam_id":76561199053290637,"connected_time":8007000000000,"state":"active","ping":61}]},{"server_id":401,"name":"Uncletopia | Atlanta | 4 | No Payload","name_short":"atl-4","host":"atl-1.us.uncletopia.com","port":27045,"enabled":true,"region":"us-east","cc":"us","latitude":33.753746,"longitude":-84.38633,"reserved":0,"last_update":"0001-01-01T00:00:00Z","name_a2s":"","protocol":0,"map":"","folder":"","game":"","app_id":0,"player_count":0,"max_players":0,"Bots":0,"server_type":"","server_os":"","password":false,"vac":false,"version":"","steam_id":0,"keywords":null,"game_id":0,"stv_port":0,"stv_name":"","players":null},{"server_id":2,"name":"Uncletopia | Chicago | 1 | All Maps","name_short":"chi-1","host":"chi-1.us.uncletopia.com","port":27015,"enabled":true,"region":"us-central","cc":"us","latitude":41.881832,"longitude":-87.62318,"reserved":0,"last_update":"0001-01-01T00:00:00Z","name_a2s":"Uncletopia | Chicago | 1 | All Maps","protocol":17,"map":"cp_sunshine","folder":"tf","game":"Team Fortress","app_id":440,"player_count":24,"max_players":24,"Bots":0,"server_type":"Dedicated","server_os":"Linux","password":true,"vac":true,"version":"7757534","steam_id":85568392924469984,"keywords":["cp","nocrits","nodmgspread","uncletopia"],"game_id":440,"stv_port":27016,"stv_name":"Uncletopia | Chicago | 1 | All Maps | STV","players":[{"user_id":884,"name":"N8","steam_id":76561198077788860,"connected_time":424000000000,"state":"active","ping":66},{"user_id":858,"name":"Zizen","steam_id":76561199011832069,"connected_time":1828000000000,"state":"active","ping":112},{"user_id":887,"name":"Moral Grayzone","steam_id":76561198140208676,"connected_time":275000000000,"state":"active","ping":95},{"user_id":849,"name":"Vibe‚Ñ¢","steam_id":76561198156083411,"connected_time":2844000000000,"state":"active","ping":66},{"user_id":862,"name":"Kol","steam_id":76561199151398882,"connected_time":1534000000000,"state":"active","ping":90},{"user_id":832,"name":"pel","steam_id":76561198021224745,"connected_time":3687000000000,"state":"active","ping":54},{"user_id":871,"name":"[Saint] Zreb","steam_id":76561198041259154,"connected_time":1240000000000,"state":"active","ping":72},{"user_id":873,"name":"Sentry Gun (American)","steam_id":76561198313770809,"connected_time":1151000000000,"state":"active","ping":61},{"user_id":864,"name":"Grink \"V.F\" da Boy","steam_id":76561197985230768,"connected_time":1480000000000,"state":"active","ping":106},{"user_id":866,"name":"cyal","steam_id":76561198080957000,"connected_time":1446000000000,"state":"active","ping":112},{"user_id":874,"name":"YungChefMingus","steam_id":76561198087122048,"connected_time":987000000000,"state":"active","ping":42},{"user_id":879,"name":"Jimmy","steam_id":76561198043793082,"connected_time":580000000000,"state":"active","ping":156},{"user_id":869,"name":"skelly jelly","steam_id":76561198059623564,"connected_time":1300000000000,"state":"active","ping":73},{"user_id":837,"name":"Uhonlapjontetzika","steam_id":76561199431280503,"connected_time":3470000000000,"state":"active","ping":79},{"user_id":868,"name":"richard clock","steam_id":76561198048455671,"connected_time":1399000000000,"state":"active","ping":56},{"user_id":859,"name":"Luna_Blossom","steam_id":76561198816384987,"connected_time":1804000000000,"state":"active","ping":108},{"user_id":878,"name":"Small tiny feet","steam_id":76561199141538581,"connected_time":674000000000,"state":"active","ping":114},{"user_id":889,"name":"Brunch","steam_id":76561198045933938,"connected_time":22000000000,"state":"spawning","ping":52},{"user_id":883,"name":"Bee","steam_id":76561198074681324,"connected_time":532000000000,"state":"active","ping":66},{"user_id":880,"name":"merge without looking","steam_id":76561198056702628,"connected_time":578000000000,"state":"active","ping":60},{"user_id":855,"name":"Anna","steam_id":76561197999657118,"connected_time":2389000000000,"state":"active","ping":79},{"user_id":861,"name":"Uncle Meat","steam_id":76561198012534850,"connected_time":1597000000000,"state":"active","ping":68},{"user_id":872,"name":"Barney Enjoyer","steam_id":76561198049419309,"connected_time":1227000000000,"state":"active","ping":75},{"user_id":888,"name":"SilhigTukog","steam_id":76561197964741131,"connected_time":252000000000,"state":"active","ping":116}]},{"server_id":106,"name":"Uncletopia | Chicago | 2 | All Maps","name_short":"chi-2","host":"chi-1.us.uncletopia.com","port":27025,"enabled":true,"region":"us-central","cc":"us","latitude":41.881832,"longitude":-87.62318,"reserved":0,"last_update":"0001-01-01T00:00:00Z","name_a2s":"Uncletopia | Chicago | 2 | All Maps","protocol":17,"map":"cp_process_final","folder":"tf","game":"Team Fortress","app_id":440,"player_count":0,"max_players":24,"Bots":0,"server_type":"Dedicated","server_os":"Linux","password":true,"vac":true,"version":"7757534","steam_id":85568392924469985,"keywords":["cp","nocrits","nodmgspread","uncletopia"],"game_id":440,"stv_port":27026,"stv_name":"Uncletopia | Chicago | 2 | All Maps | STV","players":null},{"server_id":402,"name":"Uncletopia | Chicago | 3 | All Maps","name_short":"chi-3","host":"chi-1.us.uncletopia.com","port":27035,"enabled":true,"region":"us-central","cc":"us","latitude":41.881832,"longitude":-87.62318,"reserved":0,"last_update":"0001-01-01T00:00:00Z","name_a2s":"Uncletopia | Chicago | 3 | All Maps","protocol":17,"map":"cp_sunshine","folder":"tf","game":"Team Fortress","app_id":440,"player_count":24,"max_players":24,"Bots":0,"server_type":"Dedicated","server_os":"Linux","password":true,"vac":true,"version":"7757534","steam_id":85568392924515191,"keywords":["cp","nocrits","nodmgspread","uncletopia"],"game_id":440,"stv_port":27036,"stv_name":"Uncletopia | Chicago | 3 | All Maps | STV","players":[{"user_id":297,"name":"The Trash Man","steam_id":76561198071375772,"connected_time":303000000000,"state":"active","ping":48},{"user_id":273,"name":"Mickey","steam_id":76561197976868960,"connected_time":1728000000000,"state":"active","ping":150},{"user_id":268,"name":"cheetaz","steam_id":76561198224614084,"connected_time":1870000000000,"state":"active","ping":75},{"user_id":298,"name":"ghostyAlchemist","steam_id":76561198448078291,"connected_time":284000000000,"state":"active","ping":69},{"user_id":310,"name":"rubberducky","steam_id":76561198004470948,"connected_time":25000000000,"state":"active","ping":96},{"user_id":302,"name":"SubZeroDestruction","steam_id":76561198145082209,"connected_time":179000000000,"state":"active","ping":74},{"user_id":301,"name":"Solo.","steam_id":76561198090308641,"connected_time":201000000000,"state":"active","ping":64},{"user_id":303,"name":"LandoDaMando","steam_id":76561198377863683,"connected_time":176000000000,"state":"active","ping":71},{"user_id":275,"name":"Project_Counter","steam_id":76561198152786076,"connected_time":1711000000000,"state":"active","ping":72},{"user_id":304,"name":"Valavari „Éê„É©„Éê„É™","steam_id":76561198027037197,"connected_time":171000000000,"state":"active","ping":56},{"user_id":296,"name":"MoonWolf","steam_id":76561198095735033,"connected_time":448000000000,"state":"active","ping":76},{"user_id":276,"name":"Oomitch","steam_id":76561198071702759,"connected_time":1706000000000,"state":"active","ping":93},{"user_id":288,"name":"Chillin Turt","steam_id":76561198025796849,"connected_time":1156000000000,"state":"active","ping":74},{"user_id":305,"name":"SleepingBrim","steam_id":76561198067650229,"connected_time":167000000000,"state":"active","ping":90},{"user_id":309,"name":"TheRealGenm","steam_id":76561198042214399,"connected_time":151000000000,"state":"active","ping":87},{"user_id":289,"name":"cmdpnt","steam_id":76561198136441803,"connected_time":1116000000000,"state":"active","ping":90},{"user_id":291,"name":"king of bogers","steam_id":76561198045731295,"connected_time":1078000000000,"state":"active","ping":62},{"user_id":306,"name":"mos","steam_id":76561197995777973,"connected_time":164000000000,"state":"active","ping":70},{"user_id":259,"name":"Lennu","steam_id":76561198060730154,"connected_time":2344000000000,"state":"active","ping":79},{"user_id":279,"name":"id dragoon","steam_id":76561198323079151,"connected_time":1671000000000,"state":"active","ping":118},{"user_id":280,"name":"Purple potato","steam_id":76561198932276149,"connected_time":1663000000000,"state":"active","ping":120},{"user_id":307,"name":"itsmajestic","steam_id":76561198304790008,"connected_time":156000000000,"state":"active","ping":68},{"user_id":293,"name":"yerb *18badies ^_^","steam_id":76561198312055294,"connected_time":942000000000,"state":"active","ping":62},{"user_id":308,"name":"Mild","steam_id":76561198069644223,"connected_time":155000000000,"state":"active","ping":68}]},{"server_id":403,"name":"Uncletopia | Chicago | 4 | All Maps","name_short":"chi-4","host":"chi-1.us.uncletopia.com","port":27045,"enabled":true,"region":"us-central","cc":"us","latitude":41.881832,"longitude":-87.62318,"reserved":0,"last_update":"0001-01-01T00:00:00Z","name_a2s":"Uncletopia | Chicago | 4 | All Maps","protocol":17,"map":"pl_borneo","folder":"tf","game":"Team Fortress","app_id":440,"player_count":24,"max_players":24,"Bots":0,"server_type":"Dedicated","server_os":"Linux","password":true,"vac":true,"version":"7757534","steam_id":85568392924515193,"keywords":["nocrits","nodmgspread","payload","uncletopia"],"game_id":440,"stv_port":27046,"stv_name":"Uncletopia | Chicago | 4 | All Maps | STV","players":[{"user_id":579,"name":"Poyo Boyo","steam_id":76561198010201227,"connected_time":3336000000000,"state":"active","ping":71},{"user_id":616,"name":"supcupman","steam_id":76561198051513866,"connected_time":1654000000000,"state":"active","ping":108},{"user_id":626,"name":"Foxtrot Uniform","steam_id":76561199236576844,"connected_time":520000000000,"state":"active","ping":78},{"user_id":604,"name":"Minerkid2004","steam_id":76561198044262827,"connected_time":2862000000000,"state":"active","ping":95},{"user_id":589,"name":"Furry Saul Goodman","steam_id":76561198069580305,"connected_time":3067000000000,"state":"active","ping":46},{"user_id":628,"name":"Average bison enjoyer","steam_id":76561199214713674,"connected_time":482000000000,"state":"active","ping":102},{"user_id":629,"name":"bunnyman14","steam_id":76561198042673345,"connected_time":466000000000,"state":"active","ping":63},{"user_id":627,"name":"BreadGod","steam_id":76561198050665205,"connected_time":518000000000,"state":"active","ping":61},{"user_id":564,"name":"B/S/SuperBoof","steam_id":76561197992030936,"connected_time":4308000000000,"state":"active","ping":70},{"user_id":609,"name":"CobyNoHoes","steam_id":76561198122236594,"connected_time":2170000000000,"state":"active","ping":85},{"user_id":637,"name":"java","steam_id":76561198030276792,"connected_time":86000000000,"state":"active","ping":55},{"user_id":606,"name":"Skillz","steam_id":76561198054746727,"connected_time":2189000000000,"state":"active","ping":55},{"user_id":607,"name":"hawkeyeproductions249","steam_id":76561199469688272,"connected_time":2183000000000,"state":"active","ping":90},{"user_id":617,"name":"Lore","steam_id":76561198098407538,"connected_time":1539000000000,"state":"active","ping":46},{"user_id":614,"name":"CroMaLaka","steam_id":76561198380926090,"connected_time":2136000000000,"state":"active","ping":56},{"user_id":615,"name":"Pronounced30","steam_id":76561198070127606,"connected_time":2132000000000,"state":"active","ping":93},{"user_id":631,"name":"VBadcatt","steam_id":76561198146413536,"connected_time":395000000000,"state":"active","ping":76},{"user_id":602,"name":"Emperor Dankatine","steam_id":76561198044741086,"connected_time":2925000000000,"state":"active","ping":84},{"user_id":632,"name":"Toast","steam_id":76561198234616616,"connected_time":390000000000,"state":"active","ping":61},{"user_id":633,"name":"MikeWaChubski","steam_id":76561198368151490,"connected_time":351000000000,"state":"active","ping":73},{"user_id":621,"name":"Cam(era)","steam_id":76561198285054047,"connected_time":1301000000000,"state":"active","ping":72},{"user_id":613,"name":"Gunslinger Rafa","steam_id":76561198070140106,"connected_time":2152000000000,"state":"active","ping":95},{"user_id":634,"name":"hasenpfeffer","steam_id":76561198000564263,"connected_time":332000000000,"state":"active","ping":75},{"user_id":635,"name":"trappy (showered)","steam_id":76561198402801140,"connected_time":317000000000,"state":"active","ping":71}]},{"server_id":36,"name":"Uncletopia | Chicago | 5 | All Maps","name_short":"chi-5","host":"chi-2.us.uncletopia.com","port":27015,"enabled":true,"region":"us-central","cc":"us","latitude":41.881832,"longitude":-87.62318,"reserved":0,"last_update":"0001-01-01T00:00:00Z","name_a2s":"Uncletopia | Chicago | 5 | All Maps","protocol":17,"map":"pl_upward","folder":"tf","game":"Team Fortress","app_id":440,"player_count":23,"max_players":24,"Bots":0,"server_type":"Dedicated","server_os":"Linux","password":true,"vac":true,"version":"7757534","steam_id":85568392924866362,"keywords":["nocrits","nodmgspread","payload","uncletopia"],"game_id":440,"stv_port":27016,"stv_name":"Uncletopia | Chicago | 5 | All Maps | STV","players":[{"user_id":184,"name":"Beary Adorable","steam_id":76561198023815802,"connected_time":6557000000000,"state":"active","ping":98},{"user_id":225,"name":"chronoculus","steam_id":76561198194554235,"connected_time":2011000000000,"state":"active","ping":81},{"user_id":226,"name":"flora","steam_id":76561197994492154,"connected_time":2007000000000,"state":"active","ping":168},{"user_id":230,"name":"üÖúüÖîüÖîüÖöüÖ¢üÖ£üÖî\ufffd\ufffd\ufffd","steam_id":76561197999748343,"connected_time":1992000000000,"state":"active","ping":69},{"user_id":177,"name":"Limasio","steam_id":76561198198176191,"connected_time":6704000000000,"state":"active","ping":70},{"user_id":240,"name":"O","steam_id":76561198450073779,"connected_time":774000000000,"state":"active","ping":94},{"user_id":231,"name":"Smiling","steam_id":76561198293407075,"connected_time":1988000000000,"state":"active","ping":88},{"user_id":212,"name":"Rein","steam_id":76561198300340427,"connected_time":4048000000000,"state":"active","ping":74},{"user_id":235,"name":"RED1 | nomad","steam_id":76561197998740399,"connected_time":1695000000000,"state":"active","ping":68},{"user_id":211,"name":"Slippery","steam_id":76561199469441947,"connected_time":4187000000000,"state":"active","ping":49},{"user_id":193,"name":"palua","steam_id":76561198069673478,"connected_time":5632000000000,"state":"active","ping":82},{"user_id":194,"name":"Ryan Lewis truther","steam_id":76561198050505826,"connected_time":5586000000000,"state":"active","ping":76},{"user_id":215,"name":"totally not a pile of beans","steam_id":76561198119851931,"connected_time":3877000000000,"state":"active","ping":82},{"user_id":90,"name":"toastman","steam_id":76561198207073088,"connected_time":12464000000000,"state":"active","ping":70},{"user_id":233,"name":"RED1 | eish","steam_id":76561198089463603,"connected_time":1979000000000,"state":"active","ping":131},{"user_id":190,"name":"Samsiel","steam_id":76561198094134951,"connected_time":5844000000000,"state":"active","ping":94},{"user_id":242,"name":"Nicolas Cage Kisses Mace Windu","steam_id":76561198046127710,"connected_time":740000000000,"state":"active","ping":66},{"user_id":246,"name":"Auburn","steam_id":76561198199541493,"connected_time":311000000000,"state":"active","ping":105},{"user_id":243,"name":"caps.","steam_id":76561198116528817,"connected_time":687000000000,"state":"active","ping":150},{"user_id":244,"name":"Ducter","steam_id":76561198085369908,"connected_time":599000000000,"state":"active","ping":63},{"user_id":245,"name":"gentleman in paris","steam_id":76561198117839474,"connected_time":567000000000,"state":"active","ping":75},{"user_id":236,"name":"moe5x","steam_id":76561198316877833,"connected_time":1392000000000,"state":"active","ping":101},{"user_id":201,"name":"gourmet salad","steam_id":76561198173128765,"connected_time":5317000000000,"state":"active","ping":55}]},{"server_id":37,"name":"Uncletopia | Chicago | 6 | All Maps","name_short":"chi-6","host":"chi-2.us.uncletopia.com","port":27025,"enabled":true,"region":"us-central","cc":"us","latitude":41.881832,"longitude":-87.62318,"reserved":0,"last_update":"0001-01-01T00:00:00Z","name_a2s":"Uncletopia | Chicago | 6 | All Maps","protocol":17,"map":"pl_barnblitz","folder":"tf","game":"Team Fortress","app_id":440,"player_count":24,"max_players":24,"Bots":0,"server_type":"Dedicated","server_os":"Linux","password":true,"vac":true,"version":"7757534","steam_id":85568392924866363,"keywords":["nocrits","nodmgspread","payload","uncletopia"],"game_id":440,"stv_port":27026,"stv_name":"Uncletopia | Chicago | 6 | All Maps | STV","players":[{"user_id":902,"name":"CivilWarMike","steam_id":76561198141188839,"connected_time":1402000000000,"state":"active","ping":86},{"user_id":911,"name":"Jay F","steam_id":76561198046082188,"connected_time":592000000000,"state":"active","ping":67},{"user_id":891,"name":"lyraaaaaaaaaaa","steam_id":76561198259331758,"connected_time":2544000000000,"state":"active","ping":100},{"user_id":855,"name":"too funky ·óúÀ¨·óú","steam_id":76561199120399776,"connected_time":4470000000000,"state":"active","ping":69},{"user_id":898,"name":"Totally","steam_id":76561198126511227,"connected_time":1625000000000,"state":"active","ping":50},{"user_id":913,"name":"\u003c3DizZzy01\u003c3","steam_id":76561198137749867,"connected_time":357000000000,"state":"active","ping":107},{"user_id":901,"name":"Bip","steam_id":76561199022962204,"connected_time":1407000000000,"state":"active","ping":74},{"user_id":903,"name":"plap plap plap","steam_id":76561198054925421,"connected_time":1326000000000,"state":"active","ping":52},{"user_id":878,"name":"Specialist Snow","steam_id":76561198090215419,"connected_time":2852000000000,"state":"active","ping":57},{"user_id":831,"name":"gettysburg","steam_id":76561198016157051,"connected_time":6245000000000,"state":"active","ping":75},{"user_id":843,"name":":)","steam_id":76561198093921290,"connected_time":5838000000000,"state":"active","ping":49},{"user_id":910,"name":"Midnight Flame","steam_id":76561198279692754,"connected_time":796000000000,"state":"active","ping":79},{"user_id":909,"name":"Cinderace:)","steam_id":76561198132899671,"connected_time":924000000000,"state":"active","ping":59},{"user_id":886,"name":"SLAYAOFTHEDEAD","steam_id":76561198088874594,"connected_time":2716000000000,"state":"active","ping":90},{"user_id":904,"name":"lite","steam_id":76561198300633951,"connected_time":1317000000000,"state":"active","ping":103},{"user_id":905,"name":"linus","steam_id":76561198106196691,"connected_time":1300000000000,"state":"active","ping":75},{"user_id":917,"name":"Andrew Tate","steam_id":76561198169544071,"connected_time":275000000000,"state":"active","ping":60},{"user_id":914,"name":"white woman","steam_id":76561199116679777,"connected_time":308000000000,"state":"active","ping":102},{"user_id":863,"name":"Braindawg","steam_id":76561197988531991,"connected_time":4273000000000,"state":"active","ping":93},{"user_id":907,"name":"The Professor","steam_id":76561198113760863,"connected_time":1214000000000,"state":"active","ping":63},{"user_id":848,"name":"Antifa Alligator","steam_id":76561197988170816,"connected_time":5560000000000,"state":"active","ping":67},{"user_id":908,"name":"Tuna","steam_id":76561198129907971,"connected_time":1207000000000,"state":"active","ping":123},{"user_id":918,"name":"fire","steam_id":76561198127149121,"connected_time":57000000000,"state":"active","ping":75},{"user_id":893,"name":"\"The Captain\" by Leonard Cohen","steam_id":76561198121955432,"connected_time":2442000000000,"state":"active","ping":48}]},{"server_id":38,"name":"Uncletopia | Chicago | 7 | Stopwatch Beta","name_short":"chi-7","host":"chi-2.us.uncletopia.com","port":27035,"enabled":true,"region":"us-central","cc":"us","latitude":41.881832,"longitude":-87.62318,"reserved":0,"last_update":"0001-01-01T00:00:00Z","name_a2s":"Uncletopia | Chicago | 7 | Stopwatch Beta","protocol":17,"map":"workshop/pl_vigil_rc9.ugc1266210012","folder":"tf","game":"Team Fortress","app_id":440,"player_count":0,"max_players":24,"Bots":0,"server_type":"Dedicated","server_os":"Linux","password":true,"vac":true,"version":"7757534","steam_id":85568392924866364,"keywords":["nocrits","nodmgspread","payload","uncletopia"],"game_id":440,"stv_port":27036,"stv_name":"Uncletopia | Chicago | 7 | Stopwatch Beta | STV","players":null},{"server_id":39,"name":"Uncletopia | Chicago | 8 | Community","name_short":"chi-8","host":"chi-2.us.uncletopia.com","port":27045,"enabled":true,"region":"us-central","cc":"us","latitude":41.881832,"longitude":-87.62318,"reserved":0,"last_update":"0001-01-01T00:00:00Z","name_a2s":"Uncletopia | Chicago | 8 | Community","protocol":17,"map":"workshop/cp_mannbase_rc2a.ugc1900737467","folder":"tf","game":"Team Fortress","app_id":440,"player_count":0,"max_players":24,"Bots":0,"server_type":"Dedicated","server_os":"Linux","password":true,"vac":true,"version":"7757534","steam_id":85568392924866365,"keywords":["cp","nocrits","nodmgspread","uncletopia"],"game_id":440,"stv_port":27046,"stv_name":"Uncletopia | Chicago | 8 | Community | STV","players":null},{"server_id":8,"name":"Uncletopia | Dallas | 1 | All Maps","name_short":"dal-1","host":"dal-1.us.uncletopia.com","port":27015,"enabled":true,"region":"us-central","cc":"us","latitude":32.779167,"longitude":-96.80889,"reserved":0,"last_update":"0001-01-01T00:00:00Z","name_a2s":"Uncletopia | Dallas | 1 | All Maps","protocol":17,"map":"cp_mountainlab","folder":"tf","game":"Team Fortress","app_id":440,"player_count":23,"max_players":24,"Bots":0,"server_type":"Dedicated","server_os":"Linux","password":true,"vac":true,"version":"7757534","steam_id":85568392924469986,"keywords":["cp","nocrits","nodmgspread","uncletopia"],"game_id":440,"stv_port":27016,"stv_name":"Uncletopia | Dallas | 1 | All Maps | STV","players":[{"user_id":408,"name":"Fatherless Child","steam_id":76561198335035945,"connected_time":213000000000,"state":"active","ping":46},{"user_id":379,"name":"The Robot Menace","steam_id":76561198043390413,"connected_time":2542000000000,"state":"active","ping":54},{"user_id":370,"name":"*loudly chewing on milk*","steam_id":76561198012539938,"connected_time":2839000000000,"state":"active","ping":90},{"user_id":361,"name":"Techzal","steam_id":76561198015284807,"connected_time":3039000000000,"state":"active","ping":77},{"user_id":398,"name":"MrLeftTurn","steam_id":76561198856743969,"connected_time":1013000000000,"state":"active","ping":142},{"user_id":371,"name":"lamb","steam_id":76561198013707948,"connected_time":2807000000000,"state":"active","ping":50},{"user_id":395,"name":"Big Chimpin","steam_id":76561198051504718,"connected_time":1103000000000,"state":"active","ping":70},{"user_id":396,"name":"blanket","steam_id":76561198070891882,"connected_time":1072000000000,"state":"active","ping":61},{"user_id":397,"name":"gaming","steam_id":76561198338610196,"connected_time":1061000000000,"state":"active","ping":102},{"user_id":410,"name":"Kaestal","steam_id":76561198033174157,"connected_time":103000000000,"state":"spawning","ping":44},{"user_id":399,"name":"ayaya?","steam_id":76561199000188109,"connected_time":990000000000,"state":"active","ping":75},{"user_id":400,"name":"Not A Rapper","steam_id":76561198077523537,"connected_time":873000000000,"state":"active","ping":90},{"user_id":383,"name":"Mitty","steam_id":76561198014177684,"connected_time":2327000000000,"state":"active","ping":85},{"user_id":403,"name":"gasparmx","steam_id":76561197998611994,"connected_time":779000000000,"state":"active","ping":91},{"user_id":406,"name":"Kriss","steam_id":76561198855556991,"connected_time":754000000000,"state":"active","ping":74},{"user_id":347,"name":"Kzjytsugn","steam_id":76561198130241974,"connected_time":4365000000000,"state":"active","ping":100},{"user_id":392,"name":"Eduardo","steam_id":76561198236519984,"connected_time":1347000000000,"state":"active","ping":99},{"user_id":381,"name":"„ÄéAggron Gaming„Äè","steam_id":76561198059749631,"connected_time":2379000000000,"state":"active","ping":96},{"user_id":348,"name":"ryghehn","steam_id":76561198195359229,"connected_time":4343000000000,"state":"active","ping":90},{"user_id":401,"name":"Nova Academy of Salmon Action","steam_id":76561198021842526,"connected_time":863000000000,"state":"active","ping":99},{"user_id":402,"name":"teatimesukka","steam_id":76561198978749594,"connected_time":853000000000,"state":"active","ping":37},{"user_id":405,"name":"lag","steam_id":76561198117898839,"connected_time":764000000000,"state":"active","ping":111},{"user_id":376,"name":"Johnny Esports","steam_id":76561198115812405,"connected_time":2719000000000,"state":"active","ping":101}]},{"server_id":108,"name":"Uncletopia | Dallas | 2 | All Maps","name_short":"dal-2","host":"dal-1.us.uncletopia.com","port":27025,"enabled":true,"region":"us-central","cc":"us","latitude":32.779167,"longitude":-96.80889,"reserved":0,"last_update":"0001-01-01T00:00:00Z","name_a2s":"Uncletopia | Dallas | 2 | All Maps","protocol":17,"map":"koth_cascade","folder":"tf","game":"Team Fortress","app_id":440,"player_count":0,"max_players":24,"Bots":0,"server_type":"Dedicated","server_os":"Linux","password":true,"vac":true,"version":"7757534","steam_id":85568392924469988,"keywords":["cp","nocrits","nodmgspread","uncletopia"],"game_id":440,"stv_port":27026,"stv_name":"Uncletopia | Dallas | 2 | All Maps | STV","players":null},{"server_id":5,"name":"Uncletopia | Frankfurt | 1 | All Maps","name_short":"frk-1","host":"frk-1.de.uncletopia.com","port":27015,"enabled":true,"region":"eu","cc":"de","latitude":50.110924,"longitude":8.682127,"reserved":0,"last_update":"0001-01-01T00:00:00Z","name_a2s":"Uncletopia | Frankfurt | 1 | All Maps","protocol":17,"map":"pl_snowycoast","folder":"tf","game":"Team Fortress","app_id":440,"player_count":0,"max_players":24,"Bots":0,"server_type":"Dedicated","server_os":"Linux","password":true,"vac":true,"version":"7757534","steam_id":85568392924469989,"keywords":["nocrits","nodmgspread","payload","uncletopia"],"game_id":440,"stv_port":27016,"stv_name":"Uncletopia | Frankfurt | 1 | All Maps | STV","players":null},{"server_id":110,"name":"Uncletopia | Frankfurt | 2 | All Maps","name_short":"frk-2","host":"frk-1.de.uncletopia.com","port":27025,"enabled":true,"region":"eu","cc":"de","latitude":50.110924,"longitude":8.682127,"reserved":0,"last_update":"0001-01-01T00:00:00Z","name_a2s":"Uncletopia | Frankfurt | 2 | All Maps","protocol":17,"map":"pl_snowycoast","folder":"tf","game":"Team Fortress","app_id":440,"player_count":0,"max_players":24,"Bots":0,"server_type":"Dedicated","server_os":"Linux","password":true,"vac":true,"version":"7757534","steam_id":85568392924469990,"keywords":["nocrits","nodmgspread","payload","uncletopia"],"game_id":440,"stv_port":27026,"stv_name":"Uncletopia | Frankfurt | 2 | All Maps | STV","players":null},{"server_id":308,"name":"Uncletopia | Frankfurt | 3 | All Maps","name_short":"frk-3","host":"frk-1.de.uncletopia.com","port":27035,"enabled":true,"region":"eu","cc":"de","latitude":50.110924,"longitude":8.682127,"reserved":0,"last_update":"0001-01-01T00:00:00Z","name_a2s":"Uncletopia | Frankfurt | 3 | All Maps","protocol":17,"map":"cp_altitude","folder":"tf","game":"Team Fortress","app_id":440,"player_count":0,"max_players":24,"Bots":0,"server_type":"Dedicated","server_os":"Linux","password":true,"vac":true,"version":"7757534","steam_id":85568392924504274,"keywords":["cp","nocrits","nodmgspread","uncletopia"],"game_id":440,"stv_port":27036,"stv_name":"Uncletopia | Frankfurt | 3 | All Maps | STV","players":null},{"server_id":309,"name":"Uncletopia | Frankfurt | 4 | All Maps","name_short":"frk-4","host":"frk-1.de.uncletopia.com","port":27045,"enabled":true,"region":"eu","cc":"de","latitude":50.110924,"longitude":8.682127,"reserved":0,"last_update":"0001-01-01T00:00:00Z","name_a2s":"Uncletopia | Frankfurt | 4 | All Maps","protocol":17,"map":"cp_altitude","folder":"tf","game":"Team Fortress","app_id":440,"player_count":0,"max_players":24,"Bots":0,"server_type":"Dedicated","server_os":"Linux","password":true,"vac":true,"version":"7757534","steam_id":85568392924504275,"keywords":["cp","nocrits","nodmgspread","uncletopia"],"game_id":440,"stv_port":27046,"stv_name":"Uncletopia | Frankfurt | 4 | All Maps | STV","players":null},{"server_id":310,"name":"Uncletopia | Frankfurt | 5 | All Maps","name_short":"frk-5","host":"frk-1.de.uncletopia.com","port":27055,"enabled":true,"region":"eu","cc":"de","latitude":50.110924,"longitude":8.682127,"reserved":0,"last_update":"0001-01-01T00:00:00Z","name_a2s":"Uncletopia | Frankfurt | 5 | All Maps","protocol":17,"map":"cp_altitude","folder":"tf","game":"Team Fortress","app_id":440,"player_count":0,"max_players":24,"Bots":0,"server_type":"Dedicated","server_os":"Linux","password":true,"vac":true,"version":"7757534","steam_id":85568392924504277,"keywords":["cp","nocrits","nodmgspread","uncletopia"],"game_id":440,"stv_port":27056,"stv_name":"Uncletopia | Frankfurt | 5 | All Maps | STV","players":null},{"server_id":311,"name":"Uncletopia | Frankfurt | 6 | All Maps","name_short":"frk-6","host":"frk-1.de.uncletopia.com","port":27065,"enabled":true,"region":"eu","cc":"de","latitude":50.110924,"longitude":8.682127,"reserved":0,"last_update":"0001-01-01T00:00:00Z","name_a2s":"Uncletopia | Frankfurt | 6 | All Maps","protocol":17,"map":"koth_highpass","folder":"tf","game":"Team Fortress","app_id":440,"player_count":0,"max_players":24,"Bots":0,"server_type":"Dedicated","server_os":"Linux","password":true,"vac":true,"version":"7757534","steam_id":85568392924504278,"keywords":["cp","nocrits","nodmgspread","uncletopia"],"game_id":440,"stv_port":27066,"stv_name":"Uncletopia | Frankfurt | 6 | All Maps | STV","players":null},{"server_id":23,"name":"Uncletopia | Frankfurt | 7 | Stopwatch Beta","name_short":"frk-7","host":"frk-1.de.uncletopia.com","port":27075,"enabled":true,"region":"eu","cc":"de","latitude":50.110924,"longitude":8.682127,"reserved":0,"last_update":"0001-01-01T00:00:00Z","name_a2s":"Uncletopia | Frankfurt | 7 | Stopwatch Beta","protocol":17,"map":"pl_frontier_final","folder":"tf","game":"Team Fortress","app_id":440,"player_count":0,"max_players":24,"Bots":0,"server_type":"Dedicated","server_os":"Linux","password":true,"vac":true,"version":"7757534","steam_id":85568392924742827,"keywords":["nocrits","nodmgspread","payload","uncletopia"],"game_id":440,"stv_port":27076,"stv_name":"Uncletopia | Frankfurt | 7 | Stopwatch Beta | STV","players":null},{"server_id":24,"name":"Uncletopia | Frankfurt | 8 | Community","name_short":"frk-8","host":"frk-1.de.uncletopia.com","port":27085,"enabled":true,"region":"eu","cc":"de","latitude":50.110924,"longitude":8.682127,"reserved":0,"last_update":"0001-01-01T00:00:00Z","name_a2s":"Uncletopia | Frankfurt | 8 | Community","protocol":17,"map":"workshop/pl_fifthcurve_rc1.ugc648227046","folder":"tf","game":"Team Fortress","app_id":440,"player_count":1,"max_players":24,"Bots":0,"server_type":"Dedicated","server_os":"Linux","password":true,"vac":true,"version":"7757534","steam_id":85568392924742828,"keywords":["nocrits","nodmgspread","payload","uncletopia"],"game_id":440,"stv_port":27086,"stv_name":"Uncletopia | Frankfurt | 8 | Community | STV","players":[{"user_id":4,"name":"TheFox.tf","steam_id":76561197996851702,"connected_time":193000000000,"state":"active","ping":66}]},{"server_id":202,"name":"Uncletopia | Hong Kong | 1 | All Maps","name_short":"hgk-1","host":"hgk-1.hk.uncletopia.com","port":27015,"enabled":true,"region":"asia","cc":"hk","latitude":22.302711,"longitude":114.177216,"reserved":0,"last_update":"0001-01-01T00:00:00Z","name_a2s":"Uncletopia | Hong Kong | 1 | All Maps","protocol":17,"map":"pl_enclosure_final","folder":"tf","game":"Team Fortress","app_id":440,"player_count":14,"max_players":24,"Bots":0,"server_type":"Dedicated","server_os":"Linux","password":true,"vac":true,"version":"7757534","steam_id":85568392924494504,"keywords":["nocrits","nodmgspread","payload","uncletopia"],"game_id":440,"stv_port":27016,"stv_name":"Uncletopia | Hong Kong | 1 | All Maps | STV","players":[{"user_id":17,"name":"Ice Crack, Dude","steam_id":76561199445694770,"connected_time":2568000000000,"state":"active","ping":137},{"user_id":10,"name":"3wfFbdrjEze5d2G","steam_id":76561198435900451,"connected_time":4856000000000,"state":"active","ping":111},{"user_id":30,"name":"Battery","steam_id":76561198004583032,"connected_time":682000000000,"state":"active","ping":90},{"user_id":13,"name":"Â§âÊÖã„ÅÆÁ•û","steam_id":76561199017344476,"connected_time":4202000000000,"state":"active","ping":78},{"user_id":22,"name":"About","steam_id":76561198198273477,"connected_time":1504000000000,"state":"active","ping":102},{"user_id":23,"name":"engamiing","steam_id":76561198846610729,"connected_time":1140000000000,"state":"active","ping":105},{"user_id":40,"name":"Room","steam_id":76561199174579733,"connected_time":80000000000,"state":"spawning","ping":282},{"user_id":21,"name":"Shienn__","steam_id":76561199174019837,"connected_time":1871000000000,"state":"active","ping":102},{"user_id":26,"name":"monkeyman536","steam_id":76561197997717737,"connected_time":917000000000,"state":"active","ping":130},{"user_id":31,"name":"ChoboUnjeon","steam_id":76561198806095977,"connected_time":558000000000,"state":"active","ping":86},{"user_id":39,"name":"‚úßBaKa BAzooKA‚úß(‚óï‚ñø‚óï )","steam_id":76561198061628689,"connected_time":160000000000,"state":"active","ping":45},{"user_id":33,"name":"17","steam_id":76561198241530712,"connected_time":442000000000,"state":"active","ping":55},{"user_id":35,"name":"SilverAgCat","steam_id":76561198798683018,"connected_time":387000000000,"state":"active","ping":74},{"user_id":37,"name":"marvin.arnoldson12@gmail.com","steam_id":76561199471319683,"connected_time":250000000000,"state":"active","ping":57}]},{"server_id":1,"name":"Uncletopia | Los Angeles | 1 | All Maps","name_short":"lax-1","host":"lax-1.us.uncletopia.com","port":27015,"enabled":true,"region":"us-west","cc":"us","latitude":33.94279,"longitude":-118.41004,"reserved":0,"last_update":"0001-01-01T00:00:00Z","name_a2s":"Uncletopia | Los Angeles | 1 | All Maps","protocol":17,"map":"pl_snowycoast","folder":"tf","game":"Team Fortress","app_id":440,"player_count":24,"max_players":24,"Bots":0,"server_type":"Dedicated","server_os":"Linux","password":true,"vac":true,"version":"7757534","steam_id":85568392924469991,"keywords":["nocrits","nodmgspread","payload","uncletopia"],"game_id":440,"stv_port":27016,"stv_name":"Uncletopia | Los Angeles | 1 | All Maps | STV","players":[{"user_id":402,"name":"Scout:DefenderOfCP(ControlPoint","steam_id":76561199435609906,"connected_time":2157000000000,"state":"active","ping":100},{"user_id":389,"name":"teh mummy","steam_id":76561198044123636,"connected_time":3112000000000,"state":"active","ping":39},{"user_id":411,"name":"yeyoi","steam_id":76561198069821885,"connected_time":1570000000000,"state":"active","ping":70},{"user_id":426,"name":"bruxing and boggling","steam_id":76561198204169516,"connected_time":504000000000,"state":"active","ping":79},{"user_id":427,"name":"borzier","steam_id":76561198069190432,"connected_time":499000000000,"state":"active","ping":114},{"user_id":434,"name":"Arthur","steam_id":76561198075996414,"connected_time":119000000000,"state":"active","ping":82},{"user_id":406,"name":"Jovi Boy","steam_id":76561198046605691,"connected_time":1899000000000,"state":"active","ping":62},{"user_id":436,"name":"toki","steam_id":76561199196943730,"connected_time":96000000000,"state":"active","ping":67},{"user_id":399,"name":"crouton.net","steam_id":76561198068374646,"connected_time":2529000000000,"state":"active","ping":70},{"user_id":387,"name":"Mothership","steam_id":76561198044029501,"connected_time":3270000000000,"state":"active","ping":101},{"user_id":422,"name":"snowycoast enjoyer","steam_id":76561199153114723,"connected_time":763000000000,"state":"active","ping":58},{"user_id":396,"name":"brobtlcehc","steam_id":76561198043558709,"connected_time":2856000000000,"state":"active","ping":75},{"user_id":407,"name":"CaveMann","steam_id":76561198063049297,"connected_time":1879000000000,"state":"active","ping":53},{"user_id":414,"name":"Sorasonic","steam_id":76561198042463115,"connected_time":1303000000000,"state":"active","ping":82},{"user_id":395,"name":"Delta","steam_id":76561198021957971,"connected_time":2905000000000,"state":"active","ping":50},{"user_id":418,"name":"Andy","steam_id":76561198043115724,"connected_time":1083000000000,"state":"active","ping":96},{"user_id":420,"name":"festive medic gaming","steam_id":76561199386847009,"connected_time":998000000000,"state":"active","ping":97},{"user_id":424,"name":"Dr. Milker","steam_id":76561198068516964,"connected_time":560000000000,"state":"active","ping":89},{"user_id":408,"name":"HOG RIDER","steam_id":76561198298589502,"connected_time":1876000000000,"state":"active","ping":56},{"user_id":429,"name":"fulices","steam_id":76561198420163702,"connected_time":393000000000,"state":"active","ping":40},{"user_id":409,"name":"fortzei","steam_id":76561198210920541,"connected_time":1862000000000,"state":"active","ping":68},{"user_id":431,"name":"kebo","steam_id":76561198237159430,"connected_time":241000000000,"state":"active","ping":58},{"user_id":355,"name":"MinusSoup918","steam_id":76561198060902773,"connected_time":5452000000000,"state":"active","ping":65},{"user_id":430,"name":"QuesaDiaz","steam_id":76561198355667850,"connected_time":290000000000,"state":"active","ping":45}]},{"server_id":112,"name":"Uncletopia | Los Angeles | 2 | All Maps","name_short":"lax-2","host":"lax-1.us.uncletopia.com","port":27025,"enabled":true,"region":"us-west","cc":"us","latitude":33.94279,"longitude":-118.41004,"reserved":0,"last_update":"0001-01-01T00:00:00Z","name_a2s":"Uncletopia | Los Angeles | 2 | All Maps","protocol":17,"map":"pl_pier","folder":"tf","game":"Team Fortress","app_id":440,"player_count":24,"max_players":24,"Bots":0,"server_type":"Dedicated","server_os":"Linux","password":true,"vac":true,"version":"7757534","steam_id":85568392924469992,"keywords":["nocrits","nodmgspread","payload","uncletopia"],"game_id":440,"stv_port":27026,"stv_name":"Uncletopia | Los Angeles | 2 | All Maps | STV","players":[{"user_id":116,"name":"REGICIDE","steam_id":76561198025377842,"connected_time":2678000000000,"state":"active","ping":55},{"user_id":155,"name":"TheBrocklobster","steam_id":76561198039682984,"connected_time":187000000000,"state":"active","ping":63},{"user_id":118,"name":"lazy","steam_id":76561198396257711,"connected_time":2588000000000,"state":"active","ping":46},{"user_id":138,"name":"JON","steam_id":76561198057971005,"connected_time":1502000000000,"state":"active","ping":70},{"user_id":128,"name":"Cousin Balki","steam_id":76561198070496395,"connected_time":2276000000000,"state":"active","ping":117},{"user_id":149,"name":"Crowvette","steam_id":76561198000457496,"connected_time":727000000000,"state":"active","ping":45},{"user_id":139,"name":"Evanb","steam_id":76561198042057792,"connected_time":1476000000000,"state":"active","ping":74},{"user_id":156,"name":"sweaterfan","steam_id":76561199389567214,"connected_time":151000000000,"state":"active","ping":90},{"user_id":110,"name":"bigindarug","steam_id":76561198165784818,"connected_time":3198000000000,"state":"active","ping":68},{"user_id":142,"name":"Rueflic","steam_id":76561198201735771,"connected_time":1391000000000,"state":"active","ping":52},{"user_id":151,"name":"OrangeSockNinja","steam_id":76561198325741958,"connected_time":630000000000,"state":"active","ping":103},{"user_id":158,"name":"BionicApe","steam_id":76561198154637711,"connected_time":38000000000,"state":"spawning","ping":72},{"user_id":141,"name":"Amigo","steam_id":76561199010729091,"connected_time":1408000000000,"state":"active","ping":66},{"user_id":143,"name":"‚ô¶‚ô£Quadric‚ô•‚ô†","steam_id":76561198061003853,"connected_time":1384000000000,"state":"active","ping":115},{"user_id":145,"name":"Father Jon","steam_id":76561198324730919,"connected_time":1374000000000,"state":"active","ping":99},{"user_id":113,"name":"Uncle Iroh","steam_id":76561198131467867,"connected_time":3038000000000,"state":"active","ping":45},{"user_id":146,"name":"Frogzilla","steam_id":76561198077657538,"connected_time":1372000000000,"state":"active","ping":96},{"user_id":134,"name":"K4le","steam_id":76561198747668363,"connected_time":1949000000000,"state":"active","ping":63},{"user_id":112,"name":"Wicket","steam_id":76561198044023036,"connected_time":3150000000000,"state":"active","ping":106},{"user_id":137,"name":"P A N","steam_id":76561198334559569,"connected_time":1679000000000,"state":"active","ping":122},{"user_id":98,"name":"Akkawi","steam_id":76561198203159952,"connected_time":4020000000000,"state":"active","ping":53},{"user_id":125,"name":"Cricket Girl!","steam_id":76561198838054669,"connected_time":2372000000000,"state":"active","ping":114},{"user_id":147,"name":"Barn.Jones1992","steam_id":76561198197981309,"connected_time":1354000000000,"state":"active","ping":47},{"user_id":148,"name":"Metalogic","steam_id":76561198049469629,"connected_time":1088000000000,"state":"active","ping":85}]},{"server_id":324,"name":"Uncletopia | Los Angeles | 3 | All Maps","name_short":"lax-3","host":"lax-1.us.uncletopia.com","port":27035,"enabled":true,"region":"us-west","cc":"us","latitude":33.94279,"longitude":-118.41004,"reserved":0,"last_update":"0001-01-01T00:00:00Z","name_a2s":"Uncletopia | Los Angeles | 3 | All Maps","protocol":17,"map":"cp_sunshine","folder":"tf","game":"Team Fortress","app_id":440,"player_count":0,"max_players":24,"Bots":0,"server_type":"Dedicated","server_os":"Linux","password":true,"vac":true,"version":"7757534","steam_id":85568392924510198,"keywords":["cp","nocrits","nodmgspread","uncletopia"],"game_id":440,"stv_port":27036,"stv_name":"Uncletopia | Los Angeles | 3 | All Maps | STV","players":null},{"server_id":25,"name":"Uncletopia | Los Angeles | 4 | Stopwatch Beta","name_short":"lax-4","host":"lax-1.us.uncletopia.com","port":27045,"enabled":true,"region":"us-west","cc":"us","latitude":33.94279,"longitude":-118.41004,"reserved":0,"last_update":"0001-01-01T00:00:00Z","name_a2s":"Uncletopia | Los Angeles | 4 | Stopwatch Beta","protocol":17,"map":"pl_frontier_final","folder":"tf","game":"Team Fortress","app_id":440,"player_count":0,"max_players":24,"Bots":0,"server_type":"Dedicated","server_os":"Linux","password":true,"vac":true,"version":"7757534","steam_id":85568392924510199,"keywords":["nocrits","nodmgspread","payload","uncletopia"],"game_id":440,"stv_port":27046,"stv_name":"Uncletopia | Los Angeles | 4 | Stopwatch Beta | STV","players":null},{"server_id":11,"name":"Uncletopia | London | 1 | All Maps","name_short":"lon-1","host":"lon-1.uk.uncletopia.com","port":27015,"enabled":true,"region":"eu","cc":"gb","latitude":51.509865,"longitude":-0.118092,"reserved":0,"last_update":"0001-01-01T00:00:00Z","name_a2s":"Uncletopia | London | 1 | All Maps","protocol":17,"map":"koth_lakeside_final","folder":"tf","game":"Team Fortress","app_id":440,"player_count":0,"max_players":24,"Bots":0,"server_type":"Dedicated","server_os":"Linux","password":true,"vac":true,"version":"7757534","steam_id":85568392924367362,"keywords":["cp","nocrits","nodmgspread","uncletopia"],"game_id":440,"stv_port":27016,"stv_name":"Uncletopia | London | 1 | All Maps | STV","players":null},{"server_id":114,"name":"Uncletopia | London | 2 | All Maps","name_short":"lon-2","host":"lon-1.uk.uncletopia.com","port":27025,"enabled":true,"region":"eu","cc":"gb","latitude":51.509865,"longitude":-0.118092,"reserved":0,"last_update":"0001-01-01T00:00:00Z","name_a2s":"Uncletopia | London | 2 | All Maps","protocol":17,"map":"cp_dustbowl","folder":"tf","game":"Team Fortress","app_id":440,"player_count":0,"max_players":24,"Bots":0,"server_type":"Dedicated","server_os":"Linux","password":true,"vac":true,"version":"7757534","steam_id":85568392924470941,"keywords":["cp","nocrits","nodmgspread","uncletopia"],"game_id":440,"stv_port":27026,"stv_name":"Uncletopia | London | 2 | All Maps | STV","players":null},{"server_id":320,"name":"Uncletopia | London | 3 | All Maps","name_short":"lon-3","host":"lon-1.uk.uncletopia.com","port":27035,"enabled":true,"region":"eu","cc":"gb","latitude":51.509865,"longitude":-0.118092,"reserved":0,"last_update":"0001-01-01T00:00:00Z","name_a2s":"Uncletopia | London | 3 | All Maps","protocol":17,"map":"koth_sawmill","folder":"tf","game":"Team Fortress","app_id":440,"player_count":0,"max_players":24,"Bots":0,"server_type":"Dedicated","server_os":"Linux","password":true,"vac":true,"version":"7757534","steam_id":85568392924510192,"keywords":["cp","nocrits","nodmgspread","uncletopia"],"game_id":440,"stv_port":27036,"stv_name":"Uncletopia | London | 3 | All Maps | STV","players":null},{"server_id":321,"name":"Uncletopia | London | 4 | All Maps","name_short":"lon-4","host":"lon-1.uk.uncletopia.com","port":27045,"enabled":true,"region":"eu","cc":"gb","latitude":51.509865,"longitude":-0.118092,"reserved":0,"last_update":"0001-01-01T00:00:00Z","name_a2s":"Uncletopia | London | 4 | All Maps","protocol":17,"map":"koth_harvest_final","folder":"tf","game":"Team Fortress","app_id":440,"player_count":0,"max_players":24,"Bots":0,"server_type":"Dedicated","server_os":"Linux","password":true,"vac":true,"version":"7757534","steam_id":85568392924510193,"keywords":["cp","nocrits","nodmgspread","uncletopia"],"game_id":440,"stv_port":27046,"stv_name":"Uncletopia | London | 4 | All Maps | STV","players":null},{"server_id":21,"name":"Uncletopia | London | 5 | All Maps","name_short":"lon-5","host":"lon-1.uk.uncletopia.com","port":27055,"enabled":true,"region":"eu","cc":"gb","latitude":51.509865,"longitude":-0.118092,"reserved":0,"last_update":"0001-01-01T00:00:00Z","name_a2s":"Uncletopia | London | 5 | All Maps","protocol":17,"map":"koth_cascade","folder":"tf","game":"Team Fortress","app_id":440,"player_count":0,"max_players":24,"Bots":0,"server_type":"Dedicated","server_os":"Linux","password":true,"vac":true,"version":"7757534","steam_id":85568392924742829,"keywords":["cp","nocrits","nodmgspread","uncletopia"],"game_id":440,"stv_port":27056,"stv_name":"Uncletopia | London | 5 | All Maps | STV","players":null},{"server_id":22,"name":"Uncletopia | London | 6 | All Maps","name_short":"lon-6","host":"lon-1.uk.uncletopia.com","port":27065,"enabled":true,"region":"eu","cc":"gb","latitude":51.509865,"longitude":-0.118092,"reserved":0,"last_update":"0001-01-01T00:00:00Z","name_a2s":"Uncletopia | London | 6 | All Maps","protocol":17,"map":"pl_swiftwater_final1","folder":"tf","game":"Team Fortress","app_id":440,"player_count":0,"max_players":24,"Bots":0,"server_type":"Dedicated","server_os":"Linux","password":true,"vac":true,"version":"7757534","steam_id":85568392924742830,"keywords":["nocrits","nodmgspread","payload","uncletopia"],"game_id":440,"stv_port":27066,"stv_name":"Uncletopia | London | 6 | All Maps | STV","players":null},{"server_id":40,"name":"Uncletopia | London | 7 | No Payload","name_short":"lon-7","host":"lon-1.uk.uncletopia.com","port":27075,"enabled":true,"region":"eu","cc":"gb","latitude":51.509865,"longitude":-0.118092,"reserved":0,"last_update":"0001-01-01T00:00:00Z","name_a2s":"Uncletopia | London | 7 | No Payload","protocol":17,"map":"plr_pipeline","folder":"tf","game":"Team Fortress","app_id":440,"player_count":0,"max_players":24,"Bots":0,"server_type":"Dedicated","server_os":"Linux","password":true,"vac":true,"version":"7757534","steam_id":85568392924964314,"keywords":["nocrits","nodmgspread","payload","uncletopia"],"game_id":440,"stv_port":27076,"stv_name":"Uncletopia | London | 7 | No Payload | STV","players":null},{"server_id":41,"name":"Uncletopia | London | 8 | Community","name_short":"lon-8","host":"lon-1.uk.uncletopia.com","port":27085,"enabled":true,"region":"eu","cc":"gb","latitude":51.509865,"longitude":-0.118092,"reserved":0,"last_update":"0001-01-01T00:00:00Z","name_a2s":"Uncletopia | London | 8 | Community","protocol":17,"map":"workshop/cp_croissant_final.ugc458840209","folder":"tf","game":"Team Fortress","app_id":440,"player_count":0,"max_players":24,"Bots":0,"server_type":"Dedicated","server_os":"Linux","password":true,"vac":true,"version":"7757534","steam_id":85568392924964315,"keywords":["cp","nocrits","nodmgspread","uncletopia"],"game_id":440,"stv_port":27086,"stv_name":"Uncletopia | London | 8 | Community | STV","players":null},{"server_id":300,"name":"Uncletopia | Montr√©al | 1 | All Maps","name_short":"mtl-1","host":"mtl-1.ca.uncletopia.com","port":27015,"enabled":true,"region":"us-east","cc":"ca","latitude":45.50889,"longitude":-73.56167,"reserved":0,"last_update":"0001-01-01T00:00:00Z","name_a2s":"Uncletopia | Montr√©al | 1 | All Maps","protocol":17,"map":"pl_borneo","folder":"tf","game":"Team Fortress","app_id":440,"player_count":0,"max_players":24,"Bots":0,"server_type":"Dedicated","server_os":"Linux","password":true,"vac":true,"version":"7757534","steam_id":85568392924500087,"keywords":["nocrits","nodmgspread","payload","uncletopia"],"game_id":440,"stv_port":27016,"stv_name":"Uncletopia | Montr√©al | 1 | All Maps | STV","players":null},{"server_id":301,"name":"Uncletopia | Montr√©al | 2 | All Maps","name_short":"mtl-2","host":"mtl-1.ca.uncletopia.com","port":27025,"enabled":true,"region":"us-east","cc":"ca","latitude":45.50889,"longitude":-73.56167,"reserved":0,"last_update":"0001-01-01T00:00:00Z","name_a2s":"Uncletopia | Montr√©al | 2 | All Maps","protocol":17,"map":"pl_frontier_final","folder":"tf","game":"Team Fortress","app_id":440,"player_count":0,"max_players":24,"Bots":0,"server_type":"Dedicated","server_os":"Linux","password":true,"vac":true,"version":"7757534","steam_id":85568392924500088,"keywords":["nocrits","nodmgspread","payload","uncletopia"],"game_id":440,"stv_port":27026,"stv_name":"Uncletopia | Montr√©al | 2 | All Maps | STV","players":null},{"server_id":302,"name":"Uncletopia | Montr√©al | 3 | All Maps","name_short":"mtl-3","host":"mtl-1.ca.uncletopia.com","port":27035,"enabled":true,"region":"us-east","cc":"ca","latitude":45.50889,"longitude":-73.56167,"reserved":0,"last_update":"0001-01-01T00:00:00Z","name_a2s":"Uncletopia | Montr√©al | 3 | All Maps","protocol":17,"map":"koth_highpass","folder":"tf","game":"Team Fortress","app_id":440,"player_count":0,"max_players":24,"Bots":0,"server_type":"Dedicated","server_os":"Linux","password":true,"vac":true,"version":"7757534","steam_id":85568392924500089,"keywords":["cp","nocrits","nodmgspread","uncletopia"],"game_id":440,"stv_port":27036,"stv_name":"Uncletopia | Montr√©al | 3 | All Maps | STV","players":null},{"server_id":303,"name":"Uncletopia | Montr√©al | 4 | No Payload","name_short":"mtl-4","host":"mtl-1.ca.uncletopia.com","port":27045,"enabled":true,"region":"us-east","cc":"ca","latitude":45.50889,"longitude":-73.56167,"reserved":0,"last_update":"0001-01-01T00:00:00Z","name_a2s":"Uncletopia | Montr√©al | 4 | No Payload","protocol":17,"map":"pl_borneo","folder":"tf","game":"Team Fortress","app_id":440,"player_count":0,"max_players":24,"Bots":0,"server_type":"Dedicated","server_os":"Linux","password":true,"vac":true,"version":"7757534","steam_id":85568392924500090,"keywords":["nocrits","nodmgspread","payload","uncletopia"],"game_id":440,"stv_port":27046,"stv_name":"Uncletopia | Montr√©al | 4 | No Payload | STV","players":null},{"server_id":13,"name":"Uncletopia | New York City | 1 | All Maps","name_short":"nyc-1","host":"nyc-1.us.uncletopia.com","port":27015,"enabled":true,"region":"us-east","cc":"us","latitude":40.73061,"longitude":-73.93524,"reserved":0,"last_update":"0001-01-01T00:00:00Z","name_a2s":"Uncletopia | New York City | 1 | All Maps","protocol":17,"map":"koth_highpass","folder":"tf","game":"Team Fortress","app_id":440,"player_count":0,"max_players":24,"Bots":0,"server_type":"Dedicated","server_os":"Linux","password":true,"vac":true,"version":"7757534","steam_id":85568392924469993,"keywords":["cp","nocrits","nodmgspread","uncletopia"],"game_id":440,"stv_port":27016,"stv_name":"Uncletopia | New York City | 1 | All Maps | STV","players":null},{"server_id":14,"name":"Uncletopia | New York City | 2 | All Maps","name_short":"nyc-2","host":"nyc-1.us.uncletopia.com","port":27025,"enabled":true,"region":"us-east","cc":"us","latitude":40.73061,"longitude":-73.93524,"reserved":0,"last_update":"0001-01-01T00:00:00Z","name_a2s":"Uncletopia | New York City | 2 | All Maps","protocol":17,"map":"pl_swiftwater_final1","folder":"tf","game":"Team Fortress","app_id":440,"player_count":0,"max_players":24,"Bots":0,"server_type":"Dedicated","server_os":"Linux","password":true,"vac":true,"version":"7757534","steam_id":85568392924469994,"keywords":["nocrits","nodmgspread","payload","uncletopia"],"game_id":440,"stv_port":27026,"stv_name":"Uncletopia | New York City | 2 | All Maps | STV","players":null},{"server_id":15,"name":"Uncletopia | New York City | 3 | Stopwatch Beta","name_short":"nyc-3","host":"nyc-1.us.uncletopia.com","port":27035,"enabled":true,"region":"us-east","cc":"us","latitude":40.73061,"longitude":-73.93524,"reserved":0,"last_update":"0001-01-01T00:00:00Z","name_a2s":"Uncletopia | New York City | 3 | Stopwatch Beta","protocol":17,"map":"koth_highpass","folder":"tf","game":"Team Fortress","app_id":440,"player_count":0,"max_players":24,"Bots":0,"server_type":"Dedicated","server_os":"Linux","password":true,"vac":true,"version":"7757534","steam_id":85568392924742820,"keywords":["cp","nocrits","nodmgspread","uncletopia"],"game_id":440,"stv_port":27036,"stv_name":"Uncletopia | New York City | 3 | Stopwatch Beta | STV","players":null},{"server_id":16,"name":"Uncletopia | New York City | 4 | Community","name_short":"nyc-4","host":"nyc-1.us.uncletopia.com","port":27045,"enabled":true,"region":"us-east","cc":"us","latitude":40.73061,"longitude":-73.93524,"reserved":0,"last_update":"0001-01-01T00:00:00Z","name_a2s":"Uncletopia | New York City | 4 | Community","protocol":17,"map":"workshop/pl_cashworks_final1.ugc2904065412","folder":"tf","game":"Team Fortress","app_id":440,"player_count":24,"max_players":24,"Bots":0,"server_type":"Dedicated","server_os":"Linux","password":true,"vac":true,"version":"7757534","steam_id":85568392924742821,"keywords":["nocrits","nodmgspread","payload","uncletopia"],"game_id":440,"stv_port":27046,"stv_name":"Uncletopia | New York City | 4 | Community | STV","players":[{"user_id":387,"name":"Banio Kaioie","steam_id":76561198153295874,"connected_time":1696000000000,"state":"active","ping":129},{"user_id":394,"name":"EmeraldCola","steam_id":76561198066663687,"connected_time":1100000000000,"state":"active","ping":61},{"user_id":390,"name":"Lognes","steam_id":76561198076569769,"connected_time":1385000000000,"state":"active","ping":137},{"user_id":389,"name":"jeremimi","steam_id":76561198818225102,"connected_time":1533000000000,"state":"active","ping":125},{"user_id":385,"name":"Ballin \u0026 Can't Get Up","steam_id":76561198047394013,"connected_time":1790000000000,"state":"active","ping":62},{"user_id":391,"name":"Neo Kabuto","steam_id":76561197998339185,"connected_time":1371000000000,"state":"active","ping":89},{"user_id":325,"name":"softest_Poly","steam_id":76561198192264662,"connected_time":5399000000000,"state":"active","ping":100},{"user_id":397,"name":"IronHawk‚ú®","steam_id":76561198008959448,"connected_time":1017000000000,"state":"active","ping":135},{"user_id":322,"name":"Maj. Problem","steam_id":76561198240148840,"connected_time":5438000000000,"state":"active","ping":86},{"user_id":369,"name":"Brendan","steam_id":76561198041079914,"connected_time":3119000000000,"state":"active","ping":55},{"user_id":341,"name":"ZaYMuLL","steam_id":76561198110935733,"connected_time":5010000000000,"state":"active","ping":96},{"user_id":399,"name":"Pawkey","steam_id":76561198012182113,"connected_time":187000000000,"state":"active","ping":154},{"user_id":395,"name":"vani","steam_id":76561197991778291,"connected_time":1098000000000,"state":"active","ping":146},{"user_id":374,"name":"jerps","steam_id":76561198113109989,"connected_time":2767000000000,"state":"active","ping":66},{"user_id":346,"name":"Skaibae","steam_id":76561198134178824,"connected_time":4638000000000,"state":"active","ping":46},{"user_id":375,"name":"Split","steam_id":76561199134222256,"connected_time":2762000000000,"state":"active","ping":91},{"user_id":376,"name":"not luie","steam_id":76561199468287142,"connected_time":2743000000000,"state":"active","ping":75},{"user_id":336,"name":"NuggetShay.jpg","steam_id":76561198190962742,"connected_time":5310000000000,"state":"active","ping":87},{"user_id":383,"name":"R4wb33fG4m1ng73","steam_id":76561198121372198,"connected_time":2213000000000,"state":"active","ping":81},{"user_id":377,"name":"LazahBeam","steam_id":76561199456232623,"connected_time":2736000000000,"state":"active","ping":84},{"user_id":393,"name":"i lov huntman :)","steam_id":76561198302410791,"connected_time":1300000000000,"state":"active","ping":90},{"user_id":363,"name":"Threxx","steam_id":76561198068348885,"connected_time":3344000000000,"state":"active","ping":35},{"user_id":398,"name":"The Walnut","steam_id":76561198080583044,"connected_time":651000000000,"state":"active","ping":70},{"user_id":380,"name":"American Dad","steam_id":76561198059711448,"connected_time":2651000000000,"state":"active","ping":82}]},{"server_id":142,"name":"Uncletopia | S√£o Paulo | 1 | All Maps","name_short":"sao-1","host":"sao-1.br.uncletopia.com","port":27015,"enabled":true,"region":"sa","cc":"br","latitude":-23.533773,"longitude":-46.62529,"reserved":0,"last_update":"0001-01-01T00:00:00Z","name_a2s":"Uncletopia | S√£o Paulo | 1 | All Maps","protocol":17,"map":"koth_lakeside_final","folder":"tf","game":"Team Fortress","app_id":440,"player_count":0,"max_players":24,"Bots":0,"server_type":"Dedicated","server_os":"Linux","password":true,"vac":true,"version":"7757534","steam_id":85568392924469996,"keywords":["cp","nocrits","nodmgspread","uncletopia"],"game_id":440,"stv_port":27016,"stv_name":"Uncletopia | S√£o Paulo | 1 | All Maps | STV","players":null},{"server_id":143,"name":"Uncletopia | S√£o Paulo | 2 | All Maps","name_short":"sao-2","host":"sao-2.br.uncletopia.com","port":27015,"enabled":true,"region":"sa","cc":"br","latitude":-23.533773,"longitude":-46.62529,"reserved":0,"last_update":"0001-01-01T00:00:00Z","name_a2s":"Uncletopia | S√£o Paulo | 2 | All Maps","protocol":17,"map":"koth_cascade","folder":"tf","game":"Team Fortress","app_id":440,"player_count":0,"max_players":24,"Bots":0,"server_type":"Dedicated","server_os":"Linux","password":true,"vac":true,"version":"7757534","steam_id":85568392924485349,"keywords":["cp","nocrits","nodmgspread","uncletopia"],"game_id":440,"stv_port":27016,"stv_name":"Uncletopia | S√£o Paulo | 2 | All Maps | STV","players":null},{"server_id":7,"name":"Uncletopia | Seattle | 1 | All Maps","name_short":"sea-1","host":"sea-1.us.uncletopia.com","port":27015,"enabled":true,"region":"us-west","cc":"us","latitude":47.608013,"longitude":-122.33517,"reserved":0,"last_update":"0001-01-01T00:00:00Z","name_a2s":"Uncletopia | Seattle | 1 | All Maps","protocol":17,"map":"pl_upward","folder":"tf","game":"Team Fortress","app_id":440,"player_count":24,"max_players":24,"Bots":0,"server_type":"Dedicated","server_os":"Linux","password":true,"vac":true,"version":"7757534","steam_id":85568392924469997,"keywords":["nocrits","nodmgspread","payload","uncletopia"],"game_id":440,"stv_port":27016,"stv_name":"Uncletopia | Seattle | 1 | All Maps | STV","players":[{"user_id":745,"name":"I THINK COOLSVILLE SUCKS","steam_id":76561198066855998,"connected_time":1392000000000,"state":"active","ping":46},{"user_id":755,"name":"ArchmageF","steam_id":76561197992246851,"connected_time":982000000000,"state":"active","ping":56},{"user_id":703,"name":"MisterManne","steam_id":76561198106598600,"connected_time":5133000000000,"state":"active","ping":58},{"user_id":727,"name":"shane","steam_id":76561198060491451,"connected_time":2959000000000,"state":"active","ping":110},{"user_id":729,"name":"perplexingPariah","steam_id":76561198017132711,"connected_time":2935000000000,"state":"active","ping":45},{"user_id":762,"name":"Elias","steam_id":76561198031295139,"connected_time":51000000000,"state":"active","ping":50},{"user_id":740,"name":"Willy Wonker","steam_id":76561198082944789,"connected_time":1937000000000,"state":"active","ping":76},{"user_id":723,"name":"spenca","steam_id":76561198025371154,"connected_time":3003000000000,"state":"active","ping":73},{"user_id":743,"name":"Arathyn","steam_id":76561198179955586,"connected_time":1646000000000,"state":"active","ping":89},{"user_id":746,"name":"bbbbb","steam_id":76561198095480838,"connected_time":1380000000000,"state":"active","ping":45},{"user_id":730,"name":"PrimateChallenge","steam_id":76561198038103724,"connected_time":2903000000000,"state":"active","ping":59},{"user_id":744,"name":"Morse","steam_id":76561198039944542,"connected_time":1501000000000,"state":"active","ping":55},{"user_id":749,"name":"Dr.Long","steam_id":76561198930316713,"connected_time":1240000000000,"state":"active","ping":105},{"user_id":757,"name":"Can of Sprats","steam_id":76561198311170462,"connected_time":927000000000,"state":"active","ping":61},{"user_id":748,"name":"dinnerblaster82","steam_id":76561198059041027,"connected_time":1250000000000,"state":"active","ping":56},{"user_id":724,"name":"sb._","steam_id":76561198010150098,"connected_time":2998000000000,"state":"active","ping":82},{"user_id":750,"name":"Tomato Soup","steam_id":76561198051834684,"connected_time":1220000000000,"state":"active","ping":60},{"user_id":754,"name":"Mignyanne :3","steam_id":76561198048754056,"connected_time":1005000000000,"state":"active","ping":60},{"user_id":759,"name":"Ayayahuasca","steam_id":76561199002906056,"connected_time":726000000000,"state":"active","ping":48},{"user_id":741,"name":"toilet thief","steam_id":76561198057486874,"connected_time":1885000000000,"state":"active","ping":75},{"user_id":753,"name":"squid game","steam_id":76561199248960166,"connected_time":1056000000000,"state":"active","ping":38},{"user_id":758,"name":"SomeGuyWhoLikesPotatoes","steam_id":76561198110276797,"connected_time":823000000000,"state":"active","ping":59},{"user_id":752,"name":"Rat Bastard","steam_id":76561198153443658,"connected_time":1149000000000,"state":"active","ping":145},{"user_id":715,"name":"inubby","steam_id":76561198018471589,"connected_time":3854000000000,"state":"active","ping":69}]},{"server_id":119,"name":"Uncletopia | Seattle | 2 | All Maps","name_short":"sea-2","host":"sea-1.us.uncletopia.com","port":27025,"enabled":true,"region":"us-west","cc":"us","latitude":47.608013,"longitude":-122.33517,"reserved":0,"last_update":"0001-01-01T00:00:00Z","name_a2s":"Uncletopia | Seattle | 2 | All Maps","protocol":17,"map":"pl_snowycoast","folder":"tf","game":"Team Fortress","app_id":440,"player_count":24,"max_players":24,"Bots":0,"server_type":"Dedicated","server_os":"Linux","password":true,"vac":true,"version":"7757534","steam_id":85568392924469998,"keywords":["nocrits","nodmgspread","payload","uncletopia"],"game_id":440,"stv_port":27026,"stv_name":"Uncletopia | Seattle | 2 | All Maps | STV","players":[{"user_id":422,"name":"mudunit","steam_id":76561198811544015,"connected_time":257000000000,"state":"active","ping":56},{"user_id":362,"name":"the sploogiest splooger","steam_id":76561199095126154,"connected_time":3536000000000,"state":"active","ping":65},{"user_id":412,"name":"Mak","steam_id":76561198089197922,"connected_time":690000000000,"state":"active","ping":59},{"user_id":413,"name":"Skabbety","steam_id":76561198168044257,"connected_time":645000000000,"state":"active","ping":45},{"user_id":403,"name":"david","steam_id":76561198401625806,"connected_time":1666000000000,"state":"active","ping":66},{"user_id":407,"name":"Iron","steam_id":76561198115269587,"connected_time":1021000000000,"state":"active","ping":117},{"user_id":388,"name":"Triple Lizard","steam_id":76561198188459654,"connected_time":2090000000000,"state":"active","ping":143},{"user_id":389,"name":"we did it mate","steam_id":76561199471434875,"connected_time":2085000000000,"state":"active","ping":42},{"user_id":368,"name":"ivyXXcision","steam_id":76561198031474906,"connected_time":3307000000000,"state":"active","ping":122},{"user_id":418,"name":"SlimeHead47","steam_id":76561198116107566,"connected_time":452000000000,"state":"active","ping":46},{"user_id":360,"name":"the splotchiest splotcher splot","steam_id":76561198419896433,"connected_time":3618000000000,"state":"active","ping":44},{"user_id":406,"name":"Yesterday's Grouse's Son","steam_id":76561198259873083,"connected_time":1470000000000,"state":"active","ping":64},{"user_id":391,"name":"sorry i fell asleep","steam_id":76561198424248616,"connected_time":2060000000000,"state":"active","ping":225},{"user_id":392,"name":"Kuudere","steam_id":76561198075028016,"connected_time":2059000000000,"state":"active","ping":103},{"user_id":423,"name":"BIGWELDFROMROBOTS","steam_id":76561199275349806,"connected_time":133000000000,"state":"active","ping":67},{"user_id":416,"name":"BUFF THE SCORCH SHOT","steam_id":76561198042899484,"connected_time":543000000000,"state":"active","ping":61},{"user_id":424,"name":"Non weeb","steam_id":76561199066748501,"connected_time":74000000000,"state":"active","ping":70},{"user_id":393,"name":"Dr. Mantis Toboggan","steam_id":76561198073398432,"connected_time":2056000000000,"state":"active","ping":55},{"user_id":396,"name":"Path To Victory","steam_id":76561198026958898,"connected_time":1957000000000,"state":"active","ping":65},{"user_id":419,"name":"Rick","steam_id":76561198082608196,"connected_time":433000000000,"state":"active","ping":70},{"user_id":404,"name":"SvicidalBug","steam_id":76561198221390504,"connected_time":1645000000000,"state":"active","ping":65},{"user_id":421,"name":"taraw5","steam_id":76561198007241244,"connected_time":293000000000,"state":"active","ping":71},{"user_id":369,"name":"lonelymaw","steam_id":76561198020675278,"connected_time":3141000000000,"state":"active","ping":35},{"user_id":386,"name":"Lonestar827","steam_id":76561198035533639,"connected_time":2127000000000,"state":"active","ping":58}]},{"server_id":406,"name":"Uncletopia | Seattle | 3 | Stopwatch Beta","name_short":"sea-3","host":"sea-1.us.uncletopia.com","port":27035,"enabled":true,"region":"us-west","cc":"us","latitude":47.608013,"longitude":-122.33517,"reserved":0,"last_update":"0001-01-01T00:00:00Z","name_a2s":"Uncletopia | Seattle | 3 | Stopwatch Beta","protocol":17,"map":"koth_highpass","folder":"tf","game":"Team Fortress","app_id":440,"player_count":1,"max_players":24,"Bots":0,"server_type":"Dedicated","server_os":"Linux","password":true,"vac":true,"version":"7757534","steam_id":85568392924515217,"keywords":["cp","nocrits","nodmgspread","uncletopia"],"game_id":440,"stv_port":27036,"stv_name":"Uncletopia | Seattle | 3 | Stopwatch Beta | STV","players":[{"user_id":38,"name":"bad spy player","steam_id":76561198873699671,"connected_time":22000000000,"state":"active","ping":50}]},{"server_id":17,"name":"Uncletopia | San Francisco | 1 | All Maps","name_short":"sfo-1","host":"sfo-1.us.uncletopia.com","port":27015,"enabled":true,"region":"us-west","cc":"us","latitude":37.77397,"longitude":-122.4313,"reserved":0,"last_update":"0001-01-01T00:00:00Z","name_a2s":"Uncletopia | San Francisco | 1 | All Maps","protocol":17,"map":"pl_borneo","folder":"tf","game":"Team Fortress","app_id":440,"player_count":24,"max_players":24,"Bots":0,"server_type":"Dedicated","server_os":"Linux","password":true,"vac":true,"version":"7757534","steam_id":85568392924469999,"keywords":["nocrits","nodmgspread","payload","uncletopia"],"game_id":440,"stv_port":27016,"stv_name":"Uncletopia | San Francisco | 1 | All Maps | STV","players":[{"user_id":534,"name":"Agent Q","steam_id":76561198830829003,"connected_time":8272000000000,"state":"active","ping":78},{"user_id":571,"name":"Volkan","steam_id":76561198401314312,"connected_time":5514000000000,"state":"active","ping":72},{"user_id":626,"name":"PainInTheRuss","steam_id":76561197977960543,"connected_time":1632000000000,"state":"active","ping":45},{"user_id":649,"name":"Scoron","steam_id":76561198062099305,"connected_time":613000000000,"state":"active","ping":61},{"user_id":654,"name":"OH NO","steam_id":76561198006900990,"connected_time":154000000000,"state":"active","ping":64},{"user_id":629,"name":"Koopa Paratroopa","steam_id":76561198035448426,"connected_time":1372000000000,"state":"active","ping":64},{"user_id":624,"name":"Padre Pat","steam_id":76561198392985381,"connected_time":1891000000000,"state":"active","ping":79},{"user_id":617,"name":"Bikeway Naros","steam_id":76561198086676786,"connected_time":2801000000000,"state":"active","ping":47},{"user_id":652,"name":"Kitz","steam_id":76561199187932282,"connected_time":216000000000,"state":"active","ping":121},{"user_id":575,"name":"Feel the bern","steam_id":76561198078824519,"connected_time":5412000000000,"state":"active","ping":77},{"user_id":625,"name":"TheRealChizz","steam_id":76561198016055769,"connected_time":1837000000000,"state":"active","ping":58},{"user_id":641,"name":"Atol","steam_id":76561199011393398,"connected_time":852000000000,"state":"active","ping":173},{"user_id":646,"name":"Sad Sapling","steam_id":76561198075612150,"connected_time":769000000000,"state":"active","ping":63},{"user_id":650,"name":"Razor","steam_id":76561198008415797,"connected_time":332000000000,"state":"active","ping":69},{"user_id":579,"name":"munch","steam_id":76561198281972362,"connected_time":5268000000000,"state":"active","ping":79},{"user_id":657,"name":"Berserk","steam_id":76561198000357361,"connected_time":45000000000,"state":"active","ping":89},{"user_id":655,"name":"monsterkill4567","steam_id":76561198272986367,"connected_time":119000000000,"state":"active","ping":62},{"user_id":638,"name":"anal fiend","steam_id":76561198026844952,"connected_time":913000000000,"state":"active","ping":62},{"user_id":640,"name":"pumba","steam_id":76561198207881077,"connected_time":875000000000,"state":"active","ping":87},{"user_id":597,"name":"Samantha","steam_id":76561198127578307,"connected_time":4455000000000,"state":"active","ping":75},{"user_id":639,"name":"Tripp","steam_id":76561198033705006,"connected_time":907000000000,"state":"active","ping":63},{"user_id":607,"name":"eyes","steam_id":76561198211699576,"connected_time":3460000000000,"state":"active","ping":105},{"user_id":644,"name":"doge","steam_id":76561198280088862,"connected_time":845000000000,"state":"active","ping":69},{"user_id":656,"name":"Thequirka","steam_id":76561198968058652,"connected_time":118000000000,"state":"active","ping":68}]},{"server_id":18,"name":"Uncletopia | San Francisco | 2 | All Maps","name_short":"sfo-2","host":"sfo-1.us.uncletopia.com","port":27025,"enabled":true,"region":"us-west","cc":"us","latitude":37.77397,"longitude":-122.4313,"reserved":0,"last_update":"0001-01-01T00:00:00Z","name_a2s":"Uncletopia | San Francisco | 2 | All Maps","protocol":17,"map":"pl_upward","folder":"tf","game":"Team Fortress","app_id":440,"player_count":24,"max_players":24,"Bots":0,"server_type":"Dedicated","server_os":"Linux","password":true,"vac":true,"version":"7757534","steam_id":85568392924470000,"keywords":["nocrits","nodmgspread","payload","uncletopia"],"game_id":440,"stv_port":27026,"stv_name":"Uncletopia | San Francisco | 2 | All Maps | STV","players":[{"user_id":195,"name":"Jax O'Gaytor","steam_id":76561198288922168,"connected_time":1686000000000,"state":"active","ping":69},{"user_id":219,"name":"Red Orbama","steam_id":76561198047002366,"connected_time":397000000000,"state":"active","ping":61},{"user_id":198,"name":"hoOmIN","steam_id":76561198334947079,"connected_time":1239000000000,"state":"active","ping":47},{"user_id":185,"name":"everythingrhymeswithorange","steam_id":76561198010306193,"connected_time":2238000000000,"state":"active","ping":54},{"user_id":199,"name":"Duke Nukem","steam_id":76561199050965080,"connected_time":1111000000000,"state":"active","ping":80},{"user_id":187,"name":"PonYOOOOOOO","steam_id":76561199067424111,"connected_time":2234000000000,"state":"active","ping":63},{"user_id":200,"name":"MERCHANT","steam_id":76561198210010549,"connected_time":1105000000000,"state":"active","ping":80},{"user_id":217,"name":"Master Cannoli","steam_id":76561198272327518,"connected_time":502000000000,"state":"active","ping":74},{"user_id":220,"name":"Fairy Girl","steam_id":76561198152596102,"connected_time":244000000000,"state":"active","ping":47},{"user_id":202,"name":"Yogurt Raisins","steam_id":76561198172748357,"connected_time":927000000000,"state":"active","ping":50},{"user_id":169,"name":"bigman1","steam_id":76561198050225055,"connected_time":3719000000000,"state":"active","ping":59},{"user_id":165,"name":"a chicken","steam_id":76561198313121580,"connected_time":4573000000000,"state":"active","ping":57},{"user_id":221,"name":"Mike Bean Burritos","steam_id":76561198173430607,"connected_time":164000000000,"state":"active","ping":70},{"user_id":215,"name":"Kalir","steam_id":76561197996125658,"connected_time":522000000000,"state":"active","ping":86},{"user_id":205,"name":"GreenApples","steam_id":76561198120559543,"connected_time":884000000000,"state":"active","ping":58},{"user_id":192,"name":"Young-OG","steam_id":76561198058800479,"connected_time":1806000000000,"state":"active","ping":116},{"user_id":223,"name":"Donk","steam_id":76561198209881263,"connected_time":110000000000,"state":"active","ping":65},{"user_id":112,"name":"HAT-WEARING‚Ñ¢ Maggot Gamer Cat","steam_id":76561197973992705,"connected_time":9706000000000,"state":"active","ping":61},{"user_id":222,"name":"Aunty Frazzle","steam_id":76561198145596626,"connected_time":125000000000,"state":"active","ping":65},{"user_id":182,"name":"Prof. Anesthesia","steam_id":76561198993250002,"connected_time":2698000000000,"state":"active","ping":78},{"user_id":207,"name":"SneekTheef","steam_id":76561198011203191,"connected_time":850000000000,"state":"active","ping":77},{"user_id":208,"name":"quick coffee + a snack","steam_id":76561198159933043,"connected_time":826000000000,"state":"active","ping":134},{"user_id":167,"name":"[PINGU‚Ñ¢] Tiny Tuna","steam_id":76561198193611579,"connected_time":4410000000000,"state":"active","ping":114},{"user_id":191,"name":"tavorraX0","steam_id":76561198042465206,"connected_time":2202000000000,"state":"active","ping":169}]},{"server_id":19,"name":"Uncletopia | San Francisco | 3 | Stopwatch Beta","name_short":"sfo-3","host":"sfo-1.us.uncletopia.com","port":27035,"enabled":true,"region":"us-west","cc":"us","latitude":37.77397,"longitude":-122.4313,"reserved":0,"last_update":"0001-01-01T00:00:00Z","name_a2s":"Uncletopia | San Francisco | 3 | Stopwatch Beta","protocol":17,"map":"pl_borneo","folder":"tf","game":"Team Fortress","app_id":440,"player_count":0,"max_players":24,"Bots":0,"server_type":"Dedicated","server_os":"Linux","password":true,"vac":true,"version":"7757534","steam_id":85568392924742824,"keywords":["nocrits","nodmgspread","payload","uncletopia"],"game_id":440,"stv_port":27036,"stv_name":"Uncletopia | San Francisco | 3 | Stopwatch Beta | STV","players":null},{"server_id":20,"name":"Uncletopia | San Francisco | 4 | Community","name_short":"sfo-4","host":"sfo-1.us.uncletopia.com","port":27045,"enabled":true,"region":"us-west","cc":"us","latitude":37.77397,"longitude":-122.4313,"reserved":0,"last_update":"0001-01-01T00:00:00Z","name_a2s":"Uncletopia | San Francisco | 4 | Community","protocol":17,"map":"workshop/koth_ashville_final.ugc2130459942","folder":"tf","game":"Team Fortress","app_id":440,"player_count":0,"max_players":24,"Bots":0,"server_type":"Dedicated","server_os":"Linux","password":true,"vac":true,"version":"7757534","steam_id":85568392924742826,"keywords":["cp","nocrits","nodmgspread","uncletopia"],"game_id":440,"stv_port":27046,"stv_name":"Uncletopia | San Francisco | 4 | Community | STV","players":null},{"server_id":141,"name":"Uncletopia | Sydney | 1 | All Maps","name_short":"syd-1","host":"syd-1.au.uncletopia.com","port":27015,"enabled":true,"region":"au","cc":"au","latitude":-33.865143,"longitude":151.2099,"reserved":0,"last_update":"0001-01-01T00:00:00Z","name_a2s":"Uncletopia | Sydney | 1 | All Maps","protocol":17,"map":"pl_snowycoast","folder":"tf","game":"Team Fortress","app_id":440,"player_count":1,"max_players":24,"Bots":0,"server_type":"Dedicated","server_os":"Linux","password":true,"vac":true,"version":"7757534","steam_id":85568392924470001,"keywords":["nocrits","nodmgspread","payload","uncletopia"],"game_id":440,"stv_port":27016,"stv_name":"Uncletopia | Sydney | 1 | All Maps | STV","players":[{"user_id":20,"name":"JayTheLlamaKing","steam_id":76561198836354249,"connected_time":16000000000,"state":"spawning","ping":48}]},{"server_id":123,"name":"Uncletopia | Sydney | 2 | All Maps","name_short":"syd-2","host":"syd-1.au.uncletopia.com","port":27025,"enabled":true,"region":"au","cc":"au","latitude":-33.865143,"longitude":151.2099,"reserved":0,"last_update":"0001-01-01T00:00:00Z","name_a2s":"Uncletopia | Sydney | 2 | All Maps","protocol":17,"map":"pl_snowycoast","folder":"tf","game":"Team Fortress","app_id":440,"player_count":24,"max_players":24,"Bots":0,"server_type":"Dedicated","server_os":"Linux","password":true,"vac":true,"version":"7757534","steam_id":85568392924470002,"keywords":["nocrits","nodmgspread","payload","uncletopia"],"game_id":440,"stv_port":27026,"stv_name":"Uncletopia | Sydney | 2 | All Maps | STV","players":[{"user_id":115,"name":"samm","steam_id":76561198190525662,"connected_time":1381000000000,"state":"active","ping":61},{"user_id":111,"name":"SkoKiE","steam_id":76561198283542986,"connected_time":1544000000000,"state":"active","ping":66},{"user_id":114,"name":"ANML","steam_id":76561198260039591,"connected_time":1392000000000,"state":"active","ping":47},{"user_id":101,"name":"Branko","steam_id":76561199262196710,"connected_time":2263000000000,"state":"active","ping":32},{"user_id":118,"name":"creature","steam_id":76561198109927649,"connected_time":1047000000000,"state":"active","ping":54},{"user_id":119,"name":"-cone puncha-","steam_id":76561199445490119,"connected_time":628000000000,"state":"active","ping":33},{"user_id":116,"name":"KillerBlow","steam_id":76561198930232832,"connected_time":1377000000000,"state":"active","ping":84},{"user_id":98,"name":"zebulon","steam_id":76561198063481761,"connected_time":2310000000000,"state":"active","ping":45},{"user_id":93,"name":"jim :)","steam_id":76561198127508905,"connected_time":2912000000000,"state":"active","ping":44},{"user_id":61,"name":"Leonidas","steam_id":76561198054096076,"connected_time":4293000000000,"state":"active","ping":45},{"user_id":109,"name":"ratbag","steam_id":76561198048064049,"connected_time":1729000000000,"state":"active","ping":98},{"user_id":105,"name":"Fatass Yoshi","steam_id":76561198033784848,"connected_time":1971000000000,"state":"active","ping":50},{"user_id":113,"name":"Rarity the Fabulous","steam_id":76561198077653287,"connected_time":1411000000000,"state":"active","ping":35},{"user_id":54,"name":"voxii","steam_id":76561198099698281,"connected_time":5450000000000,"state":"active","ping":65},{"user_id":103,"name":"Averg","steam_id":76561199116359172,"connected_time":2095000000000,"state":"active","ping":54},{"user_id":100,"name":"Pirate Arr","steam_id":76561198011944697,"connected_time":2287000000000,"state":"active","ping":52},{"user_id":68,"name":"Mac","steam_id":76561198063407128,"connected_time":4153000000000,"state":"active","ping":52},{"user_id":112,"name":"RoverTw0","steam_id":76561198025416071,"connected_time":1511000000000,"state":"active","ping":38},{"user_id":120,"name":"david boeing","steam_id":76561198079351541,"connected_time":546000000000,"state":"active","ping":46},{"user_id":87,"name":"A KNIFE!","steam_id":76561198160390701,"connected_time":3097000000000,"state":"active","ping":60},{"user_id":106,"name":"SaltierThanYou","steam_id":76561198444395188,"connected_time":1927000000000,"state":"active","ping":85},{"user_id":71,"name":"Lincoln2603","steam_id":76561198170236666,"connected_time":4029000000000,"state":"active","ping":44},{"user_id":97,"name":"Canyon","steam_id":76561198233329500,"connected_time":2315000000000,"state":"active","ping":84},{"user_id":117,"name":"fourjaf","steam_id":76561198163147051,"connected_time":1202000000000,"state":"active","ping":89}]},{"server_id":395,"name":"Uncletopia | Sydney | 3 | All Maps","name_short":"syd-3","host":"syd-1.au.uncletopia.com","port":27035,"enabled":true,"region":"au","cc":"au","latitude":-33.865143,"longitude":151.2099,"reserved":0,"last_update":"0001-01-01T00:00:00Z","name_a2s":"Uncletopia | Sydney | 3 | All Maps","protocol":17,"map":"cp_process_final","folder":"tf","game":"Team Fortress","app_id":440,"player_count":0,"max_players":24,"Bots":0,"server_type":"Dedicated","server_os":"Linux","password":true,"vac":true,"version":"7757534","steam_id":85568392925194467,"keywords":["cp","nocrits","nodmgspread","uncletopia"],"game_id":440,"stv_port":27036,"stv_name":"Uncletopia | Sydney | 3 | All Maps | STV","players":null},{"server_id":396,"name":"Uncletopia | Sydney | 4 | All Maps","name_short":"syd-4","host":"syd-1.au.uncletopia.com","port":27045,"enabled":true,"region":"au","cc":"au","latitude":-33.865143,"longitude":151.2099,"reserved":0,"last_update":"0001-01-01T00:00:00Z","name_a2s":"Uncletopia | Sydney | 4 | All Maps","protocol":17,"map":"koth_lakeside_final","folder":"tf","game":"Team Fortress","app_id":440,"player_count":1,"max_players":24,"Bots":0,"server_type":"Dedicated","server_os":"Linux","password":true,"vac":true,"version":"7757534","steam_id":85568392925397958,"keywords":["cp","nocrits","nodmgspread","uncletopia"],"game_id":440,"stv_port":27046,"stv_name":"Uncletopia | Sydney | 4 | All Maps | STV","players":[{"user_id":4,"name":"Noble Chernobyl","steam_id":76561198011803825,"connected_time":303000000000,"state":"active","ping":49}]},{"server_id":58,"name":"Uncletopia | Sydney | 5 | Stopwatch Beta","name_short":"syd-5","host":"syd-1.au.uncletopia.com","port":27055,"enabled":true,"region":"au","cc":"au","latitude":-33.865143,"longitude":151.2099,"reserved":0,"last_update":"0001-01-01T00:00:00Z","name_a2s":"Uncletopia | Sydney | 5 | Stopwatch Beta","protocol":17,"map":"koth_highpass","folder":"tf","game":"Team Fortress","app_id":440,"player_count":0,"max_players":24,"Bots":0,"server_type":"Dedicated","server_os":"Linux","password":true,"vac":true,"version":"7757534","steam_id":85568392925397959,"keywords":["cp","nocrits","nodmgspread","uncletopia"],"game_id":440,"stv_port":27056,"stv_name":"Uncletopia | Sydney | 5 | Stopwatch Beta | STV","players":null},{"server_id":59,"name":"Uncletopia | Sydney | 6 | Community","name_short":"syd-6","host":"syd-1.au.uncletopia.com","port":27065,"enabled":true,"region":"au","cc":"au","latitude":-33.865143,"longitude":151.2099,"reserved":0,"last_update":"0001-01-01T00:00:00Z","name_a2s":"Uncletopia | Sydney | 6 | Community","protocol":17,"map":"workshop/cp_villa_b19.ugc2113052569","folder":"tf","game":"Team Fortress","app_id":440,"player_count":0,"max_players":24,"Bots":0,"server_type":"Dedicated","server_os":"Linux","password":true,"vac":true,"version":"7757534","steam_id":85568392925397960,"keywords":["cp","nocrits","nodmgspread","uncletopia"],"game_id":440,"stv_port":27066,"stv_name":"Uncletopia | Sydney | 6 | Community | STV","players":null},{"server_id":49,"name":"Uncletopia | Warsaw | 1 | All Maps","name_short":"waw-1","host":"waw-1.pl.uncletopia.com","port":27015,"enabled":true,"region":"eu","cc":"pl","latitude":52.2297,"longitude":21.017532,"reserved":0,"last_update":"0001-01-01T00:00:00Z","name_a2s":"","protocol":0,"map":"","folder":"","game":"","app_id":0,"player_count":0,"max_players":0,"Bots":0,"server_type":"","server_os":"","password":false,"vac":false,"version":"","steam_id":0,"keywords":null,"game_id":0,"stv_port":0,"stv_name":"","players":null},{"server_id":50,"name":"Uncletopia | Warsaw | 2 | All Maps","name_short":"waw-2","host":"waw-1.pl.uncletopia.com","port":27025,"enabled":true,"region":"eu","cc":"pl","latitude":52.2297,"longitude":21.017532,"reserved":0,"last_update":"0001-01-01T00:00:00Z","name_a2s":"Uncletopia | Warsaw | 2 | All Maps","protocol":17,"map":"cp_process_final","folder":"tf","game":"Team Fortress","app_id":440,"player_count":0,"max_players":24,"Bots":0,"server_type":"Dedicated","server_os":"Linux","password":true,"vac":true,"version":"7757534","steam_id":85568392925397851,"keywords":["cp","nocrits","nodmgspread","uncletopia"],"game_id":440,"stv_port":27026,"stv_name":"Uncletopia | Warsaw | 2 | All Maps | STV","players":null},{"server_id":51,"name":"Uncletopia | Warsaw | 3 | All Maps","name_short":"waw-3","host":"waw-1.pl.uncletopia.com","port":27035,"enabled":true,"region":"eu","cc":"pl","latitude":52.2297,"longitude":21.017532,"reserved":0,"last_update":"0001-01-01T00:00:00Z","name_a2s":"Uncletopia | Warsaw | 3 | All Maps","protocol":17,"map":"pl_barnblitz","folder":"tf","game":"Team Fortress","app_id":440,"player_count":0,"max_players":24,"Bots":0,"server_type":"Dedicated","server_os":"Linux","password":true,"vac":true,"version":"7757534","steam_id":85568392925397852,"keywords":["nocrits","nodmgspread","payload","uncletopia"],"game_id":440,"stv_port":27036,"stv_name":"Uncletopia | Warsaw | 3 | All Maps | STV","players":null},{"server_id":52,"name":"Uncletopia | Warsaw | 4 | All Maps","name_short":"waw-4","host":"waw-1.pl.uncletopia.com","port":27045,"enabled":true,"region":"eu","cc":"pl","latitude":52.2297,"longitude":21.017532,"reserved":0,"last_update":"0001-01-01T00:00:00Z","name_a2s":"Uncletopia | Warsaw | 4 | All Maps","protocol":17,"map":"pl_snowycoast","folder":"tf","game":"Team Fortress","app_id":440,"player_count":0,"max_players":24,"Bots":0,"server_type":"Dedicated","server_os":"Linux","password":true,"vac":true,"version":"7757534","steam_id":85568392925397853,"keywords":["nocrits","nodmgspread","payload","uncletopia"],"game_id":440,"stv_port":27046,"stv_name":"Uncletopia | Warsaw | 4 | All Maps | STV","players":null},{"server_id":53,"name":"Uncletopia | Warsaw | 5 | Stopwatch Beta","name_short":"waw-5","host":"waw-1.pl.uncletopia.com","port":27055,"enabled":true,"region":"eu","cc":"pl","latitude":52.2297,"longitude":21.017532,"reserved":0,"last_update":"0001-01-01T00:00:00Z","name_a2s":"Uncletopia | Warsaw | 5 | Stopwatch Beta","protocol":17,"map":"pl_barnblitz","folder":"tf","game":"Team Fortress","app_id":440,"player_count":0,"max_players":24,"Bots":0,"server_type":"Dedicated","server_os":"Linux","password":true,"vac":true,"version":"7757534","steam_id":85568392925397854,"keywords":["nocrits","nodmgspread","payload","uncletopia"],"game_id":440,"stv_port":27056,"stv_name":"Uncletopia | Warsaw | 5 | Stopwatch Beta | STV","players":null},{"server_id":54,"name":"Uncletopia | Warsaw | 6 | Community","name_short":"waw-6","host":"waw-1.pl.uncletopia.com","port":27065,"enabled":true,"region":"eu","cc":"pl","latitude":52.2297,"longitude":21.017532,"reserved":0,"last_update":"0001-01-01T00:00:00Z","name_a2s":"Uncletopia | Warsaw | 6 | Community","protocol":17,"map":"pl_swiftwater_final1","folder":"tf","game":"Team Fortress","app_id":440,"player_count":0,"max_players":24,"Bots":0,"server_type":"Dedicated","server_os":"Linux","password":true,"vac":true,"version":"7757534","steam_id":85568392925397856,"keywords":["nocrits","nodmgspread","payload","uncletopia"],"game_id":440,"stv_port":27066,"stv_name":"Uncletopia | Warsaw | 6 | Community | STV","players":null}]}