{"status":true,"message":"","result":[{"server_id":9,"name":"Uncletopia | Atlanta | 1 | All Maps","name_short":"atl-1","host":"atl-1.us.uncletopia.com","port":27015,"enabled":true,"region":"us-east","cc":"us","latitude":33.753746,"longitude":-84.38633,"reserved":0,"last_update":"0001-01-01T00:00:00Z","name_a2s":"Uncletopia | Atlanta | 1 | All Maps","protocol":17,"map":"pl_barnblitz","folder":"tf","game":"Team Fortress","app_id":440,"player_count":24,"max_players":24,"Bots":0,"server_type":"Dedicated","server_os":"Linux","password":true,"vac":true,"version":"7757534","steam_id":85568392924469982,"keywords":["nocrits","nodmgspread","payload","uncletopia"],"game_id":440,"stv_port":27016,"stv_name":"Uncletopia | Atlanta | 1 | All Maps | STV","players":[{"user_id":541,"name":"nomad","steam_id":76561197998740399,"connected_time":7015000000000,"state":"active","ping":65},{"user_id":630,"name":"Zombiehunter11","steam_id":76561198237517830,"connected_time":242000000000,"state":"active","ping":98},{"user_id":550,"name":"Dr.Zarann","steam_id":76561198163952958,"connected_time":6524000000000,"state":"active","ping":60},{"user_id":332,"name":"eish","steam_id":76561198089463603,"connected_time":24392000000000,"state":"active","ping":120},{"user_id":613,"name":"29palms","steam_id":76561198095104925,"connected_time":1116000000000,"state":"active","ping":99},{"user_id":626,"name":"fitotutus","steam_id":76561197974993253,"connected_time":466000000000,"state":"active","ping":96},{"user_id":618,"name":"Pizzaguy108","steam_id":76561198972791353,"connected_time":957000000000,"state":"active","ping":90},{"user_id":552,"name":"ATL1 | Avo","steam_id":76561197993340494,"connected_time":6510000000000,"state":"active","ping":56},{"user_id":627,"name":"mayhem","steam_id":76561199246637881,"connected_time":444000000000,"state":"active","ping":59},{"user_id":629,"name":"Boop","steam_id":76561198376703875,"connected_time":385000000000,"state":"active","ping":68},{"user_id":621,"name":"0","steam_id":76561198994761483,"connected_time":868000000000,"state":"active","ping":117},{"user_id":554,"name":"Oddball","steam_id":76561198040440984,"connected_time":6496000000000,"state":"active","ping":92},{"user_id":543,"name":"Albino Jellyfish","steam_id":76561198208561097,"connected_time":7011000000000,"state":"active","ping":68},{"user_id":612,"name":"ATL1 | Lavender","steam_id":76561198825997674,"connected_time":1502000000000,"state":"active","ping":51},{"user_id":610,"name":"BIG HOG","steam_id":76561198079923652,"connected_time":1885000000000,"state":"active","ping":75},{"user_id":628,"name":"Zymiren","steam_id":76561198054985471,"connected_time":403000000000,"state":"active","ping":84},{"user_id":586,"name":"krabby","steam_id":76561199072773402,"connected_time":5190000000000,"state":"active","ping":68},{"user_id":623,"name":"☼ Art Vandelay ☼","steam_id":76561198041570209,"connected_time":817000000000,"state":"active","ping":83},{"user_id":624,"name":"zoob","steam_id":76561198119734222,"connected_time":804000000000,"state":"active","ping":101},{"user_id":592,"name":"atl1icyy","steam_id":76561198968001329,"connected_time":4211000000000,"state":"active","ping":49},{"user_id":611,"name":"lil hog","steam_id":76561199230929836,"connected_time":1720000000000,"state":"active","ping":76},{"user_id":609,"name":"Aniz","steam_id":76561199226665024,"connected_time":2658000000000,"state":"active","ping":136},{"user_id":625,"name":"trobin120","steam_id":76561199122420273,"connected_time":779000000000,"state":"active","ping":62},{"user_id":603,"name":"David De Bergerac","steam_id":76561198010306294,"connected_time":3598000000000,"state":"active","ping":80}]},{"server_id":104,"name":"Uncletopia | Atlanta | 2 | All Maps","name_short":"atl-2","host":"atl-1.us.uncletopia.com","port":27025,"enabled":true,"region":"us-east","cc":"us","latitude":33.753746,"longitude":-84.38633,"reserved":0,"last_update":"0001-01-01T00:00:00Z","name_a2s":"Uncletopia | Atlanta | 2 | All Maps","protocol":17,"map":"cp_process_final","folder":"tf","game":"Team Fortress","app_id":440,"player_count":22,"max_players":24,"Bots":0,"server_type":"Dedicated","server_os":"Linux","password":true,"vac":true,"version":"7757534","steam_id":85568392924469983,"keywords":["cp","nocrits","nodmgspread","uncletopia"],"game_id":440,"stv_port":27026,"stv_name":"Uncletopia | Atlanta | 2 | All Maps | STV","players":[{"user_id":483,"name":"Soupman_Official","steam_id":76561198314308732,"connected_time":16000000000,"state":"spawning","ping":85},{"user_id":475,"name":"sh","steam_id":76561198046786313,"connected_time":272000000000,"state":"active","ping":156},{"user_id":460,"name":"Dallas","steam_id":76561198106184089,"connected_time":1528000000000,"state":"active","ping":72},{"user_id":441,"name":"AlmondPlanes500","steam_id":76561199012992052,"connected_time":2314000000000,"state":"active","ping":142},{"user_id":450,"name":"ゴ?!Jon Chainsaw!?ゴ","steam_id":76561198400240040,"connected_time":1660000000000,"state":"active","ping":79},{"user_id":447,"name":"Pasta","steam_id":76561198358320222,"connected_time":1861000000000,"state":"active","ping":59},{"user_id":477,"name":"oddmanoutparisien","steam_id":76561199225591834,"connected_time":140000000000,"state":"active","ping":118},{"user_id":451,"name":"Picbascassquiato","steam_id":76561198011487900,"connected_time":1643000000000,"state":"active","ping":91},{"user_id":478,"name":"Nftyy","steam_id":76561198164550495,"connected_time":104000000000,"state":"active","ping":86},{"user_id":479,"name":"eredyn lft","steam_id":76561198868116439,"connected_time":94000000000,"state":"active","ping":60},{"user_id":437,"name":"BrownestBean","steam_id":76561198862810158,"connected_time":2646000000000,"state":"active","ping":188},{"user_id":467,"name":"Braul","steam_id":76561198067738196,"connected_time":1234000000000,"state":"active","ping":165},{"user_id":476,"name":"SuperNovaFox","steam_id":76561198052172564,"connected_time":172000000000,"state":"active","ping":65},{"user_id":410,"name":"hamletespacial","steam_id":76561199084414649,"connected_time":3894000000000,"state":"active","ping":70},{"user_id":470,"name":"Le Meilleur","steam_id":76561198054581325,"connected_time":702000000000,"state":"active","ping":79},{"user_id":472,"name":"whateverdude22","steam_id":76561198142394470,"connected_time":638000000000,"state":"active","ping":46},{"user_id":480,"name":"By the Time I Get to Phoenix","steam_id":76561198397009880,"connected_time":70000000000,"state":"active","ping":47},{"user_id":481,"name":"TJThomas","steam_id":76561198038292405,"connected_time":47000000000,"state":"active","ping":80},{"user_id":439,"name":"Op banana","steam_id":76561198303231451,"connected_time":2538000000000,"state":"active","ping":64},{"user_id":369,"name":"Pascal","steam_id":76561198902657591,"connected_time":6938000000000,"state":"active","ping":53},{"user_id":311,"name":"brock","steam_id":76561199015537819,"connected_time":11532000000000,"state":"active","ping":50},{"user_id":420,"name":"mEch114","steam_id":76561198236936060,"connected_time":3448000000000,"state":"active","ping":60}]},{"server_id":400,"name":"Uncletopia | Atlanta | 3 | Community","name_short":"atl-3","host":"atl-1.us.uncletopia.com","port":27035,"enabled":true,"region":"us-east","cc":"us","latitude":33.753746,"longitude":-84.38633,"reserved":0,"last_update":"0001-01-01T00:00:00Z","name_a2s":"Uncletopia | Atlanta | 3 | Community","protocol":17,"map":"workshop/pl_corrode_rc2.ugc546577989","folder":"tf","game":"Team Fortress","app_id":440,"player_count":21,"max_players":24,"Bots":0,"server_type":"Dedicated","server_os":"Linux","password":true,"vac":true,"version":"7757534","steam_id":85568392924515187,"keywords":["nocrits","nodmgspread","payload","uncletopia"],"game_id":440,"stv_port":27036,"stv_name":"Uncletopia | Atlanta | 3 | Community | STV","players":[{"user_id":199,"name":"RuinHasComeToOurFamily","steam_id":76561199075273861,"connected_time":2604000000000,"state":"spawning","ping":138},{"user_id":72,"name":"The Ghost of Jay Leno","steam_id":76561198058938897,"connected_time":11447000000000,"state":"spawning","ping":75},{"user_id":201,"name":"GiraffeMan","steam_id":76561198042104084,"connected_time":2309000000000,"state":"active","ping":63},{"user_id":24,"name":"Dask","steam_id":76561198043385839,"connected_time":13015000000000,"state":"spawning","ping":76},{"user_id":179,"name":"hatchetax","steam_id":76561199013337543,"connected_time":4173000000000,"state":"spawning","ping":34},{"user_id":212,"name":"123","steam_id":76561198106308056,"connected_time":1026000000000,"state":"spawning","ping":103},{"user_id":205,"name":"I am a mooshroom","steam_id":76561198104198295,"connected_time":2229000000000,"state":"spawning","ping":90},{"user_id":214,"name":"Walla","steam_id":76561198103379757,"connected_time":944000000000,"state":"active","ping":110},{"user_id":215,"name":"It's a Doggydog World","steam_id":76561198018232414,"connected_time":840000000000,"state":"spawning","ping":198},{"user_id":177,"name":"Penis Scout 2","steam_id":76561198801467075,"connected_time":4359000000000,"state":"spawning","ping":129},{"user_id":111,"name":"bryyte","steam_id":76561198012377833,"connected_time":8340000000000,"state":"spawning","ping":125},{"user_id":104,"name":"nft airshotter","steam_id":76561198158137522,"connected_time":9226000000000,"state":"spawning","ping":50},{"user_id":185,"name":"shubb","steam_id":76561198122189192,"connected_time":3877000000000,"state":"spawning","ping":180},{"user_id":206,"name":"Miranda \"Chicken Legs\" Johnson","steam_id":76561198004659985,"connected_time":1611000000000,"state":"spawning","ping":148},{"user_id":217,"name":"Sea Captain","steam_id":76561198043432905,"connected_time":467000000000,"state":"spawning","ping":201},{"user_id":208,"name":"town.midi","steam_id":76561198059041027,"connected_time":1292000000000,"state":"spawning","ping":206},{"user_id":207,"name":"esoobac","steam_id":76561198010370396,"connected_time":1586000000000,"state":"spawning","ping":153},{"user_id":216,"name":"Adawnby","steam_id":76561198103057295,"connected_time":552000000000,"state":"spawning","ping":379},{"user_id":197,"name":"mime girl","steam_id":76561198337705174,"connected_time":2962000000000,"state":"active","ping":124},{"user_id":194,"name":"PilotArchangel","steam_id":76561198012304096,"connected_time":3246000000000,"state":"spawning","ping":91},{"user_id":154,"name":"bill","steam_id":76561199142779872,"connected_time":5363000000000,"state":"active","ping":102}]},{"server_id":401,"name":"Uncletopia | Atlanta | 4 | No Payload","name_short":"atl-4","host":"atl-1.us.uncletopia.com","port":27045,"enabled":true,"region":"us-east","cc":"us","latitude":33.753746,"longitude":-84.38633,"reserved":0,"last_update":"0001-01-01T00:00:00Z","name_a2s":"","protocol":0,"map":"","folder":"","game":"","app_id":0,"player_count":0,"max_players":0,"Bots":0,"server_type":"","server_os":"","password":false,"vac":false,"version":"","steam_id":0,"keywords":null,"game_id":0,"stv_port":0,"stv_name":"","players":null},{"server_id":2,"name":"Uncletopia | Chicago | 1 | All Maps","name_short":"chi-1","host":"chi-1.us.uncletopia.com","port":27015,"enabled":true,"region":"us-central","cc":"us","latitude":41.881832,"longitude":-87.62318,"reserved":0,"last_update":"0001-01-01T00:00:00Z","name_a2s":"Uncletopia | Chicago | 1 | All Maps","protocol":17,"map":"pl_frontier_final","folder":"tf","game":"Team Fortress","app_id":440,"player_count":24,"max_players":24,"Bots":0,"server_type":"Dedicated","server_os":"Linux","password":true,"vac":true,"version":"7757534","steam_id":85568392924469984,"keywords":["nocrits","nodmgspread","payload","uncletopia"],"game_id":440,"stv_port":27016,"stv_name":"Uncletopia | Chicago | 1 | All Maps | STV","players":[{"user_id":615,"name":"quiet_kid","steam_id":76561198425648946,"connected_time":1279000000000,"state":"active","ping":118},{"user_id":626,"name":"Cofi","steam_id":76561199026721822,"connected_time":412000000000,"state":"active","ping":103},{"user_id":616,"name":"enmgxcltayiqoacx","steam_id":76561197974965536,"connected_time":1257000000000,"state":"active","ping":58},{"user_id":604,"name":"Merci?","steam_id":76561198096823118,"connected_time":2148000000000,"state":"active","ping":76},{"user_id":611,"name":"Dr. Wario","steam_id":76561198901238861,"connected_time":1545000000000,"state":"active","ping":99},{"user_id":621,"name":"1-800-GHOST-DANCE","steam_id":76561198835430429,"connected_time":1150000000000,"state":"active","ping":77},{"user_id":606,"name":"DOGE??","steam_id":76561198331098675,"connected_time":2095000000000,"state":"active","ping":80},{"user_id":618,"name":"PINGAS DISPENSER™","steam_id":76561198014868070,"connected_time":1203000000000,"state":"active","ping":98},{"user_id":562,"name":"That Canadian Dude","steam_id":76561198024985831,"connected_time":5119000000000,"state":"active","ping":61},{"user_id":572,"name":"Umbreon Gaming","steam_id":76561198259987856,"connected_time":4359000000000,"state":"active","ping":78},{"user_id":587,"name":"Lavender","steam_id":76561198142770666,"connected_time":3335000000000,"state":"active","ping":67},{"user_id":584,"name":"Aspen-4","steam_id":76561198086828922,"connected_time":3528000000000,"state":"active","ping":72},{"user_id":627,"name":"Kzjytsugn","steam_id":76561198130241974,"connected_time":356000000000,"state":"active","ping":92},{"user_id":625,"name":"Gabinator32","steam_id":76561198872467183,"connected_time":452000000000,"state":"active","ping":46},{"user_id":603,"name":"★Kaputt","steam_id":76561198118037894,"connected_time":2394000000000,"state":"active","ping":97},{"user_id":583,"name":"PKBEAST_7","steam_id":76561198177136537,"connected_time":3598000000000,"state":"active","ping":92},{"user_id":623,"name":"iggy destruction","steam_id":76561198081576799,"connected_time":979000000000,"state":"active","ping":89},{"user_id":586,"name":"ColonelKermit","steam_id":76561198318215660,"connected_time":3337000000000,"state":"active","ping":59},{"user_id":602,"name":"Throwaway","steam_id":76561199019962499,"connected_time":2811000000000,"state":"active","ping":69},{"user_id":609,"name":"RedSock","steam_id":76561198161243404,"connected_time":1908000000000,"state":"active","ping":44},{"user_id":594,"name":"Ezzu","steam_id":76561198021919905,"connected_time":3193000000000,"state":"active","ping":82},{"user_id":595,"name":"Lmayo","steam_id":76561198333758846,"connected_time":3188000000000,"state":"active","ping":107},{"user_id":596,"name":"Cheese Man","steam_id":76561198272929647,"connected_time":3182000000000,"state":"active","ping":121},{"user_id":620,"name":"DefectiveWarhead","steam_id":76561198067746049,"connected_time":1202000000000,"state":"active","ping":90}]},{"server_id":106,"name":"Uncletopia | Chicago | 2 | All Maps","name_short":"chi-2","host":"chi-1.us.uncletopia.com","port":27025,"enabled":true,"region":"us-central","cc":"us","latitude":41.881832,"longitude":-87.62318,"reserved":0,"last_update":"0001-01-01T00:00:00Z","name_a2s":"Uncletopia | Chicago | 2 | All Maps","protocol":17,"map":"pl_swiftwater_final1","folder":"tf","game":"Team Fortress","app_id":440,"player_count":24,"max_players":24,"Bots":0,"server_type":"Dedicated","server_os":"Linux","password":true,"vac":true,"version":"7757534","steam_id":85568392924469985,"keywords":["nocrits","nodmgspread","payload","uncletopia"],"game_id":440,"stv_port":27026,"stv_name":"Uncletopia | Chicago | 2 | All Maps | STV","players":[{"user_id":463,"name":"Pepperoni King","steam_id":76561198190288063,"connected_time":726000000000,"state":"active","ping":136},{"user_id":417,"name":"pongo","steam_id":76561198358109107,"connected_time":3583000000000,"state":"active","ping":78},{"user_id":447,"name":"Krome","steam_id":76561198087317232,"connected_time":2588000000000,"state":"active","ping":64},{"user_id":442,"name":"r3tard3","steam_id":76561198828798345,"connected_time":2826000000000,"state":"active","ping":118},{"user_id":464,"name":"Giorno_Giovanna","steam_id":76561199014402406,"connected_time":675000000000,"state":"active","ping":77},{"user_id":397,"name":"momus","steam_id":76561198966979196,"connected_time":5652000000000,"state":"active","ping":103},{"user_id":465,"name":"austinsmith","steam_id":76561198167838540,"connected_time":666000000000,"state":"active","ping":62},{"user_id":421,"name":"WarMace","steam_id":76561198395937853,"connected_time":3513000000000,"state":"active","ping":79},{"user_id":396,"name":"Nani?","steam_id":76561198130982692,"connected_time":5662000000000,"state":"active","ping":62},{"user_id":438,"name":"Binkems","steam_id":76561198084220655,"connected_time":2886000000000,"state":"active","ping":56},{"user_id":458,"name":"p1zza","steam_id":76561197967631939,"connected_time":1104000000000,"state":"active","ping":44},{"user_id":452,"name":"Goober Gaming","steam_id":76561198095550617,"connected_time":1588000000000,"state":"active","ping":65},{"user_id":398,"name":"Landlord","steam_id":76561198987913057,"connected_time":5636000000000,"state":"active","ping":117},{"user_id":370,"name":"BatBread","steam_id":76561198047064919,"connected_time":8678000000000,"state":"active","ping":77},{"user_id":460,"name":"GreekGoat_Coffee","steam_id":76561198129331088,"connected_time":1056000000000,"state":"active","ping":44},{"user_id":456,"name":"c00kie","steam_id":76561198418178297,"connected_time":1162000000000,"state":"active","ping":45},{"user_id":466,"name":"monke","steam_id":76561199157310377,"connected_time":664000000000,"state":"active","ping":105},{"user_id":448,"name":"Louie","steam_id":76561199121862077,"connected_time":2447000000000,"state":"active","ping":75},{"user_id":469,"name":"the.land.of.avalon","steam_id":76561198245431668,"connected_time":190000000000,"state":"active","ping":58},{"user_id":411,"name":"ShadowDragon0125","steam_id":76561198343849022,"connected_time":4414000000000,"state":"active","ping":85},{"user_id":454,"name":"idarmed","steam_id":76561198420064361,"connected_time":1534000000000,"state":"active","ping":84},{"user_id":467,"name":"GuyGoom","steam_id":76561198254522178,"connected_time":640000000000,"state":"active","ping":49},{"user_id":468,"name":"Cheese Master","steam_id":76561198189176634,"connected_time":623000000000,"state":"active","ping":140},{"user_id":317,"name":"liftin'","steam_id":76561199089515791,"connected_time":11728000000000,"state":"active","ping":109}]},{"server_id":402,"name":"Uncletopia | Chicago | 3 | All Maps","name_short":"chi-3","host":"chi-1.us.uncletopia.com","port":27035,"enabled":true,"region":"us-central","cc":"us","latitude":41.881832,"longitude":-87.62318,"reserved":0,"last_update":"0001-01-01T00:00:00Z","name_a2s":"Uncletopia | Chicago | 3 | All Maps","protocol":17,"map":"pl_snowycoast","folder":"tf","game":"Team Fortress","app_id":440,"player_count":24,"max_players":24,"Bots":0,"server_type":"Dedicated","server_os":"Linux","password":true,"vac":true,"version":"7757534","steam_id":85568392924515191,"keywords":["nocrits","nodmgspread","payload","uncletopia"],"game_id":440,"stv_port":27036,"stv_name":"Uncletopia | Chicago | 3 | All Maps | STV","players":[{"user_id":360,"name":"STONE COLD","steam_id":76561198041643833,"connected_time":1083000000000,"state":"active","ping":91},{"user_id":367,"name":"J21","steam_id":76561198066590783,"connected_time":462000000000,"state":"active","ping":78},{"user_id":347,"name":"Flesh Eating Turtle","steam_id":76561198116742139,"connected_time":2248000000000,"state":"active","ping":105},{"user_id":361,"name":"ZplitZ","steam_id":76561198093629868,"connected_time":996000000000,"state":"active","ping":59},{"user_id":351,"name":"󠀡󠀡","steam_id":76561198146557119,"connected_time":1956000000000,"state":"active","ping":85},{"user_id":378,"name":"Canadian Mall Cop","steam_id":76561198307516731,"connected_time":54000000000,"state":"active","ping":82},{"user_id":379,"name":"Chris P. Wiener","steam_id":76561198168808551,"connected_time":50000000000,"state":"active","ping":100},{"user_id":355,"name":"googoogaga scwamble","steam_id":76561198000564263,"connected_time":1717000000000,"state":"active","ping":70},{"user_id":368,"name":"hi","steam_id":76561198116821551,"connected_time":455000000000,"state":"active","ping":55},{"user_id":349,"name":"Your kinky Onee-san","steam_id":76561199146582356,"connected_time":2057000000000,"state":"active","ping":105},{"user_id":356,"name":"Wizard Raccoon","steam_id":76561198072562591,"connected_time":1700000000000,"state":"active","ping":80},{"user_id":313,"name":"delusional schizophrenic","steam_id":76561198323435040,"connected_time":4819000000000,"state":"active","ping":60},{"user_id":331,"name":"java","steam_id":76561198030276792,"connected_time":3633000000000,"state":"active","ping":66},{"user_id":373,"name":"kab789","steam_id":76561198069842202,"connected_time":228000000000,"state":"active","ping":61},{"user_id":314,"name":"lanoc","steam_id":76561198055415367,"connected_time":4819000000000,"state":"active","ping":59},{"user_id":369,"name":"spaghetti","steam_id":76561198010019214,"connected_time":438000000000,"state":"active","ping":45},{"user_id":350,"name":"Ace Chromatica","steam_id":76561198042211131,"connected_time":2036000000000,"state":"active","ping":53},{"user_id":371,"name":"Daddy Thickkums","steam_id":76561198023417023,"connected_time":360000000000,"state":"active","ping":80},{"user_id":346,"name":"Gachalover","steam_id":76561199231552074,"connected_time":2270000000000,"state":"active","ping":76},{"user_id":365,"name":"Pop","steam_id":76561199012562851,"connected_time":564000000000,"state":"active","ping":88},{"user_id":377,"name":"illegal alien","steam_id":76561198840484105,"connected_time":145000000000,"state":"active","ping":71},{"user_id":310,"name":"Zoot","steam_id":76561198121944243,"connected_time":4931000000000,"state":"active","ping":77},{"user_id":348,"name":"C4K3","steam_id":76561197996963285,"connected_time":2239000000000,"state":"active","ping":79},{"user_id":374,"name":"the taxi driver","steam_id":76561198830243167,"connected_time":227000000000,"state":"active","ping":65}]},{"server_id":403,"name":"Uncletopia | Chicago | 4 | All Maps","name_short":"chi-4","host":"chi-1.us.uncletopia.com","port":27045,"enabled":true,"region":"us-central","cc":"us","latitude":41.881832,"longitude":-87.62318,"reserved":0,"last_update":"0001-01-01T00:00:00Z","name_a2s":"Uncletopia | Chicago | 4 | All Maps","protocol":17,"map":"pl_pier","folder":"tf","game":"Team Fortress","app_id":440,"player_count":24,"max_players":24,"Bots":0,"server_type":"Dedicated","server_os":"Linux","password":true,"vac":true,"version":"7757534","steam_id":85568392924515193,"keywords":["nocrits","nodmgspread","payload","uncletopia"],"game_id":440,"stv_port":27046,"stv_name":"Uncletopia | Chicago | 4 | All Maps | STV","players":[{"user_id":290,"name":"[El Fail] MR.BadassMCLee","steam_id":76561198043787818,"connected_time":2549000000000,"state":"active","ping":118},{"user_id":313,"name":"S4TURN","steam_id":76561198313659217,"connected_time":419000000000,"state":"active","ping":66},{"user_id":297,"name":"Notation","steam_id":76561198119509319,"connected_time":2188000000000,"state":"active","ping":61},{"user_id":261,"name":"Major_Pippy","steam_id":76561198004482878,"connected_time":5401000000000,"state":"active","ping":101},{"user_id":315,"name":"Ringo x Seiran","steam_id":76561198357437908,"connected_time":320000000000,"state":"active","ping":62},{"user_id":321,"name":"DragonAero","steam_id":76561198318070717,"connected_time":187000000000,"state":"active","ping":98},{"user_id":244,"name":"Kerpal45","steam_id":76561198153340350,"connected_time":7086000000000,"state":"active","ping":92},{"user_id":305,"name":"Flaming O'Gaming","steam_id":76561198044185725,"connected_time":1192000000000,"state":"active","ping":72},{"user_id":269,"name":"Gay Dragon","steam_id":76561198131631865,"connected_time":4515000000000,"state":"active","ping":89},{"user_id":316,"name":"neph","steam_id":76561198962318010,"connected_time":308000000000,"state":"active","ping":60},{"user_id":317,"name":"Artic_Ryuu","steam_id":76561198182194918,"connected_time":269000000000,"state":"active","ping":97},{"user_id":294,"name":"TableCroissants(YT)","steam_id":76561198402326563,"connected_time":2215000000000,"state":"active","ping":63},{"user_id":322,"name":"Chevy Girl","steam_id":76561198059153245,"connected_time":187000000000,"state":"active","ping":119},{"user_id":310,"name":"Bzamo","steam_id":76561198039883392,"connected_time":818000000000,"state":"active","ping":60},{"user_id":300,"name":"GargoyleGrace","steam_id":76561198236039726,"connected_time":2119000000000,"state":"active","ping":87},{"user_id":319,"name":"herb","steam_id":76561198185980055,"connected_time":240000000000,"state":"active","ping":61},{"user_id":312,"name":"Kng","steam_id":76561198993248203,"connected_time":655000000000,"state":"active","ping":87},{"user_id":291,"name":"sly","steam_id":76561198139240845,"connected_time":2483000000000,"state":"active","ping":71},{"user_id":252,"name":"Vintage TV","steam_id":76561198800334545,"connected_time":6654000000000,"state":"active","ping":103},{"user_id":324,"name":"Justis","steam_id":76561197963835016,"connected_time":21000000000,"state":"active","ping":78},{"user_id":296,"name":"objective permanence","steam_id":76561198050393061,"connected_time":2201000000000,"state":"active","ping":75},{"user_id":304,"name":"Hydraxon45","steam_id":76561198061181901,"connected_time":1580000000000,"state":"active","ping":75},{"user_id":314,"name":"Ghazbag","steam_id":76561198417009301,"connected_time":376000000000,"state":"active","ping":77},{"user_id":289,"name":"RagingRoosevelt","steam_id":76561197985483153,"connected_time":2679000000000,"state":"active","ping":102}]},{"server_id":36,"name":"Uncletopia | Chicago | 5 | All Maps","name_short":"chi-5","host":"chi-2.us.uncletopia.com","port":27015,"enabled":true,"region":"us-central","cc":"us","latitude":41.881832,"longitude":-87.62318,"reserved":0,"last_update":"0001-01-01T00:00:00Z","name_a2s":"Uncletopia | Chicago | 5 | All Maps","protocol":17,"map":"cp_dustbowl","folder":"tf","game":"Team Fortress","app_id":440,"player_count":24,"max_players":24,"Bots":0,"server_type":"Dedicated","server_os":"Linux","password":true,"vac":true,"version":"7757534","steam_id":85568392924866362,"keywords":["cp","nocrits","nodmgspread","uncletopia"],"game_id":440,"stv_port":27016,"stv_name":"Uncletopia | Chicago | 5 | All Maps | STV","players":[{"user_id":597,"name":"Wilsonsticks","steam_id":76561198081275459,"connected_time":830000000000,"state":"active","ping":59},{"user_id":598,"name":"Fredorando","steam_id":76561198242546842,"connected_time":790000000000,"state":"active","ping":62},{"user_id":579,"name":"Cdesmondd","steam_id":76561198072774462,"connected_time":2315000000000,"state":"active","ping":62},{"user_id":588,"name":"he munch","steam_id":76561198339644583,"connected_time":1777000000000,"state":"active","ping":54},{"user_id":599,"name":"teeth","steam_id":76561198103189993,"connected_time":779000000000,"state":"active","ping":106},{"user_id":561,"name":"Wet Cheeto","steam_id":76561198153855379,"connected_time":3194000000000,"state":"active","ping":58},{"user_id":488,"name":"i want to fuck you","steam_id":76561198081220016,"connected_time":7320000000000,"state":"active","ping":46},{"user_id":585,"name":"Drilly22","steam_id":76561198068838338,"connected_time":2168000000000,"state":"active","ping":91},{"user_id":600,"name":"FROYO donovin","steam_id":76561198045679387,"connected_time":748000000000,"state":"active","ping":53},{"user_id":578,"name":"Scapsz","steam_id":76561198164928694,"connected_time":2368000000000,"state":"active","ping":86},{"user_id":536,"name":"Soup0fTheDay","steam_id":76561199039857744,"connected_time":4801000000000,"state":"active","ping":48},{"user_id":601,"name":"Wouis","steam_id":76561198201272053,"connected_time":718000000000,"state":"active","ping":60},{"user_id":602,"name":"Yongle","steam_id":76561198068591156,"connected_time":715000000000,"state":"active","ping":58},{"user_id":606,"name":"Reno Gato","steam_id":76561198048417246,"connected_time":450000000000,"state":"active","ping":93},{"user_id":577,"name":"Jügen","steam_id":76561198067143414,"connected_time":2545000000000,"state":"active","ping":70},{"user_id":603,"name":"Jasmine Rice","steam_id":76561198163163590,"connected_time":686000000000,"state":"active","ping":72},{"user_id":596,"name":"bluemarblecat6952","steam_id":76561199480894173,"connected_time":863000000000,"state":"active","ping":78},{"user_id":582,"name":"Brian","steam_id":76561198144650969,"connected_time":2225000000000,"state":"active","ping":76},{"user_id":576,"name":"jayhong","steam_id":76561198046772832,"connected_time":2550000000000,"state":"active","ping":43},{"user_id":524,"name":"mellowhype","steam_id":76561198040675606,"connected_time":5602000000000,"state":"active","ping":74},{"user_id":604,"name":"boy from the rafters","steam_id":76561198042926224,"connected_time":603000000000,"state":"active","ping":94},{"user_id":595,"name":"✪ TedBear2142 ✪","steam_id":76561198006481210,"connected_time":1114000000000,"state":"active","ping":103},{"user_id":607,"name":"happy camper","steam_id":76561198209813328,"connected_time":449000000000,"state":"active","ping":55},{"user_id":592,"name":"6' 4\" 270 lbs ALL MUSCLE","steam_id":76561198021308963,"connected_time":1396000000000,"state":"active","ping":71}]},{"server_id":37,"name":"Uncletopia | Chicago | 6 | All Maps","name_short":"chi-6","host":"chi-2.us.uncletopia.com","port":27025,"enabled":true,"region":"us-central","cc":"us","latitude":41.881832,"longitude":-87.62318,"reserved":0,"last_update":"0001-01-01T00:00:00Z","name_a2s":"Uncletopia | Chicago | 6 | All Maps","protocol":17,"map":"pl_frontier_final","folder":"tf","game":"Team Fortress","app_id":440,"player_count":24,"max_players":24,"Bots":0,"server_type":"Dedicated","server_os":"Linux","password":true,"vac":true,"version":"7757534","steam_id":85568392924866363,"keywords":["nocrits","nodmgspread","payload","uncletopia"],"game_id":440,"stv_port":27026,"stv_name":"Uncletopia | Chicago | 6 | All Maps | STV","players":[{"user_id":703,"name":"randall","steam_id":76561199060774318,"connected_time":1682000000000,"state":"active","ping":51},{"user_id":683,"name":"Decot","steam_id":76561198042016967,"connected_time":3081000000000,"state":"active","ping":84},{"user_id":704,"name":"birr","steam_id":76561198896091253,"connected_time":1653000000000,"state":"active","ping":93},{"user_id":719,"name":"average rust player","steam_id":76561198047627340,"connected_time":286000000000,"state":"active","ping":66},{"user_id":698,"name":"BOT Void","steam_id":76561198961997485,"connected_time":2894000000000,"state":"active","ping":106},{"user_id":700,"name":"Alex G Piss Pants","steam_id":76561199406829810,"connected_time":2529000000000,"state":"active","ping":76},{"user_id":675,"name":"TheLedgendHero","steam_id":76561198398883154,"connected_time":3928000000000,"state":"active","ping":61},{"user_id":714,"name":"O Dog","steam_id":76561198133498912,"connected_time":1299000000000,"state":"active","ping":98},{"user_id":666,"name":"i forgor","steam_id":76561199120622265,"connected_time":4348000000000,"state":"active","ping":79},{"user_id":667,"name":"cow","steam_id":76561198198453117,"connected_time":4328000000000,"state":"active","ping":75},{"user_id":720,"name":"Squirrel with a Wrench","steam_id":76561198334035413,"connected_time":206000000000,"state":"active","ping":46},{"user_id":713,"name":"HaalfNHaalf","steam_id":76561198001172136,"connected_time":1390000000000,"state":"active","ping":73},{"user_id":718,"name":"n0moral","steam_id":76561198269094523,"connected_time":302000000000,"state":"active","ping":192},{"user_id":721,"name":"cactus eater","steam_id":76561199107499844,"connected_time":201000000000,"state":"active","ping":122},{"user_id":712,"name":"Acheo","steam_id":76561198068228498,"connected_time":1413000000000,"state":"active","ping":63},{"user_id":722,"name":"Lane","steam_id":76561197965828506,"connected_time":171000000000,"state":"active","ping":44},{"user_id":701,"name":"Kretim","steam_id":76561199204273483,"connected_time":1918000000000,"state":"active","ping":73},{"user_id":723,"name":"Azure","steam_id":76561198891263667,"connected_time":109000000000,"state":"active","ping":72},{"user_id":708,"name":"Glass Joe","steam_id":76561198317365741,"connected_time":1538000000000,"state":"active","ping":63},{"user_id":716,"name":"Mocanthl","steam_id":76561198043778324,"connected_time":1178000000000,"state":"active","ping":70},{"user_id":692,"name":"DemoPhone","steam_id":76561198104191240,"connected_time":3017000000000,"state":"active","ping":71},{"user_id":699,"name":"Bottom feeder","steam_id":76561198181298169,"connected_time":2855000000000,"state":"active","ping":58},{"user_id":715,"name":"Sub-average Spy Main","steam_id":76561198884288965,"connected_time":1266000000000,"state":"active","ping":74},{"user_id":596,"name":"Mommy Mishima","steam_id":76561198124311404,"connected_time":9926000000000,"state":"active","ping":81}]},{"server_id":38,"name":"Uncletopia | Chicago | 7 | Stopwatch Beta","name_short":"chi-7","host":"chi-2.us.uncletopia.com","port":27035,"enabled":true,"region":"us-central","cc":"us","latitude":41.881832,"longitude":-87.62318,"reserved":0,"last_update":"0001-01-01T00:00:00Z","name_a2s":"Uncletopia | Chicago | 7 | Stopwatch Beta","protocol":17,"map":"workshop/koth_ashville_final.ugc2130459942","folder":"tf","game":"Team Fortress","app_id":440,"player_count":24,"max_players":24,"Bots":0,"server_type":"Dedicated","server_os":"Linux","password":true,"vac":true,"version":"7757534","steam_id":85568392924866364,"keywords":["cp","nocrits","nodmgspread","uncletopia"],"game_id":440,"stv_port":27036,"stv_name":"Uncletopia | Chicago | 7 | Stopwatch Beta | STV","players":[{"user_id":30,"name":"asm_ghost","steam_id":76561199205363547,"connected_time":3174000000000,"state":"active","ping":132},{"user_id":31,"name":"The Gremlin","steam_id":76561198419066993,"connected_time":3158000000000,"state":"active","ping":115},{"user_id":53,"name":"Kiwimpediment","steam_id":76561198322781400,"connected_time":1367000000000,"state":"active","ping":92},{"user_id":62,"name":"lost in spaaaaace","steam_id":76561199085974120,"connected_time":674000000000,"state":"active","ping":75},{"user_id":54,"name":"Moonadoo","steam_id":76561198133377546,"connected_time":1360000000000,"state":"active","ping":74},{"user_id":41,"name":"cdozbirn10","steam_id":76561198104042921,"connected_time":2259000000000,"state":"active","ping":131},{"user_id":50,"name":"AFK BRB","steam_id":76561198104939612,"connected_time":1574000000000,"state":"active","ping":51},{"user_id":74,"name":"panopticon","steam_id":76561198151071386,"connected_time":388000000000,"state":"active","ping":73},{"user_id":39,"name":"RamanNoodles","steam_id":76561199172016711,"connected_time":2376000000000,"state":"active","ping":94},{"user_id":45,"name":"Goat","steam_id":76561198068447650,"connected_time":1867000000000,"state":"active","ping":73},{"user_id":46,"name":"Hye Blye Pyez","steam_id":76561199371086225,"connected_time":1756000000000,"state":"active","ping":55},{"user_id":71,"name":"Featherless Biped","steam_id":76561198034171721,"connected_time":563000000000,"state":"active","ping":73},{"user_id":49,"name":"[DEEP] Danmar33","steam_id":76561198056453091,"connected_time":1586000000000,"state":"active","ping":51},{"user_id":56,"name":"hightower npc","steam_id":76561198097588802,"connected_time":1271000000000,"state":"active","ping":46},{"user_id":57,"name":"hazypoz","steam_id":76561198075647830,"connected_time":1251000000000,"state":"active","ping":74},{"user_id":58,"name":"pee fartress poo","steam_id":76561198063152319,"connected_time":1249000000000,"state":"active","ping":68},{"user_id":77,"name":"yeetgodboiz","steam_id":76561199229774147,"connected_time":241000000000,"state":"active","ping":80},{"user_id":69,"name":"AlexeiStukov","steam_id":76561197993272929,"connected_time":576000000000,"state":"active","ping":70},{"user_id":64,"name":"Gay Cake","steam_id":76561198004388831,"connected_time":639000000000,"state":"active","ping":70},{"user_id":65,"name":"richboitalkin$99m","steam_id":76561198000753987,"connected_time":612000000000,"state":"active","ping":60},{"user_id":66,"name":"Triops","steam_id":76561198007079428,"connected_time":608000000000,"state":"active","ping":179},{"user_id":70,"name":"Holiday Fartcruise","steam_id":76561198043851584,"connected_time":576000000000,"state":"active","ping":120},{"user_id":68,"name":"Antifa Supersoldier","steam_id":76561198141816516,"connected_time":593000000000,"state":"active","ping":73},{"user_id":72,"name":"Pho","steam_id":76561198306515742,"connected_time":511000000000,"state":"active","ping":103}]},{"server_id":39,"name":"Uncletopia | Chicago | 8 | Community","name_short":"chi-8","host":"chi-2.us.uncletopia.com","port":27045,"enabled":true,"region":"us-central","cc":"us","latitude":41.881832,"longitude":-87.62318,"reserved":0,"last_update":"0001-01-01T00:00:00Z","name_a2s":"Uncletopia | Chicago | 8 | Community","protocol":17,"map":"workshop/koth_ramjam_rc1.ugc459778887","folder":"tf","game":"Team Fortress","app_id":440,"player_count":0,"max_players":24,"Bots":0,"server_type":"Dedicated","server_os":"Linux","password":true,"vac":true,"version":"7757534","steam_id":85568392924866365,"keywords":["cp","nocrits","nodmgspread","uncletopia"],"game_id":440,"stv_port":27046,"stv_name":"Uncletopia | Chicago | 8 | Community | STV","players":null},{"server_id":8,"name":"Uncletopia | Dallas | 1 | All Maps","name_short":"dal-1","host":"dal-1.us.uncletopia.com","port":27015,"enabled":true,"region":"us-central","cc":"us","latitude":32.779167,"longitude":-96.80889,"reserved":0,"last_update":"0001-01-01T00:00:00Z","name_a2s":"Uncletopia | Dallas | 1 | All Maps","protocol":17,"map":"koth_harvest_final","folder":"tf","game":"Team Fortress","app_id":440,"player_count":20,"max_players":24,"Bots":0,"server_type":"Dedicated","server_os":"Linux","password":true,"vac":true,"version":"7757534","steam_id":85568392924469986,"keywords":["cp","nocrits","nodmgspread","uncletopia"],"game_id":440,"stv_port":27016,"stv_name":"Uncletopia | Dallas | 1 | All Maps | STV","players":[{"user_id":427,"name":"BackToSchoolAds","steam_id":76561198870281128,"connected_time":153000000000,"state":"active","ping":91},{"user_id":425,"name":"ShapedSilver","steam_id":76561199073305310,"connected_time":239000000000,"state":"active","ping":57},{"user_id":426,"name":"TheEmeraldLiker","steam_id":76561198323926464,"connected_time":181000000000,"state":"active","ping":240},{"user_id":420,"name":"Father Jon","steam_id":76561198324730919,"connected_time":780000000000,"state":"active","ping":66},{"user_id":421,"name":"Resh420","steam_id":76561198066619792,"connected_time":759000000000,"state":"active","ping":61},{"user_id":428,"name":"Rain","steam_id":76561198065612273,"connected_time":150000000000,"state":"active","ping":95},{"user_id":429,"name":"Great Value Rice Crispers","steam_id":76561198211512619,"connected_time":144000000000,"state":"active","ping":130},{"user_id":422,"name":"CherryPieRed2023","steam_id":76561198998007496,"connected_time":744000000000,"state":"active","ping":90},{"user_id":430,"name":"bbrolls","steam_id":76561198281696751,"connected_time":128000000000,"state":"active","ping":102},{"user_id":431,"name":"WalletADHD","steam_id":76561198081067377,"connected_time":96000000000,"state":"active","ping":70},{"user_id":432,"name":"Rex","steam_id":76561198138365053,"connected_time":20000000000,"state":"active","ping":125},{"user_id":413,"name":"TI-83 Plus","steam_id":76561198316134443,"connected_time":1171000000000,"state":"active","ping":70},{"user_id":424,"name":"LucentOwl","steam_id":76561198140978957,"connected_time":666000000000,"state":"active","ping":58},{"user_id":401,"name":"nnobi","steam_id":76561198878729277,"connected_time":2356000000000,"state":"active","ping":75},{"user_id":433,"name":"Professionally Braindead ツ","steam_id":76561198276714220,"connected_time":13000000000,"state":"spawning","ping":33},{"user_id":434,"name":"Gubbington","steam_id":76561198959381302,"connected_time":1000000000,"state":"spawning","ping":50},{"user_id":402,"name":"Ernsperh","steam_id":76561198067072920,"connected_time":2356000000000,"state":"active","ping":85},{"user_id":372,"name":"MeMyBongusAndTheGreatOutdoors","steam_id":76561198097708978,"connected_time":6260000000000,"state":"active","ping":45},{"user_id":403,"name":":|","steam_id":76561198098440698,"connected_time":2335000000000,"state":"active","ping":80},{"user_id":418,"name":"Training Arc","steam_id":76561198038832034,"connected_time":999000000000,"state":"active","ping":106}]},{"server_id":108,"name":"Uncletopia | Dallas | 2 | All Maps","name_short":"dal-2","host":"dal-1.us.uncletopia.com","port":27025,"enabled":true,"region":"us-central","cc":"us","latitude":32.779167,"longitude":-96.80889,"reserved":0,"last_update":"0001-01-01T00:00:00Z","name_a2s":"Uncletopia | Dallas | 2 | All Maps","protocol":17,"map":"pl_pier","folder":"tf","game":"Team Fortress","app_id":440,"player_count":23,"max_players":24,"Bots":0,"server_type":"Dedicated","server_os":"Linux","password":true,"vac":true,"version":"7757534","steam_id":85568392924469988,"keywords":["nocrits","nodmgspread","payload","uncletopia"],"game_id":440,"stv_port":27026,"stv_name":"Uncletopia | Dallas | 2 | All Maps | STV","players":[{"user_id":660,"name":"Mr. Soupman","steam_id":76561198021649598,"connected_time":865000000000,"state":"active","ping":75},{"user_id":666,"name":"Bread Zoo","steam_id":76561198013732450,"connected_time":644000000000,"state":"active","ping":68},{"user_id":659,"name":"mac_cheese","steam_id":76561198071334162,"connected_time":885000000000,"state":"active","ping":94},{"user_id":657,"name":"xZackAttack27x","steam_id":76561198035446639,"connected_time":1299000000000,"state":"active","ping":38},{"user_id":544,"name":"pyco.bot","steam_id":76561199060005960,"connected_time":10498000000000,"state":"active","ping":94},{"user_id":675,"name":"hapi bananuh","steam_id":76561198091547092,"connected_time":61000000000,"state":"active","ping":68},{"user_id":669,"name":"Za Zombie","steam_id":76561198055545262,"connected_time":568000000000,"state":"active","ping":122},{"user_id":632,"name":"why the wig?","steam_id":76561199084109885,"connected_time":3103000000000,"state":"active","ping":71},{"user_id":649,"name":"Icarus the legend","steam_id":76561199013250091,"connected_time":1758000000000,"state":"active","ping":70},{"user_id":667,"name":"FlyDown","steam_id":76561198073949495,"connected_time":614000000000,"state":"active","ping":63},{"user_id":654,"name":"Etomb","steam_id":76561198210017208,"connected_time":1501000000000,"state":"active","ping":71},{"user_id":644,"name":"s p a c e k a t","steam_id":76561198066852209,"connected_time":1939000000000,"state":"active","ping":58},{"user_id":650,"name":"Pizza","steam_id":76561198118748364,"connected_time":1758000000000,"state":"active","ping":79},{"user_id":674,"name":"Hentai Lord","steam_id":76561199030449654,"connected_time":117000000000,"state":"active","ping":103},{"user_id":635,"name":"счизяѳ","steam_id":76561199182960322,"connected_time":3021000000000,"state":"active","ping":64},{"user_id":670,"name":"Kumies","steam_id":76561199481315713,"connected_time":564000000000,"state":"active","ping":68},{"user_id":549,"name":"LCramer","steam_id":76561198175714162,"connected_time":10479000000000,"state":"active","ping":72},{"user_id":663,"name":"Superman123389","steam_id":76561198267472539,"connected_time":807000000000,"state":"active","ping":87},{"user_id":653,"name":"Marshall","steam_id":76561198042570322,"connected_time":1634000000000,"state":"active","ping":82},{"user_id":603,"name":"ihave80hp","steam_id":76561199251621911,"connected_time":6208000000000,"state":"active","ping":65},{"user_id":671,"name":"TastyWheat","steam_id":76561198855061918,"connected_time":393000000000,"state":"active","ping":116},{"user_id":664,"name":"Capitalist","steam_id":76561198054534866,"connected_time":807000000000,"state":"active","ping":111},{"user_id":640,"name":"bingus","steam_id":76561198283992686,"connected_time":2513000000000,"state":"active","ping":93}]},{"server_id":5,"name":"Uncletopia | Frankfurt | 1 | All Maps","name_short":"frk-1","host":"frk-1.de.uncletopia.com","port":27015,"enabled":true,"region":"eu","cc":"de","latitude":50.110924,"longitude":8.682127,"reserved":0,"last_update":"0001-01-01T00:00:00Z","name_a2s":"Uncletopia | Frankfurt | 1 | All Maps","protocol":17,"map":"pl_snowycoast","folder":"tf","game":"Team Fortress","app_id":440,"player_count":0,"max_players":24,"Bots":0,"server_type":"Dedicated","server_os":"Linux","password":true,"vac":true,"version":"7757534","steam_id":85568392924469989,"keywords":["nocrits","nodmgspread","payload","uncletopia"],"game_id":440,"stv_port":27016,"stv_name":"Uncletopia | Frankfurt | 1 | All Maps | STV","players":null},{"server_id":110,"name":"Uncletopia | Frankfurt | 2 | All Maps","name_short":"frk-2","host":"frk-1.de.uncletopia.com","port":27025,"enabled":true,"region":"eu","cc":"de","latitude":50.110924,"longitude":8.682127,"reserved":0,"last_update":"0001-01-01T00:00:00Z","name_a2s":"Uncletopia | Frankfurt | 2 | All Maps","protocol":17,"map":"cp_snakewater_final1","folder":"tf","game":"Team Fortress","app_id":440,"player_count":0,"max_players":24,"Bots":0,"server_type":"Dedicated","server_os":"Linux","password":true,"vac":true,"version":"7757534","steam_id":85568392924469990,"keywords":["cp","nocrits","nodmgspread","uncletopia"],"game_id":440,"stv_port":27026,"stv_name":"Uncletopia | Frankfurt | 2 | All Maps | STV","players":null},{"server_id":308,"name":"Uncletopia | Frankfurt | 3 | All Maps","name_short":"frk-3","host":"frk-1.de.uncletopia.com","port":27035,"enabled":true,"region":"eu","cc":"de","latitude":50.110924,"longitude":8.682127,"reserved":0,"last_update":"0001-01-01T00:00:00Z","name_a2s":"Uncletopia | Frankfurt | 3 | All Maps","protocol":17,"map":"pl_swiftwater_final1","folder":"tf","game":"Team Fortress","app_id":440,"player_count":0,"max_players":24,"Bots":0,"server_type":"Dedicated","server_os":"Linux","password":true,"vac":true,"version":"7757534","steam_id":85568392924504274,"keywords":["nocrits","nodmgspread","payload","uncletopia"],"game_id":440,"stv_port":27036,"stv_name":"Uncletopia | Frankfurt | 3 | All Maps | STV","players":null},{"server_id":309,"name":"Uncletopia | Frankfurt | 4 | All Maps","name_short":"frk-4","host":"frk-1.de.uncletopia.com","port":27045,"enabled":true,"region":"eu","cc":"de","latitude":50.110924,"longitude":8.682127,"reserved":0,"last_update":"0001-01-01T00:00:00Z","name_a2s":"Uncletopia | Frankfurt | 4 | All Maps","protocol":17,"map":"koth_viaduct","folder":"tf","game":"Team Fortress","app_id":440,"player_count":0,"max_players":24,"Bots":0,"server_type":"Dedicated","server_os":"Linux","password":true,"vac":true,"version":"7757534","steam_id":85568392924504275,"keywords":["cp","nocrits","nodmgspread","uncletopia"],"game_id":440,"stv_port":27046,"stv_name":"Uncletopia | Frankfurt | 4 | All Maps | STV","players":null},{"server_id":310,"name":"Uncletopia | Frankfurt | 5 | All Maps","name_short":"frk-5","host":"frk-1.de.uncletopia.com","port":27055,"enabled":true,"region":"eu","cc":"de","latitude":50.110924,"longitude":8.682127,"reserved":0,"last_update":"0001-01-01T00:00:00Z","name_a2s":"Uncletopia | Frankfurt | 5 | All Maps","protocol":17,"map":"koth_lakeside_final","folder":"tf","game":"Team Fortress","app_id":440,"player_count":0,"max_players":24,"Bots":0,"server_type":"Dedicated","server_os":"Linux","password":true,"vac":true,"version":"7757534","steam_id":85568392924504277,"keywords":["cp","nocrits","nodmgspread","uncletopia"],"game_id":440,"stv_port":27056,"stv_name":"Uncletopia | Frankfurt | 5 | All Maps | STV","players":null},{"server_id":311,"name":"Uncletopia | Frankfurt | 6 | All Maps","name_short":"frk-6","host":"frk-1.de.uncletopia.com","port":27065,"enabled":true,"region":"eu","cc":"de","latitude":50.110924,"longitude":8.682127,"reserved":0,"last_update":"0001-01-01T00:00:00Z","name_a2s":"Uncletopia | Frankfurt | 6 | All Maps","protocol":17,"map":"pl_frontier_final","folder":"tf","game":"Team Fortress","app_id":440,"player_count":0,"max_players":24,"Bots":0,"server_type":"Dedicated","server_os":"Linux","password":true,"vac":true,"version":"7757534","steam_id":85568392924504278,"keywords":["nocrits","nodmgspread","payload","uncletopia"],"game_id":440,"stv_port":27066,"stv_name":"Uncletopia | Frankfurt | 6 | All Maps | STV","players":null},{"server_id":23,"name":"Uncletopia | Frankfurt | 7 | Stopwatch Beta","name_short":"frk-7","host":"frk-1.de.uncletopia.com","port":27075,"enabled":true,"region":"eu","cc":"de","latitude":50.110924,"longitude":8.682127,"reserved":0,"last_update":"0001-01-01T00:00:00Z","name_a2s":"Uncletopia | Frankfurt | 7 | Stopwatch Beta","protocol":17,"map":"cp_sunshine","folder":"tf","game":"Team Fortress","app_id":440,"player_count":0,"max_players":24,"Bots":0,"server_type":"Dedicated","server_os":"Linux","password":true,"vac":true,"version":"7757534","steam_id":85568392924742827,"keywords":["cp","nocrits","nodmgspread","uncletopia"],"game_id":440,"stv_port":27076,"stv_name":"Uncletopia | Frankfurt | 7 | Stopwatch Beta | STV","players":null},{"server_id":24,"name":"Uncletopia | Frankfurt | 8 | Community","name_short":"frk-8","host":"frk-1.de.uncletopia.com","port":27085,"enabled":true,"region":"eu","cc":"de","latitude":50.110924,"longitude":8.682127,"reserved":0,"last_update":"0001-01-01T00:00:00Z","name_a2s":"Uncletopia | Frankfurt | 8 | Community","protocol":17,"map":"koth_lakeside_final","folder":"tf","game":"Team Fortress","app_id":440,"player_count":0,"max_players":24,"Bots":0,"server_type":"Dedicated","server_os":"Linux","password":true,"vac":true,"version":"7757534","steam_id":85568392924742828,"keywords":["cp","nocrits","nodmgspread","uncletopia"],"game_id":440,"stv_port":27086,"stv_name":"Uncletopia | Frankfurt | 8 | Community | STV","players":null},{"server_id":202,"name":"Uncletopia | Hong Kong | 1 | All Maps","name_short":"hgk-1","host":"hgk-1.hk.uncletopia.com","port":27015,"enabled":true,"region":"asia","cc":"hk","latitude":22.302711,"longitude":114.177216,"reserved":0,"last_update":"0001-01-01T00:00:00Z","name_a2s":"Uncletopia | Hong Kong | 1 | All Maps","protocol":17,"map":"pl_pier","folder":"tf","game":"Team Fortress","app_id":440,"player_count":24,"max_players":24,"Bots":0,"server_type":"Dedicated","server_os":"Linux","password":true,"vac":true,"version":"7757534","steam_id":85568392924494504,"keywords":["nocrits","nodmgspread","payload","uncletopia"],"game_id":440,"stv_port":27016,"stv_name":"Uncletopia | Hong Kong | 1 | All Maps | STV","players":[{"user_id":174,"name":"ilikefarts69#caberOP","steam_id":76561199262750178,"connected_time":1417000000000,"state":"active","ping":137},{"user_id":172,"name":"Samoyed","steam_id":76561198299150410,"connected_time":1468000000000,"state":"active","ping":136},{"user_id":173,"name":"t.tv/subasubasuba30","steam_id":76561199474092971,"connected_time":1422000000000,"state":"active","ping":102},{"user_id":179,"name":"urotsuki with da doobie","steam_id":76561198074339034,"connected_time":1056000000000,"state":"active","ping":71},{"user_id":161,"name":":)","steam_id":76561198437941450,"connected_time":2715000000000,"state":"active","ping":115},{"user_id":155,"name":"Mahoxen","steam_id":76561199121861959,"connected_time":3285000000000,"state":"active","ping":90},{"user_id":166,"name":"booty cheeks xd","steam_id":76561198324008555,"connected_time":2180000000000,"state":"active","ping":49},{"user_id":182,"name":"Operate EX","steam_id":76561199351297136,"connected_time":71000000000,"state":"active","ping":85},{"user_id":175,"name":"ase","steam_id":76561198152588681,"connected_time":1405000000000,"state":"active","ping":81},{"user_id":153,"name":"Fluffy","steam_id":76561198316671856,"connected_time":3384000000000,"state":"active","ping":105},{"user_id":180,"name":"junbi OK","steam_id":76561198116387218,"connected_time":550000000000,"state":"active","ping":91},{"user_id":133,"name":"Mega 00F","steam_id":76561198962485791,"connected_time":4052000000000,"state":"active","ping":136},{"user_id":116,"name":"LEGS","steam_id":76561199111623890,"connected_time":5313000000000,"state":"active","ping":99},{"user_id":140,"name":"Momoxhien","steam_id":76561198414997429,"connected_time":3883000000000,"state":"active","ping":66},{"user_id":183,"name":"ArcticDolphin","steam_id":76561198203626319,"connected_time":26000000000,"state":"active","ping":158},{"user_id":176,"name":"khomovicrex","steam_id":76561199227129188,"connected_time":1368000000000,"state":"active","ping":73},{"user_id":143,"name":"MsD IV","steam_id":76561198059707655,"connected_time":3808000000000,"state":"active","ping":74},{"user_id":159,"name":"IZ*","steam_id":76561198834621927,"connected_time":2833000000000,"state":"active","ping":116},{"user_id":181,"name":"ObscuroLucem","steam_id":76561198875037943,"connected_time":405000000000,"state":"active","ping":81},{"user_id":163,"name":"redmond","steam_id":76561198056390902,"connected_time":2679000000000,"state":"active","ping":70},{"user_id":150,"name":"Nonexistent","steam_id":76561198980563251,"connected_time":3554000000000,"state":"active","ping":85},{"user_id":167,"name":"ɔuᗡA ɟƨuᒐ","steam_id":76561199031283970,"connected_time":2102000000000,"state":"active","ping":129},{"user_id":154,"name":"3wfFbdrjEze5d2G","steam_id":76561198435900451,"connected_time":3347000000000,"state":"active","ping":139},{"user_id":177,"name":"angelDivine","steam_id":76561198872518955,"connected_time":1122000000000,"state":"active","ping":106}]},{"server_id":1,"name":"Uncletopia | Los Angeles | 1 | All Maps","name_short":"lax-1","host":"lax-1.us.uncletopia.com","port":27015,"enabled":true,"region":"us-west","cc":"us","latitude":33.94279,"longitude":-118.41004,"reserved":0,"last_update":"0001-01-01T00:00:00Z","name_a2s":"Uncletopia | Los Angeles | 1 | All Maps","protocol":17,"map":"koth_viaduct","folder":"tf","game":"Team Fortress","app_id":440,"player_count":24,"max_players":24,"Bots":0,"server_type":"Dedicated","server_os":"Linux","password":true,"vac":true,"version":"7757534","steam_id":85568392924469991,"keywords":["cp","nocrits","nodmgspread","uncletopia"],"game_id":440,"stv_port":27016,"stv_name":"Uncletopia | Los Angeles | 1 | All Maps | STV","players":[{"user_id":76,"name":"Amadeus","steam_id":76561198160047173,"connected_time":189000000000,"state":"active","ping":64},{"user_id":78,"name":"Aequalis747","steam_id":76561199456589841,"connected_time":33000000000,"state":"active","ping":64},{"user_id":75,"name":"iTzEtHaN","steam_id":76561198041323669,"connected_time":273000000000,"state":"active","ping":68},{"user_id":71,"name":"westward","steam_id":76561198805512350,"connected_time":430000000000,"state":"active","ping":84},{"user_id":79,"name":"sus","steam_id":76561198881665250,"connected_time":32000000000,"state":"active","ping":78},{"user_id":62,"name":"walrooos","steam_id":76561198024521839,"connected_time":907000000000,"state":"active","ping":108},{"user_id":73,"name":"Worrywart","steam_id":76561198920856991,"connected_time":388000000000,"state":"active","ping":57},{"user_id":43,"name":"sentry gun 2","steam_id":76561198045758072,"connected_time":1441000000000,"state":"active","ping":56},{"user_id":53,"name":"HOG RIDER","steam_id":76561198298589502,"connected_time":1079000000000,"state":"active","ping":45},{"user_id":54,"name":"Clagger","steam_id":76561198066701092,"connected_time":1076000000000,"state":"active","ping":64},{"user_id":55,"name":"reaper788[Venturist]","steam_id":76561198037444036,"connected_time":1063000000000,"state":"active","ping":74},{"user_id":48,"name":"Gruntic","steam_id":76561198170396647,"connected_time":1321000000000,"state":"active","ping":51},{"user_id":56,"name":"Jamie","steam_id":76561198163164053,"connected_time":1049000000000,"state":"active","ping":148},{"user_id":58,"name":"Hossonation","steam_id":76561198066134598,"connected_time":972000000000,"state":"active","ping":100},{"user_id":57,"name":"Timebomb2134","steam_id":76561199065629825,"connected_time":1046000000000,"state":"active","ping":63},{"user_id":59,"name":"pest","steam_id":76561198052571208,"connected_time":966000000000,"state":"active","ping":118},{"user_id":60,"name":"Archibald","steam_id":76561198093615321,"connected_time":957000000000,"state":"active","ping":111},{"user_id":61,"name":"Sox","steam_id":76561198074490494,"connected_time":943000000000,"state":"active","ping":69},{"user_id":77,"name":"Barn.Jones1992","steam_id":76561198197981309,"connected_time":107000000000,"state":"active","ping":45},{"user_id":64,"name":"Soothsayer","steam_id":76561198051750641,"connected_time":756000000000,"state":"active","ping":69},{"user_id":74,"name":"Zirkel","steam_id":76561198091428512,"connected_time":336000000000,"state":"active","ping":52},{"user_id":66,"name":"Walrus","steam_id":76561198001799905,"connected_time":635000000000,"state":"active","ping":51},{"user_id":80,"name":"elso","steam_id":76561198058209902,"connected_time":21000000000,"state":"active","ping":113},{"user_id":68,"name":"Sweattadpole","steam_id":76561199456100100,"connected_time":597000000000,"state":"active","ping":129}]},{"server_id":112,"name":"Uncletopia | Los Angeles | 2 | All Maps","name_short":"lax-2","host":"lax-1.us.uncletopia.com","port":27025,"enabled":true,"region":"us-west","cc":"us","latitude":33.94279,"longitude":-118.41004,"reserved":0,"last_update":"0001-01-01T00:00:00Z","name_a2s":"Uncletopia | Los Angeles | 2 | All Maps","protocol":17,"map":"pl_borneo","folder":"tf","game":"Team Fortress","app_id":440,"player_count":24,"max_players":24,"Bots":0,"server_type":"Dedicated","server_os":"Linux","password":true,"vac":true,"version":"7757534","steam_id":85568392924469992,"keywords":["nocrits","nodmgspread","payload","uncletopia"],"game_id":440,"stv_port":27026,"stv_name":"Uncletopia | Los Angeles | 2 | All Maps | STV","players":[{"user_id":456,"name":"vioxynteris","steam_id":76561198161428666,"connected_time":1540000000000,"state":"active","ping":42},{"user_id":465,"name":"LeTonzy","steam_id":76561198005806699,"connected_time":554000000000,"state":"active","ping":60},{"user_id":416,"name":"Marzbee115","steam_id":76561198095821025,"connected_time":4002000000000,"state":"active","ping":52},{"user_id":426,"name":"Dob Bole","steam_id":76561198056367220,"connected_time":3483000000000,"state":"active","ping":36},{"user_id":453,"name":"Slim Charles","steam_id":76561197981687895,"connected_time":1564000000000,"state":"active","ping":53},{"user_id":454,"name":"personal taco trainer","steam_id":76561198064260235,"connected_time":1557000000000,"state":"active","ping":75},{"user_id":310,"name":"精液Blev Blev精液","steam_id":76561198208972565,"connected_time":13517000000000,"state":"active","ping":131},{"user_id":339,"name":"Chalupa Jones","steam_id":76561198335855588,"connected_time":10463000000000,"state":"active","ping":49},{"user_id":462,"name":"Local man that screams at cloud","steam_id":76561198260031998,"connected_time":910000000000,"state":"active","ping":45},{"user_id":467,"name":"Sauceinmyface","steam_id":76561198137880597,"connected_time":378000000000,"state":"active","ping":48},{"user_id":459,"name":"Keyboardbreaker","steam_id":76561198372836132,"connected_time":1455000000000,"state":"active","ping":69},{"user_id":468,"name":"Medic","steam_id":76561198152570304,"connected_time":218000000000,"state":"active","ping":55},{"user_id":445,"name":"wheresgeorge","steam_id":76561198986281248,"connected_time":2349000000000,"state":"active","ping":107},{"user_id":399,"name":"HeartAttack","steam_id":76561198135833968,"connected_time":5571000000000,"state":"active","ping":64},{"user_id":331,"name":"El Super Monkey Ball","steam_id":76561198135634819,"connected_time":11273000000000,"state":"active","ping":55},{"user_id":466,"name":"OG Izzy","steam_id":76561198162715742,"connected_time":546000000000,"state":"active","ping":37},{"user_id":449,"name":"Dr Everything'll Be Alrite","steam_id":76561197983874422,"connected_time":2107000000000,"state":"active","ping":116},{"user_id":422,"name":"Drive-By-Fish-Guy","steam_id":76561198105513652,"connected_time":3828000000000,"state":"active","ping":66},{"user_id":463,"name":"brucking","steam_id":76561198348213337,"connected_time":788000000000,"state":"active","ping":66},{"user_id":464,"name":"R5-D4","steam_id":76561198025196439,"connected_time":572000000000,"state":"active","ping":78},{"user_id":436,"name":"Birdman743","steam_id":76561198799636748,"connected_time":2994000000000,"state":"active","ping":90},{"user_id":437,"name":"Ellis","steam_id":76561198993634489,"connected_time":2992000000000,"state":"active","ping":51},{"user_id":450,"name":"Nugakku","steam_id":76561198082346219,"connected_time":2107000000000,"state":"active","ping":57},{"user_id":298,"name":"A Shiny Meat Bicycle","steam_id":76561198358757709,"connected_time":14439000000000,"state":"active","ping":124}]},{"server_id":324,"name":"Uncletopia | Los Angeles | 3 | All Maps","name_short":"lax-3","host":"lax-1.us.uncletopia.com","port":27035,"enabled":true,"region":"us-west","cc":"us","latitude":33.94279,"longitude":-118.41004,"reserved":0,"last_update":"0001-01-01T00:00:00Z","name_a2s":"Uncletopia | Los Angeles | 3 | All Maps","protocol":17,"map":"cp_snakewater_final1","folder":"tf","game":"Team Fortress","app_id":440,"player_count":2,"max_players":24,"Bots":0,"server_type":"Dedicated","server_os":"Linux","password":true,"vac":true,"version":"7757534","steam_id":85568392924510198,"keywords":["cp","nocrits","nodmgspread","uncletopia"],"game_id":440,"stv_port":27036,"stv_name":"Uncletopia | Los Angeles | 3 | All Maps | STV","players":[{"user_id":649,"name":"the12xu","steam_id":76561198197086561,"connected_time":562000000000,"state":"active","ping":122},{"user_id":650,"name":"CurtisRemnant","steam_id":76561198188655358,"connected_time":503000000000,"state":"active","ping":118}]},{"server_id":25,"name":"Uncletopia | Los Angeles | 4 | Stopwatch Beta","name_short":"lax-4","host":"lax-1.us.uncletopia.com","port":27045,"enabled":true,"region":"us-west","cc":"us","latitude":33.94279,"longitude":-118.41004,"reserved":0,"last_update":"0001-01-01T00:00:00Z","name_a2s":"Uncletopia | Los Angeles | 4 | Stopwatch Beta","protocol":17,"map":"workshop/koth_bagel_rc6.ugc2514036946","folder":"tf","game":"Team Fortress","app_id":440,"player_count":9,"max_players":24,"Bots":0,"server_type":"Dedicated","server_os":"Linux","password":true,"vac":true,"version":"7757534","steam_id":85568392924510199,"keywords":["cp","nocrits","nodmgspread","uncletopia"],"game_id":440,"stv_port":27046,"stv_name":"Uncletopia | Los Angeles | 4 | Stopwatch Beta | STV","players":[{"user_id":80,"name":"Sp0ons","steam_id":76561198844817638,"connected_time":2865000000000,"state":"active","ping":103},{"user_id":103,"name":"notheavy","steam_id":76561199245037037,"connected_time":2000000000,"state":"spawning","ping":171},{"user_id":101,"name":"CCNikova","steam_id":76561198398190933,"connected_time":306000000000,"state":"active","ping":57},{"user_id":32,"name":"Effie","steam_id":76561198261842068,"connected_time":5313000000000,"state":"active","ping":105},{"user_id":54,"name":"BrainlezBrainiac","steam_id":76561199193942805,"connected_time":4535000000000,"state":"active","ping":92},{"user_id":40,"name":"caRat","steam_id":76561198859267372,"connected_time":4961000000000,"state":"active","ping":104},{"user_id":64,"name":"Will Walters","steam_id":76561198249138216,"connected_time":3827000000000,"state":"active","ping":75},{"user_id":68,"name":"LeNoobe","steam_id":76561199092079229,"connected_time":3641000000000,"state":"active","ping":72},{"user_id":50,"name":"Chafn","steam_id":76561197969386702,"connected_time":4864000000000,"state":"active","ping":90}]},{"server_id":11,"name":"Uncletopia | London | 1 | All Maps","name_short":"lon-1","host":"lon-1.uk.uncletopia.com","port":27015,"enabled":true,"region":"eu","cc":"gb","latitude":51.509865,"longitude":-0.118092,"reserved":0,"last_update":"0001-01-01T00:00:00Z","name_a2s":"Uncletopia | London | 1 | All Maps","protocol":17,"map":"pl_borneo","folder":"tf","game":"Team Fortress","app_id":440,"player_count":10,"max_players":24,"Bots":0,"server_type":"Dedicated","server_os":"Linux","password":true,"vac":true,"version":"7757534","steam_id":85568392924367362,"keywords":["nocrits","nodmgspread","payload","uncletopia"],"game_id":440,"stv_port":27016,"stv_name":"Uncletopia | London | 1 | All Maps | STV","players":[{"user_id":1230,"name":"Bloody","steam_id":76561198005754592,"connected_time":289000000000,"state":"active","ping":65},{"user_id":1231,"name":"Domosed_#SaveTF2","steam_id":76561198929234687,"connected_time":268000000000,"state":"active","ping":104},{"user_id":1233,"name":"motherslammer74","steam_id":76561199108597122,"connected_time":45000000000,"state":"active","ping":56},{"user_id":1226,"name":"Haghehog","steam_id":76561198075729793,"connected_time":1140000000000,"state":"active","ping":120},{"user_id":1212,"name":"Lyncurion","steam_id":76561199260022725,"connected_time":2029000000000,"state":"active","ping":81},{"user_id":1221,"name":"❖ RazzorBee","steam_id":76561198092493838,"connected_time":1331000000000,"state":"active","ping":105},{"user_id":1214,"name":"Spycrab101","steam_id":76561198141836805,"connected_time":1885000000000,"state":"active","ping":50},{"user_id":1216,"name":"Time to stop","steam_id":76561198306761716,"connected_time":1745000000000,"state":"active","ping":161},{"user_id":1217,"name":"ForestSurvivor101","steam_id":76561199118622453,"connected_time":1700000000000,"state":"active","ping":140},{"user_id":1156,"name":"tïger","steam_id":76561198260483157,"connected_time":6295000000000,"state":"active","ping":80}]},{"server_id":114,"name":"Uncletopia | London | 2 | All Maps","name_short":"lon-2","host":"lon-1.uk.uncletopia.com","port":27025,"enabled":true,"region":"eu","cc":"gb","latitude":51.509865,"longitude":-0.118092,"reserved":0,"last_update":"0001-01-01T00:00:00Z","name_a2s":"Uncletopia | London | 2 | All Maps","protocol":17,"map":"pl_pier","folder":"tf","game":"Team Fortress","app_id":440,"player_count":0,"max_players":24,"Bots":0,"server_type":"Dedicated","server_os":"Linux","password":true,"vac":true,"version":"7757534","steam_id":85568392924470941,"keywords":["nocrits","nodmgspread","payload","uncletopia"],"game_id":440,"stv_port":27026,"stv_name":"Uncletopia | London | 2 | All Maps | STV","players":null},{"server_id":320,"name":"Uncletopia | London | 3 | All Maps","name_short":"lon-3","host":"lon-1.uk.uncletopia.com","port":27035,"enabled":true,"region":"eu","cc":"gb","latitude":51.509865,"longitude":-0.118092,"reserved":0,"last_update":"0001-01-01T00:00:00Z","name_a2s":"Uncletopia | London | 3 | All Maps","protocol":17,"map":"koth_lakeside_final","folder":"tf","game":"Team Fortress","app_id":440,"player_count":0,"max_players":24,"Bots":0,"server_type":"Dedicated","server_os":"Linux","password":true,"vac":true,"version":"7757534","steam_id":85568392924510192,"keywords":["cp","nocrits","nodmgspread","uncletopia"],"game_id":440,"stv_port":27036,"stv_name":"Uncletopia | London | 3 | All Maps | STV","players":null},{"server_id":321,"name":"Uncletopia | London | 4 | All Maps","name_short":"lon-4","host":"lon-1.uk.uncletopia.com","port":27045,"enabled":true,"region":"eu","cc":"gb","latitude":51.509865,"longitude":-0.118092,"reserved":0,"last_update":"0001-01-01T00:00:00Z","name_a2s":"Uncletopia | London | 4 | All Maps","protocol":17,"map":"pl_borneo","folder":"tf","game":"Team Fortress","app_id":440,"player_count":3,"max_players":24,"Bots":0,"server_type":"Dedicated","server_os":"Linux","password":true,"vac":true,"version":"7757534","steam_id":85568392924510193,"keywords":["nocrits","nodmgspread","payload","uncletopia"],"game_id":440,"stv_port":27046,"stv_name":"Uncletopia | London | 4 | All Maps | STV","players":[{"user_id":181,"name":"B-Lo Swag","steam_id":76561198271422358,"connected_time":407000000000,"state":"active","ping":151},{"user_id":182,"name":"SwaggyFlan","steam_id":76561198321413648,"connected_time":390000000000,"state":"active","ping":104},{"user_id":183,"name":"WeIsAwesome_156","steam_id":76561199471673921,"connected_time":98000000000,"state":"active","ping":154}]},{"server_id":21,"name":"Uncletopia | London | 5 | All Maps","name_short":"lon-5","host":"lon-1.uk.uncletopia.com","port":27055,"enabled":true,"region":"eu","cc":"gb","latitude":51.509865,"longitude":-0.118092,"reserved":0,"last_update":"0001-01-01T00:00:00Z","name_a2s":"Uncletopia | London | 5 | All Maps","protocol":17,"map":"koth_viaduct","folder":"tf","game":"Team Fortress","app_id":440,"player_count":0,"max_players":24,"Bots":0,"server_type":"Dedicated","server_os":"Linux","password":true,"vac":true,"version":"7757534","steam_id":85568392924742829,"keywords":["cp","nocrits","nodmgspread","uncletopia"],"game_id":440,"stv_port":27056,"stv_name":"Uncletopia | London | 5 | All Maps | STV","players":null},{"server_id":22,"name":"Uncletopia | London | 6 | All Maps","name_short":"lon-6","host":"lon-1.uk.uncletopia.com","port":27065,"enabled":true,"region":"eu","cc":"gb","latitude":51.509865,"longitude":-0.118092,"reserved":0,"last_update":"0001-01-01T00:00:00Z","name_a2s":"Uncletopia | London | 6 | All Maps","protocol":17,"map":"cp_snakewater_final1","folder":"tf","game":"Team Fortress","app_id":440,"player_count":0,"max_players":24,"Bots":0,"server_type":"Dedicated","server_os":"Linux","password":true,"vac":true,"version":"7757534","steam_id":85568392924742830,"keywords":["cp","nocrits","nodmgspread","uncletopia"],"game_id":440,"stv_port":27066,"stv_name":"Uncletopia | London | 6 | All Maps | STV","players":null},{"server_id":40,"name":"Uncletopia | London | 7 | No Payload","name_short":"lon-7","host":"lon-1.uk.uncletopia.com","port":27075,"enabled":true,"region":"eu","cc":"gb","latitude":51.509865,"longitude":-0.118092,"reserved":0,"last_update":"0001-01-01T00:00:00Z","name_a2s":"Uncletopia | London | 7 | No Payload","protocol":17,"map":"cp_gravelpit","folder":"tf","game":"Team Fortress","app_id":440,"player_count":0,"max_players":24,"Bots":0,"server_type":"Dedicated","server_os":"Linux","password":true,"vac":true,"version":"7757534","steam_id":85568392924964314,"keywords":["cp","nocrits","nodmgspread","uncletopia"],"game_id":440,"stv_port":27076,"stv_name":"Uncletopia | London | 7 | No Payload | STV","players":null},{"server_id":41,"name":"Uncletopia | London | 8 | Community","name_short":"lon-8","host":"lon-1.uk.uncletopia.com","port":27085,"enabled":true,"region":"eu","cc":"gb","latitude":51.509865,"longitude":-0.118092,"reserved":0,"last_update":"0001-01-01T00:00:00Z","name_a2s":"Uncletopia | London | 8 | Community","protocol":17,"map":"workshop/pl_boundary_final1.ugc456799153","folder":"tf","game":"Team Fortress","app_id":440,"player_count":0,"max_players":24,"Bots":0,"server_type":"Dedicated","server_os":"Linux","password":true,"vac":true,"version":"7757534","steam_id":85568392924964315,"keywords":["nocrits","nodmgspread","payload","uncletopia"],"game_id":440,"stv_port":27086,"stv_name":"Uncletopia | London | 8 | Community | STV","players":null},{"server_id":300,"name":"Uncletopia | Montréal | 1 | All Maps","name_short":"mtl-1","host":"mtl-1.ca.uncletopia.com","port":27015,"enabled":true,"region":"us-east","cc":"ca","latitude":45.50889,"longitude":-73.56167,"reserved":0,"last_update":"0001-01-01T00:00:00Z","name_a2s":"Uncletopia | Montréal | 1 | All Maps","protocol":17,"map":"pl_badwater","folder":"tf","game":"Team Fortress","app_id":440,"player_count":24,"max_players":24,"Bots":0,"server_type":"Dedicated","server_os":"Linux","password":true,"vac":true,"version":"7757534","steam_id":85568392924500087,"keywords":["nocrits","nodmgspread","payload","uncletopia"],"game_id":440,"stv_port":27016,"stv_name":"Uncletopia | Montréal | 1 | All Maps | STV","players":[{"user_id":510,"name":"Karma's Camera","steam_id":76561198059385185,"connected_time":2429000000000,"state":"active","ping":57},{"user_id":496,"name":"TrickyTilly","steam_id":76561198068636015,"connected_time":4038000000000,"state":"active","ping":100},{"user_id":523,"name":"captain red","steam_id":76561198191587983,"connected_time":1647000000000,"state":"active","ping":109},{"user_id":506,"name":"Lore","steam_id":76561198098407538,"connected_time":2568000000000,"state":"active","ping":71},{"user_id":509,"name":"Invisorum","steam_id":76561198051902115,"connected_time":2442000000000,"state":"active","ping":111},{"user_id":516,"name":"ThatsAWagon","steam_id":76561198118227496,"connected_time":2134000000000,"state":"active","ping":71},{"user_id":511,"name":"Nyrator","steam_id":76561198018640479,"connected_time":2398000000000,"state":"active","ping":84},{"user_id":490,"name":"Doom Duck","steam_id":76561198035863569,"connected_time":4170000000000,"state":"active","ping":68},{"user_id":491,"name":"Iron_Dave_Qc","steam_id":76561198159325213,"connected_time":4163000000000,"state":"active","ping":50},{"user_id":495,"name":"Lily Penguin","steam_id":76561198031906401,"connected_time":4078000000000,"state":"active","ping":101},{"user_id":522,"name":"VioletSpecs","steam_id":76561198089366466,"connected_time":1716000000000,"state":"active","ping":69},{"user_id":507,"name":"Thot Police","steam_id":76561198084299100,"connected_time":2531000000000,"state":"active","ping":55},{"user_id":512,"name":"Hautboi","steam_id":76561199012329221,"connected_time":2395000000000,"state":"active","ping":61},{"user_id":513,"name":"jjsamachama","steam_id":76561198964488850,"connected_time":2380000000000,"state":"active","ping":96},{"user_id":525,"name":"Eden Hazard","steam_id":76561198089241053,"connected_time":505000000000,"state":"active","ping":52},{"user_id":514,"name":"Spooky Skeleton","steam_id":76561198143381151,"connected_time":2214000000000,"state":"active","ping":134},{"user_id":493,"name":"RokkitFrog","steam_id":76561198046465850,"connected_time":4155000000000,"state":"active","ping":91},{"user_id":503,"name":"Piyono","steam_id":76561197962188504,"connected_time":3202000000000,"state":"active","ping":68},{"user_id":524,"name":"Sheev Palpatine","steam_id":76561198252332430,"connected_time":557000000000,"state":"active","ping":103},{"user_id":526,"name":"dingking","steam_id":76561198148059714,"connected_time":445000000000,"state":"active","ping":59},{"user_id":517,"name":"soweli","steam_id":76561198044363630,"connected_time":2124000000000,"state":"active","ping":59},{"user_id":518,"name":"OttoDogX","steam_id":76561198042007578,"connected_time":2124000000000,"state":"active","ping":120},{"user_id":519,"name":"Daowlie10","steam_id":76561198087692419,"connected_time":2097000000000,"state":"active","ping":135},{"user_id":521,"name":"Dr Slime (IFN.GG)","steam_id":76561198298043093,"connected_time":1874000000000,"state":"active","ping":99}]},{"server_id":301,"name":"Uncletopia | Montréal | 2 | All Maps","name_short":"mtl-2","host":"mtl-1.ca.uncletopia.com","port":27025,"enabled":true,"region":"us-east","cc":"ca","latitude":45.50889,"longitude":-73.56167,"reserved":0,"last_update":"0001-01-01T00:00:00Z","name_a2s":"Uncletopia | Montréal | 2 | All Maps","protocol":17,"map":"koth_viaduct","folder":"tf","game":"Team Fortress","app_id":440,"player_count":0,"max_players":24,"Bots":0,"server_type":"Dedicated","server_os":"Linux","password":true,"vac":true,"version":"7757534","steam_id":85568392924500088,"keywords":["cp","nocrits","nodmgspread","uncletopia"],"game_id":440,"stv_port":27026,"stv_name":"Uncletopia | Montréal | 2 | All Maps | STV","players":null},{"server_id":302,"name":"Uncletopia | Montréal | 3 | All Maps","name_short":"mtl-3","host":"mtl-1.ca.uncletopia.com","port":27035,"enabled":true,"region":"us-east","cc":"ca","latitude":45.50889,"longitude":-73.56167,"reserved":0,"last_update":"0001-01-01T00:00:00Z","name_a2s":"Uncletopia | Montréal | 3 | All Maps","protocol":17,"map":"cp_sunshine","folder":"tf","game":"Team Fortress","app_id":440,"player_count":0,"max_players":24,"Bots":0,"server_type":"Dedicated","server_os":"Linux","password":true,"vac":true,"version":"7757534","steam_id":85568392924500089,"keywords":["cp","nocrits","nodmgspread","uncletopia"],"game_id":440,"stv_port":27036,"stv_name":"Uncletopia | Montréal | 3 | All Maps | STV","players":null},{"server_id":303,"name":"Uncletopia | Montréal | 4 | No Payload","name_short":"mtl-4","host":"mtl-1.ca.uncletopia.com","port":27045,"enabled":true,"region":"us-east","cc":"ca","latitude":45.50889,"longitude":-73.56167,"reserved":0,"last_update":"0001-01-01T00:00:00Z","name_a2s":"Uncletopia | Montréal | 4 | No Payload","protocol":17,"map":"cp_gorge","folder":"tf","game":"Team Fortress","app_id":440,"player_count":0,"max_players":24,"Bots":0,"server_type":"Dedicated","server_os":"Linux","password":true,"vac":true,"version":"7757534","steam_id":85568392924500090,"keywords":["cp","nocrits","nodmgspread","uncletopia"],"game_id":440,"stv_port":27046,"stv_name":"Uncletopia | Montréal | 4 | No Payload | STV","players":null},{"server_id":13,"name":"Uncletopia | New York City | 1 | All Maps","name_short":"nyc-1","host":"nyc-1.us.uncletopia.com","port":27015,"enabled":true,"region":"us-east","cc":"us","latitude":40.73061,"longitude":-73.93524,"reserved":0,"last_update":"0001-01-01T00:00:00Z","name_a2s":"Uncletopia | New York City | 1 | All Maps","protocol":17,"map":"pl_frontier_final","folder":"tf","game":"Team Fortress","app_id":440,"player_count":24,"max_players":24,"Bots":0,"server_type":"Dedicated","server_os":"Linux","password":true,"vac":true,"version":"7757534","steam_id":85568392924469993,"keywords":["nocrits","nodmgspread","payload","uncletopia"],"game_id":440,"stv_port":27016,"stv_name":"Uncletopia | New York City | 1 | All Maps | STV","players":[{"user_id":512,"name":"The famous 'Joker' character","steam_id":76561198043990433,"connected_time":863000000000,"state":"active","ping":89},{"user_id":497,"name":"quint","steam_id":76561198046797995,"connected_time":2113000000000,"state":"active","ping":80},{"user_id":501,"name":"Swifgz","steam_id":76561198162875756,"connected_time":1744000000000,"state":"active","ping":45},{"user_id":487,"name":"FS Jorda (She/Her)","steam_id":76561198071421459,"connected_time":3233000000000,"state":"active","ping":34},{"user_id":492,"name":"look at me while i'm talking","steam_id":76561199440801844,"connected_time":2766000000000,"state":"active","ping":35},{"user_id":401,"name":"Festive Conch Shell","steam_id":76561198042072993,"connected_time":9632000000000,"state":"active","ping":56},{"user_id":505,"name":"Deez","steam_id":76561198204569225,"connected_time":1472000000000,"state":"active","ping":81},{"user_id":515,"name":"Dreyma","steam_id":76561198227372596,"connected_time":562000000000,"state":"active","ping":123},{"user_id":477,"name":"thixon","steam_id":76561198046655575,"connected_time":3969000000000,"state":"active","ping":46},{"user_id":506,"name":"Alcohol Hominid","steam_id":76561198320313950,"connected_time":1462000000000,"state":"active","ping":101},{"user_id":478,"name":"bare","steam_id":76561198046624654,"connected_time":3964000000000,"state":"active","ping":60},{"user_id":520,"name":"FTN | Shakaman","steam_id":76561198039829758,"connected_time":266000000000,"state":"active","ping":53},{"user_id":513,"name":"Festive Syntax Error","steam_id":76561198101567629,"connected_time":589000000000,"state":"active","ping":48},{"user_id":514,"name":"i suck ass at tf2 fr fr","steam_id":76561198277163301,"connected_time":582000000000,"state":"active","ping":76},{"user_id":516,"name":"› snow","steam_id":76561198109783729,"connected_time":527000000000,"state":"active","ping":75},{"user_id":517,"name":"Silverkeys","steam_id":76561197986012496,"connected_time":512000000000,"state":"active","ping":70},{"user_id":481,"name":"Cyrano","steam_id":76561198043669706,"connected_time":3959000000000,"state":"active","ping":54},{"user_id":518,"name":"ElectronX","steam_id":76561198116034988,"connected_time":504000000000,"state":"active","ping":113},{"user_id":494,"name":"123","steam_id":76561198040375911,"connected_time":2680000000000,"state":"active","ping":52},{"user_id":489,"name":"Ghostly Slacker","steam_id":76561198846116303,"connected_time":2878000000000,"state":"active","ping":93},{"user_id":519,"name":"C Papi","steam_id":76561198027779564,"connected_time":476000000000,"state":"active","ping":62},{"user_id":450,"name":"Ludcmorais","steam_id":76561198359217809,"connected_time":6281000000000,"state":"active","ping":176},{"user_id":486,"name":"FS sar","steam_id":76561198085029543,"connected_time":3439000000000,"state":"active","ping":74},{"user_id":495,"name":"𝕱𝖆𝖍'𝕽𝖆𝖍𝖓","steam_id":76561198108825591,"connected_time":2680000000000,"state":"active","ping":86}]},{"server_id":14,"name":"Uncletopia | New York City | 2 | All Maps","name_short":"nyc-2","host":"nyc-1.us.uncletopia.com","port":27025,"enabled":true,"region":"us-east","cc":"us","latitude":40.73061,"longitude":-73.93524,"reserved":0,"last_update":"0001-01-01T00:00:00Z","name_a2s":"Uncletopia | New York City | 2 | All Maps","protocol":17,"map":"pl_barnblitz","folder":"tf","game":"Team Fortress","app_id":440,"player_count":24,"max_players":24,"Bots":0,"server_type":"Dedicated","server_os":"Linux","password":true,"vac":true,"version":"7757534","steam_id":85568392924469994,"keywords":["nocrits","nodmgspread","payload","uncletopia"],"game_id":440,"stv_port":27026,"stv_name":"Uncletopia | New York City | 2 | All Maps | STV","players":[{"user_id":589,"name":"SnareString","steam_id":76561199082119457,"connected_time":2550000000000,"state":"active","ping":122},{"user_id":607,"name":"twink sniper zaddY","steam_id":76561198283687382,"connected_time":1179000000000,"state":"active","ping":101},{"user_id":572,"name":"You Don't Nomi.","steam_id":76561197969137836,"connected_time":4144000000000,"state":"active","ping":44},{"user_id":543,"name":"Defiant Statement.","steam_id":76561199101373436,"connected_time":6098000000000,"state":"active","ping":62},{"user_id":604,"name":"UZR","steam_id":76561198799343084,"connected_time":1253000000000,"state":"active","ping":117},{"user_id":606,"name":"SKForm","steam_id":76561198381500437,"connected_time":1202000000000,"state":"active","ping":64},{"user_id":617,"name":"eek","steam_id":76561198332896682,"connected_time":494000000000,"state":"active","ping":117},{"user_id":608,"name":"fiber","steam_id":76561198132304022,"connected_time":1178000000000,"state":"active","ping":76},{"user_id":616,"name":"twin","steam_id":76561198055626638,"connected_time":499000000000,"state":"active","ping":90},{"user_id":585,"name":"NeoN","steam_id":76561198117608366,"connected_time":2935000000000,"state":"active","ping":33},{"user_id":621,"name":"originalakalil","steam_id":76561199481172481,"connected_time":224000000000,"state":"active","ping":100},{"user_id":582,"name":"open.gif","steam_id":76561198046055673,"connected_time":3490000000000,"state":"active","ping":62},{"user_id":610,"name":"dankman","steam_id":76561198977064186,"connected_time":1169000000000,"state":"active","ping":61},{"user_id":586,"name":"tyg","steam_id":76561198056246867,"connected_time":2795000000000,"state":"active","ping":59},{"user_id":618,"name":"zzz","steam_id":76561198357238486,"connected_time":352000000000,"state":"active","ping":40},{"user_id":594,"name":"Kyzer","steam_id":76561198048034600,"connected_time":2422000000000,"state":"active","ping":76},{"user_id":623,"name":"Steve Burns","steam_id":76561198069968316,"connected_time":127000000000,"state":"active","ping":140},{"user_id":592,"name":"Otterman Empire","steam_id":76561198047758442,"connected_time":2510000000000,"state":"active","ping":115},{"user_id":622,"name":"The indomitable human spirit","steam_id":76561198282395338,"connected_time":173000000000,"state":"active","ping":45},{"user_id":553,"name":"Bear bird","steam_id":76561198166769479,"connected_time":6010000000000,"state":"active","ping":71},{"user_id":593,"name":"Yeahboiiii","steam_id":76561198390325068,"connected_time":2508000000000,"state":"active","ping":57},{"user_id":614,"name":"Im High","steam_id":76561198049954886,"connected_time":1091000000000,"state":"active","ping":59},{"user_id":584,"name":"great1photo","steam_id":76561198085481933,"connected_time":2950000000000,"state":"active","ping":74},{"user_id":588,"name":"Sensitive Shooter","steam_id":76561198041439581,"connected_time":2571000000000,"state":"active","ping":57}]},{"server_id":15,"name":"Uncletopia | New York City | 3 | Stopwatch Beta","name_short":"nyc-3","host":"nyc-1.us.uncletopia.com","port":27035,"enabled":true,"region":"us-east","cc":"us","latitude":40.73061,"longitude":-73.93524,"reserved":0,"last_update":"0001-01-01T00:00:00Z","name_a2s":"Uncletopia | New York City | 3 | Stopwatch Beta","protocol":17,"map":"cp_sunshine","folder":"tf","game":"Team Fortress","app_id":440,"player_count":0,"max_players":24,"Bots":0,"server_type":"Dedicated","server_os":"Linux","password":true,"vac":true,"version":"7757534","steam_id":85568392924742820,"keywords":["cp","nocrits","nodmgspread","uncletopia"],"game_id":440,"stv_port":27036,"stv_name":"Uncletopia | New York City | 3 | Stopwatch Beta | STV","players":null},{"server_id":16,"name":"Uncletopia | New York City | 4 | Community","name_short":"nyc-4","host":"nyc-1.us.uncletopia.com","port":27045,"enabled":true,"region":"us-east","cc":"us","latitude":40.73061,"longitude":-73.93524,"reserved":0,"last_update":"0001-01-01T00:00:00Z","name_a2s":"Uncletopia | New York City | 4 | Community","protocol":17,"map":"workshop/pl_fifthcurve_rc1.ugc648227046","folder":"tf","game":"Team Fortress","app_id":440,"player_count":0,"max_players":24,"Bots":0,"server_type":"Dedicated","server_os":"Linux","password":true,"vac":true,"version":"7757534","steam_id":85568392924742821,"keywords":["nocrits","nodmgspread","payload","uncletopia"],"game_id":440,"stv_port":27046,"stv_name":"Uncletopia | New York City | 4 | Community | STV","players":null},{"server_id":142,"name":"Uncletopia | São Paulo | 1 | All Maps","name_short":"sao-1","host":"sao-1.br.uncletopia.com","port":27015,"enabled":true,"region":"sa","cc":"br","latitude":-23.533773,"longitude":-46.62529,"reserved":0,"last_update":"0001-01-01T00:00:00Z","name_a2s":"Uncletopia | São Paulo | 1 | All Maps","protocol":17,"map":"koth_lakeside_final","folder":"tf","game":"Team Fortress","app_id":440,"player_count":0,"max_players":24,"Bots":0,"server_type":"Dedicated","server_os":"Linux","password":true,"vac":true,"version":"7757534","steam_id":85568392924469996,"keywords":["cp","nocrits","nodmgspread","uncletopia"],"game_id":440,"stv_port":27016,"stv_name":"Uncletopia | São Paulo | 1 | All Maps | STV","players":null},{"server_id":143,"name":"Uncletopia | São Paulo | 2 | All Maps","name_short":"sao-2","host":"sao-2.br.uncletopia.com","port":27015,"enabled":true,"region":"sa","cc":"br","latitude":-23.533773,"longitude":-46.62529,"reserved":0,"last_update":"0001-01-01T00:00:00Z","name_a2s":"Uncletopia | São Paulo | 2 | All Maps","protocol":17,"map":"koth_cascade","folder":"tf","game":"Team Fortress","app_id":440,"player_count":0,"max_players":24,"Bots":0,"server_type":"Dedicated","server_os":"Linux","password":true,"vac":true,"version":"7757534","steam_id":85568392924485349,"keywords":["cp","nocrits","nodmgspread","uncletopia"],"game_id":440,"stv_port":27016,"stv_name":"Uncletopia | São Paulo | 2 | All Maps | STV","players":null},{"server_id":7,"name":"Uncletopia | Seattle | 1 | All Maps","name_short":"sea-1","host":"sea-1.us.uncletopia.com","port":27015,"enabled":true,"region":"us-west","cc":"us","latitude":47.608013,"longitude":-122.33517,"reserved":0,"last_update":"0001-01-01T00:00:00Z","name_a2s":"Uncletopia | Seattle | 1 | All Maps","protocol":17,"map":"pl_badwater","folder":"tf","game":"Team Fortress","app_id":440,"player_count":24,"max_players":24,"Bots":0,"server_type":"Dedicated","server_os":"Linux","password":true,"vac":true,"version":"7757534","steam_id":85568392924469997,"keywords":["nocrits","nodmgspread","payload","uncletopia"],"game_id":440,"stv_port":27016,"stv_name":"Uncletopia | Seattle | 1 | All Maps | STV","players":[{"user_id":675,"name":"ms. anthrope","steam_id":76561198063533082,"connected_time":293000000000,"state":"active","ping":36},{"user_id":582,"name":"2j psych ward boiwife","steam_id":76561198206752128,"connected_time":7657000000000,"state":"active","ping":150},{"user_id":646,"name":"The King of Piss World","steam_id":76561198082806956,"connected_time":2942000000000,"state":"active","ping":118},{"user_id":627,"name":"MegumiTame","steam_id":76561198450280686,"connected_time":4427000000000,"state":"active","ping":55},{"user_id":656,"name":"Strikerbolt","steam_id":76561199095622897,"connected_time":2162000000000,"state":"active","ping":91},{"user_id":610,"name":"MORE BOUNCE TO THE OUNCE","steam_id":76561198243399336,"connected_time":5869000000000,"state":"active","ping":84},{"user_id":561,"name":"Dongus","steam_id":76561197979056451,"connected_time":9738000000000,"state":"active","ping":52},{"user_id":674,"name":"eggy","steam_id":76561198114600721,"connected_time":389000000000,"state":"active","ping":120},{"user_id":666,"name":"soup","steam_id":76561198043209046,"connected_time":1001000000000,"state":"active","ping":78},{"user_id":665,"name":"[TrC] Dackstrus","steam_id":76561197973518509,"connected_time":1008000000000,"state":"active","ping":62},{"user_id":664,"name":"makeshift_burrito","steam_id":76561198042510825,"connected_time":1013000000000,"state":"active","ping":73},{"user_id":673,"name":"The Super Mario Bros. Movie","steam_id":76561198871692156,"connected_time":395000000000,"state":"active","ping":60},{"user_id":644,"name":"VixianUwU ッ ❤","steam_id":76561198948815060,"connected_time":3279000000000,"state":"active","ping":88},{"user_id":630,"name":"AmiableNebula","steam_id":76561198094306627,"connected_time":4264000000000,"state":"active","ping":76},{"user_id":548,"name":"❤ Ashley ❤","steam_id":76561198056428303,"connected_time":10902000000000,"state":"active","ping":78},{"user_id":657,"name":"I killed my parents","steam_id":76561199215943081,"connected_time":2160000000000,"state":"active","ping":96},{"user_id":649,"name":"krootonitron","steam_id":76561198114113037,"connected_time":2806000000000,"state":"active","ping":61},{"user_id":661,"name":"[TrC] Nosy","steam_id":76561197978859310,"connected_time":1870000000000,"state":"active","ping":64},{"user_id":676,"name":"Flyingcat9000","steam_id":76561198179561797,"connected_time":94000000000,"state":"active","ping":60},{"user_id":559,"name":"self sufficient kitten","steam_id":76561197960592612,"connected_time":10032000000000,"state":"active","ping":60},{"user_id":622,"name":"dougrocks421","steam_id":76561198165063918,"connected_time":4897000000000,"state":"active","ping":37},{"user_id":670,"name":"zinnk","steam_id":76561198092081825,"connected_time":923000000000,"state":"active","ping":65},{"user_id":672,"name":"🎄AndreaJingling🎄","steam_id":76561198198658783,"connected_time":502000000000,"state":"active","ping":63},{"user_id":618,"name":"5392vin","steam_id":76561198880493511,"connected_time":5115000000000,"state":"active","ping":68}]},{"server_id":119,"name":"Uncletopia | Seattle | 2 | All Maps","name_short":"sea-2","host":"sea-1.us.uncletopia.com","port":27025,"enabled":true,"region":"us-west","cc":"us","latitude":47.608013,"longitude":-122.33517,"reserved":0,"last_update":"0001-01-01T00:00:00Z","name_a2s":"Uncletopia | Seattle | 2 | All Maps","protocol":17,"map":"koth_lakeside_final","folder":"tf","game":"Team Fortress","app_id":440,"player_count":24,"max_players":24,"Bots":0,"server_type":"Dedicated","server_os":"Linux","password":true,"vac":true,"version":"7757534","steam_id":85568392924469998,"keywords":["cp","nocrits","nodmgspread","uncletopia"],"game_id":440,"stv_port":27026,"stv_name":"Uncletopia | Seattle | 2 | All Maps | STV","players":[{"user_id":430,"name":"whiteout","steam_id":76561198049017271,"connected_time":1493000000000,"state":"active","ping":72},{"user_id":423,"name":"Duckyispoggers","steam_id":76561198357205322,"connected_time":1617000000000,"state":"active","ping":56},{"user_id":406,"name":"Skaði","steam_id":76561198063949642,"connected_time":3807000000000,"state":"active","ping":35},{"user_id":436,"name":"General Fisticuffs","steam_id":76561198255721392,"connected_time":204000000000,"state":"active","ping":114},{"user_id":424,"name":"obamascout","steam_id":76561199073972797,"connected_time":1589000000000,"state":"active","ping":98},{"user_id":391,"name":"FiddyFoMike","steam_id":76561198057072581,"connected_time":5084000000000,"state":"active","ping":70},{"user_id":416,"name":"SaltyFlump","steam_id":76561199379601288,"connected_time":3195000000000,"state":"active","ping":66},{"user_id":373,"name":"Rise for the National Spamton","steam_id":76561198138468982,"connected_time":6422000000000,"state":"active","ping":45},{"user_id":427,"name":"HOLDMEDOWNLIKEGRAVITY","steam_id":76561198070040382,"connected_time":1530000000000,"state":"active","ping":105},{"user_id":388,"name":"mub","steam_id":76561197961943948,"connected_time":5124000000000,"state":"active","ping":47},{"user_id":353,"name":"Pneumo.","steam_id":76561197987911883,"connected_time":7430000000000,"state":"active","ping":71},{"user_id":434,"name":"Rat","steam_id":76561198330059340,"connected_time":874000000000,"state":"active","ping":68},{"user_id":417,"name":"They/Them Rattussy","steam_id":76561198238186628,"connected_time":3077000000000,"state":"active","ping":75},{"user_id":431,"name":"Branz","steam_id":76561198076632143,"connected_time":1317000000000,"state":"active","ping":98},{"user_id":413,"name":"Wookiee","steam_id":76561198139642742,"connected_time":3467000000000,"state":"active","ping":111},{"user_id":420,"name":"Kafuka","steam_id":76561198014404374,"connected_time":1857000000000,"state":"active","ping":44},{"user_id":435,"name":"SausageMan","steam_id":76561198211717195,"connected_time":553000000000,"state":"active","ping":50},{"user_id":374,"name":"luggnagg","steam_id":76561198044116086,"connected_time":6336000000000,"state":"active","ping":98},{"user_id":426,"name":"Vanguard","steam_id":76561198044844135,"connected_time":1531000000000,"state":"active","ping":84},{"user_id":414,"name":"𝓡𝔂𝓪𝓷","steam_id":76561198067641129,"connected_time":3404000000000,"state":"active","ping":53},{"user_id":412,"name":"TwinAirplane959","steam_id":76561198866756840,"connected_time":3576000000000,"state":"active","ping":81},{"user_id":433,"name":"Cam","steam_id":76561198285054047,"connected_time":1186000000000,"state":"active","ping":82},{"user_id":326,"name":"Trogdor","steam_id":76561198121353181,"connected_time":8573000000000,"state":"active","ping":83},{"user_id":429,"name":"Jib","steam_id":76561198328210524,"connected_time":1525000000000,"state":"active","ping":87}]},{"server_id":406,"name":"Uncletopia | Seattle | 3 | Stopwatch Beta","name_short":"sea-3","host":"sea-1.us.uncletopia.com","port":27035,"enabled":true,"region":"us-west","cc":"us","latitude":47.608013,"longitude":-122.33517,"reserved":0,"last_update":"0001-01-01T00:00:00Z","name_a2s":"Uncletopia | Seattle | 3 | Stopwatch Beta","protocol":17,"map":"cp_process_final","folder":"tf","game":"Team Fortress","app_id":440,"player_count":24,"max_players":24,"Bots":0,"server_type":"Dedicated","server_os":"Linux","password":true,"vac":true,"version":"7757534","steam_id":85568392924515217,"keywords":["cp","nocrits","nodmgspread","uncletopia"],"game_id":440,"stv_port":27036,"stv_name":"Uncletopia | Seattle | 3 | Stopwatch Beta | STV","players":[{"user_id":176,"name":"Serbian Stalker","steam_id":76561199182959265,"connected_time":2990000000000,"state":"active","ping":80},{"user_id":210,"name":"Wimpzilla","steam_id":76561198025166189,"connected_time":194000000000,"state":"active","ping":46},{"user_id":177,"name":"justapikmin","steam_id":76561199023650282,"connected_time":2976000000000,"state":"active","ping":101},{"user_id":199,"name":"seabear722","steam_id":76561199033535074,"connected_time":1713000000000,"state":"active","ping":88},{"user_id":171,"name":"berry nice","steam_id":76561198010173227,"connected_time":3436000000000,"state":"active","ping":64},{"user_id":211,"name":"EforEstrogen","steam_id":76561198086787295,"connected_time":191000000000,"state":"active","ping":49},{"user_id":150,"name":"Ⓑ⓪⓪ⓣⓨⓒⓐⓚⓔⓢ","steam_id":76561198088776421,"connected_time":4612000000000,"state":"active","ping":106},{"user_id":190,"name":"Auggy","steam_id":76561198041816037,"connected_time":2203000000000,"state":"active","ping":76},{"user_id":173,"name":"schizophrenic Stack stan","steam_id":76561198214370515,"connected_time":3240000000000,"state":"active","ping":100},{"user_id":25,"name":"Mario","steam_id":76561198321794277,"connected_time":11932000000000,"state":"active","ping":74},{"user_id":192,"name":"El Gato Paranoico","steam_id":76561198116567116,"connected_time":1817000000000,"state":"active","ping":120},{"user_id":174,"name":"D0natelLo","steam_id":76561198874837934,"connected_time":3188000000000,"state":"active","ping":73},{"user_id":212,"name":"autumnal.messenger","steam_id":76561199345816635,"connected_time":179000000000,"state":"active","ping":53},{"user_id":200,"name":"Love Waffle","steam_id":76561197990077189,"connected_time":1688000000000,"state":"active","ping":105},{"user_id":213,"name":"American freedom bird","steam_id":76561198366142388,"connected_time":176000000000,"state":"active","ping":88},{"user_id":201,"name":"PinguEnjoyer6","steam_id":76561199186723516,"connected_time":1658000000000,"state":"active","ping":82},{"user_id":206,"name":"StarBrigade","steam_id":76561198150224428,"connected_time":1047000000000,"state":"active","ping":91},{"user_id":214,"name":"zaza addict","steam_id":76561198202982780,"connected_time":150000000000,"state":"active","ping":127},{"user_id":202,"name":"PainInTheRuss","steam_id":76561197977960543,"connected_time":1636000000000,"state":"active","ping":60},{"user_id":215,"name":"mcgillkase","steam_id":76561198861178738,"connected_time":123000000000,"state":"connecting","ping":0},{"user_id":217,"name":"hosewater","steam_id":76561198023383126,"connected_time":101000000000,"state":"active","ping":49},{"user_id":208,"name":"Billy McWilly","steam_id":76561198002882318,"connected_time":866000000000,"state":"active","ping":70},{"user_id":189,"name":"dP | I'm in a Wookie Suit","steam_id":76561198083307644,"connected_time":2492000000000,"state":"active","ping":60},{"user_id":218,"name":"Spades of Ace","steam_id":76561199416109879,"connected_time":85000000000,"state":"active","ping":77}]},{"server_id":17,"name":"Uncletopia | San Francisco | 1 | All Maps","name_short":"sfo-1","host":"sfo-1.us.uncletopia.com","port":27015,"enabled":true,"region":"us-west","cc":"us","latitude":37.77397,"longitude":-122.4313,"reserved":0,"last_update":"0001-01-01T00:00:00Z","name_a2s":"Uncletopia | San Francisco | 1 | All Maps","protocol":17,"map":"koth_lazarus","folder":"tf","game":"Team Fortress","app_id":440,"player_count":22,"max_players":24,"Bots":0,"server_type":"Dedicated","server_os":"Linux","password":true,"vac":true,"version":"7757534","steam_id":85568392924469999,"keywords":["cp","nocrits","nodmgspread","uncletopia"],"game_id":440,"stv_port":27016,"stv_name":"Uncletopia | San Francisco | 1 | All Maps | STV","players":[{"user_id":399,"name":"_Ati","steam_id":76561198339777801,"connected_time":13000000000,"state":"spawning","ping":185},{"user_id":369,"name":"GඞMER","steam_id":76561198340389876,"connected_time":3109000000000,"state":"active","ping":69},{"user_id":391,"name":"mango cafe","steam_id":76561198142328193,"connected_time":296000000000,"state":"active","ping":67},{"user_id":385,"name":"Mom","steam_id":76561198207936000,"connected_time":1195000000000,"state":"active","ping":35},{"user_id":390,"name":"SvicidalBug","steam_id":76561198221390504,"connected_time":332000000000,"state":"active","ping":85},{"user_id":132,"name":"gerbniak","steam_id":76561199412109852,"connected_time":16228000000000,"state":"active","ping":52},{"user_id":351,"name":"Amogous Supreme","steam_id":76561198025476774,"connected_time":4921000000000,"state":"active","ping":57},{"user_id":392,"name":"RapidXenophage","steam_id":76561198175149973,"connected_time":281000000000,"state":"active","ping":76},{"user_id":384,"name":"beeble!","steam_id":76561198219538525,"connected_time":1363000000000,"state":"active","ping":93},{"user_id":393,"name":"D0VE","steam_id":76561198151618566,"connected_time":265000000000,"state":"active","ping":87},{"user_id":394,"name":"[Bandit]","steam_id":76561197986919852,"connected_time":263000000000,"state":"active","ping":61},{"user_id":377,"name":"Antwan","steam_id":76561198246200638,"connected_time":2139000000000,"state":"active","ping":84},{"user_id":386,"name":"Igrium","steam_id":76561198119549811,"connected_time":398000000000,"state":"active","ping":56},{"user_id":397,"name":"Gut125Cin","steam_id":76561198101787225,"connected_time":173000000000,"state":"active","ping":34},{"user_id":395,"name":"Jahootis Pootis","steam_id":76561198048879388,"connected_time":227000000000,"state":"active","ping":78},{"user_id":357,"name":"gNarNar","steam_id":76561197994505205,"connected_time":4125000000000,"state":"active","ping":99},{"user_id":311,"name":"Buswolley","steam_id":76561197995205571,"connected_time":7564000000000,"state":"active","ping":53},{"user_id":396,"name":"Rusty","steam_id":76561198055585129,"connected_time":217000000000,"state":"active","ping":68},{"user_id":320,"name":"perc 10","steam_id":76561198116471653,"connected_time":7334000000000,"state":"active","ping":57},{"user_id":383,"name":"Jimmy","steam_id":76561198857959855,"connected_time":1407000000000,"state":"active","ping":55},{"user_id":368,"name":"darktheif54","steam_id":76561198043650119,"connected_time":3133000000000,"state":"active","ping":69},{"user_id":378,"name":"jeremygames2012","steam_id":76561198272411021,"connected_time":1879000000000,"state":"active","ping":52}]},{"server_id":18,"name":"Uncletopia | San Francisco | 2 | All Maps","name_short":"sfo-2","host":"sfo-1.us.uncletopia.com","port":27025,"enabled":true,"region":"us-west","cc":"us","latitude":37.77397,"longitude":-122.4313,"reserved":0,"last_update":"0001-01-01T00:00:00Z","name_a2s":"Uncletopia | San Francisco | 2 | All Maps","protocol":17,"map":"cp_fastlane","folder":"tf","game":"Team Fortress","app_id":440,"player_count":24,"max_players":24,"Bots":0,"server_type":"Dedicated","server_os":"Linux","password":true,"vac":true,"version":"7757534","steam_id":85568392924470000,"keywords":["cp","nocrits","nodmgspread","uncletopia"],"game_id":440,"stv_port":27026,"stv_name":"Uncletopia | San Francisco | 2 | All Maps | STV","players":[{"user_id":81,"name":"Arenovas","steam_id":76561198042341811,"connected_time":1559000000000,"state":"active","ping":51},{"user_id":35,"name":"squid","steam_id":76561198070236972,"connected_time":5407000000000,"state":"active","ping":64},{"user_id":75,"name":"LovingKindne2z","steam_id":76561199064932372,"connected_time":2356000000000,"state":"active","ping":47},{"user_id":40,"name":"Meat Divebomber","steam_id":76561199123338267,"connected_time":4837000000000,"state":"active","ping":53},{"user_id":79,"name":"pogchampion","steam_id":76561198848661766,"connected_time":2217000000000,"state":"active","ping":80},{"user_id":112,"name":"info","steam_id":76561197989806185,"connected_time":135000000000,"state":"active","ping":74},{"user_id":105,"name":"Ms. Koalefant","steam_id":76561198084691657,"connected_time":435000000000,"state":"active","ping":61},{"user_id":70,"name":"charley","steam_id":76561198828238339,"connected_time":3492000000000,"state":"active","ping":69},{"user_id":64,"name":"Giselle","steam_id":76561198162593640,"connected_time":3863000000000,"state":"active","ping":111},{"user_id":47,"name":"ferby","steam_id":76561198028229594,"connected_time":4596000000000,"state":"active","ping":45},{"user_id":48,"name":"SolarusD","steam_id":76561198029279861,"connected_time":4546000000000,"state":"active","ping":47},{"user_id":114,"name":"Sticky","steam_id":76561198031581547,"connected_time":108000000000,"state":"active","ping":46},{"user_id":111,"name":"porksoda","steam_id":76561198021451377,"connected_time":211000000000,"state":"active","ping":71},{"user_id":108,"name":"Sleuth","steam_id":76561198418288939,"connected_time":247000000000,"state":"active","ping":58},{"user_id":72,"name":"Sidekick","steam_id":76561198392740835,"connected_time":2562000000000,"state":"active","ping":66},{"user_id":54,"name":"Zero","steam_id":76561199383267408,"connected_time":4212000000000,"state":"active","ping":94},{"user_id":115,"name":"Tangle","steam_id":76561198019027998,"connected_time":50000000000,"state":"active","ping":84},{"user_id":106,"name":"ghostglitch","steam_id":76561197991608573,"connected_time":434000000000,"state":"active","ping":47},{"user_id":107,"name":"TTV/YT Hunter","steam_id":76561198115812405,"connected_time":397000000000,"state":"active","ping":141},{"user_id":85,"name":"John Wick's puppy","steam_id":76561198064662875,"connected_time":1396000000000,"state":"active","ping":44},{"user_id":113,"name":"hardfork","steam_id":76561197960958019,"connected_time":126000000000,"state":"active","ping":68},{"user_id":83,"name":"chanoc","steam_id":76561198026734746,"connected_time":1545000000000,"state":"active","ping":46},{"user_id":61,"name":"yaoi knight","steam_id":76561199047969318,"connected_time":4078000000000,"state":"active","ping":83},{"user_id":73,"name":"Ian","steam_id":76561198159334435,"connected_time":2371000000000,"state":"active","ping":170}]},{"server_id":19,"name":"Uncletopia | San Francisco | 3 | Stopwatch Beta","name_short":"sfo-3","host":"sfo-1.us.uncletopia.com","port":27035,"enabled":true,"region":"us-west","cc":"us","latitude":37.77397,"longitude":-122.4313,"reserved":0,"last_update":"0001-01-01T00:00:00Z","name_a2s":"Uncletopia | San Francisco | 3 | Stopwatch Beta","protocol":17,"map":"workshop/koth_ashville_final.ugc2130459942","folder":"tf","game":"Team Fortress","app_id":440,"player_count":0,"max_players":24,"Bots":0,"server_type":"Dedicated","server_os":"Linux","password":true,"vac":true,"version":"7757534","steam_id":85568392924742824,"keywords":["cp","nocrits","nodmgspread","uncletopia"],"game_id":440,"stv_port":27036,"stv_name":"Uncletopia | San Francisco | 3 | Stopwatch Beta | STV","players":null},{"server_id":20,"name":"Uncletopia | San Francisco | 4 | Community","name_short":"sfo-4","host":"sfo-1.us.uncletopia.com","port":27045,"enabled":true,"region":"us-west","cc":"us","latitude":37.77397,"longitude":-122.4313,"reserved":0,"last_update":"0001-01-01T00:00:00Z","name_a2s":"Uncletopia | San Francisco | 4 | Community","protocol":17,"map":"workshop/rd_asteroid_redux_b1.ugc2154902912","folder":"tf","game":"Team Fortress","app_id":440,"player_count":0,"max_players":24,"Bots":0,"server_type":"Dedicated","server_os":"Linux","password":true,"vac":true,"version":"7757534","steam_id":85568392924742826,"keywords":["beta","nocrits","nodmgspread","rd","uncletopia"],"game_id":440,"stv_port":27046,"stv_name":"Uncletopia | San Francisco | 4 | Community | STV","players":null},{"server_id":141,"name":"Uncletopia | Sydney | 1 | All Maps","name_short":"syd-1","host":"syd-1.au.uncletopia.com","port":27015,"enabled":true,"region":"au","cc":"au","latitude":-33.865143,"longitude":151.2099,"reserved":0,"last_update":"0001-01-01T00:00:00Z","name_a2s":"Uncletopia | Sydney | 1 | All Maps","protocol":17,"map":"pl_snowycoast","folder":"tf","game":"Team Fortress","app_id":440,"player_count":24,"max_players":24,"Bots":0,"server_type":"Dedicated","server_os":"Linux","password":true,"vac":true,"version":"7757534","steam_id":85568392924470001,"keywords":["nocrits","nodmgspread","payload","uncletopia"],"game_id":440,"stv_port":27016,"stv_name":"Uncletopia | Sydney | 1 | All Maps | STV","players":[{"user_id":397,"name":"whiteshaq","steam_id":76561198131988811,"connected_time":371000000000,"state":"active","ping":47},{"user_id":379,"name":"Kid B4nny","steam_id":76561199094827289,"connected_time":1226000000000,"state":"active","ping":88},{"user_id":373,"name":"weezer","steam_id":76561199439508788,"connected_time":1470000000000,"state":"active","ping":65},{"user_id":378,"name":"wombatrat","steam_id":76561199375834537,"connected_time":1312000000000,"state":"active","ping":131},{"user_id":380,"name":"GOLD//","steam_id":76561198122686090,"connected_time":1182000000000,"state":"active","ping":70},{"user_id":400,"name":"Jodelkönig Franzl Lang","steam_id":76561198007667830,"connected_time":72000000000,"state":"active","ping":52},{"user_id":274,"name":"KingGodzilla","steam_id":76561198054002248,"connected_time":9936000000000,"state":"active","ping":45},{"user_id":398,"name":"KiwiJiwi","steam_id":76561198262081410,"connected_time":336000000000,"state":"active","ping":70},{"user_id":369,"name":"SUSHIMAN","steam_id":76561199089989428,"connected_time":1731000000000,"state":"active","ping":89},{"user_id":364,"name":"Don Cheezel","steam_id":76561198321407264,"connected_time":2192000000000,"state":"active","ping":57},{"user_id":326,"name":"WHO ELSE #GOOPEDUP TONIGHT","steam_id":76561198025225448,"connected_time":5501000000000,"state":"active","ping":79},{"user_id":370,"name":"Warren","steam_id":76561198120350917,"connected_time":1705000000000,"state":"active","ping":44},{"user_id":365,"name":"thepixel","steam_id":76561198155396809,"connected_time":2146000000000,"state":"active","ping":51},{"user_id":381,"name":"N0thing_but_pure_lag_and_luck","steam_id":76561199002102933,"connected_time":1163000000000,"state":"active","ping":115},{"user_id":385,"name":"Arbitrary Arbiter","steam_id":76561199178964453,"connected_time":957000000000,"state":"active","ping":182},{"user_id":401,"name":"Wampy","steam_id":76561199211235248,"connected_time":37000000000,"state":"active","ping":59},{"user_id":402,"name":"brass monkey","steam_id":76561198833290341,"connected_time":22000000000,"state":"active","ping":104},{"user_id":334,"name":"Jiffy360","steam_id":76561198149550772,"connected_time":4613000000000,"state":"active","ping":97},{"user_id":393,"name":"scrotum theif","steam_id":76561198271462646,"connected_time":710000000000,"state":"active","ping":48},{"user_id":339,"name":"save feminine boys","steam_id":76561198132937542,"connected_time":4003000000000,"state":"active","ping":60},{"user_id":395,"name":"ramjamslam","steam_id":76561198084310292,"connected_time":589000000000,"state":"active","ping":55},{"user_id":387,"name":"MigBac","steam_id":76561199063505872,"connected_time":871000000000,"state":"active","ping":160},{"user_id":376,"name":"[FTW] RonnieD'","steam_id":76561197993957267,"connected_time":1360000000000,"state":"active","ping":52},{"user_id":392,"name":"Wubs","steam_id":76561198169757490,"connected_time":738000000000,"state":"active","ping":55}]},{"server_id":123,"name":"Uncletopia | Sydney | 2 | All Maps","name_short":"syd-2","host":"syd-1.au.uncletopia.com","port":27025,"enabled":true,"region":"au","cc":"au","latitude":-33.865143,"longitude":151.2099,"reserved":0,"last_update":"0001-01-01T00:00:00Z","name_a2s":"Uncletopia | Sydney | 2 | All Maps","protocol":17,"map":"pl_goldrush","folder":"tf","game":"Team Fortress","app_id":440,"player_count":9,"max_players":24,"Bots":0,"server_type":"Dedicated","server_os":"Linux","password":true,"vac":true,"version":"7757534","steam_id":85568392924470002,"keywords":["nocrits","nodmgspread","payload","uncletopia"],"game_id":440,"stv_port":27026,"stv_name":"Uncletopia | Sydney | 2 | All Maps | STV","players":[{"user_id":142,"name":"Jellyfish_kurage","steam_id":76561198425670698,"connected_time":557000000000,"state":"active","ping":54},{"user_id":131,"name":"little raw meat boy","steam_id":76561199248254676,"connected_time":1960000000000,"state":"active","ping":50},{"user_id":123,"name":"ElectGibbon","steam_id":76561198379243449,"connected_time":2852000000000,"state":"active","ping":63},{"user_id":143,"name":"yeezy","steam_id":76561198317072182,"connected_time":499000000000,"state":"active","ping":70},{"user_id":147,"name":"Monkey Mæn","steam_id":76561198122470022,"connected_time":210000000000,"state":"active","ping":70},{"user_id":148,"name":"Willsy","steam_id":76561198027119367,"connected_time":95000000000,"state":"active","ping":32},{"user_id":145,"name":"Matt","steam_id":76561198006791420,"connected_time":462000000000,"state":"active","ping":86},{"user_id":134,"name":"Sover blw.tf","steam_id":76561198136347837,"connected_time":1697000000000,"state":"active","ping":133},{"user_id":137,"name":"TheDoctor30","steam_id":76561198433686866,"connected_time":1616000000000,"state":"active","ping":103}]},{"server_id":395,"name":"Uncletopia | Sydney | 3 | All Maps","name_short":"syd-3","host":"syd-1.au.uncletopia.com","port":27035,"enabled":true,"region":"au","cc":"au","latitude":-33.865143,"longitude":151.2099,"reserved":0,"last_update":"0001-01-01T00:00:00Z","name_a2s":"Uncletopia | Sydney | 3 | All Maps","protocol":17,"map":"pl_snowycoast","folder":"tf","game":"Team Fortress","app_id":440,"player_count":1,"max_players":24,"Bots":0,"server_type":"Dedicated","server_os":"Linux","password":true,"vac":true,"version":"7757534","steam_id":85568392925194467,"keywords":["nocrits","nodmgspread","payload","uncletopia"],"game_id":440,"stv_port":27036,"stv_name":"Uncletopia | Sydney | 3 | All Maps | STV","players":[{"user_id":10,"name":"bangerlop","steam_id":76561199349993627,"connected_time":43000000000,"state":"active","ping":181}]},{"server_id":396,"name":"Uncletopia | Sydney | 4 | All Maps","name_short":"syd-4","host":"syd-1.au.uncletopia.com","port":27045,"enabled":true,"region":"au","cc":"au","latitude":-33.865143,"longitude":151.2099,"reserved":0,"last_update":"0001-01-01T00:00:00Z","name_a2s":"Uncletopia | Sydney | 4 | All Maps","protocol":17,"map":"koth_highpass","folder":"tf","game":"Team Fortress","app_id":440,"player_count":0,"max_players":24,"Bots":0,"server_type":"Dedicated","server_os":"Linux","password":true,"vac":true,"version":"7757534","steam_id":85568392925397958,"keywords":["cp","nocrits","nodmgspread","uncletopia"],"game_id":440,"stv_port":27046,"stv_name":"Uncletopia | Sydney | 4 | All Maps | STV","players":null},{"server_id":58,"name":"Uncletopia | Sydney | 5 | Stopwatch Beta","name_short":"syd-5","host":"syd-1.au.uncletopia.com","port":27055,"enabled":true,"region":"au","cc":"au","latitude":-33.865143,"longitude":151.2099,"reserved":0,"last_update":"0001-01-01T00:00:00Z","name_a2s":"Uncletopia | Sydney | 5 | Stopwatch Beta","protocol":17,"map":"pl_upward","folder":"tf","game":"Team Fortress","app_id":440,"player_count":0,"max_players":24,"Bots":0,"server_type":"Dedicated","server_os":"Linux","password":true,"vac":true,"version":"7757534","steam_id":85568392925397959,"keywords":["nocrits","nodmgspread","payload","uncletopia"],"game_id":440,"stv_port":27056,"stv_name":"Uncletopia | Sydney | 5 | Stopwatch Beta | STV","players":null},{"server_id":59,"name":"Uncletopia | Sydney | 6 | Community","name_short":"syd-6","host":"syd-1.au.uncletopia.com","port":27065,"enabled":true,"region":"au","cc":"au","latitude":-33.865143,"longitude":151.2099,"reserved":0,"last_update":"0001-01-01T00:00:00Z","name_a2s":"Uncletopia | Sydney | 6 | Community","protocol":17,"map":"workshop/cp_logjam_rc12.ugc454812035","folder":"tf","game":"Team Fortress","app_id":440,"player_count":0,"max_players":24,"Bots":0,"server_type":"Dedicated","server_os":"Linux","password":true,"vac":true,"version":"7757534","steam_id":85568392925397960,"keywords":["cp","nocrits","nodmgspread","uncletopia"],"game_id":440,"stv_port":27066,"stv_name":"Uncletopia | Sydney | 6 | Community | STV","players":null},{"server_id":49,"name":"Uncletopia | Warsaw | 1 | All Maps","name_short":"waw-1","host":"waw-1.pl.uncletopia.com","port":27015,"enabled":true,"region":"eu","cc":"pl","latitude":52.2297,"longitude":21.017532,"reserved":0,"last_update":"0001-01-01T00:00:00Z","name_a2s":"","protocol":0,"map":"","folder":"","game":"","app_id":0,"player_count":0,"max_players":0,"Bots":0,"server_type":"","server_os":"","password":false,"vac":false,"version":"","steam_id":0,"keywords":null,"game_id":0,"stv_port":0,"stv_name":"","players":null},{"server_id":50,"name":"Uncletopia | Warsaw | 2 | All Maps","name_short":"waw-2","host":"waw-1.pl.uncletopia.com","port":27025,"enabled":true,"region":"eu","cc":"pl","latitude":52.2297,"longitude":21.017532,"reserved":0,"last_update":"0001-01-01T00:00:00Z","name_a2s":"Uncletopia | Warsaw | 2 | All Maps","protocol":17,"map":"koth_viaduct","folder":"tf","game":"Team Fortress","app_id":440,"player_count":0,"max_players":24,"Bots":0,"server_type":"Dedicated","server_os":"Linux","password":true,"vac":true,"version":"7757534","steam_id":85568392925397851,"keywords":["cp","nocrits","nodmgspread","uncletopia"],"game_id":440,"stv_port":27026,"stv_name":"Uncletopia | Warsaw | 2 | All Maps | STV","players":null},{"server_id":51,"name":"Uncletopia | Warsaw | 3 | All Maps","name_short":"waw-3","host":"waw-1.pl.uncletopia.com","port":27035,"enabled":true,"region":"eu","cc":"pl","latitude":52.2297,"longitude":21.017532,"reserved":0,"last_update":"0001-01-01T00:00:00Z","name_a2s":"Uncletopia | Warsaw | 3 | All Maps","protocol":17,"map":"pl_badwater","folder":"tf","game":"Team Fortress","app_id":440,"player_count":0,"max_players":24,"Bots":0,"server_type":"Dedicated","server_os":"Linux","password":true,"vac":true,"version":"7757534","steam_id":85568392925397852,"keywords":["nocrits","nodmgspread","payload","uncletopia"],"game_id":440,"stv_port":27036,"stv_name":"Uncletopia | Warsaw | 3 | All Maps | STV","players":null},{"server_id":52,"name":"Uncletopia | Warsaw | 4 | All Maps","name_short":"waw-4","host":"waw-1.pl.uncletopia.com","port":27045,"enabled":true,"region":"eu","cc":"pl","latitude":52.2297,"longitude":21.017532,"reserved":0,"last_update":"0001-01-01T00:00:00Z","name_a2s":"Uncletopia | Warsaw | 4 | All Maps","protocol":17,"map":"koth_lakeside_final","folder":"tf","game":"Team Fortress","app_id":440,"player_count":0,"max_players":24,"Bots":0,"server_type":"Dedicated","server_os":"Linux","password":true,"vac":true,"version":"7757534","steam_id":85568392925397853,"keywords":["cp","nocrits","nodmgspread","uncletopia"],"game_id":440,"stv_port":27046,"stv_name":"Uncletopia | Warsaw | 4 | All Maps | STV","players":null},{"server_id":53,"name":"Uncletopia | Warsaw | 5 | Stopwatch Beta","name_short":"waw-5","host":"waw-1.pl.uncletopia.com","port":27055,"enabled":true,"region":"eu","cc":"pl","latitude":52.2297,"longitude":21.017532,"reserved":0,"last_update":"0001-01-01T00:00:00Z","name_a2s":"Uncletopia | Warsaw | 5 | Stopwatch Beta","protocol":17,"map":"pl_borneo","folder":"tf","game":"Team Fortress","app_id":440,"player_count":0,"max_players":24,"Bots":0,"server_type":"Dedicated","server_os":"Linux","password":true,"vac":true,"version":"7757534","steam_id":85568392925397854,"keywords":["nocrits","nodmgspread","payload","uncletopia"],"game_id":440,"stv_port":27056,"stv_name":"Uncletopia | Warsaw | 5 | Stopwatch Beta | STV","players":null},{"server_id":54,"name":"Uncletopia | Warsaw | 6 | Community","name_short":"waw-6","host":"waw-1.pl.uncletopia.com","port":27065,"enabled":true,"region":"eu","cc":"pl","latitude":52.2297,"longitude":21.017532,"reserved":0,"last_update":"0001-01-01T00:00:00Z","name_a2s":"Uncletopia | Warsaw | 6 | Community","protocol":17,"map":"koth_lakeside_final","folder":"tf","game":"Team Fortress","app_id":440,"player_count":0,"max_players":24,"Bots":0,"server_type":"Dedicated","server_os":"Linux","password":true,"vac":true,"version":"7757534","steam_id":85568392925397856,"keywords":["cp","nocrits","nodmgspread","uncletopia"],"game_id":440,"stv_port":27066,"stv_name":"Uncletopia | Warsaw | 6 | Community | STV","players":null}]}