{"status":true,"message":"","result":[{"server_id":9,"name":"Uncletopia | Atlanta | 1 | All Maps","name_short":"atl-1","host":"atl-1.us.uncletopia.com","port":27015,"enabled":true,"region":"us-east","cc":"us","latitude":33.753746,"longitude":-84.38633,"reserved":0,"last_update":"0001-01-01T00:00:00Z","name_a2s":"Uncletopia | Atlanta | 1 | All Maps","protocol":17,"map":"pl_badwater","folder":"tf","game":"Team Fortress","app_id":440,"player_count":24,"max_players":24,"Bots":0,"server_type":"Dedicated","server_os":"Linux","password":true,"vac":true,"version":"7961495","steam_id":85568392924469982,"keywords":["nocrits","nodmgspread","payload","uncletopia"],"game_id":440,"stv_port":27016,"stv_name":"Uncletopia | Atlanta | 1 | All Maps | STV","players":[{"user_id":199,"name":"uncle grandpa legacy","steam_id":76561198079416036,"connected_time":1582000000000,"state":"active","ping":76},{"user_id":157,"name":"ACKnowledge","steam_id":76561198036189303,"connected_time":4292000000000,"state":"active","ping":60},{"user_id":201,"name":"strategic dier","steam_id":76561197999257178,"connected_time":1331000000000,"state":"active","ping":75},{"user_id":185,"name":"Sinta","steam_id":76561198098398841,"connected_time":2062000000000,"state":"active","ping":57},{"user_id":216,"name":"you're bad","steam_id":76561198112297509,"connected_time":162000000000,"state":"active","ping":70},{"user_id":214,"name":"Pydro","steam_id":76561197995995820,"connected_time":262000000000,"state":"active","ping":52},{"user_id":108,"name":"Obelisk","steam_id":76561198049416866,"connected_time":7413000000000,"state":"active","ping":47},{"user_id":183,"name":"Heathcliff","steam_id":76561198044288534,"connected_time":2214000000000,"state":"active","ping":60},{"user_id":204,"name":"Orange","steam_id":76561198282214019,"connected_time":906000000000,"state":"active","ping":60},{"user_id":180,"name":"derpins","steam_id":76561198125261443,"connected_time":2254000000000,"state":"active","ping":112},{"user_id":187,"name":"ATL1 | Uganda #NEOTOKYO°","steam_id":76561199121276474,"connected_time":2018000000000,"state":"active","ping":98},{"user_id":175,"name":"zabloinkus","steam_id":76561198069967245,"connected_time":3690000000000,"state":"active","ping":71},{"user_id":168,"name":"TacoMan4Life","steam_id":76561198832562728,"connected_time":4016000000000,"state":"active","ping":112},{"user_id":192,"name":"Electroid","steam_id":76561199092263960,"connected_time":1743000000000,"state":"active","ping":45},{"user_id":210,"name":"[GC] frog from pond [-15 lp]","steam_id":76561198184900753,"connected_time":379000000000,"state":"active","ping":75},{"user_id":156,"name":"joyeuxnoelle","steam_id":76561198062423120,"connected_time":4302000000000,"state":"active","ping":67},{"user_id":150,"name":"jxh300","steam_id":76561199196579894,"connected_time":4677000000000,"state":"active","ping":63},{"user_id":155,"name":"mayor of cool person city","steam_id":76561198048882285,"connected_time":4308000000000,"state":"active","ping":75},{"user_id":181,"name":"Intro Bonito","steam_id":76561198119478838,"connected_time":2253000000000,"state":"active","ping":45},{"user_id":200,"name":"Oopsie Daisy ❋","steam_id":76561198042144492,"connected_time":1518000000000,"state":"active","ping":45},{"user_id":215,"name":"Dim","steam_id":76561198061411324,"connected_time":262000000000,"state":"active","ping":82},{"user_id":77,"name":"Ryoko","steam_id":76561198084725087,"connected_time":9612000000000,"state":"active","ping":73},{"user_id":176,"name":"happy new year","steam_id":76561198249206656,"connected_time":3674000000000,"state":"active","ping":95},{"user_id":195,"name":"SHUSH nikoOS","steam_id":76561198180020521,"connected_time":1737000000000,"state":"active","ping":103}]},{"server_id":104,"name":"Uncletopia | Atlanta | 2 | All Maps","name_short":"atl-2","host":"atl-1.us.uncletopia.com","port":27025,"enabled":true,"region":"us-east","cc":"us","latitude":33.753746,"longitude":-84.38633,"reserved":0,"last_update":"0001-01-01T00:00:00Z","name_a2s":"Uncletopia | Atlanta | 2 | All Maps","protocol":17,"map":"koth_lakeside_final","folder":"tf","game":"Team Fortress","app_id":440,"player_count":1,"max_players":24,"Bots":0,"server_type":"Dedicated","server_os":"Linux","password":true,"vac":true,"version":"7961495","steam_id":85568392924469983,"keywords":["cp","nocrits","nodmgspread","uncletopia"],"game_id":440,"stv_port":27026,"stv_name":"Uncletopia | Atlanta | 2 | All Maps | STV","players":[{"user_id":11,"name":"CEO OF SEX","steam_id":76561199229325065,"connected_time":8000000000,"state":"spawning","ping":41}]},{"server_id":400,"name":"Uncletopia | Atlanta | 3 | Stopwatch","name_short":"atl-3","host":"atl-1.us.uncletopia.com","port":27035,"enabled":true,"region":"us-east","cc":"us","latitude":33.753746,"longitude":-84.38633,"reserved":0,"last_update":"0001-01-01T00:00:00Z","name_a2s":"Uncletopia | Atlanta | 3 | Stopwatch","protocol":17,"map":"workshop/koth_jamram_rc1a.ugc2964065613","folder":"tf","game":"Team Fortress","app_id":440,"player_count":0,"max_players":24,"Bots":0,"server_type":"Dedicated","server_os":"Linux","password":true,"vac":true,"version":"7961495","steam_id":85568392924515187,"keywords":["cp","nocrits","nodmgspread","uncletopia"],"game_id":440,"stv_port":27036,"stv_name":"Uncletopia | Atlanta | 3 | Stopwatch | STV","players":null},{"server_id":401,"name":"Uncletopia | Atlanta | 4 | Community","name_short":"atl-4","host":"atl-1.us.uncletopia.com","port":27045,"enabled":true,"region":"us-east","cc":"us","latitude":33.753746,"longitude":-84.38633,"reserved":0,"last_update":"0001-01-01T00:00:00Z","name_a2s":"Uncletopia | Atlanta | 4 | Community","protocol":17,"map":"workshop/cp_reckoner_rc6.ugc674719999","folder":"tf","game":"Team Fortress","app_id":440,"player_count":0,"max_players":24,"Bots":0,"server_type":"Dedicated","server_os":"Linux","password":true,"vac":true,"version":"7961495","steam_id":85568392924515188,"keywords":["cp","nocrits","nodmgspread","uncletopia"],"game_id":440,"stv_port":27046,"stv_name":"Uncletopia | Atlanta | 4 | Community | STV","players":null},{"server_id":2,"name":"Uncletopia | Chicago | 1 | All Maps","name_short":"chi-1","host":"chi-1.us.uncletopia.com","port":27015,"enabled":true,"region":"us-central","cc":"us","latitude":41.881832,"longitude":-87.62318,"reserved":0,"last_update":"0001-01-01T00:00:00Z","name_a2s":"Uncletopia | Chicago | 1 | All Maps","protocol":17,"map":"koth_viaduct","folder":"tf","game":"Team Fortress","app_id":440,"player_count":22,"max_players":24,"Bots":0,"server_type":"Dedicated","server_os":"Linux","password":true,"vac":true,"version":"7961495","steam_id":85568392924469984,"keywords":["cp","nocrits","nodmgspread","uncletopia"],"game_id":440,"stv_port":27016,"stv_name":"Uncletopia | Chicago | 1 | All Maps | STV","players":[{"user_id":13,"name":"Arjen PSN 23","steam_id":76561198963682232,"connected_time":1544000000000,"state":"active","ping":60},{"user_id":14,"name":"joseph stalin","steam_id":76561199230441293,"connected_time":1136000000000,"state":"active","ping":71},{"user_id":15,"name":"bombastik062","steam_id":76561199384080480,"connected_time":1087000000000,"state":"active","ping":176},{"user_id":16,"name":"Pyrovision Distributor","steam_id":76561198242118240,"connected_time":1074000000000,"state":"active","ping":46},{"user_id":18,"name":"Rex","steam_id":76561198138365053,"connected_time":608000000000,"state":"active","ping":120},{"user_id":19,"name":"OH BOY","steam_id":76561199052273428,"connected_time":539000000000,"state":"active","ping":49},{"user_id":33,"name":"Sweetest Tea","steam_id":76561198197699062,"connected_time":131000000000,"state":"active","ping":63},{"user_id":23,"name":"eduard","steam_id":76561198136550093,"connected_time":361000000000,"state":"active","ping":64},{"user_id":24,"name":"Boofenshmirtz","steam_id":76561198071649858,"connected_time":339000000000,"state":"active","ping":45},{"user_id":25,"name":"Jerphf","steam_id":76561198328825964,"connected_time":310000000000,"state":"active","ping":49},{"user_id":26,"name":"Medic!","steam_id":76561198119759695,"connected_time":307000000000,"state":"active","ping":60},{"user_id":31,"name":"toastman","steam_id":76561198207073088,"connected_time":180000000000,"state":"active","ping":65},{"user_id":32,"name":"Lt Lushen","steam_id":76561198124083273,"connected_time":149000000000,"state":"active","ping":114},{"user_id":29,"name":"princess fern \u003c3333","steam_id":76561198881792140,"connected_time":255000000000,"state":"active","ping":63},{"user_id":34,"name":"Take the L","steam_id":76561198379223875,"connected_time":123000000000,"state":"active","ping":60},{"user_id":35,"name":"Louis Litt","steam_id":76561198170859755,"connected_time":92000000000,"state":"active","ping":65},{"user_id":36,"name":"papyrus","steam_id":76561199123470562,"connected_time":22000000000,"state":"active","ping":49},{"user_id":37,"name":"Dr. Han","steam_id":76561198811130843,"connected_time":21000000000,"state":"spawning","ping":55},{"user_id":38,"name":"Rallo","steam_id":76561198324357861,"connected_time":19000000000,"state":"spawning","ping":60},{"user_id":39,"name":"Dabbledornk","steam_id":76561198065241300,"connected_time":14000000000,"state":"spawning","ping":60},{"user_id":40,"name":"917-258-3609","steam_id":76561198174436329,"connected_time":7000000000,"state":"spawning","ping":80},{"user_id":41,"name":"floppy muppet","steam_id":76561198003076261,"connected_time":2000000000,"state":"spawning","ping":61}]},{"server_id":106,"name":"Uncletopia | Chicago | 2 | All Maps","name_short":"chi-2","host":"chi-1.us.uncletopia.com","port":27025,"enabled":true,"region":"us-central","cc":"us","latitude":41.881832,"longitude":-87.62318,"reserved":0,"last_update":"0001-01-01T00:00:00Z","name_a2s":"Uncletopia | Chicago | 2 | All Maps","protocol":17,"map":"pl_barnblitz","folder":"tf","game":"Team Fortress","app_id":440,"player_count":24,"max_players":24,"Bots":0,"server_type":"Dedicated","server_os":"Linux","password":true,"vac":true,"version":"7961495","steam_id":85568392924469985,"keywords":["nocrits","nodmgspread","payload","uncletopia"],"game_id":440,"stv_port":27026,"stv_name":"Uncletopia | Chicago | 2 | All Maps | STV","players":[{"user_id":322,"name":"Learning Pyro pls help","steam_id":76561198065920486,"connected_time":1111000000000,"state":"active","ping":43},{"user_id":333,"name":"Yam Jazzy Jim","steam_id":76561198000788950,"connected_time":90000000000,"state":"active","ping":66},{"user_id":328,"name":"all cock, no balls","steam_id":76561198159823948,"connected_time":768000000000,"state":"active","ping":52},{"user_id":300,"name":"Tlaloc","steam_id":76561198375215983,"connected_time":2155000000000,"state":"active","ping":119},{"user_id":325,"name":"Berb","steam_id":76561198193911899,"connected_time":810000000000,"state":"active","ping":130},{"user_id":326,"name":"archer guy","steam_id":76561199294792123,"connected_time":808000000000,"state":"active","ping":57},{"user_id":305,"name":"Brandino!","steam_id":76561198000446932,"connected_time":1904000000000,"state":"active","ping":69},{"user_id":308,"name":"Aperture Science Intern","steam_id":76561198040553272,"connected_time":1721000000000,"state":"active","ping":75},{"user_id":295,"name":"superx","steam_id":76561198044976613,"connected_time":2485000000000,"state":"active","ping":58},{"user_id":324,"name":"Mug Moment Gaming","steam_id":76561198233098136,"connected_time":899000000000,"state":"active","ping":61},{"user_id":216,"name":"Sultan","steam_id":76561198447852406,"connected_time":5441000000000,"state":"active","ping":68},{"user_id":298,"name":"edge","steam_id":76561198152755423,"connected_time":2450000000000,"state":"active","ping":62},{"user_id":329,"name":"Nerf Clean Hit","steam_id":76561198257691881,"connected_time":764000000000,"state":"active","ping":87},{"user_id":314,"name":"a bellhop","steam_id":76561198046797995,"connected_time":1377000000000,"state":"active","ping":42},{"user_id":332,"name":"POLICE","steam_id":76561198120757569,"connected_time":107000000000,"state":"active","ping":58},{"user_id":313,"name":"DerpyNate","steam_id":76561198100249037,"connected_time":1483000000000,"state":"active","ping":49},{"user_id":306,"name":"Koishi","steam_id":76561198054541054,"connected_time":1767000000000,"state":"active","ping":59},{"user_id":310,"name":"kite","steam_id":76561198346516392,"connected_time":1712000000000,"state":"active","ping":72},{"user_id":195,"name":"__Creed__","steam_id":76561198138564169,"connected_time":7078000000000,"state":"active","ping":77},{"user_id":292,"name":"Hazeyboi","steam_id":76561198130687838,"connected_time":2544000000000,"state":"active","ping":130},{"user_id":231,"name":"hogwart","steam_id":76561198093995793,"connected_time":4508000000000,"state":"active","ping":87},{"user_id":320,"name":"Classic","steam_id":76561198215293509,"connected_time":1258000000000,"state":"active","ping":71},{"user_id":279,"name":"crabapples","steam_id":76561198075818655,"connected_time":3352000000000,"state":"active","ping":61},{"user_id":296,"name":"✨11Rufix","steam_id":76561198394962127,"connected_time":2478000000000,"state":"active","ping":114}]},{"server_id":402,"name":"Uncletopia | Chicago | 3 | All Maps","name_short":"chi-3","host":"chi-1.us.uncletopia.com","port":27035,"enabled":true,"region":"us-central","cc":"us","latitude":41.881832,"longitude":-87.62318,"reserved":0,"last_update":"0001-01-01T00:00:00Z","name_a2s":"Uncletopia | Chicago | 3 | All Maps","protocol":17,"map":"plr_pipeline","folder":"tf","game":"Team Fortress","app_id":440,"player_count":0,"max_players":24,"Bots":0,"server_type":"Dedicated","server_os":"Linux","password":true,"vac":true,"version":"7961495","steam_id":85568392924515191,"keywords":["nocrits","nodmgspread","payload","uncletopia"],"game_id":440,"stv_port":27036,"stv_name":"Uncletopia | Chicago | 3 | All Maps | STV","players":null},{"server_id":403,"name":"Uncletopia | Chicago | 4 | All Maps","name_short":"chi-4","host":"chi-1.us.uncletopia.com","port":27045,"enabled":true,"region":"us-central","cc":"us","latitude":41.881832,"longitude":-87.62318,"reserved":0,"last_update":"0001-01-01T00:00:00Z","name_a2s":"Uncletopia | Chicago | 4 | All Maps","protocol":17,"map":"pl_badwater","folder":"tf","game":"Team Fortress","app_id":440,"player_count":0,"max_players":24,"Bots":0,"server_type":"Dedicated","server_os":"Linux","password":true,"vac":true,"version":"7961495","steam_id":85568392924515193,"keywords":["nocrits","nodmgspread","payload","uncletopia"],"game_id":440,"stv_port":27046,"stv_name":"Uncletopia | Chicago | 4 | All Maps | STV","players":null},{"server_id":36,"name":"Uncletopia | Chicago | 5 | All Maps","name_short":"chi-5","host":"chi-2.us.uncletopia.com","port":27015,"enabled":true,"region":"us-central","cc":"us","latitude":41.881832,"longitude":-87.62318,"reserved":0,"last_update":"0001-01-01T00:00:00Z","name_a2s":"Uncletopia | Chicago | 5 | All Maps","protocol":17,"map":"pl_borneo","folder":"tf","game":"Team Fortress","app_id":440,"player_count":24,"max_players":24,"Bots":0,"server_type":"Dedicated","server_os":"Linux","password":true,"vac":true,"version":"7961495","steam_id":85568392924866362,"keywords":["nocrits","nodmgspread","payload","uncletopia"],"game_id":440,"stv_port":27016,"stv_name":"Uncletopia | Chicago | 5 | All Maps | STV","players":[{"user_id":244,"name":"Raizen","steam_id":76561199092445367,"connected_time":0,"state":"spawning","ping":0},{"user_id":158,"name":"Beef Wellington","steam_id":76561198049837377,"connected_time":6519000000000,"state":"active","ping":50},{"user_id":205,"name":"capetanunito","steam_id":76561199364524852,"connected_time":2645000000000,"state":"active","ping":184},{"user_id":221,"name":"Architect","steam_id":76561198015242016,"connected_time":1436000000000,"state":"active","ping":46},{"user_id":237,"name":"jg125","steam_id":76561198824953530,"connected_time":124000000000,"state":"active","ping":142},{"user_id":225,"name":"Shitty Pilot","steam_id":76561198042723469,"connected_time":1041000000000,"state":"active","ping":60},{"user_id":241,"name":"ol' musty","steam_id":76561198081075865,"connected_time":91000000000,"state":"active","ping":51},{"user_id":235,"name":"heheheheheh","steam_id":76561198884486994,"connected_time":144000000000,"state":"active","ping":69},{"user_id":186,"name":"matchstick","steam_id":76561198190100027,"connected_time":3333000000000,"state":"active","ping":82},{"user_id":236,"name":"dilfbot","steam_id":76561198099988165,"connected_time":142000000000,"state":"active","ping":60},{"user_id":217,"name":"Kritzburgh","steam_id":76561198149466938,"connected_time":1499000000000,"state":"active","ping":73},{"user_id":203,"name":"Peybot","steam_id":76561198116124784,"connected_time":2802000000000,"state":"active","ping":53},{"user_id":243,"name":"Dick to ball ratio","steam_id":76561198072205512,"connected_time":27000000000,"state":"active","ping":78},{"user_id":226,"name":"Eiss","steam_id":76561198343183806,"connected_time":798000000000,"state":"active","ping":75},{"user_id":223,"name":"Stimmchen","steam_id":76561198117231611,"connected_time":1414000000000,"state":"active","ping":158},{"user_id":229,"name":"Zero","steam_id":76561198033384990,"connected_time":314000000000,"state":"active","ping":60},{"user_id":220,"name":"PK","steam_id":76561198368722500,"connected_time":1475000000000,"state":"active","ping":72},{"user_id":109,"name":"Luci★Fer","steam_id":76561199030343810,"connected_time":10357000000000,"state":"active","ping":63},{"user_id":224,"name":"Disco Fever","steam_id":76561198069532215,"connected_time":1094000000000,"state":"active","ping":60},{"user_id":173,"name":"space man","steam_id":76561198066333670,"connected_time":5661000000000,"state":"active","ping":60},{"user_id":227,"name":"9gon Danmar33","steam_id":76561198056453091,"connected_time":778000000000,"state":"active","ping":46},{"user_id":184,"name":"Mint Jelly","steam_id":76561197991286751,"connected_time":5217000000000,"state":"active","ping":49},{"user_id":231,"name":"Aviyarn","steam_id":76561199074194652,"connected_time":281000000000,"state":"active","ping":76},{"user_id":200,"name":"Yeezuz","steam_id":76561198448209430,"connected_time":3204000000000,"state":"active","ping":75}]},{"server_id":37,"name":"Uncletopia | Chicago | 6 | All Maps","name_short":"chi-6","host":"chi-2.us.uncletopia.com","port":27025,"enabled":true,"region":"us-central","cc":"us","latitude":41.881832,"longitude":-87.62318,"reserved":0,"last_update":"0001-01-01T00:00:00Z","name_a2s":"Uncletopia | Chicago | 6 | All Maps","protocol":17,"map":"pl_badwater","folder":"tf","game":"Team Fortress","app_id":440,"player_count":24,"max_players":24,"Bots":0,"server_type":"Dedicated","server_os":"Linux","password":true,"vac":true,"version":"7961495","steam_id":85568392924866363,"keywords":["nocrits","nodmgspread","payload","uncletopia"],"game_id":440,"stv_port":27026,"stv_name":"Uncletopia | Chicago | 6 | All Maps | STV","players":[{"user_id":121,"name":"fco_munozp1092","steam_id":76561199208070655,"connected_time":917000000000,"state":"active","ping":115},{"user_id":143,"name":"Lemon Soda","steam_id":76561198140208761,"connected_time":83000000000,"state":"active","ping":50},{"user_id":118,"name":"why","steam_id":76561199059732212,"connected_time":1292000000000,"state":"active","ping":74},{"user_id":77,"name":"daemon","steam_id":76561198001541433,"connected_time":3002000000000,"state":"active","ping":48},{"user_id":78,"name":"JOOOOOOOOOOOOO!!!!!!","steam_id":76561199101638460,"connected_time":2988000000000,"state":"active","ping":80},{"user_id":71,"name":"Siz","steam_id":76561198072962154,"connected_time":3472000000000,"state":"active","ping":65},{"user_id":67,"name":"katryna","steam_id":76561198023440304,"connected_time":3942000000000,"state":"active","ping":67},{"user_id":132,"name":"bear","steam_id":76561198909415646,"connected_time":602000000000,"state":"active","ping":77},{"user_id":90,"name":"Forevershooting","steam_id":76561198124213574,"connected_time":2633000000000,"state":"active","ping":60},{"user_id":134,"name":"leumas","steam_id":76561198240408540,"connected_time":547000000000,"state":"active","ping":56},{"user_id":137,"name":"KingSteve42","steam_id":76561198409455888,"connected_time":538000000000,"state":"active","ping":105},{"user_id":145,"name":"MAUL","steam_id":76561198068805933,"connected_time":8000000000,"state":"spawning","ping":61},{"user_id":103,"name":"tlar","steam_id":76561198060117460,"connected_time":1554000000000,"state":"active","ping":71},{"user_id":82,"name":"FUCK BADWATER","steam_id":76561198006569710,"connected_time":2875000000000,"state":"active","ping":74},{"user_id":144,"name":"Lmnop","steam_id":76561198038458838,"connected_time":14000000000,"state":"active","ping":48},{"user_id":131,"name":"Kitt(eh)  ∑:3","steam_id":76561198110858518,"connected_time":610000000000,"state":"active","ping":60},{"user_id":74,"name":"Yeti (#SaveTF2)","steam_id":76561199151545966,"connected_time":3027000000000,"state":"active","ping":62},{"user_id":83,"name":"TheColdChiliPepper","steam_id":76561199027155811,"connected_time":2869000000000,"state":"active","ping":86},{"user_id":139,"name":"Brendan","steam_id":76561198041079914,"connected_time":412000000000,"state":"active","ping":65},{"user_id":88,"name":"Candy Sparkles","steam_id":76561198126871264,"connected_time":2747000000000,"state":"active","ping":75},{"user_id":138,"name":"LeBron James from Multiversus\ufffd\ufffd","steam_id":76561198316060646,"connected_time":536000000000,"state":"active","ping":106},{"user_id":94,"name":"STAROID","steam_id":76561198069740897,"connected_time":2495000000000,"state":"active","ping":74},{"user_id":101,"name":"Tiny Desk Engineer","steam_id":76561199049784560,"connected_time":1826000000000,"state":"active","ping":88},{"user_id":141,"name":"Pockets","steam_id":76561198001742296,"connected_time":346000000000,"state":"active","ping":56}]},{"server_id":38,"name":"Uncletopia | Chicago | 7 | Stopwatch","name_short":"chi-7","host":"chi-2.us.uncletopia.com","port":27035,"enabled":true,"region":"us-central","cc":"us","latitude":41.881832,"longitude":-87.62318,"reserved":0,"last_update":"0001-01-01T00:00:00Z","name_a2s":"Uncletopia | Chicago | 7 | Stopwatch","protocol":17,"map":"cp_granary","folder":"tf","game":"Team Fortress","app_id":440,"player_count":0,"max_players":24,"Bots":0,"server_type":"Dedicated","server_os":"Linux","password":true,"vac":true,"version":"7961495","steam_id":85568392924866364,"keywords":["cp","nocrits","nodmgspread","uncletopia"],"game_id":440,"stv_port":27036,"stv_name":"Uncletopia | Chicago | 7 | Stopwatch | STV","players":null},{"server_id":39,"name":"Uncletopia | Chicago | 8 | Community","name_short":"chi-8","host":"chi-2.us.uncletopia.com","port":27045,"enabled":true,"region":"us-central","cc":"us","latitude":41.881832,"longitude":-87.62318,"reserved":0,"last_update":"0001-01-01T00:00:00Z","name_a2s":"Uncletopia | Chicago | 8 | Community","protocol":17,"map":"workshop/koth_slaughter_rc1.ugc1712845210","folder":"tf","game":"Team Fortress","app_id":440,"player_count":0,"max_players":24,"Bots":0,"server_type":"Dedicated","server_os":"Linux","password":true,"vac":true,"version":"7961495","steam_id":85568392924866365,"keywords":["cp","nocrits","nodmgspread","uncletopia"],"game_id":440,"stv_port":27046,"stv_name":"Uncletopia | Chicago | 8 | Community | STV","players":null},{"server_id":8,"name":"Uncletopia | Dallas | 1 | All Maps","name_short":"dal-1","host":"dal-1.us.uncletopia.com","port":27015,"enabled":true,"region":"us-central","cc":"us","latitude":32.779167,"longitude":-96.80889,"reserved":0,"last_update":"0001-01-01T00:00:00Z","name_a2s":"Uncletopia | Dallas | 1 | All Maps","protocol":17,"map":"pl_frontier_final","folder":"tf","game":"Team Fortress","app_id":440,"player_count":24,"max_players":24,"Bots":0,"server_type":"Dedicated","server_os":"Linux","password":true,"vac":true,"version":"7961495","steam_id":85568392924469986,"keywords":["nocrits","nodmgspread","payload","uncletopia"],"game_id":440,"stv_port":27016,"stv_name":"Uncletopia | Dallas | 1 | All Maps | STV","players":[{"user_id":228,"name":"Major Woody","steam_id":76561198835541533,"connected_time":3209000000000,"state":"active","ping":57},{"user_id":238,"name":"Humus","steam_id":76561198175286355,"connected_time":2692000000000,"state":"active","ping":80},{"user_id":262,"name":"BoyWithTheBeanie","steam_id":76561199435079308,"connected_time":605000000000,"state":"active","ping":150},{"user_id":251,"name":"Erodplayer","steam_id":76561198183840185,"connected_time":1473000000000,"state":"active","ping":43},{"user_id":253,"name":"1st place love live fan","steam_id":76561198037951506,"connected_time":1461000000000,"state":"active","ping":69},{"user_id":266,"name":"Tom Clancy","steam_id":76561198133781894,"connected_time":325000000000,"state":"active","ping":80},{"user_id":264,"name":"Willy","steam_id":76561198046508940,"connected_time":375000000000,"state":"active","ping":90},{"user_id":208,"name":"tadsandco","steam_id":76561198037266781,"connected_time":4081000000000,"state":"active","ping":72},{"user_id":270,"name":"Comrade","steam_id":76561199056721863,"connected_time":107000000000,"state":"active","ping":72},{"user_id":265,"name":"CeLeb144","steam_id":76561199089907740,"connected_time":375000000000,"state":"active","ping":64},{"user_id":267,"name":"moe","steam_id":76561198929586245,"connected_time":321000000000,"state":"active","ping":75},{"user_id":268,"name":"slippyyλ","steam_id":76561198143018098,"connected_time":319000000000,"state":"active","ping":87},{"user_id":189,"name":"aisu","steam_id":76561198043768507,"connected_time":4914000000000,"state":"active","ping":90},{"user_id":263,"name":"PowerGem3000","steam_id":76561198944644691,"connected_time":600000000000,"state":"active","ping":76},{"user_id":271,"name":"[TRR/IO] Tangerine Baker","steam_id":76561199004774964,"connected_time":89000000000,"state":"active","ping":90},{"user_id":242,"name":"Flea103","steam_id":76561198085863864,"connected_time":2197000000000,"state":"active","ping":87},{"user_id":255,"name":"dara","steam_id":76561198079451856,"connected_time":1456000000000,"state":"active","ping":72},{"user_id":256,"name":"Arrluk","steam_id":76561198396679452,"connected_time":1455000000000,"state":"active","ping":64},{"user_id":232,"name":"cxx","steam_id":76561198111995277,"connected_time":3109000000000,"state":"active","ping":87},{"user_id":257,"name":"Sneed-poster","steam_id":76561198206198937,"connected_time":1230000000000,"state":"active","ping":54},{"user_id":229,"name":"munching charcoal","steam_id":76561198150803812,"connected_time":3190000000000,"state":"active","ping":73},{"user_id":175,"name":"DMM","steam_id":76561198065426171,"connected_time":6181000000000,"state":"active","ping":63},{"user_id":245,"name":"owlbortch","steam_id":76561198042849350,"connected_time":2008000000000,"state":"active","ping":91},{"user_id":247,"name":"Evil little man","steam_id":76561198311053471,"connected_time":1660000000000,"state":"active","ping":61}]},{"server_id":108,"name":"Uncletopia | Dallas | 2 | All Maps","name_short":"dal-2","host":"dal-1.us.uncletopia.com","port":27025,"enabled":true,"region":"us-central","cc":"us","latitude":32.779167,"longitude":-96.80889,"reserved":0,"last_update":"0001-01-01T00:00:00Z","name_a2s":"Uncletopia | Dallas | 2 | All Maps","protocol":17,"map":"pl_goldrush","folder":"tf","game":"Team Fortress","app_id":440,"player_count":24,"max_players":24,"Bots":0,"server_type":"Dedicated","server_os":"Linux","password":true,"vac":true,"version":"7961495","steam_id":85568392924469988,"keywords":["nocrits","nodmgspread","payload","uncletopia"],"game_id":440,"stv_port":27026,"stv_name":"Uncletopia | Dallas | 2 | All Maps | STV","players":[{"user_id":10,"name":"beans","steam_id":76561199082781884,"connected_time":2307000000000,"state":"active","ping":40},{"user_id":35,"name":"GOON \u003e:)","steam_id":76561198327993003,"connected_time":1327000000000,"state":"active","ping":108},{"user_id":9,"name":"Lyricalnoot","steam_id":76561199164905065,"connected_time":2809000000000,"state":"active","ping":49},{"user_id":16,"name":"imng","steam_id":76561198014988031,"connected_time":1844000000000,"state":"active","ping":65},{"user_id":13,"name":"Lolxdloldx","steam_id":76561198136887125,"connected_time":2047000000000,"state":"active","ping":73},{"user_id":48,"name":"Tanner Jarring","steam_id":76561198172024365,"connected_time":553000000000,"state":"active","ping":89},{"user_id":17,"name":"François Viète","steam_id":76561198072975518,"connected_time":1831000000000,"state":"active","ping":66},{"user_id":45,"name":"sly","steam_id":76561198139240845,"connected_time":768000000000,"state":"active","ping":77},{"user_id":26,"name":"Bestmaster202","steam_id":76561198235282680,"connected_time":1479000000000,"state":"active","ping":84},{"user_id":20,"name":"Doctor Bear ʕ •ᴥ•ʔ","steam_id":76561197968103161,"connected_time":1627000000000,"state":"active","ping":85},{"user_id":46,"name":"PVZ Squash","steam_id":76561198842560531,"connected_time":648000000000,"state":"active","ping":52},{"user_id":22,"name":"Luke","steam_id":76561198253533632,"connected_time":1587000000000,"state":"active","ping":81},{"user_id":37,"name":"Level 3 Half-Orc Serial Killer","steam_id":76561198000514025,"connected_time":1288000000000,"state":"active","ping":87},{"user_id":27,"name":"Rin \"Hindwing\" Redtail","steam_id":76561199074865638,"connected_time":1416000000000,"state":"active","ping":54},{"user_id":34,"name":"izzydex","steam_id":76561199101531034,"connected_time":1356000000000,"state":"active","ping":75},{"user_id":44,"name":"Menacing","steam_id":76561198009093788,"connected_time":1032000000000,"state":"active","ping":48},{"user_id":50,"name":"Yuck","steam_id":76561198001667870,"connected_time":234000000000,"state":"active","ping":104},{"user_id":32,"name":"twizted","steam_id":76561197960407274,"connected_time":1378000000000,"state":"active","ping":83},{"user_id":49,"name":"Fiendish Frog","steam_id":76561198029478821,"connected_time":458000000000,"state":"active","ping":95},{"user_id":36,"name":"jordanfer111","steam_id":76561198044993097,"connected_time":1320000000000,"state":"active","ping":81},{"user_id":39,"name":"Elias","steam_id":76561198106431732,"connected_time":1245000000000,"state":"active","ping":84},{"user_id":40,"name":"Jovo","steam_id":76561197993265970,"connected_time":1240000000000,"state":"active","ping":101},{"user_id":43,"name":"Digit","steam_id":76561198156589157,"connected_time":1083000000000,"state":"active","ping":81},{"user_id":42,"name":"Never Ovaryacting","steam_id":76561198158691254,"connected_time":1187000000000,"state":"active","ping":67}]},{"server_id":404,"name":"Uncletopia | Dallas | 3 | All Maps","name_short":"dal-3","host":"dal-1.us.uncletopia.com","port":27035,"enabled":true,"region":"us-central","cc":"us","latitude":32.779167,"longitude":-96.80889,"reserved":0,"last_update":"0001-01-01T00:00:00Z","name_a2s":"Uncletopia | Dallas | 3 | All Maps","protocol":17,"map":"koth_cascade","folder":"tf","game":"Team Fortress","app_id":440,"player_count":0,"max_players":24,"Bots":0,"server_type":"Dedicated","server_os":"Linux","password":true,"vac":true,"version":"7961495","steam_id":85568392924515219,"keywords":["cp","nocrits","nodmgspread","uncletopia"],"game_id":440,"stv_port":27036,"stv_name":"Uncletopia | Dallas | 3 | All Maps | STV","players":null},{"server_id":405,"name":"Uncletopia | Dallas | 4 | Community","name_short":"dal-4","host":"dal-1.us.uncletopia.com","port":27045,"enabled":true,"region":"us-central","cc":"us","latitude":32.779167,"longitude":-96.80889,"reserved":0,"last_update":"0001-01-01T00:00:00Z","name_a2s":"Uncletopia | Dallas | 4 | Community","protocol":17,"map":"workshop/koth_synthetic_rc6a.ugc1549817316","folder":"tf","game":"Team Fortress","app_id":440,"player_count":0,"max_players":24,"Bots":0,"server_type":"Dedicated","server_os":"Linux","password":true,"vac":true,"version":"7961495","steam_id":85568392924515220,"keywords":["cp","nocrits","nodmgspread","uncletopia"],"game_id":440,"stv_port":27046,"stv_name":"Uncletopia | Dallas | 4 | Community | STV","players":null},{"server_id":5,"name":"Uncletopia | Frankfurt | 1 | All Maps","name_short":"frk-1","host":"frk-1.de.uncletopia.com","port":27015,"enabled":true,"region":"eu","cc":"de","latitude":50.110924,"longitude":8.682127,"reserved":0,"last_update":"0001-01-01T00:00:00Z","name_a2s":"Uncletopia | Frankfurt | 1 | All Maps","protocol":17,"map":"pl_badwater","folder":"tf","game":"Team Fortress","app_id":440,"player_count":24,"max_players":24,"Bots":0,"server_type":"Dedicated","server_os":"Linux","password":true,"vac":true,"version":"7961495","steam_id":85568392924469989,"keywords":["nocrits","nodmgspread","payload","uncletopia"],"game_id":440,"stv_port":27016,"stv_name":"Uncletopia | Frankfurt | 1 | All Maps | STV","players":[{"user_id":358,"name":"barna.mate5","steam_id":76561199162367611,"connected_time":559000000000,"state":"active","ping":57},{"user_id":347,"name":"GMsU | AuxiliusM","steam_id":76561198071903356,"connected_time":1472000000000,"state":"active","ping":29},{"user_id":361,"name":"BuddhaBrot","steam_id":76561198181885110,"connected_time":55000000000,"state":"active","ping":45},{"user_id":352,"name":"Marty™","steam_id":76561198060073673,"connected_time":1207000000000,"state":"active","ping":60},{"user_id":354,"name":"cocaine fan","steam_id":76561198123592400,"connected_time":982000000000,"state":"active","ping":78},{"user_id":348,"name":"GuyWithoutAPie","steam_id":76561198054512149,"connected_time":1455000000000,"state":"active","ping":45},{"user_id":355,"name":"Proffesional Nan Shagger","steam_id":76561199135330579,"connected_time":814000000000,"state":"active","ping":77},{"user_id":340,"name":"BONA FIDE PISS","steam_id":76561198130020929,"connected_time":1724000000000,"state":"active","ping":56},{"user_id":298,"name":"Carlo","steam_id":76561198276491098,"connected_time":4659000000000,"state":"active","ping":61},{"user_id":339,"name":"disposablesuperbread","steam_id":76561199074703607,"connected_time":1867000000000,"state":"active","ping":50},{"user_id":317,"name":"raczekr95","steam_id":76561198137619296,"connected_time":3845000000000,"state":"active","ping":54},{"user_id":362,"name":"Dolcelatte","steam_id":76561198038501770,"connected_time":31000000000,"state":"active","ping":45},{"user_id":302,"name":"GMsU | Rebikas","steam_id":76561198077053764,"connected_time":4611000000000,"state":"active","ping":38},{"user_id":341,"name":"Ajvej","steam_id":76561198857665836,"connected_time":1670000000000,"state":"active","ping":58},{"user_id":353,"name":"Morisan","steam_id":76561198043153528,"connected_time":1144000000000,"state":"active","ping":60},{"user_id":303,"name":"GMsU | Acoul","steam_id":76561198229222992,"connected_time":4599000000000,"state":"active","ping":31},{"user_id":363,"name":"Vytuzas","steam_id":76561198012868436,"connected_time":24000000000,"state":"active","ping":71},{"user_id":356,"name":"Leviticus Cornwall","steam_id":76561197993702685,"connected_time":812000000000,"state":"active","ping":63},{"user_id":359,"name":"Ecton","steam_id":76561198025103720,"connected_time":454000000000,"state":"active","ping":59},{"user_id":357,"name":"Agent Hunk","steam_id":76561198060123954,"connected_time":572000000000,"state":"active","ping":50},{"user_id":364,"name":"Lessoz","steam_id":76561199211572036,"connected_time":21000000000,"state":"active","ping":94},{"user_id":351,"name":"hwleo","steam_id":76561198090848620,"connected_time":1344000000000,"state":"active","ping":70},{"user_id":335,"name":"ethan (not real name)","steam_id":76561198119495513,"connected_time":2626000000000,"state":"active","ping":63},{"user_id":230,"name":"Conan the Librarian","steam_id":76561198007224654,"connected_time":8329000000000,"state":"active","ping":59}]},{"server_id":110,"name":"Uncletopia | Frankfurt | 2 | All Maps","name_short":"frk-2","host":"frk-1.de.uncletopia.com","port":27025,"enabled":true,"region":"eu","cc":"de","latitude":50.110924,"longitude":8.682127,"reserved":0,"last_update":"0001-01-01T00:00:00Z","name_a2s":"Uncletopia | Frankfurt | 2 | All Maps","protocol":17,"map":"pl_badwater","folder":"tf","game":"Team Fortress","app_id":440,"player_count":24,"max_players":24,"Bots":0,"server_type":"Dedicated","server_os":"Linux","password":true,"vac":true,"version":"7961495","steam_id":85568392924469990,"keywords":["nocrits","nodmgspread","payload","uncletopia"],"game_id":440,"stv_port":27026,"stv_name":"Uncletopia | Frankfurt | 2 | All Maps | STV","players":[{"user_id":443,"name":"HobaReeeY","steam_id":76561197992965006,"connected_time":802000000000,"state":"active","ping":134},{"user_id":425,"name":"Eric Catman","steam_id":76561198802117294,"connected_time":1549000000000,"state":"active","ping":62},{"user_id":445,"name":"Noku","steam_id":76561199244666974,"connected_time":770000000000,"state":"active","ping":59},{"user_id":449,"name":"AI | Davidoscki","steam_id":76561198129166046,"connected_time":547000000000,"state":"active","ping":72},{"user_id":436,"name":"bedtime story reciever","steam_id":76561198196853610,"connected_time":976000000000,"state":"active","ping":54},{"user_id":423,"name":"тукку ирма","steam_id":76561197998715016,"connected_time":1615000000000,"state":"active","ping":61},{"user_id":422,"name":"Spanns","steam_id":76561197998349793,"connected_time":1714000000000,"state":"active","ping":74},{"user_id":424,"name":"Rigby","steam_id":76561198021552128,"connected_time":1601000000000,"state":"active","ping":108},{"user_id":434,"name":"Adolf Potter","steam_id":76561198120554557,"connected_time":983000000000,"state":"active","ping":60},{"user_id":446,"name":"RIBS GROW BACK","steam_id":76561198123659806,"connected_time":758000000000,"state":"active","ping":81},{"user_id":442,"name":"JoghurtTheKiller","steam_id":76561198063647918,"connected_time":844000000000,"state":"active","ping":41},{"user_id":411,"name":"biohazard.pt","steam_id":76561198088367808,"connected_time":2519000000000,"state":"active","ping":79},{"user_id":438,"name":"etc","steam_id":76561197998394797,"connected_time":968000000000,"state":"active","ping":59},{"user_id":450,"name":"DOLP","steam_id":76561197998765109,"connected_time":236000000000,"state":"active","ping":60},{"user_id":437,"name":"Oceanic | tuesday maybe","steam_id":76561197979741827,"connected_time":973000000000,"state":"active","ping":58},{"user_id":421,"name":"TasK","steam_id":76561198043836494,"connected_time":2021000000000,"state":"active","ping":65},{"user_id":428,"name":"calaka77","steam_id":76561198191457235,"connected_time":1504000000000,"state":"active","ping":48},{"user_id":400,"name":"Doriian","steam_id":76561198071438810,"connected_time":3734000000000,"state":"active","ping":80},{"user_id":448,"name":"MM*","steam_id":76561198091084631,"connected_time":690000000000,"state":"active","ping":114},{"user_id":452,"name":"Hey, I´m Andy!","steam_id":76561198060337777,"connected_time":146000000000,"state":"active","ping":67},{"user_id":430,"name":"Blåhaj(badass edition)","steam_id":76561199145943588,"connected_time":1489000000000,"state":"active","ping":61},{"user_id":440,"name":"Mach","steam_id":76561198952487564,"connected_time":927000000000,"state":"active","ping":180},{"user_id":416,"name":"Froenzi","steam_id":76561198168841723,"connected_time":2483000000000,"state":"active","ping":57},{"user_id":441,"name":"Qwertuss","steam_id":76561198026305366,"connected_time":913000000000,"state":"active","ping":52}]},{"server_id":308,"name":"Uncletopia | Frankfurt | 3 | All Maps","name_short":"frk-3","host":"frk-1.de.uncletopia.com","port":27035,"enabled":true,"region":"eu","cc":"de","latitude":50.110924,"longitude":8.682127,"reserved":0,"last_update":"0001-01-01T00:00:00Z","name_a2s":"Uncletopia | Frankfurt | 3 | All Maps","protocol":17,"map":"pl_barnblitz","folder":"tf","game":"Team Fortress","app_id":440,"player_count":24,"max_players":24,"Bots":0,"server_type":"Dedicated","server_os":"Linux","password":true,"vac":true,"version":"7961495","steam_id":85568392924504274,"keywords":["nocrits","nodmgspread","payload","uncletopia"],"game_id":440,"stv_port":27036,"stv_name":"Uncletopia | Frankfurt | 3 | All Maps | STV","players":[{"user_id":612,"name":"MR BUBBLES","steam_id":76561198019005259,"connected_time":13610000000000,"state":"active","ping":82},{"user_id":820,"name":"di","steam_id":76561199379310709,"connected_time":111000000000,"state":"active","ping":63},{"user_id":792,"name":"alex","steam_id":76561199281389958,"connected_time":1960000000000,"state":"active","ping":60},{"user_id":818,"name":"Albon","steam_id":76561198060378881,"connected_time":123000000000,"state":"active","ping":60},{"user_id":803,"name":"COLAN","steam_id":76561198111255418,"connected_time":1213000000000,"state":"active","ping":50},{"user_id":808,"name":"Toasty5050","steam_id":76561198073540881,"connected_time":937000000000,"state":"active","ping":44},{"user_id":819,"name":"otto","steam_id":76561198888223024,"connected_time":115000000000,"state":"active","ping":287},{"user_id":774,"name":"Hexagon","steam_id":76561198151205758,"connected_time":3277000000000,"state":"active","ping":52},{"user_id":796,"name":"Dave","steam_id":76561197991425486,"connected_time":1811000000000,"state":"active","ping":69},{"user_id":735,"name":"Nick","steam_id":76561198036109469,"connected_time":5567000000000,"state":"active","ping":90},{"user_id":780,"name":"finbar","steam_id":76561198056812396,"connected_time":2984000000000,"state":"active","ping":81},{"user_id":809,"name":"Rimx","steam_id":76561198053034840,"connected_time":886000000000,"state":"active","ping":77},{"user_id":822,"name":"rts","steam_id":76561199090876980,"connected_time":30000000000,"state":"active","ping":72},{"user_id":823,"name":"mira","steam_id":76561199040246790,"connected_time":22000000000,"state":"active","ping":68},{"user_id":806,"name":"butter hunt (caber gang)","steam_id":76561198192343263,"connected_time":1133000000000,"state":"active","ping":57},{"user_id":740,"name":"caramel❤","steam_id":76561198819353867,"connected_time":5489000000000,"state":"active","ping":51},{"user_id":763,"name":"Rock..","steam_id":76561198004641963,"connected_time":4318000000000,"state":"active","ping":75},{"user_id":817,"name":"cock fucker pussy smacker","steam_id":76561198097515215,"connected_time":154000000000,"state":"active","ping":59},{"user_id":804,"name":"myon","steam_id":76561197992528570,"connected_time":1205000000000,"state":"active","ping":94},{"user_id":785,"name":"Mr. Mundy","steam_id":76561198132008918,"connected_time":2667000000000,"state":"active","ping":75},{"user_id":811,"name":"Kolodziej","steam_id":76561198088672385,"connected_time":743000000000,"state":"active","ping":75},{"user_id":814,"name":"-rikeOo-","steam_id":76561198303995379,"connected_time":399000000000,"state":"active","ping":68},{"user_id":807,"name":"Chappi","steam_id":76561198075512843,"connected_time":1042000000000,"state":"active","ping":80},{"user_id":812,"name":"sokige","steam_id":76561198167112371,"connected_time":727000000000,"state":"active","ping":96}]},{"server_id":309,"name":"Uncletopia | Frankfurt | 4 | All Maps","name_short":"frk-4","host":"frk-1.de.uncletopia.com","port":27045,"enabled":true,"region":"eu","cc":"de","latitude":50.110924,"longitude":8.682127,"reserved":0,"last_update":"0001-01-01T00:00:00Z","name_a2s":"Uncletopia | Frankfurt | 4 | All Maps","protocol":17,"map":"pl_pier","folder":"tf","game":"Team Fortress","app_id":440,"player_count":23,"max_players":24,"Bots":0,"server_type":"Dedicated","server_os":"Linux","password":true,"vac":true,"version":"7961495","steam_id":85568392924504275,"keywords":["nocrits","nodmgspread","payload","uncletopia"],"game_id":440,"stv_port":27046,"stv_name":"Uncletopia | Frankfurt | 4 | All Maps | STV","players":[{"user_id":522,"name":"BadAimBen","steam_id":76561198127639973,"connected_time":3744000000000,"state":"active","ping":50},{"user_id":585,"name":"Spinya","steam_id":76561198086653667,"connected_time":355000000000,"state":"active","ping":65},{"user_id":567,"name":"Doctor Mobius","steam_id":76561197971281806,"connected_time":1093000000000,"state":"active","ping":56},{"user_id":584,"name":"oskaroku00","steam_id":76561199025360128,"connected_time":382000000000,"state":"active","ping":74},{"user_id":583,"name":"Waltcha","steam_id":76561198007691468,"connected_time":527000000000,"state":"active","ping":60},{"user_id":590,"name":"craig","steam_id":76561198907428350,"connected_time":274000000000,"state":"active","ping":61},{"user_id":586,"name":"DudeoftheRock","steam_id":76561198059401865,"connected_time":347000000000,"state":"active","ping":69},{"user_id":595,"name":"jejelebg","steam_id":76561198054269378,"connected_time":98000000000,"state":"active","ping":54},{"user_id":587,"name":"Noob","steam_id":76561198104438656,"connected_time":325000000000,"state":"active","ping":72},{"user_id":511,"name":"✪ m_br3","steam_id":76561198044981990,"connected_time":4371000000000,"state":"active","ping":72},{"user_id":518,"name":"Grumtsior","steam_id":76561198043563111,"connected_time":3876000000000,"state":"active","ping":63},{"user_id":556,"name":"Zerfesh","steam_id":76561198117534358,"connected_time":2677000000000,"state":"active","ping":78},{"user_id":577,"name":"Ama_r0","steam_id":76561198348377332,"connected_time":654000000000,"state":"active","ping":88},{"user_id":588,"name":"Tort","steam_id":76561198329646769,"connected_time":320000000000,"state":"active","ping":81},{"user_id":535,"name":"Purrplehaze","steam_id":76561198297604298,"connected_time":3527000000000,"state":"active","ping":60},{"user_id":582,"name":"printer is broken","steam_id":76561198234270592,"connected_time":589000000000,"state":"active","ping":50},{"user_id":569,"name":"pfear","steam_id":76561197999207328,"connected_time":1085000000000,"state":"active","ping":90},{"user_id":574,"name":"Ulysses","steam_id":76561198042645091,"connected_time":801000000000,"state":"active","ping":60},{"user_id":568,"name":"duleduldule295","steam_id":76561199476131758,"connected_time":1090000000000,"state":"active","ping":50},{"user_id":589,"name":"60hz laptop","steam_id":76561198111229919,"connected_time":308000000000,"state":"active","ping":68},{"user_id":594,"name":"Mléčný Cecek","steam_id":76561198138939377,"connected_time":147000000000,"state":"active","ping":47},{"user_id":575,"name":"Fish_n_Chips","steam_id":76561199039556489,"connected_time":786000000000,"state":"active","ping":75},{"user_id":561,"name":"Scoob","steam_id":76561198799955153,"connected_time":2329000000000,"state":"active","ping":90}]},{"server_id":310,"name":"Uncletopia | Frankfurt | 5 | All Maps","name_short":"frk-5","host":"frk-1.de.uncletopia.com","port":27055,"enabled":true,"region":"eu","cc":"de","latitude":50.110924,"longitude":8.682127,"reserved":0,"last_update":"0001-01-01T00:00:00Z","name_a2s":"Uncletopia | Frankfurt | 5 | All Maps","protocol":17,"map":"koth_highpass","folder":"tf","game":"Team Fortress","app_id":440,"player_count":11,"max_players":24,"Bots":0,"server_type":"Dedicated","server_os":"Linux","password":true,"vac":true,"version":"7961495","steam_id":85568392924504277,"keywords":["cp","nocrits","nodmgspread","uncletopia"],"game_id":440,"stv_port":27056,"stv_name":"Uncletopia | Frankfurt | 5 | All Maps | STV","players":[{"user_id":177,"name":"bastard","steam_id":76561198993925146,"connected_time":1518000000000,"state":"active","ping":75},{"user_id":178,"name":"Hyyp10","steam_id":76561198377380658,"connected_time":1510000000000,"state":"active","ping":98},{"user_id":179,"name":"Real (Real)","steam_id":76561198323425034,"connected_time":1426000000000,"state":"active","ping":60},{"user_id":180,"name":"Ulven","steam_id":76561199198504187,"connected_time":1392000000000,"state":"active","ping":57},{"user_id":192,"name":"luisar02","steam_id":76561198254259783,"connected_time":7000000000,"state":"spawning","ping":239},{"user_id":183,"name":"Hans","steam_id":76561198431460861,"connected_time":524000000000,"state":"active","ping":51},{"user_id":186,"name":"Solid","steam_id":76561198357049292,"connected_time":428000000000,"state":"active","ping":78},{"user_id":187,"name":"AppleJuice","steam_id":76561197988380561,"connected_time":415000000000,"state":"active","ping":72},{"user_id":189,"name":"TheGoldy","steam_id":76561198038327417,"connected_time":175000000000,"state":"active","ping":81},{"user_id":190,"name":"say gex","steam_id":76561198265479349,"connected_time":146000000000,"state":"active","ping":48},{"user_id":191,"name":"Roblin24","steam_id":76561198991674513,"connected_time":102000000000,"state":"active","ping":51}]},{"server_id":311,"name":"Uncletopia | Frankfurt | 6 | All Maps","name_short":"frk-6","host":"frk-1.de.uncletopia.com","port":27065,"enabled":true,"region":"eu","cc":"de","latitude":50.110924,"longitude":8.682127,"reserved":0,"last_update":"0001-01-01T00:00:00Z","name_a2s":"Uncletopia | Frankfurt | 6 | All Maps","protocol":17,"map":"cp_mountainlab","folder":"tf","game":"Team Fortress","app_id":440,"player_count":24,"max_players":24,"Bots":0,"server_type":"Dedicated","server_os":"Linux","password":true,"vac":true,"version":"7961495","steam_id":85568392924504278,"keywords":["cp","nocrits","nodmgspread","uncletopia"],"game_id":440,"stv_port":27066,"stv_name":"Uncletopia | Frankfurt | 6 | All Maps | STV","players":[{"user_id":389,"name":"MR-XTREME","steam_id":76561199158386096,"connected_time":452000000000,"state":"active","ping":56},{"user_id":350,"name":"Medic who doesn't Heal People","steam_id":76561198073239479,"connected_time":1898000000000,"state":"active","ping":57},{"user_id":386,"name":"Kindit","steam_id":76561199029242955,"connected_time":544000000000,"state":"active","ping":102},{"user_id":337,"name":"Apollo","steam_id":76561198866054007,"connected_time":3249000000000,"state":"active","ping":68},{"user_id":387,"name":"Acanda","steam_id":76561198123246537,"connected_time":485000000000,"state":"active","ping":45},{"user_id":385,"name":"Unemployedcamel","steam_id":76561198103908668,"connected_time":694000000000,"state":"active","ping":75},{"user_id":372,"name":"R4yzan","steam_id":76561198085146731,"connected_time":1324000000000,"state":"active","ping":60},{"user_id":379,"name":"Wild_Xray26","steam_id":76561198059386050,"connected_time":1017000000000,"state":"active","ping":68},{"user_id":340,"name":"jester_thomas","steam_id":76561199169559844,"connected_time":3140000000000,"state":"active","ping":77},{"user_id":392,"name":"Oldwest1234","steam_id":76561198079594993,"connected_time":346000000000,"state":"active","ping":145},{"user_id":384,"name":"Burpman","steam_id":76561198022897937,"connected_time":875000000000,"state":"active","ping":61},{"user_id":394,"name":"kelm","steam_id":76561198027166144,"connected_time":94000000000,"state":"active","ping":83},{"user_id":354,"name":"Erection Man","steam_id":76561198021714542,"connected_time":1801000000000,"state":"active","ping":60},{"user_id":358,"name":"rediska2","steam_id":76561198015882125,"connected_time":1684000000000,"state":"active","ping":80},{"user_id":388,"name":"Citromfa","steam_id":76561198427549600,"connected_time":476000000000,"state":"active","ping":77},{"user_id":362,"name":"Serg","steam_id":76561198218959001,"connected_time":1616000000000,"state":"active","ping":62},{"user_id":363,"name":"Greem","steam_id":76561198241711724,"connected_time":1608000000000,"state":"active","ping":93},{"user_id":374,"name":"zzz...","steam_id":76561199149307190,"connected_time":1316000000000,"state":"active","ping":75},{"user_id":377,"name":"G/3","steam_id":76561198234844188,"connected_time":1273000000000,"state":"active","ping":57},{"user_id":334,"name":"Ephix","steam_id":76561197977164055,"connected_time":3384000000000,"state":"active","ping":48},{"user_id":366,"name":"irritable vowel syndrome","steam_id":76561198117033273,"connected_time":1564000000000,"state":"active","ping":73},{"user_id":390,"name":"smell_my_cheese","steam_id":76561198008517427,"connected_time":416000000000,"state":"active","ping":54},{"user_id":370,"name":"After8","steam_id":76561198090750865,"connected_time":1412000000000,"state":"active","ping":60},{"user_id":381,"name":"mümq","steam_id":76561198085153806,"connected_time":1014000000000,"state":"active","ping":52}]},{"server_id":23,"name":"Uncletopia | Frankfurt | 7 | Stopwatch","name_short":"frk-7","host":"frk-1.de.uncletopia.com","port":27075,"enabled":true,"region":"eu","cc":"de","latitude":50.110924,"longitude":8.682127,"reserved":0,"last_update":"0001-01-01T00:00:00Z","name_a2s":"Uncletopia | Frankfurt | 7 | Stopwatch","protocol":17,"map":"workshop/cp_reckoner_rc6.ugc674719999","folder":"tf","game":"Team Fortress","app_id":440,"player_count":24,"max_players":24,"Bots":0,"server_type":"Dedicated","server_os":"Linux","password":true,"vac":true,"version":"7961495","steam_id":85568392924742827,"keywords":["cp","nocrits","nodmgspread","uncletopia"],"game_id":440,"stv_port":27076,"stv_name":"Uncletopia | Frankfurt | 7 | Stopwatch | STV","players":[{"user_id":71,"name":"Syd","steam_id":76561198020515027,"connected_time":2917000000000,"state":"active","ping":63},{"user_id":109,"name":"TylowStar","steam_id":76561198357107806,"connected_time":1099000000000,"state":"active","ping":75},{"user_id":85,"name":"aaalol","steam_id":76561198041309737,"connected_time":2423000000000,"state":"active","ping":53},{"user_id":112,"name":"jonh","steam_id":76561198261853441,"connected_time":1007000000000,"state":"active","ping":60},{"user_id":110,"name":"jan09102004","steam_id":76561198445458615,"connected_time":1095000000000,"state":"active","ping":79},{"user_id":113,"name":"H-say","steam_id":76561198177400362,"connected_time":955000000000,"state":"active","ping":59},{"user_id":96,"name":"didi_gaga","steam_id":76561198797688627,"connected_time":2007000000000,"state":"active","ping":61},{"user_id":63,"name":"G_raff","steam_id":76561199048512726,"connected_time":3262000000000,"state":"active","ping":85},{"user_id":102,"name":"DEFENDOR62","steam_id":76561199386703896,"connected_time":1322000000000,"state":"active","ping":52},{"user_id":60,"name":"Spurt","steam_id":76561198078523852,"connected_time":3326000000000,"state":"active","ping":58},{"user_id":117,"name":"piracylord69","steam_id":76561199444799824,"connected_time":798000000000,"state":"active","ping":55},{"user_id":62,"name":"Veltek","steam_id":76561198112681438,"connected_time":3297000000000,"state":"active","ping":70},{"user_id":114,"name":"Obscure Rock Album","steam_id":76561198032359132,"connected_time":892000000000,"state":"active","ping":57},{"user_id":116,"name":"Dennis Scrotum","steam_id":76561198152681460,"connected_time":872000000000,"state":"active","ping":70},{"user_id":88,"name":"roblan11","steam_id":76561198066839258,"connected_time":2328000000000,"state":"active","ping":45},{"user_id":119,"name":"anabol1c steroids","steam_id":76561199470147761,"connected_time":694000000000,"state":"active","ping":119},{"user_id":121,"name":"^1MARAMA PALEX","steam_id":76561198311372563,"connected_time":522000000000,"state":"active","ping":74},{"user_id":70,"name":"Mael-chan\u003c3","steam_id":76561197996852498,"connected_time":3016000000000,"state":"active","ping":45},{"user_id":72,"name":"John Doe","steam_id":76561198369597903,"connected_time":2859000000000,"state":"active","ping":89},{"user_id":73,"name":"Papi Juan","steam_id":76561199033908321,"connected_time":2854000000000,"state":"active","ping":75},{"user_id":122,"name":"Glue you back together","steam_id":76561199067658590,"connected_time":508000000000,"state":"active","ping":123},{"user_id":124,"name":"Snugboo","steam_id":76561198147970327,"connected_time":184000000000,"state":"active","ping":137},{"user_id":90,"name":"lim h -\u003e 0 (f(x+h) - f(x))/h","steam_id":76561198340933995,"connected_time":2325000000000,"state":"active","ping":71},{"user_id":125,"name":"Atomix","steam_id":76561199270776321,"connected_time":10000000000,"state":"spawning","ping":87}]},{"server_id":24,"name":"Uncletopia | Frankfurt | 8 | Community","name_short":"frk-8","host":"frk-1.de.uncletopia.com","port":27085,"enabled":true,"region":"eu","cc":"de","latitude":50.110924,"longitude":8.682127,"reserved":0,"last_update":"0001-01-01T00:00:00Z","name_a2s":"Uncletopia | Frankfurt | 8 | Community","protocol":17,"map":"workshop/koth_jamram_rc1a.ugc2964065613","folder":"tf","game":"Team Fortress","app_id":440,"player_count":0,"max_players":24,"Bots":0,"server_type":"Dedicated","server_os":"Linux","password":true,"vac":true,"version":"7961495","steam_id":85568392924742828,"keywords":["cp","nocrits","nodmgspread","uncletopia"],"game_id":440,"stv_port":27086,"stv_name":"Uncletopia | Frankfurt | 8 | Community | STV","players":null},{"server_id":202,"name":"Uncletopia | Hong Kong | 1 | All Maps","name_short":"hgk-1","host":"hgk-1.hk.uncletopia.com","port":27015,"enabled":true,"region":"asia","cc":"hk","latitude":22.302711,"longitude":114.177216,"reserved":0,"last_update":"0001-01-01T00:00:00Z","name_a2s":"Uncletopia | Hong Kong | 1 | All Maps","protocol":17,"map":"pl_frontier_final","folder":"tf","game":"Team Fortress","app_id":440,"player_count":0,"max_players":24,"Bots":0,"server_type":"Dedicated","server_os":"Linux","password":true,"vac":true,"version":"7961495","steam_id":85568392924494504,"keywords":["nocrits","nodmgspread","payload","uncletopia"],"game_id":440,"stv_port":27016,"stv_name":"Uncletopia | Hong Kong | 1 | All Maps | STV","players":null},{"server_id":1,"name":"Uncletopia | Los Angeles | 1 | All Maps","name_short":"lax-1","host":"lax-1.us.uncletopia.com","port":27015,"enabled":true,"region":"us-west","cc":"us","latitude":33.94279,"longitude":-118.41004,"reserved":0,"last_update":"0001-01-01T00:00:00Z","name_a2s":"Uncletopia | Los Angeles | 1 | All Maps","protocol":17,"map":"koth_cascade","folder":"tf","game":"Team Fortress","app_id":440,"player_count":0,"max_players":24,"Bots":0,"server_type":"Dedicated","server_os":"Linux","password":true,"vac":true,"version":"7961495","steam_id":85568392924469991,"keywords":["cp","nocrits","nodmgspread","uncletopia"],"game_id":440,"stv_port":27016,"stv_name":"Uncletopia | Los Angeles | 1 | All Maps | STV","players":null},{"server_id":112,"name":"Uncletopia | Los Angeles | 2 | All Maps","name_short":"lax-2","host":"lax-1.us.uncletopia.com","port":27025,"enabled":true,"region":"us-west","cc":"us","latitude":33.94279,"longitude":-118.41004,"reserved":0,"last_update":"0001-01-01T00:00:00Z","name_a2s":"Uncletopia | Los Angeles | 2 | All Maps","protocol":17,"map":"koth_cascade","folder":"tf","game":"Team Fortress","app_id":440,"player_count":0,"max_players":24,"Bots":0,"server_type":"Dedicated","server_os":"Linux","password":true,"vac":true,"version":"7961495","steam_id":85568392924469992,"keywords":["cp","nocrits","nodmgspread","uncletopia"],"game_id":440,"stv_port":27026,"stv_name":"Uncletopia | Los Angeles | 2 | All Maps | STV","players":null},{"server_id":324,"name":"Uncletopia | Los Angeles | 3 | All Maps","name_short":"lax-3","host":"lax-1.us.uncletopia.com","port":27035,"enabled":true,"region":"us-west","cc":"us","latitude":33.94279,"longitude":-118.41004,"reserved":0,"last_update":"0001-01-01T00:00:00Z","name_a2s":"Uncletopia | Los Angeles | 3 | All Maps","protocol":17,"map":"pl_pier","folder":"tf","game":"Team Fortress","app_id":440,"player_count":0,"max_players":24,"Bots":0,"server_type":"Dedicated","server_os":"Linux","password":true,"vac":true,"version":"7961495","steam_id":85568392924510198,"keywords":["nocrits","nodmgspread","payload","uncletopia"],"game_id":440,"stv_port":27036,"stv_name":"Uncletopia | Los Angeles | 3 | All Maps | STV","players":null},{"server_id":25,"name":"Uncletopia | Los Angeles | 4 | Stopwatch","name_short":"lax-4","host":"lax-1.us.uncletopia.com","port":27045,"enabled":true,"region":"us-west","cc":"us","latitude":33.94279,"longitude":-118.41004,"reserved":0,"last_update":"0001-01-01T00:00:00Z","name_a2s":"Uncletopia | Los Angeles | 4 | Stopwatch","protocol":17,"map":"pl_upward","folder":"tf","game":"Team Fortress","app_id":440,"player_count":0,"max_players":24,"Bots":0,"server_type":"Dedicated","server_os":"Linux","password":true,"vac":true,"version":"7961495","steam_id":85568392924510199,"keywords":["nocrits","nodmgspread","payload","uncletopia"],"game_id":440,"stv_port":27046,"stv_name":"Uncletopia | Los Angeles | 4 | Stopwatch | STV","players":null},{"server_id":11,"name":"Uncletopia | London | 1 | All Maps","name_short":"lon-1","host":"lon-1.uk.uncletopia.com","port":27015,"enabled":true,"region":"eu","cc":"gb","latitude":51.509865,"longitude":-0.118092,"reserved":0,"last_update":"0001-01-01T00:00:00Z","name_a2s":"Uncletopia | London | 1 | All Maps","protocol":17,"map":"koth_brazil","folder":"tf","game":"Team Fortress","app_id":440,"player_count":24,"max_players":24,"Bots":0,"server_type":"Dedicated","server_os":"Linux","password":true,"vac":true,"version":"7961495","steam_id":85568392924367362,"keywords":["cp","nocrits","nodmgspread","uncletopia"],"game_id":440,"stv_port":27016,"stv_name":"Uncletopia | London | 1 | All Maps | STV","players":[{"user_id":453,"name":"whimsy.","steam_id":76561198878171763,"connected_time":9720000000000,"state":"active","ping":50},{"user_id":552,"name":"spencer pooties","steam_id":76561198123044544,"connected_time":1945000000000,"state":"active","ping":62},{"user_id":518,"name":"Star Throne","steam_id":76561198132171027,"connected_time":5361000000000,"state":"active","ping":55},{"user_id":563,"name":"Vivian From Paper Mario","steam_id":76561198077624205,"connected_time":933000000000,"state":"active","ping":66},{"user_id":576,"name":"Kahvi","steam_id":76561198723244199,"connected_time":545000000000,"state":"active","ping":75},{"user_id":534,"name":"albert","steam_id":76561198353496134,"connected_time":3826000000000,"state":"active","ping":55},{"user_id":579,"name":"Minimi","steam_id":76561198873850443,"connected_time":197000000000,"state":"active","ping":49},{"user_id":555,"name":"Vylonic","steam_id":76561198068190114,"connected_time":1356000000000,"state":"active","ping":44},{"user_id":513,"name":"ber","steam_id":76561197993892057,"connected_time":5845000000000,"state":"active","ping":90},{"user_id":551,"name":"Aaron","steam_id":76561197990046953,"connected_time":2646000000000,"state":"active","ping":59},{"user_id":531,"name":"Bronchius Bonehead","steam_id":76561198133961416,"connected_time":3974000000000,"state":"active","ping":53},{"user_id":542,"name":"emer","steam_id":76561198001420975,"connected_time":3218000000000,"state":"active","ping":103},{"user_id":519,"name":"TheKerhard","steam_id":76561198086772002,"connected_time":5304000000000,"state":"active","ping":122},{"user_id":572,"name":"Just Navlis","steam_id":76561198090479609,"connected_time":765000000000,"state":"active","ping":55},{"user_id":515,"name":"trite","steam_id":76561197983765323,"connected_time":5815000000000,"state":"active","ping":42},{"user_id":477,"name":"Enjoyer","steam_id":76561198147399855,"connected_time":8538000000000,"state":"active","ping":121},{"user_id":541,"name":"unconditional love","steam_id":76561199026097466,"connected_time":3320000000000,"state":"active","ping":70},{"user_id":575,"name":"iiamiizzyy","steam_id":76561198355030751,"connected_time":607000000000,"state":"active","ping":128},{"user_id":536,"name":"Pterodactyl P. Jones","steam_id":76561198017513012,"connected_time":3703000000000,"state":"active","ping":50},{"user_id":556,"name":"mertefe","steam_id":76561199237126613,"connected_time":1289000000000,"state":"active","ping":89},{"user_id":560,"name":"Vershal Smershal","steam_id":76561198116223995,"connected_time":990000000000,"state":"active","ping":59},{"user_id":574,"name":"Γατί","steam_id":76561198347020945,"connected_time":639000000000,"state":"active","ping":93},{"user_id":578,"name":"Pinkchup","steam_id":76561198106802803,"connected_time":203000000000,"state":"active","ping":86},{"user_id":517,"name":"realhracosta","steam_id":76561198852753790,"connected_time":5768000000000,"state":"active","ping":114}]},{"server_id":114,"name":"Uncletopia | London | 2 | All Maps","name_short":"lon-2","host":"lon-1.uk.uncletopia.com","port":27025,"enabled":true,"region":"eu","cc":"gb","latitude":51.509865,"longitude":-0.118092,"reserved":0,"last_update":"0001-01-01T00:00:00Z","name_a2s":"Uncletopia | London | 2 | All Maps","protocol":17,"map":"koth_harvest_final","folder":"tf","game":"Team Fortress","app_id":440,"player_count":23,"max_players":24,"Bots":0,"server_type":"Dedicated","server_os":"Linux","password":true,"vac":true,"version":"7961495","steam_id":85568392924470941,"keywords":["cp","nocrits","nodmgspread","uncletopia"],"game_id":440,"stv_port":27026,"stv_name":"Uncletopia | London | 2 | All Maps | STV","players":[{"user_id":238,"name":"knowning none noel","steam_id":76561198046873337,"connected_time":7886000000000,"state":"active","ping":53},{"user_id":311,"name":"logitchy","steam_id":76561199062753505,"connected_time":3178000000000,"state":"active","ping":135},{"user_id":333,"name":"Marcel","steam_id":76561198348686648,"connected_time":479000000000,"state":"active","ping":41},{"user_id":339,"name":"bowchika wowa #SlavaUkraine","steam_id":76561198159564550,"connected_time":372000000000,"state":"active","ping":58},{"user_id":299,"name":"alecalove1112","steam_id":76561199235291566,"connected_time":4027000000000,"state":"active","ping":106},{"user_id":325,"name":"ThtGamrW","steam_id":76561199434562549,"connected_time":1927000000000,"state":"active","ping":150},{"user_id":337,"name":"www.earnGBP.online","steam_id":76561198005777437,"connected_time":420000000000,"state":"active","ping":33},{"user_id":335,"name":"Plep","steam_id":76561198840259819,"connected_time":468000000000,"state":"active","ping":60},{"user_id":274,"name":"Laru","steam_id":76561197998838438,"connected_time":5871000000000,"state":"active","ping":74},{"user_id":276,"name":"zayd","steam_id":76561198895235231,"connected_time":5789000000000,"state":"active","ping":57},{"user_id":336,"name":"bluecheesemints","steam_id":76561199490357988,"connected_time":467000000000,"state":"active","ping":49},{"user_id":195,"name":":3","steam_id":76561198169471853,"connected_time":11886000000000,"state":"active","ping":40},{"user_id":326,"name":"soney","steam_id":76561198121177512,"connected_time":1501000000000,"state":"active","ping":69},{"user_id":331,"name":"Pablo.Fortnite.2011","steam_id":76561198259034983,"connected_time":632000000000,"state":"active","ping":75},{"user_id":343,"name":"Sholunan","steam_id":76561198062435739,"connected_time":303000000000,"state":"active","ping":54},{"user_id":284,"name":"Abakum","steam_id":76561198413243475,"connected_time":4950000000000,"state":"active","ping":66},{"user_id":315,"name":"knowing some Samuel","steam_id":76561198010662796,"connected_time":2445000000000,"state":"active","ping":122},{"user_id":323,"name":"all knowing aaron","steam_id":76561198076219289,"connected_time":2116000000000,"state":"active","ping":58},{"user_id":338,"name":"DXD Tech","steam_id":76561198358379587,"connected_time":403000000000,"state":"active","ping":62},{"user_id":344,"name":"zibby","steam_id":76561198079291041,"connected_time":302000000000,"state":"active","ping":63},{"user_id":340,"name":"Wenix","steam_id":76561198081409623,"connected_time":368000000000,"state":"active","ping":64},{"user_id":342,"name":"oog","steam_id":76561199239325179,"connected_time":355000000000,"state":"active","ping":51},{"user_id":273,"name":"DocTwoEight","steam_id":76561198153488940,"connected_time":6160000000000,"state":"active","ping":74}]},{"server_id":320,"name":"Uncletopia | London | 3 | All Maps","name_short":"lon-3","host":"lon-1.uk.uncletopia.com","port":27035,"enabled":true,"region":"eu","cc":"gb","latitude":51.509865,"longitude":-0.118092,"reserved":0,"last_update":"0001-01-01T00:00:00Z","name_a2s":"Uncletopia | London | 3 | All Maps","protocol":17,"map":"koth_cascade","folder":"tf","game":"Team Fortress","app_id":440,"player_count":22,"max_players":24,"Bots":0,"server_type":"Dedicated","server_os":"Linux","password":true,"vac":true,"version":"7961495","steam_id":85568392924510192,"keywords":["cp","nocrits","nodmgspread","uncletopia"],"game_id":440,"stv_port":27036,"stv_name":"Uncletopia | London | 3 | All Maps | STV","players":[{"user_id":35,"name":"Tx_madmash","steam_id":76561198924656512,"connected_time":1640000000000,"state":"active","ping":54},{"user_id":36,"name":"Deemaské","steam_id":76561199225833593,"connected_time":1125000000000,"state":"active","ping":49},{"user_id":37,"name":"Crazyyk","steam_id":76561198882313836,"connected_time":1042000000000,"state":"active","ping":36},{"user_id":38,"name":"gametram","steam_id":76561199129180186,"connected_time":881000000000,"state":"active","ping":52},{"user_id":39,"name":"niandits","steam_id":76561198419798900,"connected_time":713000000000,"state":"active","ping":104},{"user_id":40,"name":"PEDRO AMIGOS","steam_id":76561198133530053,"connected_time":645000000000,"state":"active","ping":82},{"user_id":41,"name":"OMNIZJASZ","steam_id":76561198983584896,"connected_time":639000000000,"state":"active","ping":75},{"user_id":42,"name":"Marek Pierdzichuj","steam_id":76561198148646732,"connected_time":634000000000,"state":"active","ping":63},{"user_id":50,"name":"141216","steam_id":76561198011015750,"connected_time":301000000000,"state":"active","ping":57},{"user_id":45,"name":"aja","steam_id":76561198972253395,"connected_time":574000000000,"state":"active","ping":43},{"user_id":49,"name":"K_TimmyTheGlowMage_N","steam_id":76561198140012282,"connected_time":342000000000,"state":"active","ping":55},{"user_id":65,"name":"child cruncher","steam_id":76561199376433147,"connected_time":19000000000,"state":"spawning","ping":32},{"user_id":51,"name":"ruschca","steam_id":76561198041966522,"connected_time":299000000000,"state":"active","ping":44},{"user_id":62,"name":"ThatSiegeKid","steam_id":76561198368037656,"connected_time":103000000000,"state":"active","ping":32},{"user_id":54,"name":"Acucutl","steam_id":76561198133867096,"connected_time":236000000000,"state":"active","ping":45},{"user_id":55,"name":"Yandere Tomboy enthusiast (f2p)","steam_id":76561198403449689,"connected_time":228000000000,"state":"active","ping":161},{"user_id":56,"name":"engineer drip","steam_id":76561198991032570,"connected_time":178000000000,"state":"active","ping":105},{"user_id":57,"name":"Neko","steam_id":76561198075690128,"connected_time":176000000000,"state":"active","ping":64},{"user_id":58,"name":"feller","steam_id":76561198139303045,"connected_time":161000000000,"state":"active","ping":90},{"user_id":59,"name":"comic_sans","steam_id":76561198845309519,"connected_time":160000000000,"state":"active","ping":70},{"user_id":61,"name":"Purple Soup :D","steam_id":76561198985100366,"connected_time":124000000000,"state":"active","ping":80},{"user_id":63,"name":"Munibe","steam_id":76561198107967904,"connected_time":97000000000,"state":"active","ping":53}]},{"server_id":321,"name":"Uncletopia | London | 4 | All Maps","name_short":"lon-4","host":"lon-1.uk.uncletopia.com","port":27045,"enabled":true,"region":"eu","cc":"gb","latitude":51.509865,"longitude":-0.118092,"reserved":0,"last_update":"0001-01-01T00:00:00Z","name_a2s":"Uncletopia | London | 4 | All Maps","protocol":17,"map":"cp_process_final","folder":"tf","game":"Team Fortress","app_id":440,"player_count":23,"max_players":24,"Bots":0,"server_type":"Dedicated","server_os":"Linux","password":true,"vac":true,"version":"7961495","steam_id":85568392924510193,"keywords":["cp","nocrits","nodmgspread","uncletopia"],"game_id":440,"stv_port":27046,"stv_name":"Uncletopia | London | 4 | All Maps | STV","players":[{"user_id":197,"name":"noot","steam_id":76561198148074472,"connected_time":46000000000,"state":"active","ping":46},{"user_id":199,"name":"Rogue","steam_id":76561199143593182,"connected_time":31000000000,"state":"active","ping":46},{"user_id":148,"name":"B∞p | ❤Fasto❤","steam_id":76561198118298527,"connected_time":2629000000000,"state":"active","ping":60},{"user_id":193,"name":"LEGEND FUMO.","steam_id":76561198061033903,"connected_time":77000000000,"state":"active","ping":51},{"user_id":190,"name":"who is gavin?","steam_id":76561198069415057,"connected_time":1477000000000,"state":"active","ping":113},{"user_id":151,"name":"woople","steam_id":76561198076625889,"connected_time":2380000000000,"state":"active","ping":86},{"user_id":152,"name":"B∞p | ❤Hina❤","steam_id":76561198058465921,"connected_time":2371000000000,"state":"active","ping":44},{"user_id":154,"name":"John Nuts","steam_id":76561199079951047,"connected_time":2308000000000,"state":"active","ping":90},{"user_id":155,"name":"BLOCKER","steam_id":76561198307502718,"connected_time":2274000000000,"state":"active","ping":61},{"user_id":156,"name":"scotty7","steam_id":76561197973301297,"connected_time":2272000000000,"state":"active","ping":58},{"user_id":194,"name":"A Pigeon","steam_id":76561198114090555,"connected_time":73000000000,"state":"active","ping":86},{"user_id":158,"name":"JodeXtreme","steam_id":76561198044132935,"connected_time":2252000000000,"state":"active","ping":75},{"user_id":186,"name":"| UwU |","steam_id":76561199169607968,"connected_time":1822000000000,"state":"active","ping":31},{"user_id":187,"name":"Macci - Obismal","steam_id":76561198050485404,"connected_time":1709000000000,"state":"active","ping":75},{"user_id":195,"name":"Michael","steam_id":76561198003146906,"connected_time":72000000000,"state":"active","ping":45},{"user_id":188,"name":"Mirage","steam_id":76561199013190566,"connected_time":1706000000000,"state":"active","ping":44},{"user_id":200,"name":"Kamelåså","steam_id":76561198149072785,"connected_time":20000000000,"state":"spawning","ping":52},{"user_id":198,"name":"raz","steam_id":76561198147277460,"connected_time":42000000000,"state":"active","ping":63},{"user_id":166,"name":"Caruzon - Obismal","steam_id":76561198036211170,"connected_time":2096000000000,"state":"active","ping":77},{"user_id":167,"name":"R8N - Obismal","steam_id":76561198007482714,"connected_time":2084000000000,"state":"active","ping":77},{"user_id":192,"name":"Frube","steam_id":76561199056867458,"connected_time":413000000000,"state":"active","ping":37},{"user_id":178,"name":"gallagahero1986","steam_id":76561198353190902,"connected_time":1971000000000,"state":"active","ping":44},{"user_id":179,"name":"CAN REDMAN","steam_id":76561198880861253,"connected_time":1947000000000,"state":"active","ping":59}]},{"server_id":21,"name":"Uncletopia | London | 5 | All Maps","name_short":"lon-5","host":"lon-1.uk.uncletopia.com","port":27055,"enabled":true,"region":"eu","cc":"gb","latitude":51.509865,"longitude":-0.118092,"reserved":0,"last_update":"0001-01-01T00:00:00Z","name_a2s":"Uncletopia | London | 5 | All Maps","protocol":17,"map":"pl_frontier_final","folder":"tf","game":"Team Fortress","app_id":440,"player_count":24,"max_players":24,"Bots":0,"server_type":"Dedicated","server_os":"Linux","password":true,"vac":true,"version":"7961495","steam_id":85568392924742829,"keywords":["nocrits","nodmgspread","payload","uncletopia"],"game_id":440,"stv_port":27056,"stv_name":"Uncletopia | London | 5 | All Maps | STV","players":[{"user_id":94,"name":"vurtun","steam_id":76561198857395274,"connected_time":2178000000000,"state":"active","ping":48},{"user_id":92,"name":"\u003c blank \u003e","steam_id":76561198355892269,"connected_time":2220000000000,"state":"active","ping":50},{"user_id":77,"name":"Solymr ibn Wali Barad","steam_id":76561198044008976,"connected_time":3843000000000,"state":"active","ping":66},{"user_id":121,"name":"kipod616","steam_id":76561198431183777,"connected_time":324000000000,"state":"active","ping":92},{"user_id":34,"name":"An_Unoriginal_Gamer","steam_id":76561198864060760,"connected_time":6046000000000,"state":"active","ping":79},{"user_id":123,"name":"Largo","steam_id":76561198844368927,"connected_time":51000000000,"state":"active","ping":79},{"user_id":122,"name":"shenanigan","steam_id":76561198043452925,"connected_time":93000000000,"state":"active","ping":67},{"user_id":57,"name":"sniper's kangaroo wife","steam_id":76561198334042273,"connected_time":5194000000000,"state":"active","ping":45},{"user_id":105,"name":"Green Eyes","steam_id":76561198136156626,"connected_time":1397000000000,"state":"active","ping":61},{"user_id":103,"name":"SOULDOG!","steam_id":76561199212057006,"connected_time":1440000000000,"state":"active","ping":62},{"user_id":110,"name":"BELADIT","steam_id":76561198011911501,"connected_time":777000000000,"state":"active","ping":89},{"user_id":36,"name":"mr_hlaf","steam_id":76561199418761445,"connected_time":5984000000000,"state":"active","ping":134},{"user_id":66,"name":"highest noon","steam_id":76561199103959197,"connected_time":4515000000000,"state":"active","ping":110},{"user_id":41,"name":"Ullr","steam_id":76561198140547483,"connected_time":5715000000000,"state":"active","ping":43},{"user_id":58,"name":"Ozzie","steam_id":76561197992915315,"connected_time":5062000000000,"state":"active","ping":75},{"user_id":73,"name":"Razef","steam_id":76561198030309484,"connected_time":4152000000000,"state":"active","ping":54},{"user_id":108,"name":"lulu","steam_id":76561199147764133,"connected_time":849000000000,"state":"active","ping":72},{"user_id":106,"name":"PASTAMANIA!","steam_id":76561197967858558,"connected_time":1353000000000,"state":"active","ping":32},{"user_id":107,"name":"tone","steam_id":76561197975301462,"connected_time":896000000000,"state":"active","ping":72},{"user_id":118,"name":"The Cool Ice Guy","steam_id":76561198146194820,"connected_time":602000000000,"state":"active","ping":60},{"user_id":89,"name":"MrFailsALot","steam_id":76561199226018880,"connected_time":2756000000000,"state":"active","ping":63},{"user_id":113,"name":"Xanics","steam_id":76561198187813929,"connected_time":726000000000,"state":"active","ping":65},{"user_id":120,"name":"Edla","steam_id":76561198062815315,"connected_time":552000000000,"state":"active","ping":129},{"user_id":56,"name":"Thundercracker__","steam_id":76561199163505476,"connected_time":5410000000000,"state":"active","ping":61}]},{"server_id":22,"name":"Uncletopia | London | 6 | All Maps","name_short":"lon-6","host":"lon-1.uk.uncletopia.com","port":27065,"enabled":true,"region":"eu","cc":"gb","latitude":51.509865,"longitude":-0.118092,"reserved":0,"last_update":"0001-01-01T00:00:00Z","name_a2s":"Uncletopia | London | 6 | All Maps","protocol":17,"map":"cp_powerhouse","folder":"tf","game":"Team Fortress","app_id":440,"player_count":23,"max_players":24,"Bots":0,"server_type":"Dedicated","server_os":"Linux","password":true,"vac":true,"version":"7961495","steam_id":85568392924742830,"keywords":["cp","nocrits","nodmgspread","uncletopia"],"game_id":440,"stv_port":27066,"stv_name":"Uncletopia | London | 6 | All Maps | STV","players":[{"user_id":179,"name":"worgeral","steam_id":76561198050781898,"connected_time":274000000000,"state":"active","ping":62},{"user_id":167,"name":"Milk","steam_id":76561198125876588,"connected_time":1290000000000,"state":"active","ping":38},{"user_id":168,"name":"m909","steam_id":76561198279621400,"connected_time":1241000000000,"state":"active","ping":100},{"user_id":155,"name":"|MT|","steam_id":76561199052865451,"connected_time":1884000000000,"state":"active","ping":111},{"user_id":166,"name":"Frazzle","steam_id":76561198262577951,"connected_time":1414000000000,"state":"active","ping":62},{"user_id":153,"name":"ElegantSort","steam_id":76561198236788328,"connected_time":1998000000000,"state":"active","ping":120},{"user_id":131,"name":"Amandus","steam_id":76561198036281079,"connected_time":3030000000000,"state":"active","ping":66},{"user_id":69,"name":"john fortress","steam_id":76561198013237629,"connected_time":7031000000000,"state":"active","ping":94},{"user_id":169,"name":"Average Chinese Man","steam_id":76561199076883472,"connected_time":1215000000000,"state":"active","ping":62},{"user_id":165,"name":"Head empty","steam_id":76561198067561269,"connected_time":1516000000000,"state":"active","ping":64},{"user_id":154,"name":"statysta #52","steam_id":76561198304394624,"connected_time":1996000000000,"state":"active","ping":82},{"user_id":176,"name":"5tv^","steam_id":76561198063129586,"connected_time":422000000000,"state":"active","ping":44},{"user_id":180,"name":"MisterLegitimate","steam_id":76561199198559715,"connected_time":244000000000,"state":"active","ping":56},{"user_id":183,"name":"Smartest Person In the Universe","steam_id":76561199444636848,"connected_time":140000000000,"state":"active","ping":47},{"user_id":170,"name":"Prox","steam_id":76561198351490981,"connected_time":1212000000000,"state":"active","ping":37},{"user_id":175,"name":"perfectemu","steam_id":76561199147866624,"connected_time":446000000000,"state":"active","ping":147},{"user_id":171,"name":"BD[PL]","steam_id":76561198115995871,"connected_time":1204000000000,"state":"active","ping":92},{"user_id":145,"name":"doge.png","steam_id":76561198150864621,"connected_time":2577000000000,"state":"active","ping":72},{"user_id":98,"name":"TheBeardedM1G","steam_id":76561198040208946,"connected_time":5787000000000,"state":"active","ping":41},{"user_id":177,"name":"The Burger","steam_id":76561198124463930,"connected_time":391000000000,"state":"active","ping":44},{"user_id":182,"name":"Supercoxylac","steam_id":76561198376300138,"connected_time":226000000000,"state":"active","ping":52},{"user_id":136,"name":"Crimson","steam_id":76561197987552332,"connected_time":2995000000000,"state":"active","ping":51},{"user_id":162,"name":"❤ Sparx ❤","steam_id":76561198095009261,"connected_time":1650000000000,"state":"active","ping":66}]},{"server_id":40,"name":"Uncletopia | London | 7 | Stopwatch","name_short":"lon-7","host":"lon-1.uk.uncletopia.com","port":27075,"enabled":true,"region":"eu","cc":"gb","latitude":51.509865,"longitude":-0.118092,"reserved":0,"last_update":"0001-01-01T00:00:00Z","name_a2s":"Uncletopia | London | 7 | Stopwatch","protocol":17,"map":"workshop/koth_jamram_rc1a.ugc2964065613","folder":"tf","game":"Team Fortress","app_id":440,"player_count":0,"max_players":24,"Bots":0,"server_type":"Dedicated","server_os":"Linux","password":true,"vac":true,"version":"7961495","steam_id":85568392924964314,"keywords":["cp","nocrits","nodmgspread","uncletopia"],"game_id":440,"stv_port":27076,"stv_name":"Uncletopia | London | 7 | Stopwatch | STV","players":null},{"server_id":41,"name":"Uncletopia | London | 8 | Community","name_short":"lon-8","host":"lon-1.uk.uncletopia.com","port":27085,"enabled":true,"region":"eu","cc":"gb","latitude":51.509865,"longitude":-0.118092,"reserved":0,"last_update":"0001-01-01T00:00:00Z","name_a2s":"Uncletopia | London | 8 | Community","protocol":17,"map":"workshop/pl_emerge_rc2.ugc888027758","folder":"tf","game":"Team Fortress","app_id":440,"player_count":5,"max_players":24,"Bots":0,"server_type":"Dedicated","server_os":"Linux","password":true,"vac":true,"version":"7961495","steam_id":85568392924964315,"keywords":["nocrits","nodmgspread","payload","uncletopia"],"game_id":440,"stv_port":27086,"stv_name":"Uncletopia | London | 8 | Community | STV","players":[{"user_id":12,"name":"cl_skillissue 1","steam_id":76561199286764992,"connected_time":985000000000,"state":"active","ping":75},{"user_id":13,"name":"wwwslezo","steam_id":76561198867946026,"connected_time":517000000000,"state":"active","ping":58},{"user_id":11,"name":"Roy","steam_id":76561199071707695,"connected_time":1460000000000,"state":"active","ping":144},{"user_id":10,"name":"Kwetch","steam_id":76561199405413425,"connected_time":1758000000000,"state":"active","ping":98},{"user_id":14,"name":"Flying skyhigh","steam_id":76561198372971096,"connected_time":210000000000,"state":"active","ping":76}]},{"server_id":300,"name":"Uncletopia | Montréal | 1 | One Thousand Uncles","name_short":"mtl-1","host":"mtl-1.ca.uncletopia.com","port":27015,"enabled":true,"region":"us-east","cc":"ca","latitude":45.50889,"longitude":-73.56167,"reserved":0,"last_update":"0001-01-01T00:00:00Z","name_a2s":"Uncletopia | Montréal | 1 | One Thousand Uncles","protocol":17,"map":"pl_chilly","folder":"tf","game":"Team Fortress","app_id":440,"player_count":22,"max_players":32,"Bots":16,"server_type":"Dedicated","server_os":"Linux","password":true,"vac":true,"version":"7961495","steam_id":85568392924500087,"keywords":["alltalk","bots","danepve","increased_maxplayers","norespawntime","payload","uncletopia"],"game_id":440,"stv_port":0,"stv_name":"","players":[{"user_id":36,"name":"ScribblyTheScribble","steam_id":76561199446805070,"connected_time":1841000000000,"state":"active","ping":76},{"user_id":19,"name":"Sentient_Magic","steam_id":76561198058106226,"connected_time":2078000000000,"state":"active","ping":36},{"user_id":38,"name":"Fllint","steam_id":76561199046737035,"connected_time":1573000000000,"state":"active","ping":172},{"user_id":39,"name":"Monday","steam_id":76561198310811821,"connected_time":1561000000000,"state":"active","ping":101},{"user_id":40,"name":"PiRA","steam_id":76561197962440292,"connected_time":1409000000000,"state":"active","ping":47},{"user_id":41,"name":"Benyboi_f2p","steam_id":76561199501299582,"connected_time":766000000000,"state":"active","ping":62}]},{"server_id":301,"name":"Uncletopia | Montréal | 2 | One Thousand Uncles","name_short":"mtl-2","host":"mtl-1.ca.uncletopia.com","port":27025,"enabled":true,"region":"us-east","cc":"ca","latitude":45.50889,"longitude":-73.56167,"reserved":0,"last_update":"0001-01-01T00:00:00Z","name_a2s":"Uncletopia | Montréal | 2 | One Thousand Uncles","protocol":17,"map":"pl_chilly","folder":"tf","game":"Team Fortress","app_id":440,"player_count":0,"max_players":32,"Bots":0,"server_type":"Dedicated","server_os":"Linux","password":true,"vac":true,"version":"7961495","steam_id":85568392924500088,"keywords":["alltalk","danepve","increased_maxplayers","norespawntime","payload","uncletopia"],"game_id":440,"stv_port":0,"stv_name":"","players":null},{"server_id":302,"name":"Uncletopia | Montréal | 3 | One Thousand Uncles","name_short":"mtl-3","host":"mtl-1.ca.uncletopia.com","port":27035,"enabled":true,"region":"us-east","cc":"ca","latitude":45.50889,"longitude":-73.56167,"reserved":0,"last_update":"0001-01-01T00:00:00Z","name_a2s":"Uncletopia | Montréal | 3 | One Thousand Uncles","protocol":17,"map":"pl_goldrush","folder":"tf","game":"Team Fortress","app_id":440,"player_count":24,"max_players":32,"Bots":16,"server_type":"Dedicated","server_os":"Linux","password":true,"vac":true,"version":"7961495","steam_id":85568392924500089,"keywords":["alltalk","bots","danepve","increased_maxplayers","norespawntime","payload","uncletopia"],"game_id":440,"stv_port":0,"stv_name":"","players":[{"user_id":132,"name":"St. Arnold of Soissons","steam_id":76561197974133892,"connected_time":1168000000000,"state":"active","ping":59},{"user_id":137,"name":"LaChancla","steam_id":76561198971528917,"connected_time":28000000000,"state":"active","ping":124},{"user_id":135,"name":"\u003c blank \u003e","steam_id":76561199383789041,"connected_time":629000000000,"state":"active","ping":163},{"user_id":127,"name":"Rhutebeer","steam_id":76561198018302761,"connected_time":1950000000000,"state":"active","ping":101},{"user_id":136,"name":"Meerschweinchen","steam_id":76561199128804643,"connected_time":534000000000,"state":"active","ping":47},{"user_id":70,"name":"ECCO","steam_id":76561198002821513,"connected_time":7468000000000,"state":"active","ping":72},{"user_id":106,"name":"A-Frame","steam_id":76561198423858118,"connected_time":4512000000000,"state":"active","ping":109},{"user_id":85,"name":"fish (2:3)","steam_id":76561198134331073,"connected_time":5829000000000,"state":"active","ping":122}]},{"server_id":13,"name":"Uncletopia | New York City | 1 | All Maps","name_short":"nyc-1","host":"nyc-1.us.uncletopia.com","port":27015,"enabled":true,"region":"us-east","cc":"us","latitude":40.73061,"longitude":-73.93524,"reserved":0,"last_update":"0001-01-01T00:00:00Z","name_a2s":"Uncletopia | New York City | 1 | All Maps","protocol":17,"map":"koth_brazil","folder":"tf","game":"Team Fortress","app_id":440,"player_count":0,"max_players":24,"Bots":0,"server_type":"Dedicated","server_os":"Linux","password":true,"vac":true,"version":"7961495","steam_id":85568392924469993,"keywords":["cp","nocrits","nodmgspread","uncletopia"],"game_id":440,"stv_port":27016,"stv_name":"Uncletopia | New York City | 1 | All Maps | STV","players":null},{"server_id":14,"name":"Uncletopia | New York City | 2 | All Maps","name_short":"nyc-2","host":"nyc-1.us.uncletopia.com","port":27025,"enabled":true,"region":"us-east","cc":"us","latitude":40.73061,"longitude":-73.93524,"reserved":0,"last_update":"0001-01-01T00:00:00Z","name_a2s":"Uncletopia | New York City | 2 | All Maps","protocol":17,"map":"pl_borneo","folder":"tf","game":"Team Fortress","app_id":440,"player_count":0,"max_players":24,"Bots":0,"server_type":"Dedicated","server_os":"Linux","password":true,"vac":true,"version":"7961495","steam_id":85568392924469994,"keywords":["nocrits","nodmgspread","payload","uncletopia"],"game_id":440,"stv_port":27026,"stv_name":"Uncletopia | New York City | 2 | All Maps | STV","players":null},{"server_id":15,"name":"Uncletopia | New York City | 3 | Stopwatch","name_short":"nyc-3","host":"nyc-1.us.uncletopia.com","port":27035,"enabled":true,"region":"us-east","cc":"us","latitude":40.73061,"longitude":-73.93524,"reserved":0,"last_update":"0001-01-01T00:00:00Z","name_a2s":"Uncletopia | New York City | 3 | Stopwatch","protocol":17,"map":"workshop/koth_product_final.ugc454272353","folder":"tf","game":"Team Fortress","app_id":440,"player_count":0,"max_players":24,"Bots":0,"server_type":"Dedicated","server_os":"Linux","password":true,"vac":true,"version":"7961495","steam_id":85568392924742820,"keywords":["cp","nocrits","nodmgspread","uncletopia"],"game_id":440,"stv_port":27036,"stv_name":"Uncletopia | New York City | 3 | Stopwatch | STV","players":null},{"server_id":16,"name":"Uncletopia | New York City | 4 | Community","name_short":"nyc-4","host":"nyc-1.us.uncletopia.com","port":27045,"enabled":true,"region":"us-east","cc":"us","latitude":40.73061,"longitude":-73.93524,"reserved":0,"last_update":"0001-01-01T00:00:00Z","name_a2s":"Uncletopia | New York City | 4 | Community","protocol":17,"map":"workshop/cp_indulge.ugc528106646","folder":"tf","game":"Team Fortress","app_id":440,"player_count":0,"max_players":24,"Bots":0,"server_type":"Dedicated","server_os":"Linux","password":true,"vac":true,"version":"7961495","steam_id":85568392924742821,"keywords":["cp","nocrits","nodmgspread","uncletopia"],"game_id":440,"stv_port":27046,"stv_name":"Uncletopia | New York City | 4 | Community | STV","players":null},{"server_id":142,"name":"Uncletopia | São Paulo | 1 | All Maps","name_short":"sao-1","host":"sao-1.br.uncletopia.com","port":27015,"enabled":true,"region":"sa","cc":"br","latitude":-23.533773,"longitude":-46.62529,"reserved":0,"last_update":"0001-01-01T00:00:00Z","name_a2s":"Uncletopia | São Paulo | 1 | All Maps","protocol":17,"map":"cp_granary","folder":"tf","game":"Team Fortress","app_id":440,"player_count":0,"max_players":24,"Bots":0,"server_type":"Dedicated","server_os":"Linux","password":true,"vac":true,"version":"7961495","steam_id":85568392924469996,"keywords":["cp","nocrits","nodmgspread","uncletopia"],"game_id":440,"stv_port":27016,"stv_name":"Uncletopia | São Paulo | 1 | All Maps | STV","players":null},{"server_id":143,"name":"Uncletopia | São Paulo | 2 | Community","name_short":"sao-2","host":"sao-2.br.uncletopia.com","port":27015,"enabled":true,"region":"sa","cc":"br","latitude":-23.533773,"longitude":-46.62529,"reserved":0,"last_update":"0001-01-01T00:00:00Z","name_a2s":"Uncletopia | São Paulo | 2 | Community","protocol":17,"map":"workshop/cp_logjam_rc12.ugc454812035","folder":"tf","game":"Team Fortress","app_id":440,"player_count":0,"max_players":24,"Bots":0,"server_type":"Dedicated","server_os":"Linux","password":true,"vac":true,"version":"7961495","steam_id":85568392924485349,"keywords":["cp","nocrits","nodmgspread","uncletopia"],"game_id":440,"stv_port":27016,"stv_name":"Uncletopia | São Paulo | 2 | Community | STV","players":null},{"server_id":7,"name":"Uncletopia | Seattle | 1 | All Maps","name_short":"sea-1","host":"sea-1.us.uncletopia.com","port":27015,"enabled":true,"region":"us-west","cc":"us","latitude":47.608013,"longitude":-122.33517,"reserved":0,"last_update":"0001-01-01T00:00:00Z","name_a2s":"Uncletopia | Seattle | 1 | All Maps","protocol":17,"map":"cp_sunshine","folder":"tf","game":"Team Fortress","app_id":440,"player_count":24,"max_players":24,"Bots":0,"server_type":"Dedicated","server_os":"Linux","password":true,"vac":true,"version":"7961495","steam_id":85568392924469997,"keywords":["cp","nocrits","nodmgspread","uncletopia"],"game_id":440,"stv_port":27016,"stv_name":"Uncletopia | Seattle | 1 | All Maps | STV","players":[{"user_id":121,"name":"WiDam","steam_id":76561198005976631,"connected_time":531000000000,"state":"active","ping":128},{"user_id":120,"name":"MrQuack","steam_id":76561198873049714,"connected_time":547000000000,"state":"active","ping":73},{"user_id":118,"name":"Capitalism","steam_id":76561198068677316,"connected_time":667000000000,"state":"active","ping":43},{"user_id":85,"name":"BisKit","steam_id":76561198140624153,"connected_time":2718000000000,"state":"active","ping":120},{"user_id":122,"name":"Zobozo","steam_id":76561198028954297,"connected_time":501000000000,"state":"active","ping":75},{"user_id":86,"name":"KarmaStar","steam_id":76561197971945357,"connected_time":2711000000000,"state":"active","ping":125},{"user_id":123,"name":"Bombat","steam_id":76561198083096946,"connected_time":469000000000,"state":"active","ping":91},{"user_id":115,"name":"Drilly22","steam_id":76561198068838338,"connected_time":854000000000,"state":"active","ping":94},{"user_id":132,"name":"luxl1","steam_id":76561198975034056,"connected_time":16000000000,"state":"active","ping":74},{"user_id":124,"name":"kuro","steam_id":76561198209990592,"connected_time":457000000000,"state":"active","ping":45},{"user_id":50,"name":"CheeseCake488","steam_id":76561199407617942,"connected_time":6143000000000,"state":"active","ping":90},{"user_id":84,"name":"Pann","steam_id":76561198086683667,"connected_time":2769000000000,"state":"active","ping":82},{"user_id":94,"name":"MaxTgaX","steam_id":76561198046287539,"connected_time":2341000000000,"state":"active","ping":101},{"user_id":127,"name":"tmm (theManMan)","steam_id":76561199488457138,"connected_time":380000000000,"state":"active","ping":59},{"user_id":131,"name":"TABAKU MALUKU","steam_id":76561198289562649,"connected_time":227000000000,"state":"active","ping":181},{"user_id":91,"name":"cool guy","steam_id":76561198204995668,"connected_time":2482000000000,"state":"active","ping":132},{"user_id":110,"name":"Nina","steam_id":76561198875007138,"connected_time":1642000000000,"state":"active","ping":45},{"user_id":66,"name":"rad killl raccoon","steam_id":76561198980975595,"connected_time":4850000000000,"state":"active","ping":43},{"user_id":119,"name":"woohooren","steam_id":76561198101840527,"connected_time":559000000000,"state":"active","ping":75},{"user_id":126,"name":"Sud","steam_id":76561197974116747,"connected_time":436000000000,"state":"active","ping":56},{"user_id":52,"name":"Cave Mushroom","steam_id":76561198090419068,"connected_time":5688000000000,"state":"active","ping":69},{"user_id":35,"name":"echelon","steam_id":76561198139172979,"connected_time":6913000000000,"state":"active","ping":63},{"user_id":128,"name":"Draco6257","steam_id":76561199147322448,"connected_time":374000000000,"state":"active","ping":112},{"user_id":129,"name":"Derblitz","steam_id":76561198040953176,"connected_time":349000000000,"state":"active","ping":75}]},{"server_id":119,"name":"Uncletopia | Seattle | 2 | All Maps","name_short":"sea-2","host":"sea-1.us.uncletopia.com","port":27025,"enabled":true,"region":"us-west","cc":"us","latitude":47.608013,"longitude":-122.33517,"reserved":0,"last_update":"0001-01-01T00:00:00Z","name_a2s":"Uncletopia | Seattle | 2 | All Maps","protocol":17,"map":"koth_lakeside_final","folder":"tf","game":"Team Fortress","app_id":440,"player_count":0,"max_players":24,"Bots":0,"server_type":"Dedicated","server_os":"Linux","password":true,"vac":true,"version":"7961495","steam_id":85568392924469998,"keywords":["cp","nocrits","nodmgspread","uncletopia"],"game_id":440,"stv_port":27026,"stv_name":"Uncletopia | Seattle | 2 | All Maps | STV","players":null},{"server_id":406,"name":"Uncletopia | Seattle | 3 | Stopwatch","name_short":"sea-3","host":"sea-1.us.uncletopia.com","port":27035,"enabled":true,"region":"us-west","cc":"us","latitude":47.608013,"longitude":-122.33517,"reserved":0,"last_update":"0001-01-01T00:00:00Z","name_a2s":"Uncletopia | Seattle | 3 | Stopwatch","protocol":17,"map":"cp_gullywash_final1","folder":"tf","game":"Team Fortress","app_id":440,"player_count":0,"max_players":24,"Bots":0,"server_type":"Dedicated","server_os":"Linux","password":true,"vac":true,"version":"7961495","steam_id":85568392924515217,"keywords":["cp","nocrits","nodmgspread","uncletopia"],"game_id":440,"stv_port":27036,"stv_name":"Uncletopia | Seattle | 3 | Stopwatch | STV","players":null},{"server_id":17,"name":"Uncletopia | San Francisco | 1 | All Maps","name_short":"sfo-1","host":"sfo-1.us.uncletopia.com","port":27015,"enabled":true,"region":"us-west","cc":"us","latitude":37.77397,"longitude":-122.4313,"reserved":0,"last_update":"0001-01-01T00:00:00Z","name_a2s":"Uncletopia | San Francisco | 1 | All Maps","protocol":17,"map":"koth_highpass","folder":"tf","game":"Team Fortress","app_id":440,"player_count":0,"max_players":24,"Bots":0,"server_type":"Dedicated","server_os":"Linux","password":true,"vac":true,"version":"7961495","steam_id":85568392924469999,"keywords":["cp","nocrits","nodmgspread","uncletopia"],"game_id":440,"stv_port":27016,"stv_name":"Uncletopia | San Francisco | 1 | All Maps | STV","players":null},{"server_id":18,"name":"Uncletopia | San Francisco | 2 | All Maps","name_short":"sfo-2","host":"sfo-1.us.uncletopia.com","port":27025,"enabled":true,"region":"us-west","cc":"us","latitude":37.77397,"longitude":-122.4313,"reserved":0,"last_update":"0001-01-01T00:00:00Z","name_a2s":"Uncletopia | San Francisco | 2 | All Maps","protocol":17,"map":"cp_freight_final1","folder":"tf","game":"Team Fortress","app_id":440,"player_count":0,"max_players":24,"Bots":0,"server_type":"Dedicated","server_os":"Linux","password":true,"vac":true,"version":"7961495","steam_id":85568392924470000,"keywords":["cp","nocrits","nodmgspread","uncletopia"],"game_id":440,"stv_port":27026,"stv_name":"Uncletopia | San Francisco | 2 | All Maps | STV","players":null},{"server_id":19,"name":"Uncletopia | San Francisco | 3 | Stopwatch","name_short":"sfo-3","host":"sfo-1.us.uncletopia.com","port":27035,"enabled":true,"region":"us-west","cc":"us","latitude":37.77397,"longitude":-122.4313,"reserved":0,"last_update":"0001-01-01T00:00:00Z","name_a2s":"Uncletopia | San Francisco | 3 | Stopwatch","protocol":17,"map":"workshop/koth_product_final.ugc454272353","folder":"tf","game":"Team Fortress","app_id":440,"player_count":0,"max_players":24,"Bots":0,"server_type":"Dedicated","server_os":"Linux","password":true,"vac":true,"version":"7961495","steam_id":85568392924742824,"keywords":["cp","nocrits","nodmgspread","uncletopia"],"game_id":440,"stv_port":27036,"stv_name":"Uncletopia | San Francisco | 3 | Stopwatch | STV","players":null},{"server_id":20,"name":"Uncletopia | San Francisco | 4 | Community","name_short":"sfo-4","host":"sfo-1.us.uncletopia.com","port":27045,"enabled":true,"region":"us-west","cc":"us","latitude":37.77397,"longitude":-122.4313,"reserved":0,"last_update":"0001-01-01T00:00:00Z","name_a2s":"Uncletopia | San Francisco | 4 | Community","protocol":17,"map":"workshop/pl_cactuscanyon_redux_final2.ugc2579644293","folder":"tf","game":"Team Fortress","app_id":440,"player_count":0,"max_players":24,"Bots":0,"server_type":"Dedicated","server_os":"Linux","password":true,"vac":true,"version":"7961495","steam_id":85568392924742826,"keywords":["nocrits","nodmgspread","payload","uncletopia"],"game_id":440,"stv_port":27046,"stv_name":"Uncletopia | San Francisco | 4 | Community | STV","players":null},{"server_id":141,"name":"Uncletopia | Sydney | 1 | All Maps","name_short":"syd-1","host":"syd-1.au.uncletopia.com","port":27015,"enabled":true,"region":"au","cc":"au","latitude":-33.865143,"longitude":151.2099,"reserved":0,"last_update":"0001-01-01T00:00:00Z","name_a2s":"Uncletopia | Sydney | 1 | All Maps","protocol":17,"map":"koth_viaduct","folder":"tf","game":"Team Fortress","app_id":440,"player_count":0,"max_players":24,"Bots":0,"server_type":"Dedicated","server_os":"Linux","password":true,"vac":true,"version":"7961495","steam_id":85568392924470001,"keywords":["cp","nocrits","nodmgspread","uncletopia"],"game_id":440,"stv_port":27016,"stv_name":"Uncletopia | Sydney | 1 | All Maps | STV","players":null},{"server_id":123,"name":"Uncletopia | Sydney | 2 | All Maps","name_short":"syd-2","host":"syd-1.au.uncletopia.com","port":27025,"enabled":true,"region":"au","cc":"au","latitude":-33.865143,"longitude":151.2099,"reserved":0,"last_update":"0001-01-01T00:00:00Z","name_a2s":"Uncletopia | Sydney | 2 | All Maps","protocol":17,"map":"pl_barnblitz","folder":"tf","game":"Team Fortress","app_id":440,"player_count":0,"max_players":24,"Bots":0,"server_type":"Dedicated","server_os":"Linux","password":true,"vac":true,"version":"7961495","steam_id":85568392924470002,"keywords":["nocrits","nodmgspread","payload","uncletopia"],"game_id":440,"stv_port":27026,"stv_name":"Uncletopia | Sydney | 2 | All Maps | STV","players":null},{"server_id":395,"name":"Uncletopia | Sydney | 3 | All Maps","name_short":"syd-3","host":"syd-1.au.uncletopia.com","port":27035,"enabled":true,"region":"au","cc":"au","latitude":-33.865143,"longitude":151.2099,"reserved":0,"last_update":"0001-01-01T00:00:00Z","name_a2s":"Uncletopia | Sydney | 3 | All Maps","protocol":17,"map":"koth_lakeside_final","folder":"tf","game":"Team Fortress","app_id":440,"player_count":0,"max_players":24,"Bots":0,"server_type":"Dedicated","server_os":"Linux","password":true,"vac":true,"version":"7961495","steam_id":85568392925194467,"keywords":["cp","nocrits","nodmgspread","uncletopia"],"game_id":440,"stv_port":27036,"stv_name":"Uncletopia | Sydney | 3 | All Maps | STV","players":null},{"server_id":396,"name":"Uncletopia | Sydney | 4 | All Maps","name_short":"syd-4","host":"syd-1.au.uncletopia.com","port":27045,"enabled":true,"region":"au","cc":"au","latitude":-33.865143,"longitude":151.2099,"reserved":0,"last_update":"0001-01-01T00:00:00Z","name_a2s":"Uncletopia | Sydney | 4 | All Maps","protocol":17,"map":"pl_snowycoast","folder":"tf","game":"Team Fortress","app_id":440,"player_count":0,"max_players":24,"Bots":0,"server_type":"Dedicated","server_os":"Linux","password":true,"vac":true,"version":"7961495","steam_id":85568392925397958,"keywords":["nocrits","nodmgspread","payload","uncletopia"],"game_id":440,"stv_port":27046,"stv_name":"Uncletopia | Sydney | 4 | All Maps | STV","players":null},{"server_id":58,"name":"Uncletopia | Sydney | 5 | Stopwatch","name_short":"syd-5","host":"syd-1.au.uncletopia.com","port":27055,"enabled":true,"region":"au","cc":"au","latitude":-33.865143,"longitude":151.2099,"reserved":0,"last_update":"0001-01-01T00:00:00Z","name_a2s":"Uncletopia | Sydney | 5 | Stopwatch","protocol":17,"map":"koth_highpass","folder":"tf","game":"Team Fortress","app_id":440,"player_count":0,"max_players":24,"Bots":0,"server_type":"Dedicated","server_os":"Linux","password":true,"vac":true,"version":"7961495","steam_id":85568392925397959,"keywords":["cp","nocrits","nodmgspread","uncletopia"],"game_id":440,"stv_port":27056,"stv_name":"Uncletopia | Sydney | 5 | Stopwatch | STV","players":null},{"server_id":59,"name":"Uncletopia | Sydney | 6 | Community","name_short":"syd-6","host":"syd-1.au.uncletopia.com","port":27065,"enabled":true,"region":"au","cc":"au","latitude":-33.865143,"longitude":151.2099,"reserved":0,"last_update":"0001-01-01T00:00:00Z","name_a2s":"Uncletopia | Sydney | 6 | Community","protocol":17,"map":"workshop/koth_trenchfoot_ab1.ugc731436616","folder":"tf","game":"Team Fortress","app_id":440,"player_count":0,"max_players":24,"Bots":0,"server_type":"Dedicated","server_os":"Linux","password":true,"vac":true,"version":"7961495","steam_id":85568392925397960,"keywords":["cp","nocrits","nodmgspread","uncletopia"],"game_id":440,"stv_port":27066,"stv_name":"Uncletopia | Sydney | 6 | Community | STV","players":null},{"server_id":49,"name":"Uncletopia | Warsaw | 1 | One Thousand Uncles","name_short":"waw-1","host":"waw-1.pl.uncletopia.com","port":27015,"enabled":true,"region":"eu","cc":"pl","latitude":52.2297,"longitude":21.017532,"reserved":0,"last_update":"0001-01-01T00:00:00Z","name_a2s":"Uncletopia | Warsaw | 1 | One Thousand Uncles","protocol":17,"map":"pl_badwater","folder":"tf","game":"Team Fortress","app_id":440,"player_count":26,"max_players":32,"Bots":16,"server_type":"Dedicated","server_os":"Linux","password":true,"vac":true,"version":"7961495","steam_id":85568392925397850,"keywords":["alltalk","bots","danepve","increased_maxplayers","norespawntime","payload","uncletopia"],"game_id":440,"stv_port":0,"stv_name":"","players":[{"user_id":635,"name":"Rayco","steam_id":76561198048013129,"connected_time":4272000000000,"state":"active","ping":61},{"user_id":684,"name":"kirillch1205","steam_id":76561199503792010,"connected_time":499000000000,"state":"active","ping":47},{"user_id":600,"name":"Pain in a Box","steam_id":76561197990777173,"connected_time":7443000000000,"state":"active","ping":64},{"user_id":608,"name":"adv6","steam_id":76561198029789989,"connected_time":6218000000000,"state":"active","ping":89},{"user_id":666,"name":"serbanstein","steam_id":76561199112672194,"connected_time":2211000000000,"state":"active","ping":120},{"user_id":669,"name":"LizardMilk_19","steam_id":76561199435002235,"connected_time":1874000000000,"state":"active","ping":276},{"user_id":672,"name":"Tispy","steam_id":76561199207410049,"connected_time":1290000000000,"state":"active","ping":128},{"user_id":673,"name":"Dabfaceprothanos111","steam_id":76561199349224220,"connected_time":1178000000000,"state":"active","ping":256},{"user_id":674,"name":"LizaЯdlЧ","steam_id":76561198176750238,"connected_time":1175000000000,"state":"active","ping":91},{"user_id":677,"name":"linen_cloth","steam_id":76561198053880090,"connected_time":852000000000,"state":"active","ping":87}]},{"server_id":50,"name":"Uncletopia | Warsaw | 2 | One Thousand Uncles","name_short":"waw-2","host":"waw-1.pl.uncletopia.com","port":27025,"enabled":true,"region":"eu","cc":"pl","latitude":52.2297,"longitude":21.017532,"reserved":0,"last_update":"0001-01-01T00:00:00Z","name_a2s":"Uncletopia | Warsaw | 2 | One Thousand Uncles","protocol":17,"map":"pl_goldrush","folder":"tf","game":"Team Fortress","app_id":440,"player_count":28,"max_players":32,"Bots":16,"server_type":"Dedicated","server_os":"Linux","password":true,"vac":true,"version":"7961495","steam_id":85568392925397851,"keywords":["alltalk","bots","danepve","increased_maxplayers","norespawntime","payload","uncletopia"],"game_id":440,"stv_port":0,"stv_name":"","players":[{"user_id":347,"name":"Zodaick","steam_id":76561198083662129,"connected_time":3337000000000,"state":"active","ping":69},{"user_id":370,"name":"Red wine gaming","steam_id":76561198134378108,"connected_time":2732000000000,"state":"active","ping":84},{"user_id":374,"name":"KipxSateee","steam_id":76561198149158137,"connected_time":2205000000000,"state":"active","ping":80},{"user_id":384,"name":"The Bucket","steam_id":76561199131973613,"connected_time":1558000000000,"state":"active","ping":117},{"user_id":372,"name":"inrzynier1","steam_id":76561199037368618,"connected_time":2709000000000,"state":"active","ping":72},{"user_id":375,"name":"IRobot","steam_id":76561198830182200,"connected_time":2099000000000,"state":"active","ping":44},{"user_id":397,"name":"absynth","steam_id":76561197960639092,"connected_time":52000000000,"state":"active","ping":155},{"user_id":395,"name":"OutOfDucks","steam_id":76561198166376227,"connected_time":499000000000,"state":"active","ping":85},{"user_id":307,"name":"aaaaaa","steam_id":76561198086304421,"connected_time":6148000000000,"state":"active","ping":84},{"user_id":386,"name":"me","steam_id":76561198055512527,"connected_time":1335000000000,"state":"active","ping":73},{"user_id":396,"name":"tadisab","steam_id":76561199484049632,"connected_time":492000000000,"state":"active","ping":172},{"user_id":382,"name":"Who?","steam_id":76561198271901063,"connected_time":1745000000000,"state":"active","ping":84}]},{"server_id":51,"name":"Uncletopia | Warsaw | 3 | All Maps","name_short":"waw-3","host":"waw-1.pl.uncletopia.com","port":27035,"enabled":true,"region":"eu","cc":"pl","latitude":52.2297,"longitude":21.017532,"reserved":0,"last_update":"0001-01-01T00:00:00Z","name_a2s":"Uncletopia | Warsaw | 3 | All Maps","protocol":17,"map":"cp_mountainlab","folder":"tf","game":"Team Fortress","app_id":440,"player_count":0,"max_players":24,"Bots":0,"server_type":"Dedicated","server_os":"Linux","password":true,"vac":true,"version":"7961495","steam_id":85568392925397852,"keywords":["cp","nocrits","nodmgspread","uncletopia"],"game_id":440,"stv_port":27036,"stv_name":"Uncletopia | Warsaw | 3 | All Maps | STV","players":null},{"server_id":52,"name":"Uncletopia | Warsaw | 4 | All Maps","name_short":"waw-4","host":"waw-1.pl.uncletopia.com","port":27045,"enabled":true,"region":"eu","cc":"pl","latitude":52.2297,"longitude":21.017532,"reserved":0,"last_update":"0001-01-01T00:00:00Z","name_a2s":"Uncletopia | Warsaw | 4 | All Maps","protocol":17,"map":"pl_snowycoast","folder":"tf","game":"Team Fortress","app_id":440,"player_count":2,"max_players":24,"Bots":0,"server_type":"Dedicated","server_os":"Linux","password":true,"vac":true,"version":"7961495","steam_id":85568392925397853,"keywords":["nocrits","nodmgspread","payload","uncletopia"],"game_id":440,"stv_port":27046,"stv_name":"Uncletopia | Warsaw | 4 | All Maps | STV","players":[{"user_id":9,"name":"Turecki Gołąb","steam_id":76561199116183115,"connected_time":1038000000000,"state":"active","ping":46},{"user_id":10,"name":"killed by Kacper.exe","steam_id":76561199075173183,"connected_time":969000000000,"state":"active","ping":39}]},{"server_id":53,"name":"Uncletopia | Warsaw | 5 | Stopwatch","name_short":"waw-5","host":"waw-1.pl.uncletopia.com","port":27055,"enabled":true,"region":"eu","cc":"pl","latitude":52.2297,"longitude":21.017532,"reserved":0,"last_update":"0001-01-01T00:00:00Z","name_a2s":"Uncletopia | Warsaw | 5 | Stopwatch","protocol":17,"map":"koth_lakeside_final","folder":"tf","game":"Team Fortress","app_id":440,"player_count":4,"max_players":24,"Bots":0,"server_type":"Dedicated","server_os":"Linux","password":true,"vac":true,"version":"7961495","steam_id":85568392925397854,"keywords":["cp","nocrits","nodmgspread","uncletopia"],"game_id":440,"stv_port":27056,"stv_name":"Uncletopia | Warsaw | 5 | Stopwatch | STV","players":[{"user_id":16,"name":"Smol in Abyss","steam_id":76561199001607121,"connected_time":655000000000,"state":"active","ping":58},{"user_id":17,"name":"Jake in Abyss","steam_id":76561199161084988,"connected_time":625000000000,"state":"active","ping":90},{"user_id":18,"name":"Juuni","steam_id":76561198388345739,"connected_time":610000000000,"state":"active","ping":96},{"user_id":19,"name":"Kotya","steam_id":76561198264896621,"connected_time":578000000000,"state":"active","ping":90}]},{"server_id":54,"name":"Uncletopia | Warsaw | 6 | Community","name_short":"waw-6","host":"waw-1.pl.uncletopia.com","port":27065,"enabled":true,"region":"eu","cc":"pl","latitude":52.2297,"longitude":21.017532,"reserved":0,"last_update":"0001-01-01T00:00:00Z","name_a2s":"Uncletopia | Warsaw | 6 | Community","protocol":17,"map":"workshop/koth_trenchfoot_ab1.ugc731436616","folder":"tf","game":"Team Fortress","app_id":440,"player_count":0,"max_players":24,"Bots":0,"server_type":"Dedicated","server_os":"Linux","password":true,"vac":true,"version":"7961495","steam_id":85568392925397856,"keywords":["cp","nocrits","nodmgspread","uncletopia"],"game_id":440,"stv_port":27066,"stv_name":"Uncletopia | Warsaw | 6 | Community | STV","players":null}]}