{"status":true,"message":"","result":[{"server_id":9,"name":"Uncletopia | Atlanta | 1 | All Maps","name_short":"atl-1","host":"atl-1.us.uncletopia.com","port":27015,"enabled":true,"region":"us-east","cc":"us","latitude":33.753746,"longitude":-84.38633,"reserved":0,"last_update":"0001-01-01T00:00:00Z","name_a2s":"Uncletopia | Atlanta | 1 | All Maps","protocol":17,"map":"cp_gorge","folder":"tf","game":"Team Fortress","app_id":440,"player_count":24,"max_players":24,"Bots":0,"server_type":"Dedicated","server_os":"Linux","password":true,"vac":true,"version":"7757534","steam_id":85568392924469982,"keywords":["cp","nocrits","nodmgspread","uncletopia"],"game_id":440,"stv_port":27016,"stv_name":"Uncletopia | Atlanta | 1 | All Maps | STV","players":[{"user_id":153,"name":"Eden","steam_id":76561198075587475,"connected_time":7788000000000,"state":"active","ping":58},{"user_id":103,"name":"cow farmer","steam_id":76561198249206656,"connected_time":11630000000000,"state":"active","ping":80},{"user_id":239,"name":"put fentanyl back in pepsi","steam_id":76561198238592900,"connected_time":468000000000,"state":"active","ping":88},{"user_id":254,"name":"Harry Bartolomue Dinglenut","steam_id":76561198071039218,"connected_time":39000000000,"state":"active","ping":64},{"user_id":242,"name":"Icaruss","steam_id":76561199087157705,"connected_time":446000000000,"state":"active","ping":87},{"user_id":235,"name":"Shadow11567","steam_id":76561198078371651,"connected_time":477000000000,"state":"active","ping":92},{"user_id":229,"name":"lynt","steam_id":76561198988333976,"connected_time":828000000000,"state":"active","ping":36},{"user_id":237,"name":"DFR loot","steam_id":76561198069954956,"connected_time":474000000000,"state":"active","ping":44},{"user_id":220,"name":"Ashes!","steam_id":76561197998475441,"connected_time":2312000000000,"state":"active","ping":74},{"user_id":236,"name":"latte","steam_id":76561198258062078,"connected_time":477000000000,"state":"active","ping":61},{"user_id":208,"name":"Fox","steam_id":76561198063507627,"connected_time":3431000000000,"state":"active","ping":52},{"user_id":231,"name":"OpenDown","steam_id":76561198064132688,"connected_time":757000000000,"state":"active","ping":73},{"user_id":177,"name":"creeeeeee","steam_id":76561198392539722,"connected_time":5718000000000,"state":"active","ping":78},{"user_id":230,"name":"psy","steam_id":76561198013195018,"connected_time":821000000000,"state":"active","ping":85},{"user_id":215,"name":"Professional Zoo Tycoon Player","steam_id":76561198013026044,"connected_time":2923000000000,"state":"active","ping":85},{"user_id":248,"name":"Karma","steam_id":76561198030565234,"connected_time":240000000000,"state":"active","ping":67},{"user_id":250,"name":"Mikael_01","steam_id":76561199080253129,"connected_time":165000000000,"state":"active","ping":182},{"user_id":246,"name":"hunchback of gay paris","steam_id":76561198116741891,"connected_time":301000000000,"state":"active","ping":60},{"user_id":232,"name":"vid_","steam_id":76561198065159053,"connected_time":690000000000,"state":"active","ping":44},{"user_id":227,"name":"Walmus","steam_id":76561198111416393,"connected_time":1345000000000,"state":"active","ping":86},{"user_id":255,"name":"1 pirate metal fan","steam_id":76561198202273263,"connected_time":6000000000,"state":"active","ping":196},{"user_id":251,"name":"sheep","steam_id":76561198172943006,"connected_time":146000000000,"state":"active","ping":70},{"user_id":221,"name":"4d4","steam_id":76561198402360789,"connected_time":2107000000000,"state":"active","ping":77},{"user_id":252,"name":"ATL1 | on my hunting trip","steam_id":76561198315341646,"connected_time":142000000000,"state":"active","ping":75}]},{"server_id":400,"name":"Uncletopia | Atlanta | 3 | Community","name_short":"atl-3","host":"atl-1.us.uncletopia.com","port":27035,"enabled":true,"region":"us-east","cc":"us","latitude":33.753746,"longitude":-84.38633,"reserved":0,"last_update":"0001-01-01T00:00:00Z","name_a2s":"Uncletopia | Atlanta | 3 | Community","protocol":17,"map":"workshop/koth_ashville_final.ugc2130459942","folder":"tf","game":"Team Fortress","app_id":440,"player_count":0,"max_players":32,"Bots":0,"server_type":"Dedicated","server_os":"Linux","password":true,"vac":true,"version":"7757534","steam_id":85568392924515187,"keywords":["cp","increased_maxplayers","nocrits","nodmgspread","uncletopia"],"game_id":440,"stv_port":27036,"stv_name":"Uncletopia | Atlanta | 3 | Community | STV","players":null},{"server_id":401,"name":"Uncletopia | Atlanta | 4 | No Payload","name_short":"atl-4","host":"atl-1.us.uncletopia.com","port":27045,"enabled":true,"region":"us-east","cc":"us","latitude":33.753746,"longitude":-84.38633,"reserved":0,"last_update":"0001-01-01T00:00:00Z","name_a2s":"","protocol":0,"map":"","folder":"","game":"","app_id":0,"player_count":0,"max_players":0,"Bots":0,"server_type":"","server_os":"","password":false,"vac":false,"version":"","steam_id":0,"keywords":null,"game_id":0,"stv_port":0,"stv_name":"","players":null},{"server_id":2,"name":"Uncletopia | Chicago | 1 | All Maps","name_short":"chi-1","host":"chi-1.us.uncletopia.com","port":27015,"enabled":true,"region":"us-central","cc":"us","latitude":41.881832,"longitude":-87.62318,"reserved":0,"last_update":"0001-01-01T00:00:00Z","name_a2s":"Uncletopia | Chicago | 1 | All Maps","protocol":17,"map":"cp_dustbowl","folder":"tf","game":"Team Fortress","app_id":440,"player_count":24,"max_players":24,"Bots":0,"server_type":"Dedicated","server_os":"Linux","password":true,"vac":true,"version":"7757534","steam_id":85568392924469984,"keywords":["cp","nocrits","nodmgspread","uncletopia"],"game_id":440,"stv_port":27016,"stv_name":"Uncletopia | Chicago | 1 | All Maps | STV","players":[{"user_id":155,"name":"Crazy__Biscuit","steam_id":76561198399851872,"connected_time":986000000000,"state":"active","ping":56},{"user_id":78,"name":"Mattron1","steam_id":76561198012270524,"connected_time":7198000000000,"state":"active","ping":88},{"user_id":169,"name":"SMHTMFTTF","steam_id":76561199079614516,"connected_time":604000000000,"state":"active","ping":45},{"user_id":178,"name":"Ifrit","steam_id":76561198044730782,"connected_time":28000000000,"state":"active","ping":84},{"user_id":175,"name":"ALL CAPS","steam_id":76561198138221795,"connected_time":553000000000,"state":"active","ping":76},{"user_id":158,"name":"ChipE","steam_id":76561198137146627,"connected_time":908000000000,"state":"active","ping":101},{"user_id":153,"name":"Liquid Oxycodone","steam_id":76561198154162664,"connected_time":1143000000000,"state":"active","ping":73},{"user_id":170,"name":"Creamster","steam_id":76561198828624384,"connected_time":599000000000,"state":"active","ping":129},{"user_id":179,"name":"AKconner","steam_id":76561198312569787,"connected_time":25000000000,"state":"spawning","ping":57},{"user_id":180,"name":"gorebastard","steam_id":76561198295113883,"connected_time":7000000000,"state":"spawning","ping":92},{"user_id":122,"name":"Big Phony","steam_id":76561199092395311,"connected_time":3512000000000,"state":"active","ping":64},{"user_id":173,"name":"FiddyFoMike","steam_id":76561198057072581,"connected_time":570000000000,"state":"active","ping":98},{"user_id":150,"name":"Ossy-3","steam_id":76561198272078550,"connected_time":1743000000000,"state":"active","ping":72},{"user_id":176,"name":"Josh","steam_id":76561198055691099,"connected_time":392000000000,"state":"active","ping":73},{"user_id":177,"name":"TreesRUs","steam_id":76561198305740611,"connected_time":219000000000,"state":"active","ping":71},{"user_id":161,"name":"themagicnumber3","steam_id":76561198054506580,"connected_time":882000000000,"state":"active","ping":66},{"user_id":154,"name":"mashallah","steam_id":76561198075111427,"connected_time":1044000000000,"state":"active","ping":68},{"user_id":135,"name":"Huell Howser","steam_id":76561198006387337,"connected_time":2944000000000,"state":"active","ping":57},{"user_id":44,"name":"Barthurs","steam_id":76561197993776122,"connected_time":8641000000000,"state":"active","ping":52},{"user_id":162,"name":"Yakkyrwhackr","steam_id":76561198869860539,"connected_time":863000000000,"state":"active","ping":70},{"user_id":172,"name":"Marisad","steam_id":76561198843890616,"connected_time":583000000000,"state":"active","ping":87},{"user_id":164,"name":"Wan Shi Tong","steam_id":76561198076441225,"connected_time":800000000000,"state":"active","ping":66},{"user_id":120,"name":"Javi","steam_id":76561198081407483,"connected_time":4114000000000,"state":"active","ping":81},{"user_id":63,"name":"Cheshire Cat","steam_id":76561198026034304,"connected_time":8210000000000,"state":"active","ping":77}]},{"server_id":106,"name":"Uncletopia | Chicago | 2 | All Maps","name_short":"chi-2","host":"chi-1.us.uncletopia.com","port":27025,"enabled":true,"region":"us-central","cc":"us","latitude":41.881832,"longitude":-87.62318,"reserved":0,"last_update":"0001-01-01T00:00:00Z","name_a2s":"Uncletopia | Chicago | 2 | All Maps","protocol":17,"map":"pl_thundermountain","folder":"tf","game":"Team Fortress","app_id":440,"player_count":24,"max_players":24,"Bots":0,"server_type":"Dedicated","server_os":"Linux","password":true,"vac":true,"version":"7757534","steam_id":85568392924469985,"keywords":["nocrits","nodmgspread","payload","uncletopia"],"game_id":440,"stv_port":27026,"stv_name":"Uncletopia | Chicago | 2 | All Maps | STV","players":[{"user_id":388,"name":"dbelow_","steam_id":76561198056148853,"connected_time":1058000000000,"state":"active","ping":62},{"user_id":396,"name":"M@verick","steam_id":76561198006363519,"connected_time":872000000000,"state":"active","ping":72},{"user_id":383,"name":"Winter the Witchie","steam_id":76561198151971178,"connected_time":1274000000000,"state":"active","ping":48},{"user_id":311,"name":"Firebug","steam_id":76561198081832157,"connected_time":7422000000000,"state":"active","ping":73},{"user_id":374,"name":"Captain Infraredbeard","steam_id":76561198868443672,"connected_time":2417000000000,"state":"active","ping":61},{"user_id":353,"name":"Pockets","steam_id":76561198001742296,"connected_time":3591000000000,"state":"active","ping":59},{"user_id":268,"name":"Frimpimy","steam_id":76561198142605675,"connected_time":11107000000000,"state":"active","ping":57},{"user_id":375,"name":"hÃ¤mis","steam_id":76561198089616341,"connected_time":2406000000000,"state":"active","ping":60},{"user_id":403,"name":"shadow wizard","steam_id":76561198165212575,"connected_time":109000000000,"state":"active","ping":64},{"user_id":404,"name":"Jakecl123","steam_id":76561198820140959,"connected_time":105000000000,"state":"active","ping":145},{"user_id":344,"name":"dwnkins","steam_id":76561198856016840,"connected_time":4559000000000,"state":"active","ping":72},{"user_id":352,"name":"raspy","steam_id":76561198027298961,"connected_time":3737000000000,"state":"active","ping":59},{"user_id":320,"name":"ToasterWater","steam_id":76561198260121940,"connected_time":6845000000000,"state":"active","ping":63},{"user_id":405,"name":"sock","steam_id":76561199117597830,"connected_time":67000000000,"state":"spawning","ping":80},{"user_id":406,"name":"HATEWORK.","steam_id":76561198286792807,"connected_time":58000000000,"state":"active","ping":65},{"user_id":401,"name":"Tom","steam_id":76561198070630154,"connected_time":521000000000,"state":"active","ping":91},{"user_id":386,"name":"vortexgamer","steam_id":76561197999435527,"connected_time":1140000000000,"state":"active","ping":83},{"user_id":400,"name":"Gigabars","steam_id":76561198119267479,"connected_time":633000000000,"state":"active","ping":60},{"user_id":397,"name":"Dreamzapp","steam_id":76561199084936632,"connected_time":840000000000,"state":"active","ping":170},{"user_id":346,"name":"kitchen crusader","steam_id":76561199217620385,"connected_time":4547000000000,"state":"active","ping":74},{"user_id":402,"name":"ihavetapeworms","steam_id":76561198357040313,"connected_time":165000000000,"state":"active","ping":96},{"user_id":407,"name":"Dog Deodorant","steam_id":76561199225832228,"connected_time":55000000000,"state":"active","ping":100},{"user_id":399,"name":"CySheep","steam_id":76561199058533095,"connected_time":701000000000,"state":"active","ping":96},{"user_id":408,"name":"The Honorable Sir Knish IV","steam_id":76561198427047948,"connected_time":51000000000,"state":"spawning","ping":78}]},{"server_id":402,"name":"Uncletopia | Chicago | 3 | All Maps","name_short":"chi-3","host":"chi-1.us.uncletopia.com","port":27035,"enabled":true,"region":"us-central","cc":"us","latitude":41.881832,"longitude":-87.62318,"reserved":0,"last_update":"0001-01-01T00:00:00Z","name_a2s":"Uncletopia | Chicago | 3 | All Maps","protocol":17,"map":"koth_lakeside_final","folder":"tf","game":"Team Fortress","app_id":440,"player_count":0,"max_players":24,"Bots":0,"server_type":"Dedicated","server_os":"Linux","password":true,"vac":true,"version":"7757534","steam_id":85568392924515191,"keywords":["cp","nocrits","nodmgspread","uncletopia"],"game_id":440,"stv_port":27036,"stv_name":"Uncletopia | Chicago | 3 | All Maps | STV","players":null},{"server_id":403,"name":"Uncletopia | Chicago | 4 | All Maps","name_short":"chi-4","host":"chi-1.us.uncletopia.com","port":27045,"enabled":true,"region":"us-central","cc":"us","latitude":41.881832,"longitude":-87.62318,"reserved":0,"last_update":"0001-01-01T00:00:00Z","name_a2s":"Uncletopia | Chicago | 4 | All Maps","protocol":17,"map":"pl_swiftwater_final1","folder":"tf","game":"Team Fortress","app_id":440,"player_count":24,"max_players":24,"Bots":0,"server_type":"Dedicated","server_os":"Linux","password":true,"vac":true,"version":"7757534","steam_id":85568392924515193,"keywords":["nocrits","nodmgspread","payload","uncletopia"],"game_id":440,"stv_port":27046,"stv_name":"Uncletopia | Chicago | 4 | All Maps | STV","players":[{"user_id":272,"name":"Fluffeline","steam_id":76561198352909489,"connected_time":592000000000,"state":"active","ping":135},{"user_id":258,"name":"dairy","steam_id":76561198117033273,"connected_time":1648000000000,"state":"active","ping":152},{"user_id":247,"name":"FUSION","steam_id":76561197972659738,"connected_time":2449000000000,"state":"active","ping":57},{"user_id":282,"name":"kirbo","steam_id":76561198057895955,"connected_time":414000000000,"state":"active","ping":75},{"user_id":269,"name":"LunarrD","steam_id":76561198811220107,"connected_time":1226000000000,"state":"active","ping":85},{"user_id":285,"name":"triangleman","steam_id":76561198972733542,"connected_time":378000000000,"state":"active","ping":62},{"user_id":224,"name":"Flat Eric","steam_id":76561198114922735,"connected_time":3634000000000,"state":"active","ping":75},{"user_id":209,"name":"Rec","steam_id":76561198022813906,"connected_time":4815000000000,"state":"active","ping":53},{"user_id":243,"name":"VeirÅ« Viseris","steam_id":76561197989857176,"connected_time":2492000000000,"state":"active","ping":164},{"user_id":252,"name":"Kasane","steam_id":76561198209006780,"connected_time":2041000000000,"state":"active","ping":83},{"user_id":290,"name":"hud_saytext_time 0","steam_id":76561198010327228,"connected_time":280000000000,"state":"active","ping":168},{"user_id":280,"name":"BNTF","steam_id":76561198062740087,"connected_time":429000000000,"state":"active","ping":77},{"user_id":278,"name":"rockandroll805","steam_id":76561198062568700,"connected_time":438000000000,"state":"active","ping":119},{"user_id":286,"name":"yung fujo","steam_id":76561198116908911,"connected_time":342000000000,"state":"active","ping":61},{"user_id":291,"name":"RyInc","steam_id":76561198874261643,"connected_time":260000000000,"state":"active","ping":49},{"user_id":283,"name":"Arin The Wolf","steam_id":76561198356310973,"connected_time":408000000000,"state":"active","ping":117},{"user_id":287,"name":"BernardBull","steam_id":76561198036138813,"connected_time":341000000000,"state":"active","ping":76},{"user_id":288,"name":"Sheev Palpatine","steam_id":76561198252332430,"connected_time":337000000000,"state":"active","ping":65},{"user_id":270,"name":"CeigeBirb","steam_id":76561198068538473,"connected_time":1130000000000,"state":"active","ping":77},{"user_id":277,"name":"EvilsConscience","steam_id":76561198073451760,"connected_time":443000000000,"state":"active","ping":61},{"user_id":279,"name":"heimdall","steam_id":76561198069380992,"connected_time":434000000000,"state":"active","ping":89},{"user_id":289,"name":"Grandpa 1MinecraftEmpire","steam_id":76561198069046338,"connected_time":330000000000,"state":"active","ping":95},{"user_id":207,"name":"Jak(i)","steam_id":76561198076823144,"connected_time":5157000000000,"state":"active","ping":65},{"user_id":264,"name":"NotDolpho","steam_id":76561199140679685,"connected_time":1597000000000,"state":"active","ping":73}]},{"server_id":36,"name":"Uncletopia | Chicago | 5 | All Maps","name_short":"chi-5","host":"chi-2.us.uncletopia.com","port":27015,"enabled":true,"region":"us-central","cc":"us","latitude":41.881832,"longitude":-87.62318,"reserved":0,"last_update":"0001-01-01T00:00:00Z","name_a2s":"Uncletopia | Chicago | 5 | All Maps","protocol":17,"map":"cp_altitude","folder":"tf","game":"Team Fortress","app_id":440,"player_count":0,"max_players":24,"Bots":0,"server_type":"Dedicated","server_os":"Linux","password":true,"vac":true,"version":"7757534","steam_id":85568392924866362,"keywords":["cp","nocrits","nodmgspread","uncletopia"],"game_id":440,"stv_port":27016,"stv_name":"Uncletopia | Chicago | 5 | All Maps | STV","players":null},{"server_id":37,"name":"Uncletopia | Chicago | 6 | All Maps","name_short":"chi-6","host":"chi-2.us.uncletopia.com","port":27025,"enabled":true,"region":"us-central","cc":"us","latitude":41.881832,"longitude":-87.62318,"reserved":0,"last_update":"0001-01-01T00:00:00Z","name_a2s":"Uncletopia | Chicago | 6 | All Maps","protocol":17,"map":"cp_gorge","folder":"tf","game":"Team Fortress","app_id":440,"player_count":18,"max_players":24,"Bots":0,"server_type":"Dedicated","server_os":"Linux","password":true,"vac":true,"version":"7757534","steam_id":85568392924866363,"keywords":["cp","nocrits","nodmgspread","uncletopia"],"game_id":440,"stv_port":27026,"stv_name":"Uncletopia | Chicago | 6 | All Maps | STV","players":[{"user_id":80,"name":"roma","steam_id":76561198028811916,"connected_time":2010000000000,"state":"active","ping":61},{"user_id":85,"name":"MoKo","steam_id":76561198025808618,"connected_time":1152000000000,"state":"active","ping":80},{"user_id":81,"name":"Crossing Jupiter","steam_id":76561198030126031,"connected_time":1827000000000,"state":"active","ping":60},{"user_id":65,"name":"Jumpin over your head","steam_id":76561198140517330,"connected_time":2798000000000,"state":"active","ping":74},{"user_id":70,"name":"klaus","steam_id":76561199008634102,"connected_time":2494000000000,"state":"active","ping":62},{"user_id":90,"name":"Taka","steam_id":76561199131985649,"connected_time":167000000000,"state":"active","ping":48},{"user_id":18,"name":"Fresh Lychee","steam_id":76561198045399559,"connected_time":5690000000000,"state":"active","ping":54},{"user_id":14,"name":"Justario","steam_id":76561198016095410,"connected_time":5794000000000,"state":"active","ping":62},{"user_id":15,"name":"Witch!","steam_id":76561198062763756,"connected_time":5771000000000,"state":"active","ping":52},{"user_id":16,"name":"BudTuggly","steam_id":76561198026873580,"connected_time":5759000000000,"state":"active","ping":47},{"user_id":53,"name":"Bluedot","steam_id":76561198019909639,"connected_time":3876000000000,"state":"active","ping":54},{"user_id":19,"name":"The World's Softest Sandwich","steam_id":76561198015577707,"connected_time":5664000000000,"state":"active","ping":78},{"user_id":92,"name":"malarkeyman","steam_id":76561198844473584,"connected_time":38000000000,"state":"active","ping":60},{"user_id":25,"name":"jumpscare","steam_id":76561198148059714,"connected_time":5504000000000,"state":"active","ping":60},{"user_id":89,"name":"Glammy!","steam_id":76561198042009171,"connected_time":951000000000,"state":"active","ping":77},{"user_id":28,"name":"Olive","steam_id":76561198003474783,"connected_time":5492000000000,"state":"active","ping":75},{"user_id":78,"name":"golem","steam_id":76561198355040593,"connected_time":2118000000000,"state":"active","ping":73},{"user_id":61,"name":"NOTWALTER","steam_id":76561198125464744,"connected_time":3116000000000,"state":"active","ping":83}]},{"server_id":38,"name":"Uncletopia | Chicago | 7 | Stopwatch Beta","name_short":"chi-7","host":"chi-2.us.uncletopia.com","port":27035,"enabled":true,"region":"us-central","cc":"us","latitude":41.881832,"longitude":-87.62318,"reserved":0,"last_update":"0001-01-01T00:00:00Z","name_a2s":"Uncletopia | Chicago | 7 | Stopwatch Beta","protocol":17,"map":"pl_swiftwater_final1","folder":"tf","game":"Team Fortress","app_id":440,"player_count":0,"max_players":24,"Bots":0,"server_type":"Dedicated","server_os":"Linux","password":true,"vac":true,"version":"7757534","steam_id":85568392924866364,"keywords":["nocrits","nodmgspread","payload","uncletopia"],"game_id":440,"stv_port":27036,"stv_name":"Uncletopia | Chicago | 7 | Stopwatch Beta | STV","players":null},{"server_id":39,"name":"Uncletopia | Chicago | 8 | Community","name_short":"chi-8","host":"chi-2.us.uncletopia.com","port":27045,"enabled":true,"region":"us-central","cc":"us","latitude":41.881832,"longitude":-87.62318,"reserved":0,"last_update":"0001-01-01T00:00:00Z","name_a2s":"Uncletopia | Chicago | 8 | Community","protocol":17,"map":"pl_barnblitz","folder":"tf","game":"Team Fortress","app_id":440,"player_count":24,"max_players":24,"Bots":0,"server_type":"Dedicated","server_os":"Linux","password":true,"vac":true,"version":"7757534","steam_id":85568392924866365,"keywords":["nocrits","nodmgspread","payload","uncletopia"],"game_id":440,"stv_port":27046,"stv_name":"Uncletopia | Chicago | 8 | Community | STV","players":[{"user_id":19,"name":"Johnny Lawrence #JohnnyMaxxing","steam_id":76561199367141671,"connected_time":1685000000000,"state":"active","ping":60},{"user_id":6,"name":"A Trigger Happy Chipmunk","steam_id":76561198013608736,"connected_time":1895000000000,"state":"active","ping":56},{"user_id":20,"name":"Thr33boys","steam_id":76561198035639627,"connected_time":1665000000000,"state":"active","ping":73},{"user_id":9,"name":"ate a grilled cheese at 11:07 A","steam_id":76561199416910731,"connected_time":1863000000000,"state":"active","ping":61},{"user_id":12,"name":"ItsNotZoom","steam_id":76561199473296583,"connected_time":1845000000000,"state":"active","ping":74},{"user_id":14,"name":"à¼˜ â‹†ËšðŸŽ§Caffeineâ˜•*Ë–Â°","steam_id":76561199259309294,"connected_time":1798000000000,"state":"active","ping":83},{"user_id":15,"name":"faxxy","steam_id":76561198079621240,"connected_time":1773000000000,"state":"active","ping":64},{"user_id":16,"name":"Belmore","steam_id":76561198009355231,"connected_time":1756000000000,"state":"active","ping":111},{"user_id":17,"name":"Effie","steam_id":76561198261842068,"connected_time":1736000000000,"state":"active","ping":93},{"user_id":18,"name":"land0","steam_id":76561198321264704,"connected_time":1698000000000,"state":"active","ping":117},{"user_id":21,"name":"Hoss Delgado","steam_id":76561197995328504,"connected_time":1600000000000,"state":"active","ping":121},{"user_id":22,"name":"LerN","steam_id":76561198083463877,"connected_time":1569000000000,"state":"active","ping":62},{"user_id":23,"name":"The Muffin Man","steam_id":76561199088286427,"connected_time":1556000000000,"state":"active","ping":100},{"user_id":25,"name":"Netwide Assembler","steam_id":76561198949804380,"connected_time":1375000000000,"state":"active","ping":48},{"user_id":27,"name":"jayzak24","steam_id":76561198354267509,"connected_time":1224000000000,"state":"active","ping":84},{"user_id":41,"name":"lord setch","steam_id":76561198252328518,"connected_time":453000000000,"state":"active","ping":105},{"user_id":29,"name":"goopsnatch","steam_id":76561198143877682,"connected_time":1180000000000,"state":"active","ping":98},{"user_id":30,"name":"Ultimis the TBH Creature","steam_id":76561198217182993,"connected_time":1165000000000,"state":"active","ping":150},{"user_id":37,"name":"no one knows","steam_id":76561199033174802,"connected_time":926000000000,"state":"active","ping":80},{"user_id":32,"name":"Uncle Darnell","steam_id":76561198211473307,"connected_time":1141000000000,"state":"active","ping":62},{"user_id":33,"name":"Techzal","steam_id":76561198015284807,"connected_time":1121000000000,"state":"active","ping":113},{"user_id":42,"name":"Merach","steam_id":76561197994544587,"connected_time":430000000000,"state":"active","ping":60},{"user_id":36,"name":"quatelhelix","steam_id":76561198066708113,"connected_time":1070000000000,"state":"active","ping":69},{"user_id":39,"name":"Buhbuh","steam_id":76561198872613199,"connected_time":812000000000,"state":"active","ping":72}]},{"server_id":8,"name":"Uncletopia | Dallas | 1 | All Maps","name_short":"dal-1","host":"dal-1.us.uncletopia.com","port":27015,"enabled":true,"region":"us-central","cc":"us","latitude":32.779167,"longitude":-96.80889,"reserved":0,"last_update":"0001-01-01T00:00:00Z","name_a2s":"Uncletopia | Dallas | 1 | All Maps","protocol":17,"map":"pl_barnblitz","folder":"tf","game":"Team Fortress","app_id":440,"player_count":22,"max_players":24,"Bots":0,"server_type":"Dedicated","server_os":"Linux","password":true,"vac":true,"version":"7757534","steam_id":85568392924469986,"keywords":["nocrits","nodmgspread","payload","uncletopia"],"game_id":440,"stv_port":27016,"stv_name":"Uncletopia | Dallas | 1 | All Maps | STV","players":[{"user_id":326,"name":"Typheâ„¢","steam_id":76561198251528746,"connected_time":1863000000000,"state":"active","ping":60},{"user_id":294,"name":"SPREAD CHRISTMAS CHEER AND JOY","steam_id":76561198800386026,"connected_time":3555000000000,"state":"active","ping":95},{"user_id":215,"name":"Sal Vulcano","steam_id":76561198016677665,"connected_time":8756000000000,"state":"active","ping":86},{"user_id":322,"name":"Faerun_F","steam_id":76561198443906094,"connected_time":1917000000000,"state":"active","ping":73},{"user_id":291,"name":"Flicky","steam_id":76561198012811546,"connected_time":3628000000000,"state":"active","ping":94},{"user_id":334,"name":"I'm Frost Man","steam_id":76561198393276400,"connected_time":1115000000000,"state":"active","ping":67},{"user_id":335,"name":"Lemon Demon Enthusiast","steam_id":76561199026721822,"connected_time":1108000000000,"state":"active","ping":89},{"user_id":315,"name":"The Green One","steam_id":76561198199776974,"connected_time":2411000000000,"state":"active","ping":70},{"user_id":281,"name":"TonesMcGroans","steam_id":76561197996691606,"connected_time":5143000000000,"state":"active","ping":41},{"user_id":240,"name":"pleasehelpidonthavefingers","steam_id":76561199367935846,"connected_time":7587000000000,"state":"active","ping":76},{"user_id":343,"name":"DocLucky","steam_id":76561199093899249,"connected_time":358000000000,"state":"active","ping":159},{"user_id":336,"name":"Barn.Jones1992","steam_id":76561198197981309,"connected_time":1074000000000,"state":"active","ping":62},{"user_id":292,"name":"BigBubble42","steam_id":76561198136286123,"connected_time":3625000000000,"state":"active","ping":31},{"user_id":344,"name":"Faust main","steam_id":76561198971799149,"connected_time":311000000000,"state":"active","ping":66},{"user_id":328,"name":"|-[LINUX]-| Purple Pybro","steam_id":76561198093538786,"connected_time":1837000000000,"state":"active","ping":37},{"user_id":342,"name":"JJDrowsy","steam_id":76561198274501963,"connected_time":430000000000,"state":"active","ping":64},{"user_id":345,"name":"bã‹›Mb jÎ»CK","steam_id":76561197990279891,"connected_time":12000000000,"state":"active","ping":184},{"user_id":340,"name":"superx","steam_id":76561198044976613,"connected_time":974000000000,"state":"active","ping":81},{"user_id":338,"name":"beep boop","steam_id":76561198414336279,"connected_time":1054000000000,"state":"active","ping":67},{"user_id":331,"name":"A Gamer [F2P]","steam_id":76561198138712892,"connected_time":1602000000000,"state":"active","ping":38},{"user_id":311,"name":"Fish Daddy","steam_id":76561198028057871,"connected_time":2754000000000,"state":"active","ping":89},{"user_id":339,"name":"Soju","steam_id":76561198044130442,"connected_time":1047000000000,"state":"active","ping":52}]},{"server_id":108,"name":"Uncletopia | Dallas | 2 | All Maps","name_short":"dal-2","host":"dal-1.us.uncletopia.com","port":27025,"enabled":true,"region":"us-central","cc":"us","latitude":32.779167,"longitude":-96.80889,"reserved":0,"last_update":"0001-01-01T00:00:00Z","name_a2s":"Uncletopia | Dallas | 2 | All Maps","protocol":17,"map":"koth_lakeside_final","folder":"tf","game":"Team Fortress","app_id":440,"player_count":0,"max_players":24,"Bots":0,"server_type":"Dedicated","server_os":"Linux","password":true,"vac":true,"version":"7757534","steam_id":85568392924469988,"keywords":["cp","nocrits","nodmgspread","uncletopia"],"game_id":440,"stv_port":27026,"stv_name":"Uncletopia | Dallas | 2 | All Maps | STV","players":null},{"server_id":5,"name":"Uncletopia | Frankfurt | 1 | All Maps","name_short":"frk-1","host":"frk-1.de.uncletopia.com","port":27015,"enabled":true,"region":"eu","cc":"de","latitude":50.110924,"longitude":8.682127,"reserved":0,"last_update":"0001-01-01T00:00:00Z","name_a2s":"Uncletopia | Frankfurt | 1 | All Maps","protocol":17,"map":"koth_lakeside_final","folder":"tf","game":"Team Fortress","app_id":440,"player_count":0,"max_players":24,"Bots":0,"server_type":"Dedicated","server_os":"Linux","password":true,"vac":true,"version":"7757534","steam_id":85568392924469989,"keywords":["cp","nocrits","nodmgspread","uncletopia"],"game_id":440,"stv_port":27016,"stv_name":"Uncletopia | Frankfurt | 1 | All Maps | STV","players":null},{"server_id":110,"name":"Uncletopia | Frankfurt | 2 | All Maps","name_short":"frk-2","host":"frk-1.de.uncletopia.com","port":27025,"enabled":true,"region":"eu","cc":"de","latitude":50.110924,"longitude":8.682127,"reserved":0,"last_update":"0001-01-01T00:00:00Z","name_a2s":"Uncletopia | Frankfurt | 2 | All Maps","protocol":17,"map":"pl_frontier_final","folder":"tf","game":"Team Fortress","app_id":440,"player_count":24,"max_players":24,"Bots":0,"server_type":"Dedicated","server_os":"Linux","password":true,"vac":true,"version":"7757534","steam_id":85568392924469990,"keywords":["nocrits","nodmgspread","payload","uncletopia"],"game_id":440,"stv_port":27026,"stv_name":"Uncletopia | Frankfurt | 2 | All Maps | STV","players":[{"user_id":260,"name":"Stone Tim","steam_id":76561198037237664,"connected_time":2835000000000,"state":"active","ping":70},{"user_id":258,"name":"Hamtastic","steam_id":76561198879769410,"connected_time":2847000000000,"state":"active","ping":74},{"user_id":271,"name":"ghost","steam_id":76561198189940229,"connected_time":1390000000000,"state":"active","ping":60},{"user_id":277,"name":"gfjhsdf","steam_id":76561198136736426,"connected_time":628000000000,"state":"active","ping":57},{"user_id":286,"name":"Tlad2","steam_id":76561198854897667,"connected_time":378000000000,"state":"active","ping":75},{"user_id":288,"name":"GEP Gun","steam_id":76561197981821003,"connected_time":208000000000,"state":"active","ping":72},{"user_id":274,"name":"FJADL","steam_id":76561198237008214,"connected_time":814000000000,"state":"active","ping":59},{"user_id":284,"name":"Sydney Blazey","steam_id":76561198931658649,"connected_time":438000000000,"state":"active","ping":101},{"user_id":262,"name":"happeanes","steam_id":76561198044293799,"connected_time":2827000000000,"state":"active","ping":66},{"user_id":280,"name":"Professional facestab","steam_id":76561198258721056,"connected_time":460000000000,"state":"active","ping":48},{"user_id":285,"name":"â˜…poyoâ˜…","steam_id":76561198150078959,"connected_time":426000000000,"state":"active","ping":62},{"user_id":279,"name":"Gety0","steam_id":76561198044387185,"connected_time":491000000000,"state":"active","ping":88},{"user_id":264,"name":"r06u3","steam_id":76561198254099253,"connected_time":2790000000000,"state":"active","ping":165},{"user_id":229,"name":"LOBZIK","steam_id":76561198114830120,"connected_time":5367000000000,"state":"active","ping":75},{"user_id":290,"name":"Hansi","steam_id":76561198035577047,"connected_time":83000000000,"state":"active","ping":62},{"user_id":265,"name":"ãƒ†ã‚¤ãƒ«ã‚¹","steam_id":76561198022403271,"connected_time":2780000000000,"state":"active","ping":49},{"user_id":242,"name":"Kotlet schabowy","steam_id":76561198048983509,"connected_time":3933000000000,"state":"active","ping":77},{"user_id":281,"name":"Mata_FM","steam_id":76561198044824504,"connected_time":459000000000,"state":"active","ping":59},{"user_id":287,"name":"Backup","steam_id":76561197999557567,"connected_time":255000000000,"state":"active","ping":55},{"user_id":194,"name":"Pepperonipizza","steam_id":76561198044471610,"connected_time":7106000000000,"state":"active","ping":67},{"user_id":211,"name":"LordTrap.exe","steam_id":76561198318089716,"connected_time":6543000000000,"state":"active","ping":59},{"user_id":275,"name":"I was good before.","steam_id":76561198187045217,"connected_time":726000000000,"state":"active","ping":86},{"user_id":278,"name":"HERISSON","steam_id":76561199062194778,"connected_time":594000000000,"state":"active","ping":64},{"user_id":282,"name":"cow milking specialist","steam_id":76561198364121077,"connected_time":459000000000,"state":"active","ping":101}]},{"server_id":308,"name":"Uncletopia | Frankfurt | 3 | All Maps","name_short":"frk-3","host":"frk-1.de.uncletopia.com","port":27035,"enabled":true,"region":"eu","cc":"de","latitude":50.110924,"longitude":8.682127,"reserved":0,"last_update":"0001-01-01T00:00:00Z","name_a2s":"Uncletopia | Frankfurt | 3 | All Maps","protocol":17,"map":"cp_sunshine","folder":"tf","game":"Team Fortress","app_id":440,"player_count":24,"max_players":24,"Bots":0,"server_type":"Dedicated","server_os":"Linux","password":true,"vac":true,"version":"7757534","steam_id":85568392924504274,"keywords":["cp","nocrits","nodmgspread","uncletopia"],"game_id":440,"stv_port":27036,"stv_name":"Uncletopia | Frankfurt | 3 | All Maps | STV","players":[{"user_id":581,"name":"watashi wa subete wo kaemasu","steam_id":76561198037810091,"connected_time":1506000000000,"state":"active","ping":94},{"user_id":587,"name":"Tonne","steam_id":76561197970856766,"connected_time":1077000000000,"state":"active","ping":57},{"user_id":593,"name":"Catboy 9S gaming","steam_id":76561197999024118,"connected_time":712000000000,"state":"active","ping":75},{"user_id":594,"name":"Caskye","steam_id":76561198165430888,"connected_time":697000000000,"state":"active","ping":65},{"user_id":579,"name":"Gnarville","steam_id":76561198006373329,"connected_time":1522000000000,"state":"active","ping":61},{"user_id":551,"name":"Dr.Sees [F2P]","steam_id":76561199219233587,"connected_time":3782000000000,"state":"active","ping":78},{"user_id":526,"name":"night.s","steam_id":76561198326287823,"connected_time":6124000000000,"state":"active","ping":66},{"user_id":606,"name":"adriankurek","steam_id":76561199349026873,"connected_time":89000000000,"state":"active","ping":65},{"user_id":568,"name":"Klinmir","steam_id":76561198352339376,"connected_time":2788000000000,"state":"active","ping":90},{"user_id":590,"name":"CumbustiblePunda","steam_id":76561197974274677,"connected_time":814000000000,"state":"active","ping":55},{"user_id":601,"name":"Gio'sMonkey","steam_id":76561198892432223,"connected_time":469000000000,"state":"active","ping":84},{"user_id":576,"name":"Whore","steam_id":76561198382749493,"connected_time":1559000000000,"state":"active","ping":89},{"user_id":562,"name":"Mad Cat Kivima","steam_id":76561198028959678,"connected_time":3063000000000,"state":"active","ping":103},{"user_id":595,"name":"Soldoux","steam_id":76561199093055113,"connected_time":647000000000,"state":"active","ping":61},{"user_id":602,"name":"The one who knocks","steam_id":76561198089341471,"connected_time":351000000000,"state":"active","ping":76},{"user_id":583,"name":"MR.CRAB","steam_id":76561198329833659,"connected_time":1475000000000,"state":"active","ping":71},{"user_id":561,"name":"M.Bou","steam_id":76561199097750260,"connected_time":3106000000000,"state":"active","ping":128},{"user_id":604,"name":"etc","steam_id":76561197998394797,"connected_time":233000000000,"state":"active","ping":56},{"user_id":559,"name":"CapnFang","steam_id":76561198042687780,"connected_time":3154000000000,"state":"active","ping":77},{"user_id":596,"name":"MÃ¸gmorgen","steam_id":76561198076107263,"connected_time":645000000000,"state":"active","ping":55},{"user_id":607,"name":"ChickyCoop","steam_id":76561199072983488,"connected_time":0,"state":"spawning","ping":22},{"user_id":520,"name":"bigwish | bmod.tf","steam_id":76561197997859723,"connected_time":6620000000000,"state":"active","ping":80},{"user_id":591,"name":"Dr Ultraman","steam_id":76561198060787567,"connected_time":794000000000,"state":"active","ping":78},{"user_id":603,"name":"GoatLord1","steam_id":76561198157964544,"connected_time":316000000000,"state":"active","ping":71}]},{"server_id":309,"name":"Uncletopia | Frankfurt | 4 | All Maps","name_short":"frk-4","host":"frk-1.de.uncletopia.com","port":27045,"enabled":true,"region":"eu","cc":"de","latitude":50.110924,"longitude":8.682127,"reserved":0,"last_update":"0001-01-01T00:00:00Z","name_a2s":"Uncletopia | Frankfurt | 4 | All Maps","protocol":17,"map":"pl_barnblitz","folder":"tf","game":"Team Fortress","app_id":440,"player_count":24,"max_players":24,"Bots":0,"server_type":"Dedicated","server_os":"Linux","password":true,"vac":true,"version":"7757534","steam_id":85568392924504275,"keywords":["nocrits","nodmgspread","payload","uncletopia"],"game_id":440,"stv_port":27046,"stv_name":"Uncletopia | Frankfurt | 4 | All Maps | STV","players":[{"user_id":271,"name":"Churaq Cyril","steam_id":76561198125381319,"connected_time":2155000000000,"state":"active","ping":88},{"user_id":282,"name":"Sebiromanes (SpookmÃ¡ster)","steam_id":76561198112800408,"connected_time":1570000000000,"state":"active","ping":132},{"user_id":286,"name":"nitroglycerin","steam_id":76561199158447878,"connected_time":873000000000,"state":"active","ping":70},{"user_id":266,"name":"Vousaty_Sensei","steam_id":76561197993537454,"connected_time":2329000000000,"state":"active","ping":70},{"user_id":269,"name":"Plony","steam_id":76561197988769793,"connected_time":2174000000000,"state":"active","ping":75},{"user_id":270,"name":"FNF","steam_id":76561199151422826,"connected_time":2169000000000,"state":"active","ping":125},{"user_id":290,"name":"wouris","steam_id":76561198876188003,"connected_time":575000000000,"state":"active","ping":60},{"user_id":289,"name":"Yakko","steam_id":76561198044170177,"connected_time":800000000000,"state":"active","ping":52},{"user_id":219,"name":"biggest dark souls 2 hater","steam_id":76561198055389492,"connected_time":6080000000000,"state":"active","ping":54},{"user_id":223,"name":"tweakios","steam_id":76561198125010818,"connected_time":5604000000000,"state":"active","ping":91},{"user_id":255,"name":"X-tis","steam_id":76561198043837480,"connected_time":3547000000000,"state":"active","ping":76},{"user_id":259,"name":"Hetmanych","steam_id":76561198870926865,"connected_time":3293000000000,"state":"active","ping":47},{"user_id":279,"name":"StragaSevera","steam_id":76561197983828569,"connected_time":1805000000000,"state":"active","ping":92},{"user_id":274,"name":"dRumata","steam_id":76561198022150210,"connected_time":2076000000000,"state":"active","ping":133},{"user_id":264,"name":"Dolcelatte","steam_id":76561198038501770,"connected_time":2678000000000,"state":"active","ping":48},{"user_id":283,"name":"mei","steam_id":76561198028078806,"connected_time":1262000000000,"state":"active","ping":54},{"user_id":281,"name":"addicted","steam_id":76561199129801006,"connected_time":1616000000000,"state":"active","ping":53},{"user_id":285,"name":"Fat Pigeon","steam_id":76561198817940142,"connected_time":1073000000000,"state":"active","ping":50},{"user_id":277,"name":"Preacher Carl","steam_id":76561197994713485,"connected_time":1940000000000,"state":"active","ping":61},{"user_id":75,"name":"Welder","steam_id":76561198355300561,"connected_time":17629000000000,"state":"active","ping":66},{"user_id":284,"name":"æ‚ª","steam_id":76561198095879087,"connected_time":1210000000000,"state":"active","ping":70},{"user_id":288,"name":"Svilar","steam_id":76561198828348612,"connected_time":870000000000,"state":"active","ping":98},{"user_id":249,"name":"Fjellape","steam_id":76561198094819884,"connected_time":4173000000000,"state":"active","ping":99},{"user_id":252,"name":"[fll.fi] Kaarlo","steam_id":76561198015176252,"connected_time":4023000000000,"state":"active","ping":87}]},{"server_id":310,"name":"Uncletopia | Frankfurt | 5 | All Maps","name_short":"frk-5","host":"frk-1.de.uncletopia.com","port":27055,"enabled":true,"region":"eu","cc":"de","latitude":50.110924,"longitude":8.682127,"reserved":0,"last_update":"0001-01-01T00:00:00Z","name_a2s":"Uncletopia | Frankfurt | 5 | All Maps","protocol":17,"map":"pl_borneo","folder":"tf","game":"Team Fortress","app_id":440,"player_count":24,"max_players":24,"Bots":0,"server_type":"Dedicated","server_os":"Linux","password":true,"vac":true,"version":"7757534","steam_id":85568392924504277,"keywords":["nocrits","nodmgspread","payload","uncletopia"],"game_id":440,"stv_port":27056,"stv_name":"Uncletopia | Frankfurt | 5 | All Maps | STV","players":[{"user_id":427,"name":"hora","steam_id":76561198404470526,"connected_time":2054000000000,"state":"active","ping":82},{"user_id":415,"name":"Adrenaline","steam_id":76561197970852048,"connected_time":2856000000000,"state":"active","ping":60},{"user_id":448,"name":"rigel_","steam_id":76561198148640847,"connected_time":808000000000,"state":"active","ping":75},{"user_id":430,"name":"ALLIA","steam_id":76561198001927753,"connected_time":1792000000000,"state":"active","ping":58},{"user_id":453,"name":"TheFriendZonedGuy","steam_id":76561198068862574,"connected_time":186000000000,"state":"active","ping":85},{"user_id":372,"name":"estrogen deliver","steam_id":76561198190259726,"connected_time":5226000000000,"state":"active","ping":83},{"user_id":449,"name":"av x","steam_id":76561198062699350,"connected_time":649000000000,"state":"active","ping":59},{"user_id":442,"name":"cinny","steam_id":76561198832112629,"connected_time":976000000000,"state":"active","ping":79},{"user_id":451,"name":"med.******.1939","steam_id":76561198875472890,"connected_time":376000000000,"state":"active","ping":75},{"user_id":388,"name":"i always miss","steam_id":76561199379233899,"connected_time":4598000000000,"state":"active","ping":87},{"user_id":445,"name":"Mr.O #deletesniper","steam_id":76561198039567498,"connected_time":934000000000,"state":"active","ping":60},{"user_id":443,"name":"dynamo","steam_id":76561198120166752,"connected_time":971000000000,"state":"active","ping":75},{"user_id":435,"name":"Mega Saturn","steam_id":76561198024750500,"connected_time":1454000000000,"state":"active","ping":104},{"user_id":440,"name":"Fish","steam_id":76561198182278770,"connected_time":1082000000000,"state":"active","ping":70},{"user_id":450,"name":"TJ1212","steam_id":76561199013575313,"connected_time":536000000000,"state":"active","ping":77},{"user_id":439,"name":"T K","steam_id":76561198134256917,"connected_time":1117000000000,"state":"active","ping":64},{"user_id":393,"name":"Onyx Odin - Alcoholic Alchemist","steam_id":76561198044560148,"connected_time":4341000000000,"state":"active","ping":69},{"user_id":375,"name":"doctor amongus","steam_id":76561199096919345,"connected_time":4909000000000,"state":"active","ping":85},{"user_id":420,"name":"HOTEL LOBBY","steam_id":76561198048250715,"connected_time":2613000000000,"state":"active","ping":47},{"user_id":452,"name":"BigNik","steam_id":76561197975026342,"connected_time":257000000000,"state":"active","ping":70},{"user_id":429,"name":"Datenegassie","steam_id":76561198089417032,"connected_time":1947000000000,"state":"active","ping":70},{"user_id":447,"name":"Veritasket","steam_id":76561198090074093,"connected_time":831000000000,"state":"active","ping":73},{"user_id":432,"name":"Turencko.Danila","steam_id":76561199381190549,"connected_time":1716000000000,"state":"active","ping":95},{"user_id":409,"name":"$nÃ˜w","steam_id":76561198238781028,"connected_time":3519000000000,"state":"active","ping":100}]},{"server_id":311,"name":"Uncletopia | Frankfurt | 6 | All Maps","name_short":"frk-6","host":"frk-1.de.uncletopia.com","port":27065,"enabled":true,"region":"eu","cc":"de","latitude":50.110924,"longitude":8.682127,"reserved":0,"last_update":"0001-01-01T00:00:00Z","name_a2s":"Uncletopia | Frankfurt | 6 | All Maps","protocol":17,"map":"pl_hoodoo_final","folder":"tf","game":"Team Fortress","app_id":440,"player_count":23,"max_players":24,"Bots":0,"server_type":"Dedicated","server_os":"Linux","password":true,"vac":true,"version":"7757534","steam_id":85568392924504278,"keywords":["nocrits","nodmgspread","payload","uncletopia"],"game_id":440,"stv_port":27066,"stv_name":"Uncletopia | Frankfurt | 6 | All Maps | STV","players":[{"user_id":246,"name":"Spotmonkey","steam_id":76561198003994092,"connected_time":6000000000,"state":"spawning","ping":63},{"user_id":220,"name":"FWARESH$","steam_id":76561198101292843,"connected_time":1010000000000,"state":"active","ping":46},{"user_id":224,"name":"Lateguy","steam_id":76561198069446079,"connected_time":781000000000,"state":"active","ping":88},{"user_id":228,"name":"nicco","steam_id":76561198046217866,"connected_time":767000000000,"state":"active","ping":41},{"user_id":243,"name":"DrExplosive","steam_id":76561198063678579,"connected_time":192000000000,"state":"active","ping":67},{"user_id":227,"name":"tiia (cold hends)","steam_id":76561198046196005,"connected_time":771000000000,"state":"active","ping":44},{"user_id":229,"name":"tekt","steam_id":76561198044554387,"connected_time":757000000000,"state":"active","ping":87},{"user_id":230,"name":"scarf","steam_id":76561198118873912,"connected_time":751000000000,"state":"active","ping":67},{"user_id":231,"name":"Paul Penix","steam_id":76561197996941396,"connected_time":746000000000,"state":"active","ping":56},{"user_id":189,"name":"Sylbar","steam_id":76561198065379590,"connected_time":2947000000000,"state":"active","ping":69},{"user_id":232,"name":"(hydrated)mafutbolero","steam_id":76561199233664005,"connected_time":740000000000,"state":"active","ping":74},{"user_id":238,"name":"Bilbo Ballbaggins","steam_id":76561198070593514,"connected_time":616000000000,"state":"active","ping":54},{"user_id":219,"name":"Raivo","steam_id":76561198388750592,"connected_time":1174000000000,"state":"active","ping":65},{"user_id":245,"name":"Oxer","steam_id":76561198055942412,"connected_time":80000000000,"state":"active","ping":85},{"user_id":235,"name":"Solid","steam_id":76561198357049292,"connected_time":654000000000,"state":"active","ping":82},{"user_id":236,"name":"NothingMan","steam_id":76561198051284446,"connected_time":650000000000,"state":"active","ping":53},{"user_id":240,"name":"Jara.","steam_id":76561197992207165,"connected_time":506000000000,"state":"active","ping":100},{"user_id":217,"name":"BÃ¶lverkr","steam_id":76561198037444331,"connected_time":1526000000000,"state":"active","ping":81},{"user_id":239,"name":"FatalRyhme","steam_id":76561198018713483,"connected_time":555000000000,"state":"active","ping":94},{"user_id":134,"name":"rizook","steam_id":76561198055010039,"connected_time":6982000000000,"state":"active","ping":65},{"user_id":143,"name":"Dinges360","steam_id":76561198042032834,"connected_time":5945000000000,"state":"active","ping":58},{"user_id":207,"name":"just a cat","steam_id":76561198328023740,"connected_time":2133000000000,"state":"active","ping":50},{"user_id":216,"name":"soopeli","steam_id":76561198003350251,"connected_time":1566000000000,"state":"active","ping":62}]},{"server_id":23,"name":"Uncletopia | Frankfurt | 7 | Stopwatch Beta","name_short":"frk-7","host":"frk-1.de.uncletopia.com","port":27075,"enabled":true,"region":"eu","cc":"de","latitude":50.110924,"longitude":8.682127,"reserved":0,"last_update":"0001-01-01T00:00:00Z","name_a2s":"Uncletopia | Frankfurt | 7 | Stopwatch Beta","protocol":17,"map":"workshop/koth_bagel_rc6.ugc2514036946","folder":"tf","game":"Team Fortress","app_id":440,"player_count":24,"max_players":24,"Bots":0,"server_type":"Dedicated","server_os":"Linux","password":true,"vac":true,"version":"7757534","steam_id":85568392924742827,"keywords":["cp","nocrits","nodmgspread","uncletopia"],"game_id":440,"stv_port":27076,"stv_name":"Uncletopia | Frankfurt | 7 | Stopwatch Beta | STV","players":[{"user_id":125,"name":"Carol Olston","steam_id":76561198080257273,"connected_time":371000000000,"state":"active","ping":59},{"user_id":72,"name":"h4wk","steam_id":76561198277294190,"connected_time":2500000000000,"state":"active","ping":90},{"user_id":119,"name":"Luke","steam_id":76561198125005288,"connected_time":503000000000,"state":"active","ping":68},{"user_id":104,"name":"Monsteh","steam_id":76561198325898181,"connected_time":1450000000000,"state":"active","ping":74},{"user_id":121,"name":"Trash Man","steam_id":76561198874518834,"connected_time":438000000000,"state":"active","ping":189},{"user_id":120,"name":"AYE","steam_id":76561198181368101,"connected_time":490000000000,"state":"active","ping":47},{"user_id":122,"name":"lilyskittle","steam_id":76561198303232638,"connected_time":424000000000,"state":"active","ping":66},{"user_id":123,"name":"Modmelon","steam_id":76561198813630650,"connected_time":415000000000,"state":"active","ping":73},{"user_id":117,"name":"result","steam_id":76561198269200388,"connected_time":807000000000,"state":"active","ping":74},{"user_id":99,"name":"pond","steam_id":76561198214849363,"connected_time":1564000000000,"state":"active","ping":78},{"user_id":51,"name":"kornetov.vitalya","steam_id":76561199286034833,"connected_time":3839000000000,"state":"active","ping":89},{"user_id":105,"name":"gGABEsz","steam_id":76561198117199068,"connected_time":1436000000000,"state":"active","ping":71},{"user_id":113,"name":"SPONGE","steam_id":76561198040933472,"connected_time":1126000000000,"state":"active","ping":90},{"user_id":107,"name":"Enlightening","steam_id":76561198049680816,"connected_time":1389000000000,"state":"active","ping":108},{"user_id":124,"name":"Mr_Alex","steam_id":76561198308929418,"connected_time":411000000000,"state":"active","ping":58},{"user_id":134,"name":"Yachox","steam_id":76561198158259745,"connected_time":60000000000,"state":"active","ping":89},{"user_id":70,"name":"akakez","steam_id":76561198095432821,"connected_time":2694000000000,"state":"active","ping":119},{"user_id":74,"name":"Proffesor Trickstabs","steam_id":76561199240709445,"connected_time":2491000000000,"state":"active","ping":64},{"user_id":75,"name":"mogo","steam_id":76561198339459959,"connected_time":2486000000000,"state":"active","ping":110},{"user_id":108,"name":"Egor Pomidor","steam_id":76561199175688390,"connected_time":1345000000000,"state":"active","ping":75},{"user_id":77,"name":"lyudmilakh","steam_id":76561198362779878,"connected_time":2402000000000,"state":"active","ping":91},{"user_id":133,"name":"Panda","steam_id":76561198176342325,"connected_time":98000000000,"state":"active","ping":107},{"user_id":132,"name":"The Knight","steam_id":76561198055320626,"connected_time":105000000000,"state":"active","ping":99},{"user_id":130,"name":"Bricky Bob","steam_id":76561198048712030,"connected_time":209000000000,"state":"active","ping":78}]},{"server_id":24,"name":"Uncletopia | Frankfurt | 8 | Community","name_short":"frk-8","host":"frk-1.de.uncletopia.com","port":27085,"enabled":true,"region":"eu","cc":"de","latitude":50.110924,"longitude":8.682127,"reserved":0,"last_update":"0001-01-01T00:00:00Z","name_a2s":"Uncletopia | Frankfurt | 8 | Community","protocol":17,"map":"workshop/cp_hazyfort_rc6.ugc1365963729","folder":"tf","game":"Team Fortress","app_id":440,"player_count":3,"max_players":24,"Bots":0,"server_type":"Dedicated","server_os":"Linux","password":true,"vac":true,"version":"7757534","steam_id":85568392924742828,"keywords":["cp","nocrits","nodmgspread","uncletopia"],"game_id":440,"stv_port":27086,"stv_name":"Uncletopia | Frankfurt | 8 | Community | STV","players":[{"user_id":554,"name":"Pablo Gonzales 2009","steam_id":76561199248572372,"connected_time":812000000000,"state":"active","ping":66},{"user_id":555,"name":"hodnydylko","steam_id":76561198416381582,"connected_time":811000000000,"state":"active","ping":52},{"user_id":557,"name":"Average Tea Enjoyer","steam_id":76561199103785290,"connected_time":637000000000,"state":"active","ping":90}]},{"server_id":202,"name":"Uncletopia | Hong Kong | 1 | All Maps","name_short":"hgk-1","host":"hgk-1.hk.uncletopia.com","port":27015,"enabled":true,"region":"asia","cc":"hk","latitude":22.302711,"longitude":114.177216,"reserved":0,"last_update":"0001-01-01T00:00:00Z","name_a2s":"Uncletopia | Hong Kong | 1 | All Maps","protocol":17,"map":"koth_highpass","folder":"tf","game":"Team Fortress","app_id":440,"player_count":0,"max_players":24,"Bots":0,"server_type":"Dedicated","server_os":"Linux","password":true,"vac":true,"version":"7757534","steam_id":85568392924494504,"keywords":["cp","nocrits","nodmgspread","uncletopia"],"game_id":440,"stv_port":27016,"stv_name":"Uncletopia | Hong Kong | 1 | All Maps | STV","players":null},{"server_id":1,"name":"Uncletopia | Los Angeles | 1 | All Maps","name_short":"lax-1","host":"lax-1.us.uncletopia.com","port":27015,"enabled":true,"region":"us-west","cc":"us","latitude":33.94279,"longitude":-118.41004,"reserved":0,"last_update":"0001-01-01T00:00:00Z","name_a2s":"Uncletopia | Los Angeles | 1 | All Maps","protocol":17,"map":"pl_thundermountain","folder":"tf","game":"Team Fortress","app_id":440,"player_count":24,"max_players":24,"Bots":0,"server_type":"Dedicated","server_os":"Linux","password":true,"vac":true,"version":"7757534","steam_id":85568392924469991,"keywords":["nocrits","nodmgspread","payload","uncletopia"],"game_id":440,"stv_port":27016,"stv_name":"Uncletopia | Los Angeles | 1 | All Maps | STV","players":[{"user_id":112,"name":"Stapler","steam_id":76561198099295077,"connected_time":372000000000,"state":"active","ping":52},{"user_id":104,"name":"tie dye die guy","steam_id":76561198049845337,"connected_time":1241000000000,"state":"active","ping":67},{"user_id":115,"name":"ChefMike","steam_id":76561198414034069,"connected_time":244000000000,"state":"active","ping":116},{"user_id":122,"name":"TF2 need a sex update","steam_id":76561199103964705,"connected_time":140000000000,"state":"active","ping":146},{"user_id":102,"name":"grugposter","steam_id":76561198035805348,"connected_time":1666000000000,"state":"active","ping":60},{"user_id":82,"name":"SneekiCheekiQbone","steam_id":76561198045077980,"connected_time":2580000000000,"state":"active","ping":42},{"user_id":114,"name":"Buggsy","steam_id":76561198269082428,"connected_time":272000000000,"state":"active","ping":101},{"user_id":110,"name":"r u guys going trick or treatin","steam_id":76561199074585110,"connected_time":612000000000,"state":"active","ping":43},{"user_id":116,"name":"compulsive","steam_id":76561198212421513,"connected_time":226000000000,"state":"active","ping":47},{"user_id":97,"name":"TTV/ChadMorningWood","steam_id":76561198139832291,"connected_time":1885000000000,"state":"active","ping":51},{"user_id":123,"name":"Camfour","steam_id":76561198083090140,"connected_time":58000000000,"state":"active","ping":61},{"user_id":118,"name":"Stranded","steam_id":76561198139648047,"connected_time":215000000000,"state":"active","ping":54},{"user_id":46,"name":"MORE BOUNCE TO THE OUNCE","steam_id":76561198243399336,"connected_time":4696000000000,"state":"active","ping":70},{"user_id":119,"name":"Sectus","steam_id":76561198034616577,"connected_time":215000000000,"state":"active","ping":105},{"user_id":48,"name":"à¶ž","steam_id":76561199187895660,"connected_time":4658000000000,"state":"active","ping":57},{"user_id":120,"name":"asm_ghost","steam_id":76561199205363547,"connected_time":178000000000,"state":"active","ping":82},{"user_id":111,"name":"gamer_hater","steam_id":76561198973306314,"connected_time":550000000000,"state":"active","ping":50},{"user_id":103,"name":"rmbl","steam_id":76561198150137369,"connected_time":1490000000000,"state":"active","ping":52},{"user_id":59,"name":"Karazu","steam_id":76561198026674301,"connected_time":4315000000000,"state":"active","ping":80},{"user_id":121,"name":"Radioman","steam_id":76561198341542988,"connected_time":175000000000,"state":"active","ping":71},{"user_id":61,"name":"Pudsla","steam_id":76561198258974036,"connected_time":4279000000000,"state":"active","ping":60},{"user_id":109,"name":"Loader","steam_id":76561198141199058,"connected_time":740000000000,"state":"active","ping":66},{"user_id":84,"name":"EL JEFE","steam_id":76561198077618439,"connected_time":2501000000000,"state":"active","ping":42},{"user_id":107,"name":"Nibotshooter","steam_id":76561199284825579,"connected_time":1012000000000,"state":"active","ping":77}]},{"server_id":112,"name":"Uncletopia | Los Angeles | 2 | All Maps","name_short":"lax-2","host":"lax-1.us.uncletopia.com","port":27025,"enabled":true,"region":"us-west","cc":"us","latitude":33.94279,"longitude":-118.41004,"reserved":0,"last_update":"0001-01-01T00:00:00Z","name_a2s":"Uncletopia | Los Angeles | 2 | All Maps","protocol":17,"map":"koth_cascade","folder":"tf","game":"Team Fortress","app_id":440,"player_count":0,"max_players":24,"Bots":0,"server_type":"Dedicated","server_os":"Linux","password":true,"vac":true,"version":"7757534","steam_id":85568392924469992,"keywords":["cp","nocrits","nodmgspread","uncletopia"],"game_id":440,"stv_port":27026,"stv_name":"Uncletopia | Los Angeles | 2 | All Maps | STV","players":null},{"server_id":324,"name":"Uncletopia | Los Angeles | 3 | All Maps","name_short":"lax-3","host":"lax-1.us.uncletopia.com","port":27035,"enabled":true,"region":"us-west","cc":"us","latitude":33.94279,"longitude":-118.41004,"reserved":0,"last_update":"0001-01-01T00:00:00Z","name_a2s":"Uncletopia | Los Angeles | 3 | All Maps","protocol":17,"map":"pl_borneo","folder":"tf","game":"Team Fortress","app_id":440,"player_count":0,"max_players":24,"Bots":0,"server_type":"Dedicated","server_os":"Linux","password":true,"vac":true,"version":"7757534","steam_id":85568392924510198,"keywords":["nocrits","nodmgspread","payload","uncletopia"],"game_id":440,"stv_port":27036,"stv_name":"Uncletopia | Los Angeles | 3 | All Maps | STV","players":null},{"server_id":25,"name":"Uncletopia | Los Angeles | 4 | Stopwatch Beta","name_short":"lax-4","host":"lax-1.us.uncletopia.com","port":27045,"enabled":true,"region":"us-west","cc":"us","latitude":33.94279,"longitude":-118.41004,"reserved":0,"last_update":"0001-01-01T00:00:00Z","name_a2s":"Uncletopia | Los Angeles | 4 | Stopwatch Beta","protocol":17,"map":"pl_frontier_final","folder":"tf","game":"Team Fortress","app_id":440,"player_count":0,"max_players":24,"Bots":0,"server_type":"Dedicated","server_os":"Linux","password":true,"vac":true,"version":"7757534","steam_id":85568392924510199,"keywords":["nocrits","nodmgspread","payload","uncletopia"],"game_id":440,"stv_port":27046,"stv_name":"Uncletopia | Los Angeles | 4 | Stopwatch Beta | STV","players":null},{"server_id":11,"name":"Uncletopia | London | 1 | All Maps","name_short":"lon-1","host":"lon-1.uk.uncletopia.com","port":27015,"enabled":true,"region":"eu","cc":"gb","latitude":51.509865,"longitude":-0.118092,"reserved":0,"last_update":"0001-01-01T00:00:00Z","name_a2s":"Uncletopia | London | 1 | All Maps","protocol":17,"map":"pl_badwater","folder":"tf","game":"Team Fortress","app_id":440,"player_count":24,"max_players":24,"Bots":0,"server_type":"Dedicated","server_os":"Linux","password":true,"vac":true,"version":"7757534","steam_id":85568392924367362,"keywords":["nocrits","nodmgspread","payload","uncletopia"],"game_id":440,"stv_port":27016,"stv_name":"Uncletopia | London | 1 | All Maps | STV","players":[{"user_id":412,"name":"SuperBob103","steam_id":76561199175360012,"connected_time":2962000000000,"state":"active","ping":48},{"user_id":403,"name":"Weakest Cowmagler User","steam_id":76561198848650365,"connected_time":3600000000000,"state":"active","ping":85},{"user_id":402,"name":"bum","steam_id":76561198060105180,"connected_time":3813000000000,"state":"active","ping":73},{"user_id":432,"name":"glow","steam_id":76561198086654069,"connected_time":2342000000000,"state":"active","ping":74},{"user_id":448,"name":"British Disapproval","steam_id":76561198001375260,"connected_time":1333000000000,"state":"active","ping":54},{"user_id":445,"name":"nyanezt","steam_id":76561198253734265,"connected_time":1459000000000,"state":"active","ping":108},{"user_id":286,"name":"Flash","steam_id":76561198067379855,"connected_time":8108000000000,"state":"active","ping":46},{"user_id":450,"name":"dunduu","steam_id":76561198875240717,"connected_time":666000000000,"state":"active","ping":79},{"user_id":351,"name":"ThrobbingFerret","steam_id":76561199075576606,"connected_time":5292000000000,"state":"active","ping":64},{"user_id":389,"name":"Skuld","steam_id":76561198064734905,"connected_time":4467000000000,"state":"active","ping":98},{"user_id":519,"name":"[the brotherhood ] Ð—Ð°ÐœÐµÐ½Ñ","steam_id":76561198089330547,"connected_time":178000000000,"state":"active","ping":58},{"user_id":441,"name":"J3LLY","steam_id":76561198048453764,"connected_time":1738000000000,"state":"active","ping":51},{"user_id":424,"name":"Nugz","steam_id":76561199406148925,"connected_time":2617000000000,"state":"active","ping":56},{"user_id":409,"name":"Croy","steam_id":76561197972552579,"connected_time":3333000000000,"state":"active","ping":45},{"user_id":522,"name":"PGAndy","steam_id":76561199218070297,"connected_time":156000000000,"state":"active","ping":100},{"user_id":444,"name":"Jofiah/TTV","steam_id":76561197977233962,"connected_time":1535000000000,"state":"active","ping":49},{"user_id":521,"name":"helo...","steam_id":76561197960550488,"connected_time":162000000000,"state":"active","ping":38},{"user_id":272,"name":"dec","steam_id":76561198009660168,"connected_time":10438000000000,"state":"active","ping":52},{"user_id":446,"name":"Autumnsky","steam_id":76561198055161203,"connected_time":1342000000000,"state":"active","ping":60},{"user_id":436,"name":"[PW]aloxuhik","steam_id":76561197997042174,"connected_time":2253000000000,"state":"active","ping":78},{"user_id":360,"name":"Durham.","steam_id":76561199013125141,"connected_time":5231000000000,"state":"active","ping":66},{"user_id":443,"name":"sootybat","steam_id":76561199241947857,"connected_time":1707000000000,"state":"active","ping":65},{"user_id":447,"name":"Femboy with the wrong pronouns","steam_id":76561198072320671,"connected_time":1342000000000,"state":"active","ping":33},{"user_id":418,"name":"dominus.","steam_id":76561199065917088,"connected_time":2791000000000,"state":"active","ping":61}]},{"server_id":114,"name":"Uncletopia | London | 2 | All Maps","name_short":"lon-2","host":"lon-1.uk.uncletopia.com","port":27025,"enabled":true,"region":"eu","cc":"gb","latitude":51.509865,"longitude":-0.118092,"reserved":0,"last_update":"0001-01-01T00:00:00Z","name_a2s":"Uncletopia | London | 2 | All Maps","protocol":17,"map":"koth_cascade","folder":"tf","game":"Team Fortress","app_id":440,"player_count":1,"max_players":24,"Bots":0,"server_type":"Dedicated","server_os":"Linux","password":true,"vac":true,"version":"7757534","steam_id":85568392924470941,"keywords":["cp","nocrits","nodmgspread","uncletopia"],"game_id":440,"stv_port":27026,"stv_name":"Uncletopia | London | 2 | All Maps | STV","players":[{"user_id":25,"name":"Denialman (Muted)","steam_id":76561198309182092,"connected_time":381000000000,"state":"active","ping":68}]},{"server_id":320,"name":"Uncletopia | London | 3 | All Maps","name_short":"lon-3","host":"lon-1.uk.uncletopia.com","port":27035,"enabled":true,"region":"eu","cc":"gb","latitude":51.509865,"longitude":-0.118092,"reserved":0,"last_update":"0001-01-01T00:00:00Z","name_a2s":"Uncletopia | London | 3 | All Maps","protocol":17,"map":"pl_upward","folder":"tf","game":"Team Fortress","app_id":440,"player_count":24,"max_players":24,"Bots":0,"server_type":"Dedicated","server_os":"Linux","password":true,"vac":true,"version":"7757534","steam_id":85568392924510192,"keywords":["nocrits","nodmgspread","payload","uncletopia"],"game_id":440,"stv_port":27036,"stv_name":"Uncletopia | London | 3 | All Maps | STV","players":[{"user_id":488,"name":"Ezekyhl","steam_id":76561198355964282,"connected_time":1618000000000,"state":"active","ping":53},{"user_id":448,"name":"MattyCzek","steam_id":76561198881990395,"connected_time":5559000000000,"state":"active","ping":73},{"user_id":505,"name":"Wardruna96","steam_id":76561199057083828,"connected_time":672000000000,"state":"active","ping":75},{"user_id":506,"name":"deflox","steam_id":76561198087450635,"connected_time":665000000000,"state":"active","ping":49},{"user_id":494,"name":"scrsch detf2pickup","steam_id":76561198044391172,"connected_time":1362000000000,"state":"active","ping":62},{"user_id":503,"name":"The Black Duckling","steam_id":76561198383394891,"connected_time":691000000000,"state":"active","ping":133},{"user_id":507,"name":"Misterz","steam_id":76561198282994518,"connected_time":648000000000,"state":"active","ping":99},{"user_id":495,"name":"nightmare","steam_id":76561198386928726,"connected_time":1348000000000,"state":"active","ping":98},{"user_id":492,"name":"Rin-Nakaret","steam_id":76561197971051188,"connected_time":1383000000000,"state":"active","ping":58},{"user_id":504,"name":"duster cat","steam_id":76561198832231975,"connected_time":688000000000,"state":"active","ping":90},{"user_id":453,"name":"Gardvord","steam_id":76561198120715753,"connected_time":5240000000000,"state":"active","ping":77},{"user_id":485,"name":"FairlyFatFungus","steam_id":76561199152828854,"connected_time":1918000000000,"state":"active","ping":54},{"user_id":483,"name":"Slowbro","steam_id":76561198010779146,"connected_time":2437000000000,"state":"active","ping":84},{"user_id":499,"name":"glass of water and a baguette","steam_id":76561198188642265,"connected_time":999000000000,"state":"active","ping":48},{"user_id":479,"name":"Christmas Ham","steam_id":76561198119601623,"connected_time":3360000000000,"state":"active","ping":56},{"user_id":464,"name":"MÇ¿ÅŸÅ¦ÎµÅ—_ÃŸÅ‚Î»Ã§Ä›","steam_id":76561197980124891,"connected_time":4994000000000,"state":"active","ping":60},{"user_id":455,"name":"fÃ©nix","steam_id":76561198083199151,"connected_time":5203000000000,"state":"active","ping":53},{"user_id":500,"name":"Jude!","steam_id":76561197983597798,"connected_time":697000000000,"state":"active","ping":39},{"user_id":514,"name":"KLAMA  â¤","steam_id":76561198351549661,"connected_time":263000000000,"state":"active","ping":83},{"user_id":508,"name":"Markos","steam_id":76561198815203446,"connected_time":638000000000,"state":"active","ping":93},{"user_id":509,"name":"***** ***","steam_id":76561198048037379,"connected_time":607000000000,"state":"active","ping":85},{"user_id":497,"name":"relic_","steam_id":76561199053114167,"connected_time":1328000000000,"state":"active","ping":104},{"user_id":512,"name":"Abigor","steam_id":76561197969316578,"connected_time":435000000000,"state":"active","ping":60},{"user_id":498,"name":"Dark_Prelate","steam_id":76561199065671442,"connected_time":1281000000000,"state":"active","ping":65}]},{"server_id":321,"name":"Uncletopia | London | 4 | All Maps","name_short":"lon-4","host":"lon-1.uk.uncletopia.com","port":27045,"enabled":true,"region":"eu","cc":"gb","latitude":51.509865,"longitude":-0.118092,"reserved":0,"last_update":"0001-01-01T00:00:00Z","name_a2s":"Uncletopia | London | 4 | All Maps","protocol":17,"map":"pl_swiftwater_final1","folder":"tf","game":"Team Fortress","app_id":440,"player_count":0,"max_players":24,"Bots":0,"server_type":"Dedicated","server_os":"Linux","password":true,"vac":true,"version":"7757534","steam_id":85568392924510193,"keywords":["nocrits","nodmgspread","payload","uncletopia"],"game_id":440,"stv_port":27046,"stv_name":"Uncletopia | London | 4 | All Maps | STV","players":null},{"server_id":21,"name":"Uncletopia | London | 5 | All Maps","name_short":"lon-5","host":"lon-1.uk.uncletopia.com","port":27055,"enabled":true,"region":"eu","cc":"gb","latitude":51.509865,"longitude":-0.118092,"reserved":0,"last_update":"0001-01-01T00:00:00Z","name_a2s":"Uncletopia | London | 5 | All Maps","protocol":17,"map":"cp_process_final","folder":"tf","game":"Team Fortress","app_id":440,"player_count":11,"max_players":24,"Bots":0,"server_type":"Dedicated","server_os":"Linux","password":true,"vac":true,"version":"7757534","steam_id":85568392924742829,"keywords":["cp","nocrits","nodmgspread","uncletopia"],"game_id":440,"stv_port":27056,"stv_name":"Uncletopia | London | 5 | All Maps | STV","players":[{"user_id":50,"name":"Mandele","steam_id":76561199183213205,"connected_time":261000000000,"state":"active","ping":95},{"user_id":51,"name":"yeldad","steam_id":76561198447264153,"connected_time":221000000000,"state":"active","ping":181},{"user_id":53,"name":"LEFT FOOT BRAKING","steam_id":76561198342605680,"connected_time":135000000000,"state":"active","ping":60},{"user_id":52,"name":"Qzxly","steam_id":76561199217201383,"connected_time":189000000000,"state":"active","ping":251},{"user_id":54,"name":"Feudal lord","steam_id":76561198301837827,"connected_time":124000000000,"state":"active","ping":118},{"user_id":55,"name":"Kapitan Polska","steam_id":76561197968069413,"connected_time":60000000000,"state":"active","ping":76},{"user_id":37,"name":"N.M.E","steam_id":76561198012351470,"connected_time":2085000000000,"state":"active","ping":40},{"user_id":46,"name":"MichaÅ‚","steam_id":76561198320346362,"connected_time":1189000000000,"state":"active","ping":70},{"user_id":56,"name":"InsectKing","steam_id":76561199013519071,"connected_time":46000000000,"state":"active","ping":36},{"user_id":59,"name":"MaKo","steam_id":76561199013535305,"connected_time":2000000000,"state":"spawning","ping":61},{"user_id":58,"name":"JohnTraveltime","steam_id":76561199244281754,"connected_time":37000000000,"state":"active","ping":79}]},{"server_id":22,"name":"Uncletopia | London | 6 | All Maps","name_short":"lon-6","host":"lon-1.uk.uncletopia.com","port":27065,"enabled":true,"region":"eu","cc":"gb","latitude":51.509865,"longitude":-0.118092,"reserved":0,"last_update":"0001-01-01T00:00:00Z","name_a2s":"Uncletopia | London | 6 | All Maps","protocol":17,"map":"pl_upward","folder":"tf","game":"Team Fortress","app_id":440,"player_count":4,"max_players":24,"Bots":0,"server_type":"Dedicated","server_os":"Linux","password":true,"vac":true,"version":"7757534","steam_id":85568392924742830,"keywords":["nocrits","nodmgspread","payload","uncletopia"],"game_id":440,"stv_port":27066,"stv_name":"Uncletopia | London | 6 | All Maps | STV","players":[{"user_id":26,"name":"TheRealOG","steam_id":76561199472003745,"connected_time":627000000000,"state":"active","ping":62},{"user_id":15,"name":"Truegr","steam_id":76561198811912339,"connected_time":2562000000000,"state":"active","ping":62},{"user_id":24,"name":"montgomeryr266","steam_id":76561199473904794,"connected_time":660000000000,"state":"active","ping":53},{"user_id":27,"name":"DocTwoEight","steam_id":76561198153488940,"connected_time":2000000000,"state":"spawning","ping":67}]},{"server_id":40,"name":"Uncletopia | London | 7 | No Payload","name_short":"lon-7","host":"lon-1.uk.uncletopia.com","port":27075,"enabled":true,"region":"eu","cc":"gb","latitude":51.509865,"longitude":-0.118092,"reserved":0,"last_update":"0001-01-01T00:00:00Z","name_a2s":"Uncletopia | London | 7 | No Payload","protocol":17,"map":"cp_badlands","folder":"tf","game":"Team Fortress","app_id":440,"player_count":1,"max_players":24,"Bots":0,"server_type":"Dedicated","server_os":"Linux","password":true,"vac":true,"version":"7757534","steam_id":85568392924964314,"keywords":["cp","nocrits","nodmgspread","uncletopia"],"game_id":440,"stv_port":27076,"stv_name":"Uncletopia | London | 7 | No Payload | STV","players":[{"user_id":250,"name":"Petight","steam_id":76561197999438798,"connected_time":52000000000,"state":"active","ping":30}]},{"server_id":41,"name":"Uncletopia | London | 8 | Community","name_short":"lon-8","host":"lon-1.uk.uncletopia.com","port":27085,"enabled":true,"region":"eu","cc":"gb","latitude":51.509865,"longitude":-0.118092,"reserved":0,"last_update":"0001-01-01T00:00:00Z","name_a2s":"Uncletopia | London | 8 | Community","protocol":17,"map":"workshop/pl_cashworks_final1.ugc2904065412","folder":"tf","game":"Team Fortress","app_id":440,"player_count":3,"max_players":24,"Bots":0,"server_type":"Dedicated","server_os":"Linux","password":true,"vac":true,"version":"7757534","steam_id":85568392924964315,"keywords":["nocrits","nodmgspread","payload","uncletopia"],"game_id":440,"stv_port":27086,"stv_name":"Uncletopia | London | 8 | Community | STV","players":[{"user_id":539,"name":"Dr. Uberschwein","steam_id":76561198111367431,"connected_time":1538000000000,"state":"active","ping":106},{"user_id":482,"name":"TylowStar","steam_id":76561198357107806,"connected_time":4739000000000,"state":"active","ping":60},{"user_id":481,"name":"Penis Contortionist","steam_id":76561198073663784,"connected_time":4787000000000,"state":"active","ping":32}]},{"server_id":300,"name":"Uncletopia | MontrÃ©al | 1 | All Maps","name_short":"mtl-1","host":"mtl-1.ca.uncletopia.com","port":27015,"enabled":true,"region":"us-east","cc":"ca","latitude":45.50889,"longitude":-73.56167,"reserved":0,"last_update":"0001-01-01T00:00:00Z","name_a2s":"Uncletopia | MontrÃ©al | 1 | All Maps","protocol":17,"map":"cp_dustbowl","folder":"tf","game":"Team Fortress","app_id":440,"player_count":0,"max_players":24,"Bots":0,"server_type":"Dedicated","server_os":"Linux","password":true,"vac":true,"version":"7757534","steam_id":85568392924500087,"keywords":["cp","nocrits","nodmgspread","uncletopia"],"game_id":440,"stv_port":27016,"stv_name":"Uncletopia | MontrÃ©al | 1 | All Maps | STV","players":null},{"server_id":301,"name":"Uncletopia | MontrÃ©al | 2 | All Maps","name_short":"mtl-2","host":"mtl-1.ca.uncletopia.com","port":27025,"enabled":true,"region":"us-east","cc":"ca","latitude":45.50889,"longitude":-73.56167,"reserved":0,"last_update":"0001-01-01T00:00:00Z","name_a2s":"Uncletopia | MontrÃ©al | 2 | All Maps","protocol":17,"map":"pl_snowycoast","folder":"tf","game":"Team Fortress","app_id":440,"player_count":0,"max_players":24,"Bots":0,"server_type":"Dedicated","server_os":"Linux","password":true,"vac":true,"version":"7757534","steam_id":85568392924500088,"keywords":["nocrits","nodmgspread","payload","uncletopia"],"game_id":440,"stv_port":27026,"stv_name":"Uncletopia | MontrÃ©al | 2 | All Maps | STV","players":null},{"server_id":302,"name":"Uncletopia | MontrÃ©al | 3 | All Maps","name_short":"mtl-3","host":"mtl-1.ca.uncletopia.com","port":27035,"enabled":true,"region":"us-east","cc":"ca","latitude":45.50889,"longitude":-73.56167,"reserved":0,"last_update":"0001-01-01T00:00:00Z","name_a2s":"Uncletopia | MontrÃ©al | 3 | All Maps","protocol":17,"map":"pl_badwater","folder":"tf","game":"Team Fortress","app_id":440,"player_count":0,"max_players":24,"Bots":0,"server_type":"Dedicated","server_os":"Linux","password":true,"vac":true,"version":"7757534","steam_id":85568392924500089,"keywords":["nocrits","nodmgspread","payload","uncletopia"],"game_id":440,"stv_port":27036,"stv_name":"Uncletopia | MontrÃ©al | 3 | All Maps | STV","players":null},{"server_id":303,"name":"Uncletopia | MontrÃ©al | 4 | No Payload","name_short":"mtl-4","host":"mtl-1.ca.uncletopia.com","port":27045,"enabled":true,"region":"us-east","cc":"ca","latitude":45.50889,"longitude":-73.56167,"reserved":0,"last_update":"0001-01-01T00:00:00Z","name_a2s":"Uncletopia | MontrÃ©al | 4 | No Payload","protocol":17,"map":"pl_borneo","folder":"tf","game":"Team Fortress","app_id":440,"player_count":0,"max_players":24,"Bots":0,"server_type":"Dedicated","server_os":"Linux","password":true,"vac":true,"version":"7757534","steam_id":85568392924500090,"keywords":["nocrits","nodmgspread","payload","uncletopia"],"game_id":440,"stv_port":27046,"stv_name":"Uncletopia | MontrÃ©al | 4 | No Payload | STV","players":null},{"server_id":13,"name":"Uncletopia | New York City | 1 | All Maps","name_short":"nyc-1","host":"nyc-1.us.uncletopia.com","port":27015,"enabled":true,"region":"us-east","cc":"us","latitude":40.73061,"longitude":-73.93524,"reserved":0,"last_update":"0001-01-01T00:00:00Z","name_a2s":"Uncletopia | New York City | 1 | All Maps","protocol":17,"map":"pl_borneo","folder":"tf","game":"Team Fortress","app_id":440,"player_count":2,"max_players":24,"Bots":0,"server_type":"Dedicated","server_os":"Linux","password":true,"vac":true,"version":"7757534","steam_id":85568392924469993,"keywords":["nocrits","nodmgspread","payload","uncletopia"],"game_id":440,"stv_port":27016,"stv_name":"Uncletopia | New York City | 1 | All Maps | STV","players":[{"user_id":14,"name":"Bpeo","steam_id":76561198908887437,"connected_time":9000000000,"state":"active","ping":52},{"user_id":13,"name":"Ginger Jesus","steam_id":76561198052386458,"connected_time":82000000000,"state":"active","ping":43}]},{"server_id":14,"name":"Uncletopia | New York City | 2 | All Maps","name_short":"nyc-2","host":"nyc-1.us.uncletopia.com","port":27025,"enabled":true,"region":"us-east","cc":"us","latitude":40.73061,"longitude":-73.93524,"reserved":0,"last_update":"0001-01-01T00:00:00Z","name_a2s":"Uncletopia | New York City | 2 | All Maps","protocol":17,"map":"pl_badwater","folder":"tf","game":"Team Fortress","app_id":440,"player_count":24,"max_players":24,"Bots":0,"server_type":"Dedicated","server_os":"Linux","password":true,"vac":true,"version":"7757534","steam_id":85568392924469994,"keywords":["nocrits","nodmgspread","payload","uncletopia"],"game_id":440,"stv_port":27026,"stv_name":"Uncletopia | New York City | 2 | All Maps | STV","players":[{"user_id":173,"name":"spherewithahat","steam_id":76561199122192660,"connected_time":1837000000000,"state":"active","ping":60},{"user_id":175,"name":"canakblasteran","steam_id":76561199472518822,"connected_time":1601000000000,"state":"active","ping":131},{"user_id":177,"name":"PROFILE NAME","steam_id":76561198384238790,"connected_time":1394000000000,"state":"active","ping":39},{"user_id":161,"name":"Induceddata","steam_id":76561198868302455,"connected_time":2684000000000,"state":"active","ping":43},{"user_id":20,"name":"gghfgfgfg","steam_id":76561198064823861,"connected_time":11390000000000,"state":"active","ping":52},{"user_id":24,"name":"\\|)=|_|=(|/","steam_id":76561198171491110,"connected_time":11317000000000,"state":"active","ping":50},{"user_id":174,"name":"MrKrabsBootycheeks","steam_id":76561199474110257,"connected_time":1834000000000,"state":"active","ping":35},{"user_id":189,"name":"guyinatophat51","steam_id":76561198180230694,"connected_time":138000000000,"state":"active","ping":51},{"user_id":170,"name":"Mr. Call You Back","steam_id":76561198025172811,"connected_time":2305000000000,"state":"active","ping":41},{"user_id":183,"name":"Demoman With One Joke","steam_id":76561197993467034,"connected_time":1231000000000,"state":"active","ping":73},{"user_id":176,"name":"Glitchy stick","steam_id":76561199013429386,"connected_time":1455000000000,"state":"active","ping":60},{"user_id":146,"name":"Captain Demytri","steam_id":76561198097998607,"connected_time":3760000000000,"state":"active","ping":55},{"user_id":167,"name":"ml is fake cs","steam_id":76561198350747953,"connected_time":2499000000000,"state":"active","ping":67},{"user_id":137,"name":"ThePacBruno","steam_id":76561198046084545,"connected_time":4658000000000,"state":"active","ping":178},{"user_id":193,"name":"Lost CS player","steam_id":76561198892387723,"connected_time":63000000000,"state":"active","ping":55},{"user_id":184,"name":"SaltyFaulty","steam_id":76561199017898392,"connected_time":709000000000,"state":"active","ping":67},{"user_id":169,"name":"gabagool","steam_id":76561198012131766,"connected_time":2355000000000,"state":"active","ping":74},{"user_id":144,"name":"jimbo","steam_id":76561198046059770,"connected_time":3827000000000,"state":"active","ping":52},{"user_id":188,"name":"Rockguy21","steam_id":76561198121303359,"connected_time":224000000000,"state":"active","ping":63},{"user_id":162,"name":"Cecil","steam_id":76561199309028776,"connected_time":2684000000000,"state":"active","ping":63},{"user_id":118,"name":"Dreysidehl","steam_id":76561198056496183,"connected_time":6343000000000,"state":"active","ping":91},{"user_id":181,"name":"judesro","steam_id":76561198352244888,"connected_time":1289000000000,"state":"active","ping":72},{"user_id":182,"name":"Average Engineer Main","steam_id":76561197999657118,"connected_time":1246000000000,"state":"active","ping":66},{"user_id":191,"name":"JHLO","steam_id":76561198074359967,"connected_time":101000000000,"state":"active","ping":64}]},{"server_id":15,"name":"Uncletopia | New York City | 3 | Stopwatch Beta","name_short":"nyc-3","host":"nyc-1.us.uncletopia.com","port":27035,"enabled":true,"region":"us-east","cc":"us","latitude":40.73061,"longitude":-73.93524,"reserved":0,"last_update":"0001-01-01T00:00:00Z","name_a2s":"Uncletopia | New York City | 3 | Stopwatch Beta","protocol":17,"map":"workshop/koth_ashville_final.ugc2130459942","folder":"tf","game":"Team Fortress","app_id":440,"player_count":0,"max_players":24,"Bots":0,"server_type":"Dedicated","server_os":"Linux","password":true,"vac":true,"version":"7757534","steam_id":85568392924742820,"keywords":["cp","nocrits","nodmgspread","uncletopia"],"game_id":440,"stv_port":27036,"stv_name":"Uncletopia | New York City | 3 | Stopwatch Beta | STV","players":null},{"server_id":16,"name":"Uncletopia | New York City | 4 | Community","name_short":"nyc-4","host":"nyc-1.us.uncletopia.com","port":27045,"enabled":true,"region":"us-east","cc":"us","latitude":40.73061,"longitude":-73.93524,"reserved":0,"last_update":"0001-01-01T00:00:00Z","name_a2s":"Uncletopia | New York City | 4 | Community","protocol":17,"map":"workshop/cp_kalinka_rc6a.ugc1272700588","folder":"tf","game":"Team Fortress","app_id":440,"player_count":0,"max_players":24,"Bots":0,"server_type":"Dedicated","server_os":"Linux","password":true,"vac":true,"version":"7757534","steam_id":85568392924742821,"keywords":["cp","nocrits","nodmgspread","uncletopia"],"game_id":440,"stv_port":27046,"stv_name":"Uncletopia | New York City | 4 | Community | STV","players":null},{"server_id":142,"name":"Uncletopia | SÃ£o Paulo | 1 | All Maps","name_short":"sao-1","host":"sao-1.br.uncletopia.com","port":27015,"enabled":true,"region":"sa","cc":"br","latitude":-23.533773,"longitude":-46.62529,"reserved":0,"last_update":"0001-01-01T00:00:00Z","name_a2s":"Uncletopia | SÃ£o Paulo | 1 | All Maps","protocol":17,"map":"koth_highpass","folder":"tf","game":"Team Fortress","app_id":440,"player_count":0,"max_players":24,"Bots":0,"server_type":"Dedicated","server_os":"Linux","password":true,"vac":true,"version":"7757534","steam_id":85568392924469996,"keywords":["cp","nocrits","nodmgspread","uncletopia"],"game_id":440,"stv_port":27016,"stv_name":"Uncletopia | SÃ£o Paulo | 1 | All Maps | STV","players":null},{"server_id":143,"name":"Uncletopia | SÃ£o Paulo | 2 | All Maps","name_short":"sao-2","host":"sao-2.br.uncletopia.com","port":27015,"enabled":true,"region":"sa","cc":"br","latitude":-23.533773,"longitude":-46.62529,"reserved":0,"last_update":"0001-01-01T00:00:00Z","name_a2s":"Uncletopia | SÃ£o Paulo | 2 | All Maps","protocol":17,"map":"cp_snakewater_final1","folder":"tf","game":"Team Fortress","app_id":440,"player_count":0,"max_players":24,"Bots":0,"server_type":"Dedicated","server_os":"Linux","password":true,"vac":true,"version":"7757534","steam_id":85568392924485349,"keywords":["cp","nocrits","nodmgspread","uncletopia"],"game_id":440,"stv_port":27016,"stv_name":"Uncletopia | SÃ£o Paulo | 2 | All Maps | STV","players":null},{"server_id":7,"name":"Uncletopia | Seattle | 1 | All Maps","name_short":"sea-1","host":"sea-1.us.uncletopia.com","port":27015,"enabled":true,"region":"us-west","cc":"us","latitude":47.608013,"longitude":-122.33517,"reserved":0,"last_update":"0001-01-01T00:00:00Z","name_a2s":"Uncletopia | Seattle | 1 | All Maps","protocol":17,"map":"pl_upward","folder":"tf","game":"Team Fortress","app_id":440,"player_count":23,"max_players":24,"Bots":0,"server_type":"Dedicated","server_os":"Linux","password":true,"vac":true,"version":"7757534","steam_id":85568392924469997,"keywords":["nocrits","nodmgspread","payload","uncletopia"],"game_id":440,"stv_port":27016,"stv_name":"Uncletopia | Seattle | 1 | All Maps | STV","players":[{"user_id":207,"name":"Dirt Mammal","steam_id":76561198040781653,"connected_time":903000000000,"state":"active","ping":55},{"user_id":200,"name":"Google","steam_id":76561198857237473,"connected_time":1933000000000,"state":"active","ping":49},{"user_id":158,"name":"â¤ Ashley â¤","steam_id":76561198056428303,"connected_time":5473000000000,"state":"active","ping":75},{"user_id":183,"name":"spacetoven","steam_id":76561198115821131,"connected_time":3357000000000,"state":"active","ping":62},{"user_id":176,"name":"EEBIGAA","steam_id":76561198056535988,"connected_time":3579000000000,"state":"active","ping":74},{"user_id":212,"name":"VixianUwU","steam_id":76561198948815060,"connected_time":819000000000,"state":"active","ping":82},{"user_id":190,"name":"mhmyeah_yeahmhm","steam_id":76561198341190679,"connected_time":3061000000000,"state":"active","ping":66},{"user_id":124,"name":"Futureguy33","steam_id":76561198101336564,"connected_time":7675000000000,"state":"active","ping":133},{"user_id":170,"name":"Xavibite","steam_id":76561198209380493,"connected_time":3620000000000,"state":"active","ping":105},{"user_id":196,"name":"1dk","steam_id":76561198135104742,"connected_time":2512000000000,"state":"active","ping":47},{"user_id":221,"name":"rodolfo1000","steam_id":76561198797067826,"connected_time":464000000000,"state":"active","ping":68},{"user_id":135,"name":"Universal Knowledge Allah","steam_id":76561198855935442,"connected_time":7323000000000,"state":"active","ping":60},{"user_id":182,"name":"heisenberg","steam_id":76561198170879526,"connected_time":3380000000000,"state":"active","ping":71},{"user_id":197,"name":"dirty30","steam_id":76561198021226566,"connected_time":2491000000000,"state":"active","ping":45},{"user_id":208,"name":"Skashur","steam_id":76561198364924060,"connected_time":897000000000,"state":"active","ping":119},{"user_id":222,"name":"strong and healthy gamer","steam_id":76561198049489349,"connected_time":363000000000,"state":"active","ping":65},{"user_id":153,"name":"Training Arc","steam_id":76561198038832034,"connected_time":5948000000000,"state":"active","ping":60},{"user_id":218,"name":"Saint Pablo","steam_id":76561198083300159,"connected_time":536000000000,"state":"active","ping":69},{"user_id":213,"name":"Dilo","steam_id":76561198799078414,"connected_time":790000000000,"state":"active","ping":95},{"user_id":195,"name":"ä»Šæœæœ‰é…’ä»Š","steam_id":76561198170669082,"connected_time":2515000000000,"state":"active","ping":72},{"user_id":223,"name":"Can of Oranges","steam_id":76561199121813529,"connected_time":71000000000,"state":"active","ping":44},{"user_id":188,"name":"dearender","steam_id":76561199427644498,"connected_time":3165000000000,"state":"active","ping":67},{"user_id":193,"name":"Big Smoke","steam_id":76561198278375987,"connected_time":2921000000000,"state":"active","ping":113}]},{"server_id":119,"name":"Uncletopia | Seattle | 2 | All Maps","name_short":"sea-2","host":"sea-1.us.uncletopia.com","port":27025,"enabled":true,"region":"us-west","cc":"us","latitude":47.608013,"longitude":-122.33517,"reserved":0,"last_update":"0001-01-01T00:00:00Z","name_a2s":"Uncletopia | Seattle | 2 | All Maps","protocol":17,"map":"pl_upward","folder":"tf","game":"Team Fortress","app_id":440,"player_count":24,"max_players":24,"Bots":0,"server_type":"Dedicated","server_os":"Linux","password":true,"vac":true,"version":"7757534","steam_id":85568392924469998,"keywords":["nocrits","nodmgspread","payload","uncletopia"],"game_id":440,"stv_port":27026,"stv_name":"Uncletopia | Seattle | 2 | All Maps | STV","players":[{"user_id":10,"name":"shiftshock01","steam_id":76561199049488870,"connected_time":4482000000000,"state":"active","ping":52},{"user_id":64,"name":"Ferguzt","steam_id":76561198428353797,"connected_time":1433000000000,"state":"active","ping":88},{"user_id":47,"name":"seventhpoet","steam_id":76561198068672882,"connected_time":2125000000000,"state":"active","ping":65},{"user_id":18,"name":"Ryld","steam_id":76561198010174380,"connected_time":3098000000000,"state":"active","ping":67},{"user_id":76,"name":"scot the waz","steam_id":76561198372030749,"connected_time":668000000000,"state":"active","ping":141},{"user_id":21,"name":"Mirari","steam_id":76561198126889358,"connected_time":2817000000000,"state":"active","ping":133},{"user_id":22,"name":"GloryToFlygod","steam_id":76561198963236216,"connected_time":2698000000000,"state":"active","ping":103},{"user_id":73,"name":"facedatfatchat","steam_id":76561198335285125,"connected_time":694000000000,"state":"active","ping":54},{"user_id":66,"name":"dicksnip","steam_id":76561198356515396,"connected_time":1371000000000,"state":"active","ping":102},{"user_id":25,"name":"Zambie","steam_id":76561199102385595,"connected_time":2649000000000,"state":"active","ping":115},{"user_id":26,"name":"Roloman11","steam_id":76561198308927283,"connected_time":2617000000000,"state":"active","ping":115},{"user_id":50,"name":"Zomwashroomz","steam_id":76561198131316167,"connected_time":2071000000000,"state":"active","ping":38},{"user_id":65,"name":"trackpad gaming | f2p","steam_id":76561198840414371,"connected_time":1392000000000,"state":"active","ping":50},{"user_id":62,"name":"Ghoster","steam_id":76561198329367716,"connected_time":1472000000000,"state":"active","ping":88},{"user_id":53,"name":"Excalibrine","steam_id":76561198129312118,"connected_time":1986000000000,"state":"active","ping":35},{"user_id":72,"name":"chill frog","steam_id":76561199471943472,"connected_time":742000000000,"state":"active","ping":94},{"user_id":74,"name":"vieodgaems","steam_id":76561198025295263,"connected_time":690000000000,"state":"active","ping":104},{"user_id":35,"name":"SomeMarker","steam_id":76561199129771792,"connected_time":2412000000000,"state":"active","ping":107},{"user_id":75,"name":"Mr.Z","steam_id":76561199251422541,"connected_time":681000000000,"state":"active","ping":78},{"user_id":63,"name":"Freddie Benson","steam_id":76561198012741266,"connected_time":1464000000000,"state":"active","ping":59},{"user_id":69,"name":"EL NIÃ‘O.","steam_id":76561198098149561,"connected_time":1087000000000,"state":"active","ping":137},{"user_id":58,"name":"The Sydney Sleeper Itself","steam_id":76561198180251763,"connected_time":1849000000000,"state":"active","ping":187},{"user_id":59,"name":"enolteiii","steam_id":76561198140843225,"connected_time":1786000000000,"state":"active","ping":102},{"user_id":78,"name":"xlaylowx","steam_id":76561198830237952,"connected_time":330000000000,"state":"active","ping":70}]},{"server_id":406,"name":"Uncletopia | Seattle | 3 | Stopwatch Beta","name_short":"sea-3","host":"sea-1.us.uncletopia.com","port":27035,"enabled":true,"region":"us-west","cc":"us","latitude":47.608013,"longitude":-122.33517,"reserved":0,"last_update":"0001-01-01T00:00:00Z","name_a2s":"Uncletopia | Seattle | 3 | Stopwatch Beta","protocol":17,"map":"pl_barnblitz","folder":"tf","game":"Team Fortress","app_id":440,"player_count":0,"max_players":24,"Bots":0,"server_type":"Dedicated","server_os":"Linux","password":true,"vac":true,"version":"7757534","steam_id":85568392924515217,"keywords":["nocrits","nodmgspread","payload","uncletopia"],"game_id":440,"stv_port":27036,"stv_name":"Uncletopia | Seattle | 3 | Stopwatch Beta | STV","players":null},{"server_id":17,"name":"Uncletopia | San Francisco | 1 | All Maps","name_short":"sfo-1","host":"sfo-1.us.uncletopia.com","port":27015,"enabled":true,"region":"us-west","cc":"us","latitude":37.77397,"longitude":-122.4313,"reserved":0,"last_update":"0001-01-01T00:00:00Z","name_a2s":"Uncletopia | San Francisco | 1 | All Maps","protocol":17,"map":"koth_viaduct","folder":"tf","game":"Team Fortress","app_id":440,"player_count":0,"max_players":24,"Bots":0,"server_type":"Dedicated","server_os":"Linux","password":true,"vac":true,"version":"7757534","steam_id":85568392924469999,"keywords":["cp","nocrits","nodmgspread","uncletopia"],"game_id":440,"stv_port":27016,"stv_name":"Uncletopia | San Francisco | 1 | All Maps | STV","players":null},{"server_id":18,"name":"Uncletopia | San Francisco | 2 | All Maps","name_short":"sfo-2","host":"sfo-1.us.uncletopia.com","port":27025,"enabled":true,"region":"us-west","cc":"us","latitude":37.77397,"longitude":-122.4313,"reserved":0,"last_update":"0001-01-01T00:00:00Z","name_a2s":"Uncletopia | San Francisco | 2 | All Maps","protocol":17,"map":"cp_sunshine","folder":"tf","game":"Team Fortress","app_id":440,"player_count":0,"max_players":24,"Bots":0,"server_type":"Dedicated","server_os":"Linux","password":true,"vac":true,"version":"7757534","steam_id":85568392924470000,"keywords":["cp","nocrits","nodmgspread","uncletopia"],"game_id":440,"stv_port":27026,"stv_name":"Uncletopia | San Francisco | 2 | All Maps | STV","players":null},{"server_id":19,"name":"Uncletopia | San Francisco | 3 | Stopwatch Beta","name_short":"sfo-3","host":"sfo-1.us.uncletopia.com","port":27035,"enabled":true,"region":"us-west","cc":"us","latitude":37.77397,"longitude":-122.4313,"reserved":0,"last_update":"0001-01-01T00:00:00Z","name_a2s":"Uncletopia | San Francisco | 3 | Stopwatch Beta","protocol":17,"map":"pl_borneo","folder":"tf","game":"Team Fortress","app_id":440,"player_count":0,"max_players":24,"Bots":0,"server_type":"Dedicated","server_os":"Linux","password":true,"vac":true,"version":"7757534","steam_id":85568392924742824,"keywords":["nocrits","nodmgspread","payload","uncletopia"],"game_id":440,"stv_port":27036,"stv_name":"Uncletopia | San Francisco | 3 | Stopwatch Beta | STV","players":null},{"server_id":20,"name":"Uncletopia | San Francisco | 4 | Community","name_short":"sfo-4","host":"sfo-1.us.uncletopia.com","port":27045,"enabled":true,"region":"us-west","cc":"us","latitude":37.77397,"longitude":-122.4313,"reserved":0,"last_update":"0001-01-01T00:00:00Z","name_a2s":"Uncletopia | San Francisco | 4 | Community","protocol":17,"map":"koth_highpass","folder":"tf","game":"Team Fortress","app_id":440,"player_count":0,"max_players":24,"Bots":0,"server_type":"Dedicated","server_os":"Linux","password":true,"vac":true,"version":"7757534","steam_id":85568392924742826,"keywords":["cp","nocrits","nodmgspread","uncletopia"],"game_id":440,"stv_port":27046,"stv_name":"Uncletopia | San Francisco | 4 | Community | STV","players":null},{"server_id":141,"name":"Uncletopia | Sydney | 1 | All Maps","name_short":"syd-1","host":"syd-1.au.uncletopia.com","port":27015,"enabled":true,"region":"au","cc":"au","latitude":-33.865143,"longitude":151.2099,"reserved":0,"last_update":"0001-01-01T00:00:00Z","name_a2s":"Uncletopia | Sydney | 1 | All Maps","protocol":17,"map":"cp_process_final","folder":"tf","game":"Team Fortress","app_id":440,"player_count":0,"max_players":24,"Bots":0,"server_type":"Dedicated","server_os":"Linux","password":true,"vac":true,"version":"7757534","steam_id":85568392924470001,"keywords":["cp","nocrits","nodmgspread","uncletopia"],"game_id":440,"stv_port":27016,"stv_name":"Uncletopia | Sydney | 1 | All Maps | STV","players":null},{"server_id":123,"name":"Uncletopia | Sydney | 2 | All Maps","name_short":"syd-2","host":"syd-1.au.uncletopia.com","port":27025,"enabled":true,"region":"au","cc":"au","latitude":-33.865143,"longitude":151.2099,"reserved":0,"last_update":"0001-01-01T00:00:00Z","name_a2s":"Uncletopia | Sydney | 2 | All Maps","protocol":17,"map":"cp_mountainlab","folder":"tf","game":"Team Fortress","app_id":440,"player_count":0,"max_players":24,"Bots":0,"server_type":"Dedicated","server_os":"Linux","password":true,"vac":true,"version":"7757534","steam_id":85568392924470002,"keywords":["cp","nocrits","nodmgspread","uncletopia"],"game_id":440,"stv_port":27026,"stv_name":"Uncletopia | Sydney | 2 | All Maps | STV","players":null},{"server_id":395,"name":"Uncletopia | Sydney | 3 | All Maps","name_short":"syd-3","host":"syd-1.au.uncletopia.com","port":27035,"enabled":true,"region":"au","cc":"au","latitude":-33.865143,"longitude":151.2099,"reserved":0,"last_update":"0001-01-01T00:00:00Z","name_a2s":"Uncletopia | Sydney | 3 | All Maps","protocol":17,"map":"pl_upward","folder":"tf","game":"Team Fortress","app_id":440,"player_count":0,"max_players":24,"Bots":0,"server_type":"Dedicated","server_os":"Linux","password":true,"vac":true,"version":"7757534","steam_id":85568392925194467,"keywords":["nocrits","nodmgspread","payload","uncletopia"],"game_id":440,"stv_port":27036,"stv_name":"Uncletopia | Sydney | 3 | All Maps | STV","players":null},{"server_id":396,"name":"Uncletopia | Sydney | 4 | All Maps","name_short":"syd-4","host":"syd-1.au.uncletopia.com","port":27045,"enabled":true,"region":"au","cc":"au","latitude":-33.865143,"longitude":151.2099,"reserved":0,"last_update":"0001-01-01T00:00:00Z","name_a2s":"Uncletopia | Sydney | 4 | All Maps","protocol":17,"map":"koth_lakeside_final","folder":"tf","game":"Team Fortress","app_id":440,"player_count":0,"max_players":24,"Bots":0,"server_type":"Dedicated","server_os":"Linux","password":true,"vac":true,"version":"7757534","steam_id":85568392925397958,"keywords":["cp","nocrits","nodmgspread","uncletopia"],"game_id":440,"stv_port":27046,"stv_name":"Uncletopia | Sydney | 4 | All Maps | STV","players":null},{"server_id":58,"name":"Uncletopia | Sydney | 5 | Stopwatch Beta","name_short":"syd-5","host":"syd-1.au.uncletopia.com","port":27055,"enabled":true,"region":"au","cc":"au","latitude":-33.865143,"longitude":151.2099,"reserved":0,"last_update":"0001-01-01T00:00:00Z","name_a2s":"Uncletopia | Sydney | 5 | Stopwatch Beta","protocol":17,"map":"koth_highpass","folder":"tf","game":"Team Fortress","app_id":440,"player_count":0,"max_players":24,"Bots":0,"server_type":"Dedicated","server_os":"Linux","password":true,"vac":true,"version":"7757534","steam_id":85568392925397959,"keywords":["cp","nocrits","nodmgspread","uncletopia"],"game_id":440,"stv_port":27056,"stv_name":"Uncletopia | Sydney | 5 | Stopwatch Beta | STV","players":null},{"server_id":59,"name":"Uncletopia | Sydney | 6 | Community","name_short":"syd-6","host":"syd-1.au.uncletopia.com","port":27065,"enabled":true,"region":"au","cc":"au","latitude":-33.865143,"longitude":151.2099,"reserved":0,"last_update":"0001-01-01T00:00:00Z","name_a2s":"Uncletopia | Sydney | 6 | Community","protocol":17,"map":"cp_sunshine","folder":"tf","game":"Team Fortress","app_id":440,"player_count":0,"max_players":24,"Bots":0,"server_type":"Dedicated","server_os":"Linux","password":true,"vac":true,"version":"7757534","steam_id":85568392925397960,"keywords":["cp","nocrits","nodmgspread","uncletopia"],"game_id":440,"stv_port":27066,"stv_name":"Uncletopia | Sydney | 6 | Community | STV","players":null},{"server_id":49,"name":"Uncletopia | Warsaw | 1 | All Maps","name_short":"waw-1","host":"waw-1.pl.uncletopia.com","port":27015,"enabled":true,"region":"eu","cc":"pl","latitude":52.2297,"longitude":21.017532,"reserved":0,"last_update":"0001-01-01T00:00:00Z","name_a2s":"","protocol":0,"map":"","folder":"","game":"","app_id":0,"player_count":0,"max_players":0,"Bots":0,"server_type":"","server_os":"","password":false,"vac":false,"version":"","steam_id":0,"keywords":null,"game_id":0,"stv_port":0,"stv_name":"","players":null},{"server_id":50,"name":"Uncletopia | Warsaw | 2 | All Maps","name_short":"waw-2","host":"waw-1.pl.uncletopia.com","port":27025,"enabled":true,"region":"eu","cc":"pl","latitude":52.2297,"longitude":21.017532,"reserved":0,"last_update":"0001-01-01T00:00:00Z","name_a2s":"Uncletopia | Warsaw | 2 | All Maps","protocol":17,"map":"pl_barnblitz","folder":"tf","game":"Team Fortress","app_id":440,"player_count":0,"max_players":24,"Bots":0,"server_type":"Dedicated","server_os":"Linux","password":true,"vac":true,"version":"7757534","steam_id":85568392925397851,"keywords":["nocrits","nodmgspread","payload","uncletopia"],"game_id":440,"stv_port":27026,"stv_name":"Uncletopia | Warsaw | 2 | All Maps | STV","players":null},{"server_id":51,"name":"Uncletopia | Warsaw | 3 | All Maps","name_short":"waw-3","host":"waw-1.pl.uncletopia.com","port":27035,"enabled":true,"region":"eu","cc":"pl","latitude":52.2297,"longitude":21.017532,"reserved":0,"last_update":"0001-01-01T00:00:00Z","name_a2s":"Uncletopia | Warsaw | 3 | All Maps","protocol":17,"map":"pl_barnblitz","folder":"tf","game":"Team Fortress","app_id":440,"player_count":0,"max_players":24,"Bots":0,"server_type":"Dedicated","server_os":"Linux","password":true,"vac":true,"version":"7757534","steam_id":85568392925397852,"keywords":["nocrits","nodmgspread","payload","uncletopia"],"game_id":440,"stv_port":27036,"stv_name":"Uncletopia | Warsaw | 3 | All Maps | STV","players":null},{"server_id":52,"name":"Uncletopia | Warsaw | 4 | All Maps","name_short":"waw-4","host":"waw-1.pl.uncletopia.com","port":27045,"enabled":true,"region":"eu","cc":"pl","latitude":52.2297,"longitude":21.017532,"reserved":0,"last_update":"0001-01-01T00:00:00Z","name_a2s":"Uncletopia | Warsaw | 4 | All Maps","protocol":17,"map":"pl_snowycoast","folder":"tf","game":"Team Fortress","app_id":440,"player_count":0,"max_players":24,"Bots":0,"server_type":"Dedicated","server_os":"Linux","password":true,"vac":true,"version":"7757534","steam_id":85568392925397853,"keywords":["nocrits","nodmgspread","payload","uncletopia"],"game_id":440,"stv_port":27046,"stv_name":"Uncletopia | Warsaw | 4 | All Maps | STV","players":null},{"server_id":53,"name":"Uncletopia | Warsaw | 5 | Stopwatch Beta","name_short":"waw-5","host":"waw-1.pl.uncletopia.com","port":27055,"enabled":true,"region":"eu","cc":"pl","latitude":52.2297,"longitude":21.017532,"reserved":0,"last_update":"0001-01-01T00:00:00Z","name_a2s":"Uncletopia | Warsaw | 5 | Stopwatch Beta","protocol":17,"map":"pl_barnblitz","folder":"tf","game":"Team Fortress","app_id":440,"player_count":0,"max_players":24,"Bots":0,"server_type":"Dedicated","server_os":"Linux","password":true,"vac":true,"version":"7757534","steam_id":85568392925397854,"keywords":["nocrits","nodmgspread","payload","uncletopia"],"game_id":440,"stv_port":27056,"stv_name":"Uncletopia | Warsaw | 5 | Stopwatch Beta | STV","players":null},{"server_id":54,"name":"Uncletopia | Warsaw | 6 | Community","name_short":"waw-6","host":"waw-1.pl.uncletopia.com","port":27065,"enabled":true,"region":"eu","cc":"pl","latitude":52.2297,"longitude":21.017532,"reserved":0,"last_update":"0001-01-01T00:00:00Z","name_a2s":"Uncletopia | Warsaw | 6 | Community","protocol":17,"map":"workshop/koth_trenchfoot_b1a.ugc731436616","folder":"tf","game":"Team Fortress","app_id":440,"player_count":3,"max_players":24,"Bots":0,"server_type":"Dedicated","server_os":"Linux","password":true,"vac":true,"version":"7757534","steam_id":85568392925397856,"keywords":["cp","nocrits","nodmgspread","uncletopia"],"game_id":440,"stv_port":27066,"stv_name":"Uncletopia | Warsaw | 6 | Community | STV","players":[{"user_id":10,"name":"DominikDob12","steam_id":76561199116536199,"connected_time":1659000000000,"state":"active","ping":55},{"user_id":11,"name":"Wojowniczek.pl","steam_id":76561199228645329,"connected_time":1639000000000,"state":"active","ping":1045},{"user_id":12,"name":"doktorek gamehag.com","steam_id":76561199423474465,"connected_time":995000000000,"state":"active","ping":52}]}]}