{"status":true,"message":"","result":[{"server_id":9,"name":"Uncletopia | Atlanta | 1 | All Maps","name_short":"atl-1","host":"atl-1.us.uncletopia.com","port":27015,"enabled":true,"region":"us-east","cc":"us","latitude":33.753746,"longitude":-84.38633,"reserved":0,"last_update":"0001-01-01T00:00:00Z","name_a2s":"Uncletopia | Atlanta | 1 | All Maps","protocol":17,"map":"pl_badwater","folder":"tf","game":"Team Fortress","app_id":440,"player_count":24,"max_players":24,"Bots":0,"server_type":"Dedicated","server_os":"Linux","password":true,"vac":true,"version":"7757534","steam_id":85568392924469982,"keywords":["nocrits","nodmgspread","payload","uncletopia"],"game_id":440,"stv_port":27016,"stv_name":"Uncletopia | Atlanta | 1 | All Maps | STV","players":[{"user_id":8,"name":"PoggedGlobe1431","steam_id":76561199445351905,"connected_time":3669000000000,"state":"active","ping":134},{"user_id":59,"name":"Coffee with a Stranger","steam_id":76561198307422313,"connected_time":616000000000,"state":"active","ping":60},{"user_id":63,"name":"SkyesUnknown","steam_id":76561198437860421,"connected_time":547000000000,"state":"active","ping":46},{"user_id":43,"name":"The THARCIMBULATOR!","steam_id":76561198155435669,"connected_time":2059000000000,"state":"active","ping":67},{"user_id":40,"name":"Decolour","steam_id":76561199045608372,"connected_time":2366000000000,"state":"active","ping":76},{"user_id":67,"name":"RED1 | icyy","steam_id":76561198968001329,"connected_time":101000000000,"state":"active","ping":47},{"user_id":57,"name":"MyamE","steam_id":76561198133278462,"connected_time":649000000000,"state":"active","ping":71},{"user_id":17,"name":"Numbers","steam_id":76561198178240575,"connected_time":3044000000000,"state":"active","ping":89},{"user_id":42,"name":"Boot","steam_id":76561198423162555,"connected_time":2158000000000,"state":"active","ping":59},{"user_id":51,"name":"Bass Pro Gaming","steam_id":76561198444456721,"connected_time":677000000000,"state":"active","ping":48},{"user_id":38,"name":"Okina's \"Backdoor\"","steam_id":76561198278879575,"connected_time":2414000000000,"state":"active","ping":68},{"user_id":54,"name":"Scott","steam_id":76561198161597056,"connected_time":660000000000,"state":"active","ping":88},{"user_id":24,"name":"quality_ch3ck","steam_id":76561198361132101,"connected_time":2639000000000,"state":"active","ping":89},{"user_id":64,"name":"Meet The Trolldier","steam_id":76561198384098648,"connected_time":415000000000,"state":"active","ping":63},{"user_id":58,"name":"BLU1 l Epifiny","steam_id":76561198027958086,"connected_time":648000000000,"state":"active","ping":84},{"user_id":28,"name":"SwivelHipSmith","steam_id":76561198043906334,"connected_time":2579000000000,"state":"active","ping":56},{"user_id":66,"name":"\"_Shark_\"","steam_id":76561199272691570,"connected_time":314000000000,"state":"active","ping":186},{"user_id":30,"name":"iluvmylongknees","steam_id":76561198984101301,"connected_time":2542000000000,"state":"active","ping":64},{"user_id":55,"name":"Ashes!","steam_id":76561197998475441,"connected_time":660000000000,"state":"active","ping":93},{"user_id":32,"name":"conscripted monk","steam_id":76561199029246232,"connected_time":2527000000000,"state":"active","ping":71},{"user_id":34,"name":"Nuen","steam_id":76561198936096111,"connected_time":2496000000000,"state":"active","ping":77},{"user_id":35,"name":"Mcfighter2","steam_id":76561198168073956,"connected_time":2495000000000,"state":"active","ping":70},{"user_id":46,"name":"RED1 | p4ka","steam_id":76561198315291317,"connected_time":950000000000,"state":"active","ping":74},{"user_id":56,"name":"MELT MY EYEZ SEE YOUR FUTURE","steam_id":76561198397009880,"connected_time":660000000000,"state":"active","ping":50}]},{"server_id":400,"name":"Uncletopia | Atlanta | 3 | Community","name_short":"atl-3","host":"atl-1.us.uncletopia.com","port":27035,"enabled":true,"region":"us-east","cc":"us","latitude":33.753746,"longitude":-84.38633,"reserved":0,"last_update":"0001-01-01T00:00:00Z","name_a2s":"Uncletopia | Atlanta | 3 | Community","protocol":17,"map":"workshop/pl_barnblitz_pro7.ugc582280235","folder":"tf","game":"Team Fortress","app_id":440,"player_count":0,"max_players":24,"Bots":0,"server_type":"Dedicated","server_os":"Linux","password":true,"vac":true,"version":"7757534","steam_id":85568392924515187,"keywords":["nocrits","nodmgspread","payload","uncletopia"],"game_id":440,"stv_port":27036,"stv_name":"Uncletopia | Atlanta | 3 | Community | STV","players":null},{"server_id":401,"name":"Uncletopia | Atlanta | 4 | No Payload","name_short":"atl-4","host":"atl-1.us.uncletopia.com","port":27045,"enabled":true,"region":"us-east","cc":"us","latitude":33.753746,"longitude":-84.38633,"reserved":0,"last_update":"0001-01-01T00:00:00Z","name_a2s":"Uncletopia | Atlanta | 4 | No Payload","protocol":17,"map":"pl_pier","folder":"tf","game":"Team Fortress","app_id":440,"player_count":0,"max_players":24,"Bots":0,"server_type":"Dedicated","server_os":"Linux","password":true,"vac":true,"version":"7723704","steam_id":85568392924515188,"keywords":["nocrits","nodmgspread","payload","uncletopia"],"game_id":440,"stv_port":27046,"stv_name":"Uncletopia | Atlanta | 4 | No Payload | STV","players":null},{"server_id":2,"name":"Uncletopia | Chicago | 1 | All Maps","name_short":"chi-1","host":"chi-1.us.uncletopia.com","port":27015,"enabled":true,"region":"us-central","cc":"us","latitude":41.881832,"longitude":-87.62318,"reserved":0,"last_update":"0001-01-01T00:00:00Z","name_a2s":"Uncletopia | Chicago | 1 | All Maps","protocol":17,"map":"pl_borneo","folder":"tf","game":"Team Fortress","app_id":440,"player_count":24,"max_players":24,"Bots":0,"server_type":"Dedicated","server_os":"Linux","password":true,"vac":true,"version":"7757534","steam_id":85568392924469984,"keywords":["nocrits","nodmgspread","payload","uncletopia"],"game_id":440,"stv_port":27016,"stv_name":"Uncletopia | Chicago | 1 | All Maps | STV","players":[{"user_id":227,"name":"Big Phony","steam_id":76561199092395311,"connected_time":1669000000000,"state":"active","ping":61},{"user_id":200,"name":"Tones","steam_id":76561198039572032,"connected_time":4813000000000,"state":"active","ping":62},{"user_id":219,"name":"Banana es","steam_id":76561199051216149,"connected_time":1833000000000,"state":"active","ping":78},{"user_id":181,"name":"Wahooka","steam_id":76561197962240925,"connected_time":6972000000000,"state":"active","ping":61},{"user_id":216,"name":"M'kai Noren","steam_id":76561198046737869,"connected_time":1908000000000,"state":"active","ping":52},{"user_id":215,"name":"Crimson","steam_id":76561198129326627,"connected_time":2512000000000,"state":"active","ping":70},{"user_id":36,"name":"daemon","steam_id":76561198001541433,"connected_time":17244000000000,"state":"active","ping":58},{"user_id":235,"name":"CeigeBirb","steam_id":76561198068538473,"connected_time":1008000000000,"state":"active","ping":76},{"user_id":233,"name":"steakfarmasian","steam_id":76561198212754036,"connected_time":1225000000000,"state":"active","ping":51},{"user_id":240,"name":"Tay","steam_id":76561199017523403,"connected_time":688000000000,"state":"active","ping":45},{"user_id":232,"name":"lukethepumpkin","steam_id":76561198204158335,"connected_time":1246000000000,"state":"active","ping":79},{"user_id":199,"name":"Katrielle","steam_id":76561198054131477,"connected_time":4831000000000,"state":"active","ping":57},{"user_id":223,"name":"DuckKey","steam_id":76561198904477889,"connected_time":1762000000000,"state":"active","ping":61},{"user_id":243,"name":"I'm Only 4 Inches","steam_id":76561198055542546,"connected_time":85000000000,"state":"active","ping":60},{"user_id":210,"name":"abomination","steam_id":76561198167974713,"connected_time":3420000000000,"state":"active","ping":67},{"user_id":224,"name":"Lefty","steam_id":76561199155446396,"connected_time":1747000000000,"state":"active","ping":120},{"user_id":241,"name":"EGRUY","steam_id":76561199058988224,"connected_time":670000000000,"state":"active","ping":182},{"user_id":226,"name":"raw chicken enjoyer","steam_id":76561198986943063,"connected_time":1731000000000,"state":"active","ping":62},{"user_id":234,"name":"Lord_Magoots","steam_id":76561198019592297,"connected_time":1212000000000,"state":"active","ping":94},{"user_id":231,"name":"Macko","steam_id":76561198452005461,"connected_time":1270000000000,"state":"active","ping":83},{"user_id":242,"name":"PKBEAST_7","steam_id":76561198177136537,"connected_time":91000000000,"state":"active","ping":91},{"user_id":238,"name":"AttackCommander","steam_id":76561198111522679,"connected_time":850000000000,"state":"active","ping":84},{"user_id":230,"name":"Coinless","steam_id":76561199207586390,"connected_time":1497000000000,"state":"active","ping":54},{"user_id":212,"name":"Veirū Viseris","steam_id":76561197989857176,"connected_time":3096000000000,"state":"active","ping":171}]},{"server_id":106,"name":"Uncletopia | Chicago | 2 | All Maps","name_short":"chi-2","host":"chi-1.us.uncletopia.com","port":27025,"enabled":true,"region":"us-central","cc":"us","latitude":41.881832,"longitude":-87.62318,"reserved":0,"last_update":"0001-01-01T00:00:00Z","name_a2s":"Uncletopia | Chicago | 2 | All Maps","protocol":17,"map":"pl_frontier_final","folder":"tf","game":"Team Fortress","app_id":440,"player_count":20,"max_players":24,"Bots":0,"server_type":"Dedicated","server_os":"Linux","password":true,"vac":true,"version":"7757534","steam_id":85568392924469985,"keywords":["nocrits","nodmgspread","payload","uncletopia"],"game_id":440,"stv_port":27026,"stv_name":"Uncletopia | Chicago | 2 | All Maps | STV","players":[{"user_id":113,"name":"AxelYam","steam_id":76561198102920459,"connected_time":112000000000,"state":"active","ping":60},{"user_id":67,"name":"defcon","steam_id":76561198100656328,"connected_time":3953000000000,"state":"active","ping":81},{"user_id":110,"name":"apricot bungalow","steam_id":76561198202273263,"connected_time":258000000000,"state":"active","ping":41},{"user_id":90,"name":"Furry Saul Goodman","steam_id":76561198069580305,"connected_time":2059000000000,"state":"active","ping":49},{"user_id":103,"name":"crippling fumo addiction","steam_id":76561198115874625,"connected_time":1051000000000,"state":"active","ping":63},{"user_id":112,"name":"bocchi la roca","steam_id":76561198025668771,"connected_time":154000000000,"state":"active","ping":123},{"user_id":97,"name":"T17","steam_id":76561198064249841,"connected_time":1367000000000,"state":"active","ping":64},{"user_id":104,"name":"speedy mozzarella","steam_id":76561198327703300,"connected_time":705000000000,"state":"active","ping":64},{"user_id":92,"name":"TimTam Tom","steam_id":76561198045988062,"connected_time":1859000000000,"state":"active","ping":77},{"user_id":106,"name":"Provocator","steam_id":76561197961830410,"connected_time":689000000000,"state":"active","ping":69},{"user_id":102,"name":"DRACO$","steam_id":76561198389198223,"connected_time":1076000000000,"state":"active","ping":99},{"user_id":115,"name":"sugar wall blaster","steam_id":76561198325011551,"connected_time":41000000000,"state":"active","ping":99},{"user_id":105,"name":"InvalidVertex","steam_id":76561198060352651,"connected_time":702000000000,"state":"active","ping":57},{"user_id":114,"name":"Strawburrr","steam_id":76561199208694620,"connected_time":105000000000,"state":"active","ping":75},{"user_id":24,"name":"Motreir","steam_id":76561198151717946,"connected_time":6027000000000,"state":"active","ping":76},{"user_id":70,"name":"Ham Radio","steam_id":76561198030613297,"connected_time":3745000000000,"state":"active","ping":74},{"user_id":69,"name":"raspy","steam_id":76561198027298961,"connected_time":3750000000000,"state":"active","ping":45},{"user_id":71,"name":"Chucklin","steam_id":76561198010823579,"connected_time":3729000000000,"state":"active","ping":90},{"user_id":107,"name":"EricFiredragon","steam_id":76561198189270586,"connected_time":685000000000,"state":"active","ping":116},{"user_id":96,"name":"Sexyrevolver","steam_id":76561199058132505,"connected_time":1436000000000,"state":"active","ping":63}]},{"server_id":402,"name":"Uncletopia | Chicago | 3 | All Maps","name_short":"chi-3","host":"chi-1.us.uncletopia.com","port":27035,"enabled":true,"region":"us-central","cc":"us","latitude":41.881832,"longitude":-87.62318,"reserved":0,"last_update":"0001-01-01T00:00:00Z","name_a2s":"Uncletopia | Chicago | 3 | All Maps","protocol":17,"map":"koth_lakeside_final","folder":"tf","game":"Team Fortress","app_id":440,"player_count":0,"max_players":24,"Bots":0,"server_type":"Dedicated","server_os":"Linux","password":true,"vac":true,"version":"7757534","steam_id":85568392924515191,"keywords":["cp","nocrits","nodmgspread","uncletopia"],"game_id":440,"stv_port":27036,"stv_name":"Uncletopia | Chicago | 3 | All Maps | STV","players":null},{"server_id":403,"name":"Uncletopia | Chicago | 4 | All Maps","name_short":"chi-4","host":"chi-1.us.uncletopia.com","port":27045,"enabled":true,"region":"us-central","cc":"us","latitude":41.881832,"longitude":-87.62318,"reserved":0,"last_update":"0001-01-01T00:00:00Z","name_a2s":"Uncletopia | Chicago | 4 | All Maps","protocol":17,"map":"koth_viaduct","folder":"tf","game":"Team Fortress","app_id":440,"player_count":0,"max_players":24,"Bots":0,"server_type":"Dedicated","server_os":"Linux","password":true,"vac":true,"version":"7757534","steam_id":85568392924515193,"keywords":["cp","nocrits","nodmgspread","uncletopia"],"game_id":440,"stv_port":27046,"stv_name":"Uncletopia | Chicago | 4 | All Maps | STV","players":null},{"server_id":36,"name":"Uncletopia | Chicago | 5 | All Maps","name_short":"chi-5","host":"chi-2.us.uncletopia.com","port":27015,"enabled":true,"region":"us-central","cc":"us","latitude":41.881832,"longitude":-87.62318,"reserved":0,"last_update":"0001-01-01T00:00:00Z","name_a2s":"Uncletopia | Chicago | 5 | All Maps","protocol":17,"map":"koth_cascade","folder":"tf","game":"Team Fortress","app_id":440,"player_count":0,"max_players":24,"Bots":0,"server_type":"Dedicated","server_os":"Linux","password":true,"vac":true,"version":"7757534","steam_id":85568392924866362,"keywords":["cp","nocrits","nodmgspread","uncletopia"],"game_id":440,"stv_port":27016,"stv_name":"Uncletopia | Chicago | 5 | All Maps | STV","players":null},{"server_id":37,"name":"Uncletopia | Chicago | 6 | All Maps","name_short":"chi-6","host":"chi-2.us.uncletopia.com","port":27025,"enabled":true,"region":"us-central","cc":"us","latitude":41.881832,"longitude":-87.62318,"reserved":0,"last_update":"0001-01-01T00:00:00Z","name_a2s":"Uncletopia | Chicago | 6 | All Maps","protocol":17,"map":"pl_frontier_final","folder":"tf","game":"Team Fortress","app_id":440,"player_count":23,"max_players":24,"Bots":0,"server_type":"Dedicated","server_os":"Linux","password":true,"vac":true,"version":"7757534","steam_id":85568392924866363,"keywords":["nocrits","nodmgspread","payload","uncletopia"],"game_id":440,"stv_port":27026,"stv_name":"Uncletopia | Chicago | 6 | All Maps | STV","players":[{"user_id":52,"name":"MayKaye","steam_id":76561199016092265,"connected_time":1175000000000,"state":"active","ping":99},{"user_id":6,"name":"Celcel512","steam_id":76561199164683421,"connected_time":3083000000000,"state":"active","ping":89},{"user_id":7,"name":"ApplesMate","steam_id":76561198832763278,"connected_time":2918000000000,"state":"active","ping":90},{"user_id":8,"name":"BigBoyAlex","steam_id":76561198373594343,"connected_time":2810000000000,"state":"active","ping":161},{"user_id":53,"name":"Rornir","steam_id":76561198081829615,"connected_time":1168000000000,"state":"active","ping":32},{"user_id":60,"name":"Swedish Crowbar","steam_id":76561199105488936,"connected_time":365000000000,"state":"active","ping":146},{"user_id":57,"name":"Tourmaline Lazuli","steam_id":76561198987049358,"connected_time":590000000000,"state":"active","ping":44},{"user_id":58,"name":"Carl, Good to see you","steam_id":76561198070574075,"connected_time":564000000000,"state":"active","ping":70},{"user_id":56,"name":"ViralBoris","steam_id":76561199374945481,"connected_time":701000000000,"state":"active","ping":110},{"user_id":28,"name":"voodoomamajuju","steam_id":76561198863335197,"connected_time":1938000000000,"state":"active","ping":92},{"user_id":55,"name":"Walkiing","steam_id":76561198074473413,"connected_time":1143000000000,"state":"active","ping":37},{"user_id":20,"name":"Clanker","steam_id":76561198164315915,"connected_time":2188000000000,"state":"active","ping":87},{"user_id":59,"name":"Robin","steam_id":76561198121165149,"connected_time":423000000000,"state":"active","ping":44},{"user_id":62,"name":"Potion seller (They/Them)","steam_id":76561199078306687,"connected_time":233000000000,"state":"active","ping":66},{"user_id":41,"name":"bonk","steam_id":76561198004823930,"connected_time":1453000000000,"state":"active","ping":59},{"user_id":34,"name":"boymilk","steam_id":76561199074208922,"connected_time":1668000000000,"state":"active","ping":167},{"user_id":42,"name":"Coolshroomish","steam_id":76561199109440924,"connected_time":1427000000000,"state":"active","ping":88},{"user_id":36,"name":"sluperslonic2","steam_id":76561199387661566,"connected_time":1626000000000,"state":"active","ping":60},{"user_id":43,"name":"Cricket","steam_id":76561198132959592,"connected_time":1400000000000,"state":"active","ping":62},{"user_id":44,"name":"sneak the autist","steam_id":76561198070083988,"connected_time":1397000000000,"state":"active","ping":171},{"user_id":45,"name":"Bsantini","steam_id":76561198156242552,"connected_time":1362000000000,"state":"active","ping":89},{"user_id":51,"name":"bingle","steam_id":76561198359413453,"connected_time":1188000000000,"state":"active","ping":74},{"user_id":48,"name":"cattyGirlIRL","steam_id":76561199470304793,"connected_time":1357000000000,"state":"active","ping":60}]},{"server_id":38,"name":"Uncletopia | Chicago | 7 | Stopwatch Beta","name_short":"chi-7","host":"chi-2.us.uncletopia.com","port":27035,"enabled":true,"region":"us-central","cc":"us","latitude":41.881832,"longitude":-87.62318,"reserved":0,"last_update":"0001-01-01T00:00:00Z","name_a2s":"Uncletopia | Chicago | 7 | Stopwatch Beta","protocol":17,"map":"pl_upward","folder":"tf","game":"Team Fortress","app_id":440,"player_count":0,"max_players":24,"Bots":0,"server_type":"Dedicated","server_os":"Linux","password":true,"vac":true,"version":"7757534","steam_id":85568392924866364,"keywords":["nocrits","nodmgspread","payload","uncletopia"],"game_id":440,"stv_port":27036,"stv_name":"Uncletopia | Chicago | 7 | Stopwatch Beta | STV","players":null},{"server_id":39,"name":"Uncletopia | Chicago | 8 | Community","name_short":"chi-8","host":"chi-2.us.uncletopia.com","port":27045,"enabled":true,"region":"us-central","cc":"us","latitude":41.881832,"longitude":-87.62318,"reserved":0,"last_update":"0001-01-01T00:00:00Z","name_a2s":"Uncletopia | Chicago | 8 | Community","protocol":17,"map":"workshop/cp_villa_b19.ugc2113052569","folder":"tf","game":"Team Fortress","app_id":440,"player_count":0,"max_players":24,"Bots":0,"server_type":"Dedicated","server_os":"Linux","password":true,"vac":true,"version":"7757534","steam_id":85568392924866365,"keywords":["cp","nocrits","nodmgspread","uncletopia"],"game_id":440,"stv_port":27046,"stv_name":"Uncletopia | Chicago | 8 | Community | STV","players":null},{"server_id":8,"name":"Uncletopia | Dallas | 1 | All Maps","name_short":"dal-1","host":"dal-1.us.uncletopia.com","port":27015,"enabled":true,"region":"us-central","cc":"us","latitude":32.779167,"longitude":-96.80889,"reserved":0,"last_update":"0001-01-01T00:00:00Z","name_a2s":"Uncletopia | Dallas | 1 | All Maps","protocol":17,"map":"cp_snakewater_final1","folder":"tf","game":"Team Fortress","app_id":440,"player_count":24,"max_players":24,"Bots":0,"server_type":"Dedicated","server_os":"Linux","password":true,"vac":true,"version":"7757534","steam_id":85568392924469986,"keywords":["cp","nocrits","nodmgspread","uncletopia"],"game_id":440,"stv_port":27016,"stv_name":"Uncletopia | Dallas | 1 | All Maps | STV","players":[{"user_id":11,"name":"BlaskovitZ","steam_id":76561198968048049,"connected_time":2190000000000,"state":"active","ping":86},{"user_id":13,"name":"Robomandude","steam_id":76561198043909566,"connected_time":1526000000000,"state":"active","ping":57},{"user_id":14,"name":"Ctrl And F4","steam_id":76561199367935846,"connected_time":1419000000000,"state":"active","ping":78},{"user_id":55,"name":"giura","steam_id":76561197986794525,"connected_time":225000000000,"state":"active","ping":85},{"user_id":38,"name":"TheBrocklobster","steam_id":76561198039682984,"connected_time":678000000000,"state":"active","ping":80},{"user_id":24,"name":"darkhelmet2202","steam_id":76561199143168398,"connected_time":1007000000000,"state":"active","ping":96},{"user_id":51,"name":"freestrider","steam_id":76561199094927658,"connected_time":438000000000,"state":"active","ping":166},{"user_id":20,"name":"Ulrich Stern","steam_id":76561198101739682,"connected_time":1250000000000,"state":"active","ping":80},{"user_id":27,"name":"Cheesy","steam_id":76561199229617447,"connected_time":837000000000,"state":"active","ping":77},{"user_id":28,"name":"Dill","steam_id":76561197995325198,"connected_time":837000000000,"state":"active","ping":60},{"user_id":29,"name":"Tele Co","steam_id":76561198041909269,"connected_time":807000000000,"state":"active","ping":72},{"user_id":39,"name":"Trans Bumblebee","steam_id":76561198119393205,"connected_time":675000000000,"state":"active","ping":45},{"user_id":32,"name":"Lucky","steam_id":76561199091376507,"connected_time":760000000000,"state":"active","ping":87},{"user_id":54,"name":"the train from monopoly","steam_id":76561199105729447,"connected_time":299000000000,"state":"active","ping":54},{"user_id":52,"name":"mineblast99","steam_id":76561199065648954,"connected_time":430000000000,"state":"active","ping":80},{"user_id":53,"name":"LoFi","steam_id":76561197962448566,"connected_time":358000000000,"state":"active","ping":75},{"user_id":37,"name":"Been_Crying","steam_id":76561199073561546,"connected_time":706000000000,"state":"active","ping":144},{"user_id":44,"name":"a Hippobottomus","steam_id":76561198126853441,"connected_time":590000000000,"state":"active","ping":37},{"user_id":49,"name":"Centrix","steam_id":76561198216548571,"connected_time":504000000000,"state":"active","ping":43},{"user_id":45,"name":"bind p extendfreeze","steam_id":76561198075628776,"connected_time":581000000000,"state":"active","ping":78},{"user_id":46,"name":"resh420","steam_id":76561198066619792,"connected_time":571000000000,"state":"active","ping":71},{"user_id":56,"name":"Red","steam_id":76561198031865869,"connected_time":210000000000,"state":"active","ping":62},{"user_id":50,"name":"Knuckles","steam_id":76561198000704259,"connected_time":499000000000,"state":"active","ping":75}]},{"server_id":108,"name":"Uncletopia | Dallas | 2 | All Maps","name_short":"dal-2","host":"dal-1.us.uncletopia.com","port":27025,"enabled":true,"region":"us-central","cc":"us","latitude":32.779167,"longitude":-96.80889,"reserved":0,"last_update":"0001-01-01T00:00:00Z","name_a2s":"Uncletopia | Dallas | 2 | All Maps","protocol":17,"map":"cp_snakewater_final1","folder":"tf","game":"Team Fortress","app_id":440,"player_count":20,"max_players":24,"Bots":0,"server_type":"Dedicated","server_os":"Linux","password":true,"vac":true,"version":"7757534","steam_id":85568392924469988,"keywords":["cp","nocrits","nodmgspread","uncletopia"],"game_id":440,"stv_port":27026,"stv_name":"Uncletopia | Dallas | 2 | All Maps | STV","players":[{"user_id":123,"name":"Phoelamander","steam_id":76561198001462472,"connected_time":1590000000000,"state":"active","ping":67},{"user_id":104,"name":"James","steam_id":76561198081313916,"connected_time":1969000000000,"state":"active","ping":70},{"user_id":131,"name":"FlameHeart08","steam_id":76561199187633594,"connected_time":287000000000,"state":"active","ping":66},{"user_id":145,"name":"david201314","steam_id":76561199304644842,"connected_time":22000000000,"state":"spawning","ping":63},{"user_id":143,"name":"FreonAddict9x19","steam_id":76561198060010824,"connected_time":86000000000,"state":"active","ping":81},{"user_id":126,"name":"Bunny Hop","steam_id":76561199009743936,"connected_time":1202000000000,"state":"active","ping":90},{"user_id":106,"name":"Tribute","steam_id":76561198081594043,"connected_time":1943000000000,"state":"active","ping":59},{"user_id":134,"name":"Andrew","steam_id":76561198070615190,"connected_time":259000000000,"state":"active","ping":106},{"user_id":137,"name":"SmellyKuk(GiveYourSharpDressers","steam_id":76561199104932706,"connected_time":193000000000,"state":"active","ping":144},{"user_id":135,"name":"FunGi","steam_id":76561198881418662,"connected_time":253000000000,"state":"active","ping":73},{"user_id":138,"name":"biggerbob1212","steam_id":76561198090078480,"connected_time":186000000000,"state":"active","ping":101},{"user_id":139,"name":"Sushee","steam_id":76561197997031233,"connected_time":181000000000,"state":"active","ping":60},{"user_id":121,"name":"radiohead enjoyer","steam_id":76561198397662124,"connected_time":1685000000000,"state":"active","ping":59},{"user_id":141,"name":"NewmanBiggio","steam_id":76561198069167611,"connected_time":103000000000,"state":"active","ping":88},{"user_id":142,"name":"Zizen","steam_id":76561199011832069,"connected_time":89000000000,"state":"active","ping":96},{"user_id":144,"name":"六四天安門事件","steam_id":76561198042836412,"connected_time":81000000000,"state":"active","ping":67},{"user_id":122,"name":"uzr","steam_id":76561198799343084,"connected_time":1680000000000,"state":"active","ping":75},{"user_id":81,"name":"SirJerrious","steam_id":76561198327816888,"connected_time":4070000000000,"state":"active","ping":60},{"user_id":70,"name":"I'm Cloaked","steam_id":76561198039763676,"connected_time":4558000000000,"state":"active","ping":74},{"user_id":129,"name":"dumbeeon","steam_id":76561198059351874,"connected_time":1140000000000,"state":"active","ping":77}]},{"server_id":5,"name":"Uncletopia | Frankfurt | 1 | All Maps","name_short":"frk-1","host":"frk-1.de.uncletopia.com","port":27015,"enabled":true,"region":"eu","cc":"de","latitude":50.110924,"longitude":8.682127,"reserved":0,"last_update":"0001-01-01T00:00:00Z","name_a2s":"Uncletopia | Frankfurt | 1 | All Maps","protocol":17,"map":"pl_frontier_final","folder":"tf","game":"Team Fortress","app_id":440,"player_count":24,"max_players":24,"Bots":0,"server_type":"Dedicated","server_os":"Linux","password":true,"vac":true,"version":"7757534","steam_id":85568392924469989,"keywords":["nocrits","nodmgspread","payload","uncletopia"],"game_id":440,"stv_port":27016,"stv_name":"Uncletopia | Frankfurt | 1 | All Maps | STV","players":[{"user_id":93,"name":"VIN WEASEL","steam_id":76561198014387066,"connected_time":3106000000000,"state":"active","ping":44},{"user_id":118,"name":"sin","steam_id":76561198193416785,"connected_time":266000000000,"state":"active","ping":54},{"user_id":53,"name":"Kee","steam_id":76561198258764421,"connected_time":6961000000000,"state":"active","ping":62},{"user_id":82,"name":"lyudmilakh","steam_id":76561198362779878,"connected_time":4270000000000,"state":"active","ping":84},{"user_id":79,"name":"ghost","steam_id":76561198189940229,"connected_time":4372000000000,"state":"active","ping":59},{"user_id":13,"name":"wasps","steam_id":76561198049485054,"connected_time":8887000000000,"state":"active","ping":86},{"user_id":100,"name":"cazzoneporcodio","steam_id":76561198337994909,"connected_time":1830000000000,"state":"active","ping":78},{"user_id":88,"name":"d u k k i","steam_id":76561198071807437,"connected_time":3507000000000,"state":"active","ping":86},{"user_id":44,"name":"cazador","steam_id":76561198123096922,"connected_time":7867000000000,"state":"active","ping":98},{"user_id":121,"name":"Barbiehunter #SaveTF2","steam_id":76561198071630928,"connected_time":7000000000,"state":"spawning","ping":48},{"user_id":55,"name":"EdSuedi","steam_id":76561199387956486,"connected_time":6771000000000,"state":"active","ping":50},{"user_id":94,"name":"a mimir","steam_id":76561198184881255,"connected_time":3019000000000,"state":"active","ping":72},{"user_id":64,"name":"Mugelzz","steam_id":76561198048528709,"connected_time":5506000000000,"state":"active","ping":106},{"user_id":22,"name":"PLUTO","steam_id":76561198312436128,"connected_time":8709000000000,"state":"active","ping":121},{"user_id":35,"name":"MERP","steam_id":76561198392409485,"connected_time":8504000000000,"state":"active","ping":64},{"user_id":65,"name":"-15 Social Credit","steam_id":76561199013107775,"connected_time":5498000000000,"state":"active","ping":66},{"user_id":101,"name":"drew","steam_id":76561198012304706,"connected_time":1826000000000,"state":"active","ping":90},{"user_id":43,"name":"Mao Zedong","steam_id":76561198347020945,"connected_time":7925000000000,"state":"active","ping":84},{"user_id":103,"name":"Dinges360","steam_id":76561198042032834,"connected_time":1692000000000,"state":"active","ping":63},{"user_id":85,"name":"Cippo95","steam_id":76561198255311582,"connected_time":3818000000000,"state":"active","ping":68},{"user_id":92,"name":"r/sonofelicenellafece","steam_id":76561198262231733,"connected_time":3418000000000,"state":"active","ping":63},{"user_id":116,"name":"eduardo","steam_id":76561198014491925,"connected_time":331000000000,"state":"active","ping":76},{"user_id":115,"name":"usia","steam_id":76561198120406679,"connected_time":375000000000,"state":"active","ping":76},{"user_id":119,"name":"TheKlin","steam_id":76561198032331453,"connected_time":265000000000,"state":"active","ping":246}]},{"server_id":110,"name":"Uncletopia | Frankfurt | 2 | All Maps","name_short":"frk-2","host":"frk-1.de.uncletopia.com","port":27025,"enabled":true,"region":"eu","cc":"de","latitude":50.110924,"longitude":8.682127,"reserved":0,"last_update":"0001-01-01T00:00:00Z","name_a2s":"Uncletopia | Frankfurt | 2 | All Maps","protocol":17,"map":"pl_badwater","folder":"tf","game":"Team Fortress","app_id":440,"player_count":24,"max_players":24,"Bots":0,"server_type":"Dedicated","server_os":"Linux","password":true,"vac":true,"version":"7757534","steam_id":85568392924469990,"keywords":["nocrits","nodmgspread","payload","uncletopia"],"game_id":440,"stv_port":27026,"stv_name":"Uncletopia | Frankfurt | 2 | All Maps | STV","players":[{"user_id":353,"name":"barni","steam_id":76561198170420173,"connected_time":77000000000,"state":"active","ping":79},{"user_id":335,"name":"KittyKate ❤","steam_id":76561198116340817,"connected_time":2158000000000,"state":"active","ping":65},{"user_id":354,"name":"꧁༒Xenon༒꧂","steam_id":76561198120502313,"connected_time":77000000000,"state":"active","ping":63},{"user_id":352,"name":"Laki","steam_id":76561198126078953,"connected_time":80000000000,"state":"active","ping":132},{"user_id":348,"name":"Topia","steam_id":76561198163571788,"connected_time":555000000000,"state":"active","ping":91},{"user_id":278,"name":"Suetolog","steam_id":76561199053090212,"connected_time":6472000000000,"state":"active","ping":59},{"user_id":337,"name":"gustavo fring","steam_id":76561199145709519,"connected_time":1458000000000,"state":"active","ping":138},{"user_id":308,"name":"Klinmir","steam_id":76561198352339376,"connected_time":3909000000000,"state":"active","ping":95},{"user_id":320,"name":"Smiffsmiffwild3","steam_id":76561199097073780,"connected_time":3109000000000,"state":"active","ping":67},{"user_id":334,"name":"LOBZIK","steam_id":76561198114830120,"connected_time":2551000000000,"state":"active","ping":79},{"user_id":338,"name":"BuzzBees ❤","steam_id":76561198101502273,"connected_time":1136000000000,"state":"active","ping":60},{"user_id":355,"name":"Gearless","steam_id":76561198362367074,"connected_time":75000000000,"state":"active","ping":108},{"user_id":324,"name":"Dominixk","steam_id":76561198995512625,"connected_time":2884000000000,"state":"active","ping":61},{"user_id":321,"name":"Veile","steam_id":76561199007201531,"connected_time":3106000000000,"state":"active","ping":88},{"user_id":330,"name":"HERISSON","steam_id":76561199062194778,"connected_time":2651000000000,"state":"active","ping":84},{"user_id":356,"name":"beurgeur","steam_id":76561198872426314,"connected_time":72000000000,"state":"active","ping":45},{"user_id":340,"name":"The Tomfooler","steam_id":76561198167986695,"connected_time":1004000000000,"state":"active","ping":46},{"user_id":326,"name":"Qwerty","steam_id":76561198023525894,"connected_time":2874000000000,"state":"active","ping":92},{"user_id":357,"name":"Ginko","steam_id":76561199471061424,"connected_time":54000000000,"state":"active","ping":60},{"user_id":341,"name":"Rex Z'Beq","steam_id":76561199300590000,"connected_time":997000000000,"state":"active","ping":80},{"user_id":284,"name":"d00bie","steam_id":76561198025295218,"connected_time":5661000000000,"state":"active","ping":65},{"user_id":345,"name":"Cosmetic brain","steam_id":76561198055936410,"connected_time":952000000000,"state":"active","ping":81},{"user_id":328,"name":"Mefuu","steam_id":76561198287729818,"connected_time":2849000000000,"state":"active","ping":100},{"user_id":347,"name":"Kaishakunin","steam_id":76561198028123874,"connected_time":942000000000,"state":"active","ping":88}]},{"server_id":308,"name":"Uncletopia | Frankfurt | 3 | All Maps","name_short":"frk-3","host":"frk-1.de.uncletopia.com","port":27035,"enabled":true,"region":"eu","cc":"de","latitude":50.110924,"longitude":8.682127,"reserved":0,"last_update":"0001-01-01T00:00:00Z","name_a2s":"Uncletopia | Frankfurt | 3 | All Maps","protocol":17,"map":"koth_highpass","folder":"tf","game":"Team Fortress","app_id":440,"player_count":0,"max_players":24,"Bots":0,"server_type":"Dedicated","server_os":"Linux","password":true,"vac":true,"version":"7757534","steam_id":85568392924504274,"keywords":["cp","nocrits","nodmgspread","uncletopia"],"game_id":440,"stv_port":27036,"stv_name":"Uncletopia | Frankfurt | 3 | All Maps | STV","players":null},{"server_id":309,"name":"Uncletopia | Frankfurt | 4 | All Maps","name_short":"frk-4","host":"frk-1.de.uncletopia.com","port":27045,"enabled":true,"region":"eu","cc":"de","latitude":50.110924,"longitude":8.682127,"reserved":0,"last_update":"0001-01-01T00:00:00Z","name_a2s":"Uncletopia | Frankfurt | 4 | All Maps","protocol":17,"map":"koth_viaduct","folder":"tf","game":"Team Fortress","app_id":440,"player_count":0,"max_players":24,"Bots":0,"server_type":"Dedicated","server_os":"Linux","password":true,"vac":true,"version":"7757534","steam_id":85568392924504275,"keywords":["cp","nocrits","nodmgspread","uncletopia"],"game_id":440,"stv_port":27046,"stv_name":"Uncletopia | Frankfurt | 4 | All Maps | STV","players":null},{"server_id":310,"name":"Uncletopia | Frankfurt | 5 | All Maps","name_short":"frk-5","host":"frk-1.de.uncletopia.com","port":27055,"enabled":true,"region":"eu","cc":"de","latitude":50.110924,"longitude":8.682127,"reserved":0,"last_update":"0001-01-01T00:00:00Z","name_a2s":"Uncletopia | Frankfurt | 5 | All Maps","protocol":17,"map":"koth_nucleus","folder":"tf","game":"Team Fortress","app_id":440,"player_count":24,"max_players":24,"Bots":0,"server_type":"Dedicated","server_os":"Linux","password":true,"vac":true,"version":"7757534","steam_id":85568392924504277,"keywords":["cp","nocrits","nodmgspread","uncletopia"],"game_id":440,"stv_port":27056,"stv_name":"Uncletopia | Frankfurt | 5 | All Maps | STV","players":[{"user_id":274,"name":"Vi","steam_id":76561198036546142,"connected_time":3039000000000,"state":"active","ping":53},{"user_id":279,"name":"Kirvis","steam_id":76561198027831643,"connected_time":2856000000000,"state":"active","ping":101},{"user_id":312,"name":"Ruth(-less bitch)","steam_id":76561198150006573,"connected_time":1109000000000,"state":"active","ping":70},{"user_id":322,"name":"S4mura!","steam_id":76561198374412262,"connected_time":165000000000,"state":"active","ping":72},{"user_id":307,"name":"ivanmixo","steam_id":76561198160213989,"connected_time":1258000000000,"state":"active","ping":60},{"user_id":206,"name":"hut hut","steam_id":76561198088426580,"connected_time":7642000000000,"state":"active","ping":56},{"user_id":214,"name":"Femboypawnguy","steam_id":76561198274894771,"connected_time":6813000000000,"state":"active","ping":58},{"user_id":291,"name":"NojusKojos","steam_id":76561199060478662,"connected_time":1951000000000,"state":"active","ping":68},{"user_id":207,"name":"tiiyama","steam_id":76561198046196005,"connected_time":7463000000000,"state":"active","ping":43},{"user_id":316,"name":"󠀡󠀡","steam_id":76561198015585266,"connected_time":972000000000,"state":"active","ping":82},{"user_id":320,"name":"FreeMarket","steam_id":76561198029916416,"connected_time":723000000000,"state":"active","ping":81},{"user_id":311,"name":"bad at tf2 episode 2","steam_id":76561198002451113,"connected_time":1174000000000,"state":"active","ping":91},{"user_id":302,"name":"Johan","steam_id":76561197999517316,"connected_time":1401000000000,"state":"active","ping":76},{"user_id":317,"name":"Deacon Dracul","steam_id":76561198046880663,"connected_time":863000000000,"state":"active","ping":98},{"user_id":318,"name":"makarov","steam_id":76561198363892870,"connected_time":765000000000,"state":"active","ping":69},{"user_id":319,"name":"Leibeigener","steam_id":76561199275478305,"connected_time":760000000000,"state":"active","ping":40},{"user_id":313,"name":"Gandhi the Grater","steam_id":76561198051198555,"connected_time":1098000000000,"state":"active","ping":72},{"user_id":323,"name":"thebananabomb00","steam_id":76561198296409283,"connected_time":39000000000,"state":"active","ping":84},{"user_id":290,"name":"Vitamin Weee","steam_id":76561199183937747,"connected_time":2083000000000,"state":"active","ping":84},{"user_id":324,"name":"Mottinen","steam_id":76561198223868928,"connected_time":31000000000,"state":"active","ping":80},{"user_id":301,"name":"Neytan","steam_id":76561198027024747,"connected_time":1572000000000,"state":"active","ping":117},{"user_id":310,"name":"somehow danced","steam_id":76561198128250460,"connected_time":1198000000000,"state":"active","ping":103},{"user_id":306,"name":"TJ1212","steam_id":76561199013575313,"connected_time":1347000000000,"state":"active","ping":80},{"user_id":314,"name":"Makasim:)","steam_id":76561198816061842,"connected_time":1088000000000,"state":"active","ping":73}]},{"server_id":311,"name":"Uncletopia | Frankfurt | 6 | All Maps","name_short":"frk-6","host":"frk-1.de.uncletopia.com","port":27065,"enabled":true,"region":"eu","cc":"de","latitude":50.110924,"longitude":8.682127,"reserved":0,"last_update":"0001-01-01T00:00:00Z","name_a2s":"Uncletopia | Frankfurt | 6 | All Maps","protocol":17,"map":"cp_process_final","folder":"tf","game":"Team Fortress","app_id":440,"player_count":0,"max_players":24,"Bots":0,"server_type":"Dedicated","server_os":"Linux","password":true,"vac":true,"version":"7757534","steam_id":85568392924504278,"keywords":["cp","nocrits","nodmgspread","uncletopia"],"game_id":440,"stv_port":27066,"stv_name":"Uncletopia | Frankfurt | 6 | All Maps | STV","players":null},{"server_id":23,"name":"Uncletopia | Frankfurt | 7 | Stopwatch Beta","name_short":"frk-7","host":"frk-1.de.uncletopia.com","port":27075,"enabled":true,"region":"eu","cc":"de","latitude":50.110924,"longitude":8.682127,"reserved":0,"last_update":"0001-01-01T00:00:00Z","name_a2s":"Uncletopia | Frankfurt | 7 | Stopwatch Beta","protocol":17,"map":"pl_frontier_final","folder":"tf","game":"Team Fortress","app_id":440,"player_count":0,"max_players":24,"Bots":0,"server_type":"Dedicated","server_os":"Linux","password":true,"vac":true,"version":"7757534","steam_id":85568392924742827,"keywords":["nocrits","nodmgspread","payload","uncletopia"],"game_id":440,"stv_port":27076,"stv_name":"Uncletopia | Frankfurt | 7 | Stopwatch Beta | STV","players":null},{"server_id":24,"name":"Uncletopia | Frankfurt | 8 | Community","name_short":"frk-8","host":"frk-1.de.uncletopia.com","port":27085,"enabled":true,"region":"eu","cc":"de","latitude":50.110924,"longitude":8.682127,"reserved":0,"last_update":"0001-01-01T00:00:00Z","name_a2s":"Uncletopia | Frankfurt | 8 | Community","protocol":17,"map":"workshop/pl_fifthcurve_rc1.ugc648227046","folder":"tf","game":"Team Fortress","app_id":440,"player_count":0,"max_players":24,"Bots":0,"server_type":"Dedicated","server_os":"Linux","password":true,"vac":true,"version":"7757534","steam_id":85568392924742828,"keywords":["nocrits","nodmgspread","payload","uncletopia"],"game_id":440,"stv_port":27086,"stv_name":"Uncletopia | Frankfurt | 8 | Community | STV","players":null},{"server_id":202,"name":"Uncletopia | Hong Kong | 1 | All Maps","name_short":"hgk-1","host":"hgk-1.hk.uncletopia.com","port":27015,"enabled":true,"region":"asia","cc":"hk","latitude":22.302711,"longitude":114.177216,"reserved":0,"last_update":"0001-01-01T00:00:00Z","name_a2s":"Uncletopia | Hong Kong | 1 | All Maps","protocol":17,"map":"koth_viaduct","folder":"tf","game":"Team Fortress","app_id":440,"player_count":0,"max_players":24,"Bots":0,"server_type":"Dedicated","server_os":"Linux","password":true,"vac":true,"version":"7757534","steam_id":85568392924494504,"keywords":["cp","nocrits","nodmgspread","uncletopia"],"game_id":440,"stv_port":27016,"stv_name":"Uncletopia | Hong Kong | 1 | All Maps | STV","players":null},{"server_id":1,"name":"Uncletopia | Los Angeles | 1 | All Maps","name_short":"lax-1","host":"lax-1.us.uncletopia.com","port":27015,"enabled":true,"region":"us-west","cc":"us","latitude":33.94279,"longitude":-118.41004,"reserved":0,"last_update":"0001-01-01T00:00:00Z","name_a2s":"Uncletopia | Los Angeles | 1 | All Maps","protocol":17,"map":"pl_borneo","folder":"tf","game":"Team Fortress","app_id":440,"player_count":0,"max_players":24,"Bots":0,"server_type":"Dedicated","server_os":"Linux","password":true,"vac":true,"version":"7757534","steam_id":85568392924469991,"keywords":["nocrits","nodmgspread","payload","uncletopia"],"game_id":440,"stv_port":27016,"stv_name":"Uncletopia | Los Angeles | 1 | All Maps | STV","players":null},{"server_id":112,"name":"Uncletopia | Los Angeles | 2 | All Maps","name_short":"lax-2","host":"lax-1.us.uncletopia.com","port":27025,"enabled":true,"region":"us-west","cc":"us","latitude":33.94279,"longitude":-118.41004,"reserved":0,"last_update":"0001-01-01T00:00:00Z","name_a2s":"Uncletopia | Los Angeles | 2 | All Maps","protocol":17,"map":"koth_cascade","folder":"tf","game":"Team Fortress","app_id":440,"player_count":0,"max_players":24,"Bots":0,"server_type":"Dedicated","server_os":"Linux","password":true,"vac":true,"version":"7757534","steam_id":85568392924469992,"keywords":["cp","nocrits","nodmgspread","uncletopia"],"game_id":440,"stv_port":27026,"stv_name":"Uncletopia | Los Angeles | 2 | All Maps | STV","players":null},{"server_id":324,"name":"Uncletopia | Los Angeles | 3 | All Maps","name_short":"lax-3","host":"lax-1.us.uncletopia.com","port":27035,"enabled":true,"region":"us-west","cc":"us","latitude":33.94279,"longitude":-118.41004,"reserved":0,"last_update":"0001-01-01T00:00:00Z","name_a2s":"Uncletopia | Los Angeles | 3 | All Maps","protocol":17,"map":"pl_pier","folder":"tf","game":"Team Fortress","app_id":440,"player_count":0,"max_players":24,"Bots":0,"server_type":"Dedicated","server_os":"Linux","password":true,"vac":true,"version":"7757534","steam_id":85568392924510198,"keywords":["nocrits","nodmgspread","payload","uncletopia"],"game_id":440,"stv_port":27036,"stv_name":"Uncletopia | Los Angeles | 3 | All Maps | STV","players":null},{"server_id":25,"name":"Uncletopia | Los Angeles | 4 | Stopwatch Beta","name_short":"lax-4","host":"lax-1.us.uncletopia.com","port":27045,"enabled":true,"region":"us-west","cc":"us","latitude":33.94279,"longitude":-118.41004,"reserved":0,"last_update":"0001-01-01T00:00:00Z","name_a2s":"Uncletopia | Los Angeles | 4 | Stopwatch Beta","protocol":17,"map":"pl_frontier_final","folder":"tf","game":"Team Fortress","app_id":440,"player_count":0,"max_players":24,"Bots":0,"server_type":"Dedicated","server_os":"Linux","password":true,"vac":true,"version":"7757534","steam_id":85568392924510199,"keywords":["nocrits","nodmgspread","payload","uncletopia"],"game_id":440,"stv_port":27046,"stv_name":"Uncletopia | Los Angeles | 4 | Stopwatch Beta | STV","players":null},{"server_id":11,"name":"Uncletopia | London | 1 | All Maps","name_short":"lon-1","host":"lon-1.uk.uncletopia.com","port":27015,"enabled":true,"region":"eu","cc":"gb","latitude":51.509865,"longitude":-0.118092,"reserved":0,"last_update":"0001-01-01T00:00:00Z","name_a2s":"Uncletopia | London | 1 | All Maps","protocol":17,"map":"cp_dustbowl","folder":"tf","game":"Team Fortress","app_id":440,"player_count":24,"max_players":24,"Bots":0,"server_type":"Dedicated","server_os":"Linux","password":true,"vac":true,"version":"7757534","steam_id":85568392924367362,"keywords":["cp","nocrits","nodmgspread","uncletopia"],"game_id":440,"stv_port":27016,"stv_name":"Uncletopia | London | 1 | All Maps | STV","players":[{"user_id":473,"name":"KingVoker","steam_id":76561198039602539,"connected_time":1205000000000,"state":"active","ping":75},{"user_id":493,"name":"john fortress 2","steam_id":76561198202668788,"connected_time":39000000000,"state":"spawning","ping":62},{"user_id":452,"name":"Bone","steam_id":76561198073117364,"connected_time":2909000000000,"state":"active","ping":119},{"user_id":486,"name":"A fish and sea","steam_id":76561198194745827,"connected_time":393000000000,"state":"active","ping":61},{"user_id":401,"name":"AleXandriX","steam_id":76561198035203950,"connected_time":5914000000000,"state":"active","ping":69},{"user_id":399,"name":"Sandshee","steam_id":76561198088574666,"connected_time":6152000000000,"state":"active","ping":32},{"user_id":478,"name":"Pootis","steam_id":76561198823265247,"connected_time":740000000000,"state":"active","ping":75},{"user_id":487,"name":"Tom","steam_id":76561198176543518,"connected_time":370000000000,"state":"active","ping":55},{"user_id":448,"name":"amjadgx9","steam_id":76561199388681087,"connected_time":3187000000000,"state":"active","ping":115},{"user_id":477,"name":"WHUSSKEY","steam_id":76561198137827441,"connected_time":742000000000,"state":"active","ping":83},{"user_id":449,"name":"Incomprehensible","steam_id":76561198305808645,"connected_time":3183000000000,"state":"active","ping":55},{"user_id":491,"name":"Tynnyri","steam_id":76561198075516541,"connected_time":131000000000,"state":"active","ping":105},{"user_id":445,"name":"Arecibo","steam_id":76561198014359615,"connected_time":3281000000000,"state":"active","ping":67},{"user_id":488,"name":"Pachakamakk","steam_id":76561197989010401,"connected_time":302000000000,"state":"active","ping":53},{"user_id":472,"name":"3xample","steam_id":76561198805049375,"connected_time":1364000000000,"state":"active","ping":55},{"user_id":459,"name":"猪武者","steam_id":76561198085080008,"connected_time":2226000000000,"state":"active","ping":93},{"user_id":480,"name":"Ander Escobar","steam_id":76561198335366902,"connected_time":666000000000,"state":"active","ping":89},{"user_id":481,"name":"Torrii","steam_id":76561198307916635,"connected_time":663000000000,"state":"active","ping":95},{"user_id":446,"name":"Greencoffee","steam_id":76561198842090589,"connected_time":3280000000000,"state":"active","ping":69},{"user_id":429,"name":"NNidea","steam_id":76561199043470524,"connected_time":4015000000000,"state":"active","ping":52},{"user_id":453,"name":"Pintarolas","steam_id":76561198124839451,"connected_time":2833000000000,"state":"active","ping":112},{"user_id":471,"name":"ᴉoio","steam_id":76561198024952144,"connected_time":1383000000000,"state":"active","ping":70},{"user_id":492,"name":"[LINUX GAMING] Za4nik","steam_id":76561199238968895,"connected_time":94000000000,"state":"active","ping":86},{"user_id":455,"name":"SocialistBacon","steam_id":76561198055872267,"connected_time":2786000000000,"state":"active","ping":78}]},{"server_id":114,"name":"Uncletopia | London | 2 | All Maps","name_short":"lon-2","host":"lon-1.uk.uncletopia.com","port":27025,"enabled":true,"region":"eu","cc":"gb","latitude":51.509865,"longitude":-0.118092,"reserved":0,"last_update":"0001-01-01T00:00:00Z","name_a2s":"Uncletopia | London | 2 | All Maps","protocol":17,"map":"pl_badwater","folder":"tf","game":"Team Fortress","app_id":440,"player_count":24,"max_players":24,"Bots":0,"server_type":"Dedicated","server_os":"Linux","password":true,"vac":true,"version":"7757534","steam_id":85568392924470941,"keywords":["nocrits","nodmgspread","payload","uncletopia"],"game_id":440,"stv_port":27026,"stv_name":"Uncletopia | London | 2 | All Maps | STV","players":[{"user_id":275,"name":"Fart Sniffer","steam_id":76561198064513206,"connected_time":2478000000000,"state":"active","ping":57},{"user_id":283,"name":"I am the one who donks","steam_id":76561198419583460,"connected_time":2247000000000,"state":"active","ping":64},{"user_id":301,"name":"burger","steam_id":76561198071674964,"connected_time":1412000000000,"state":"active","ping":74},{"user_id":320,"name":"✪ Danny","steam_id":76561198104483241,"connected_time":71000000000,"state":"active","ping":51},{"user_id":321,"name":"nvs","steam_id":76561198120668070,"connected_time":71000000000,"state":"active","ping":67},{"user_id":307,"name":"(wm) Das Fleisch","steam_id":76561198001250715,"connected_time":744000000000,"state":"active","ping":61},{"user_id":313,"name":"sriracha..","steam_id":76561198005560221,"connected_time":430000000000,"state":"active","ping":113},{"user_id":285,"name":"Chicote","steam_id":76561198054689637,"connected_time":2118000000000,"state":"active","ping":64},{"user_id":311,"name":"scarecrowshelper","steam_id":76561198072260553,"connected_time":642000000000,"state":"active","ping":61},{"user_id":319,"name":"marci","steam_id":76561198046777197,"connected_time":79000000000,"state":"active","ping":75},{"user_id":280,"name":"skittish maiden","steam_id":76561198096856475,"connected_time":2289000000000,"state":"active","ping":55},{"user_id":282,"name":"CRAZY VIKING","steam_id":76561198061440669,"connected_time":2266000000000,"state":"active","ping":62},{"user_id":310,"name":"Scrungly Bingus","steam_id":76561198106868468,"connected_time":644000000000,"state":"active","ping":67},{"user_id":298,"name":"homeinvasion$","steam_id":76561199111905021,"connected_time":1704000000000,"state":"active","ping":118},{"user_id":306,"name":"Mr.Cupcake","steam_id":76561198152711174,"connected_time":824000000000,"state":"active","ping":75},{"user_id":304,"name":"mpk02","steam_id":76561198056572735,"connected_time":1105000000000,"state":"active","ping":43},{"user_id":297,"name":"CalicoCat12","steam_id":76561198081933130,"connected_time":1833000000000,"state":"active","ping":64},{"user_id":291,"name":"Dachowiec","steam_id":76561198195408281,"connected_time":1915000000000,"state":"active","ping":71},{"user_id":292,"name":"Yassine","steam_id":76561198140565712,"connected_time":1908000000000,"state":"active","ping":48},{"user_id":294,"name":"leo","steam_id":76561198088016140,"connected_time":1891000000000,"state":"active","ping":108},{"user_id":300,"name":"Arcader","steam_id":76561198109860110,"connected_time":1606000000000,"state":"active","ping":74},{"user_id":296,"name":"is this game alive?","steam_id":76561198397379093,"connected_time":1881000000000,"state":"active","ping":70},{"user_id":309,"name":"Bunnytt","steam_id":76561198340246275,"connected_time":691000000000,"state":"active","ping":109},{"user_id":317,"name":"DeadpoolDealsDamage","steam_id":76561198399472908,"connected_time":429000000000,"state":"active","ping":56}]},{"server_id":320,"name":"Uncletopia | London | 3 | All Maps","name_short":"lon-3","host":"lon-1.uk.uncletopia.com","port":27035,"enabled":true,"region":"eu","cc":"gb","latitude":51.509865,"longitude":-0.118092,"reserved":0,"last_update":"0001-01-01T00:00:00Z","name_a2s":"Uncletopia | London | 3 | All Maps","protocol":17,"map":"plr_bananabay","folder":"tf","game":"Team Fortress","app_id":440,"player_count":23,"max_players":24,"Bots":0,"server_type":"Dedicated","server_os":"Linux","password":true,"vac":true,"version":"7757534","steam_id":85568392924510192,"keywords":["nocrits","nodmgspread","payload","uncletopia"],"game_id":440,"stv_port":27036,"stv_name":"Uncletopia | London | 3 | All Maps | STV","players":[{"user_id":229,"name":"zak","steam_id":76561197998895428,"connected_time":343000000000,"state":"active","ping":69},{"user_id":239,"name":"when snack become gore","steam_id":76561199217530426,"connected_time":217000000000,"state":"active","ping":117},{"user_id":230,"name":"Parapluie","steam_id":76561197971640301,"connected_time":333000000000,"state":"active","ping":44},{"user_id":243,"name":"Mr. Mundy","steam_id":76561198132008918,"connected_time":83000000000,"state":"active","ping":76},{"user_id":228,"name":"Hoopty","steam_id":76561198057012442,"connected_time":468000000000,"state":"active","ping":77},{"user_id":231,"name":"donk","steam_id":76561198162676648,"connected_time":329000000000,"state":"active","ping":75},{"user_id":213,"name":"giorno giovanna","steam_id":76561198993161087,"connected_time":2036000000000,"state":"active","ping":47},{"user_id":232,"name":"ProMate","steam_id":76561198277138236,"connected_time":324000000000,"state":"active","ping":83},{"user_id":241,"name":"IndigoJones","steam_id":76561198050284262,"connected_time":179000000000,"state":"active","ping":50},{"user_id":219,"name":"fume.","steam_id":76561197960476801,"connected_time":1422000000000,"state":"active","ping":56},{"user_id":244,"name":"kotamine","steam_id":76561198068907991,"connected_time":78000000000,"state":"active","ping":77},{"user_id":224,"name":"_DrunkenGibberish_","steam_id":76561199123070071,"connected_time":971000000000,"state":"active","ping":194},{"user_id":169,"name":"Jimbo","steam_id":76561198253507297,"connected_time":6364000000000,"state":"active","ping":146},{"user_id":233,"name":"Spraxinator","steam_id":76561199083563607,"connected_time":301000000000,"state":"active","ping":160},{"user_id":225,"name":"Mediplier (real)","steam_id":76561198970762992,"connected_time":966000000000,"state":"active","ping":78},{"user_id":247,"name":"Rainlamp @SaveTF2","steam_id":76561198007394958,"connected_time":28000000000,"state":"active","ping":56},{"user_id":222,"name":"Nag","steam_id":76561197970488206,"connected_time":1132000000000,"state":"active","ping":71},{"user_id":236,"name":"Cunk","steam_id":76561198996618201,"connected_time":269000000000,"state":"active","ping":62},{"user_id":246,"name":"Ged","steam_id":76561198079288943,"connected_time":47000000000,"state":"active","ping":123},{"user_id":217,"name":"Commander DM","steam_id":76561198059236770,"connected_time":1696000000000,"state":"active","ping":81},{"user_id":238,"name":"fayaman","steam_id":76561198111807532,"connected_time":239000000000,"state":"active","ping":60},{"user_id":130,"name":"KiT","steam_id":76561198043770371,"connected_time":9178000000000,"state":"active","ping":109},{"user_id":240,"name":"Arasey","steam_id":76561198996948426,"connected_time":210000000000,"state":"active","ping":97}]},{"server_id":321,"name":"Uncletopia | London | 4 | All Maps","name_short":"lon-4","host":"lon-1.uk.uncletopia.com","port":27045,"enabled":true,"region":"eu","cc":"gb","latitude":51.509865,"longitude":-0.118092,"reserved":0,"last_update":"0001-01-01T00:00:00Z","name_a2s":"Uncletopia | London | 4 | All Maps","protocol":17,"map":"koth_viaduct","folder":"tf","game":"Team Fortress","app_id":440,"player_count":24,"max_players":24,"Bots":0,"server_type":"Dedicated","server_os":"Linux","password":true,"vac":true,"version":"7757534","steam_id":85568392924510193,"keywords":["cp","nocrits","nodmgspread","uncletopia"],"game_id":440,"stv_port":27046,"stv_name":"Uncletopia | London | 4 | All Maps | STV","players":[{"user_id":10,"name":"Natpad","steam_id":76561198842124497,"connected_time":650000000000,"state":"active","ping":70},{"user_id":14,"name":"not drunk","steam_id":76561199184873889,"connected_time":444000000000,"state":"active","ping":64},{"user_id":35,"name":"Dave The Sloth","steam_id":76561199135831355,"connected_time":38000000000,"state":"spawning","ping":243},{"user_id":12,"name":"Mr.Man","steam_id":76561199175688390,"connected_time":560000000000,"state":"active","ping":84},{"user_id":13,"name":"TryTane","steam_id":76561198133293111,"connected_time":458000000000,"state":"active","ping":56},{"user_id":15,"name":"BONK-TEC!","steam_id":76561198272667029,"connected_time":423000000000,"state":"active","ping":54},{"user_id":16,"name":"Rasa","steam_id":76561198030864396,"connected_time":413000000000,"state":"active","ping":89},{"user_id":17,"name":"蓮 Lotus","steam_id":76561198083141117,"connected_time":407000000000,"state":"active","ping":62},{"user_id":18,"name":"Soihtu","steam_id":76561198025574278,"connected_time":390000000000,"state":"active","ping":80},{"user_id":19,"name":"purplecan","steam_id":76561199208283508,"connected_time":379000000000,"state":"active","ping":72},{"user_id":34,"name":"Aaron Cahill","steam_id":76561198132831088,"connected_time":81000000000,"state":"active","ping":70},{"user_id":21,"name":"CalCon","steam_id":76561198198605954,"connected_time":340000000000,"state":"active","ping":54},{"user_id":22,"name":"yyny","steam_id":76561198066287297,"connected_time":327000000000,"state":"active","ping":45},{"user_id":23,"name":"Mad-e","steam_id":76561198022086245,"connected_time":304000000000,"state":"active","ping":102},{"user_id":24,"name":"fogings","steam_id":76561198044165284,"connected_time":285000000000,"state":"active","ping":58},{"user_id":25,"name":"Jack","steam_id":76561198079575891,"connected_time":277000000000,"state":"active","ping":45},{"user_id":26,"name":"Major","steam_id":76561198086483282,"connected_time":239000000000,"state":"active","ping":46},{"user_id":27,"name":"Prinz Eugen","steam_id":76561198129154766,"connected_time":232000000000,"state":"active","ping":55},{"user_id":28,"name":"D3$TR0Y3R (real name)","steam_id":76561198384909836,"connected_time":196000000000,"state":"active","ping":47},{"user_id":29,"name":"PilloF","steam_id":76561198088635943,"connected_time":166000000000,"state":"active","ping":73},{"user_id":30,"name":"QUASO","steam_id":76561198295305088,"connected_time":145000000000,"state":"active","ping":61},{"user_id":31,"name":"Luck","steam_id":76561199122232082,"connected_time":104000000000,"state":"active","ping":139},{"user_id":32,"name":"gpupdate","steam_id":76561198154677956,"connected_time":101000000000,"state":"active","ping":76},{"user_id":33,"name":"huesitos","steam_id":76561198028923191,"connected_time":94000000000,"state":"spawning","ping":73}]},{"server_id":21,"name":"Uncletopia | London | 5 | All Maps","name_short":"lon-5","host":"lon-1.uk.uncletopia.com","port":27055,"enabled":true,"region":"eu","cc":"gb","latitude":51.509865,"longitude":-0.118092,"reserved":0,"last_update":"0001-01-01T00:00:00Z","name_a2s":"Uncletopia | London | 5 | All Maps","protocol":17,"map":"pl_upward","folder":"tf","game":"Team Fortress","app_id":440,"player_count":24,"max_players":24,"Bots":0,"server_type":"Dedicated","server_os":"Linux","password":true,"vac":true,"version":"7757534","steam_id":85568392924742829,"keywords":["nocrits","nodmgspread","payload","uncletopia"],"game_id":440,"stv_port":27056,"stv_name":"Uncletopia | London | 5 | All Maps | STV","players":[{"user_id":129,"name":"Flex","steam_id":76561197970482191,"connected_time":1039000000000,"state":"active","ping":68},{"user_id":120,"name":"ムGeRmAn |×UA×ム","steam_id":76561199044754898,"connected_time":1418000000000,"state":"active","ping":82},{"user_id":119,"name":"nyakeri :3","steam_id":76561198081559669,"connected_time":1488000000000,"state":"active","ping":87},{"user_id":21,"name":"Fat Pigeon","steam_id":76561198817940142,"connected_time":5890000000000,"state":"active","ping":47},{"user_id":134,"name":"hideki","steam_id":76561198030728517,"connected_time":290000000000,"state":"active","ping":45},{"user_id":44,"name":"asdfasdfwe","steam_id":76561198079277466,"connected_time":4690000000000,"state":"active","ping":61},{"user_id":84,"name":"AMDBlackblast","steam_id":76561198282983141,"connected_time":3750000000000,"state":"active","ping":89},{"user_id":132,"name":"DemoRobo FR-0","steam_id":76561198220732252,"connected_time":787000000000,"state":"active","ping":54},{"user_id":87,"name":"PizzaPete123","steam_id":76561198089478290,"connected_time":3565000000000,"state":"active","ping":58},{"user_id":104,"name":"Believe it's magic!","steam_id":76561198152918354,"connected_time":2418000000000,"state":"active","ping":68},{"user_id":133,"name":"Udinese Dion","steam_id":76561198067931573,"connected_time":606000000000,"state":"active","ping":53},{"user_id":135,"name":"wouris","steam_id":76561198876188003,"connected_time":76000000000,"state":"active","ping":68},{"user_id":121,"name":"Jughead","steam_id":76561198000355410,"connected_time":1388000000000,"state":"active","ping":42},{"user_id":36,"name":"Symberzite #SaveTF2","steam_id":76561198028581774,"connected_time":5173000000000,"state":"active","ping":92},{"user_id":114,"name":"plaier123457","steam_id":76561198993969194,"connected_time":1585000000000,"state":"active","ping":86},{"user_id":126,"name":"Kahvi","steam_id":76561198723244199,"connected_time":1184000000000,"state":"active","ping":75},{"user_id":136,"name":"ᘛ⁐̤ᕐᐷ Wattseyy","steam_id":76561198248567360,"connected_time":70000000000,"state":"active","ping":40},{"user_id":89,"name":"non_ai","steam_id":76561198270951938,"connected_time":3540000000000,"state":"active","ping":109},{"user_id":110,"name":"yurkur","steam_id":76561198407108497,"connected_time":1744000000000,"state":"active","ping":63},{"user_id":123,"name":"Hey, I´m Andy!","steam_id":76561198060337777,"connected_time":1304000000000,"state":"active","ping":82},{"user_id":122,"name":"Mint","steam_id":76561199024666339,"connected_time":1367000000000,"state":"active","ping":46},{"user_id":109,"name":"JooJ","steam_id":76561198258723049,"connected_time":1885000000000,"state":"active","ping":76},{"user_id":80,"name":"Lyra","steam_id":76561198043601838,"connected_time":3866000000000,"state":"active","ping":60},{"user_id":113,"name":"pro kiler 500000000","steam_id":76561198074917015,"connected_time":1627000000000,"state":"active","ping":75}]},{"server_id":22,"name":"Uncletopia | London | 6 | All Maps","name_short":"lon-6","host":"lon-1.uk.uncletopia.com","port":27065,"enabled":true,"region":"eu","cc":"gb","latitude":51.509865,"longitude":-0.118092,"reserved":0,"last_update":"0001-01-01T00:00:00Z","name_a2s":"Uncletopia | London | 6 | All Maps","protocol":17,"map":"pl_swiftwater_final1","folder":"tf","game":"Team Fortress","app_id":440,"player_count":24,"max_players":24,"Bots":0,"server_type":"Dedicated","server_os":"Linux","password":true,"vac":true,"version":"7757534","steam_id":85568392924742830,"keywords":["nocrits","nodmgspread","payload","uncletopia"],"game_id":440,"stv_port":27066,"stv_name":"Uncletopia | London | 6 | All Maps | STV","players":[{"user_id":194,"name":"Echo of Abyss","steam_id":76561198981841782,"connected_time":483000000000,"state":"active","ping":77},{"user_id":8,"name":"Mozzaza","steam_id":76561198156316111,"connected_time":7416000000000,"state":"active","ping":143},{"user_id":67,"name":"HelwiiHill","steam_id":76561198066730552,"connected_time":3875000000000,"state":"active","ping":97},{"user_id":128,"name":"pepper","steam_id":76561198059782462,"connected_time":2175000000000,"state":"active","ping":60},{"user_id":62,"name":"Grillem Dafoe","steam_id":76561198306874574,"connected_time":4224000000000,"state":"active","ping":67},{"user_id":136,"name":"Jay F","steam_id":76561198046082188,"connected_time":2077000000000,"state":"active","ping":118},{"user_id":171,"name":"•stepbro•","steam_id":76561198119607160,"connected_time":1372000000000,"state":"active","ping":75},{"user_id":192,"name":"Videogamer","steam_id":76561198106012909,"connected_time":856000000000,"state":"active","ping":80},{"user_id":185,"name":"Neoplix","steam_id":76561199012756422,"connected_time":1181000000000,"state":"active","ping":121},{"user_id":68,"name":"john fortress","steam_id":76561198013237629,"connected_time":3864000000000,"state":"active","ping":97},{"user_id":69,"name":"TylowStar","steam_id":76561198357107806,"connected_time":3860000000000,"state":"active","ping":76},{"user_id":135,"name":"Chocofrolik","steam_id":76561198454779847,"connected_time":2105000000000,"state":"active","ping":60},{"user_id":186,"name":"Milosz52","steam_id":76561199060940204,"connected_time":943000000000,"state":"active","ping":89},{"user_id":103,"name":"Vampire tampon","steam_id":76561198042593027,"connected_time":2785000000000,"state":"active","ping":97},{"user_id":198,"name":"MEDiUM","steam_id":76561198112328561,"connected_time":127000000000,"state":"active","ping":88},{"user_id":195,"name":"Célério","steam_id":76561198088253576,"connected_time":274000000000,"state":"active","ping":45},{"user_id":197,"name":"nachtraaf","steam_id":76561197960473205,"connected_time":178000000000,"state":"active","ping":54},{"user_id":190,"name":"567","steam_id":76561198170710713,"connected_time":875000000000,"state":"active","ping":156},{"user_id":191,"name":"the real lancer from deltarune","steam_id":76561199078505144,"connected_time":874000000000,"state":"active","ping":78},{"user_id":193,"name":"Rolprev","steam_id":76561198047275939,"connected_time":787000000000,"state":"active","ping":71},{"user_id":180,"name":"Bromoneto","steam_id":76561198876695014,"connected_time":1267000000000,"state":"active","ping":67},{"user_id":40,"name":"JOK'R","steam_id":76561198140741944,"connected_time":6222000000000,"state":"active","ping":145},{"user_id":159,"name":"Savlon","steam_id":76561198011597274,"connected_time":1606000000000,"state":"active","ping":30},{"user_id":170,"name":"Michael","steam_id":76561198003146906,"connected_time":1386000000000,"state":"active","ping":46}]},{"server_id":40,"name":"Uncletopia | London | 7 | No Payload","name_short":"lon-7","host":"lon-1.uk.uncletopia.com","port":27075,"enabled":true,"region":"eu","cc":"gb","latitude":51.509865,"longitude":-0.118092,"reserved":0,"last_update":"0001-01-01T00:00:00Z","name_a2s":"Uncletopia | London | 7 | No Payload","protocol":17,"map":"koth_badlands","folder":"tf","game":"Team Fortress","app_id":440,"player_count":0,"max_players":24,"Bots":0,"server_type":"Dedicated","server_os":"Linux","password":true,"vac":true,"version":"7757534","steam_id":85568392924964314,"keywords":["cp","nocrits","nodmgspread","uncletopia"],"game_id":440,"stv_port":27076,"stv_name":"Uncletopia | London | 7 | No Payload | STV","players":null},{"server_id":41,"name":"Uncletopia | London | 8 | Community","name_short":"lon-8","host":"lon-1.uk.uncletopia.com","port":27085,"enabled":true,"region":"eu","cc":"gb","latitude":51.509865,"longitude":-0.118092,"reserved":0,"last_update":"0001-01-01T00:00:00Z","name_a2s":"Uncletopia | London | 8 | Community","protocol":17,"map":"workshop/pl_badwater_pro_v12.ugc2142942074","folder":"tf","game":"Team Fortress","app_id":440,"player_count":0,"max_players":24,"Bots":0,"server_type":"Dedicated","server_os":"Linux","password":true,"vac":true,"version":"7757534","steam_id":85568392924964315,"keywords":["nocrits","nodmgspread","payload","uncletopia"],"game_id":440,"stv_port":27086,"stv_name":"Uncletopia | London | 8 | Community | STV","players":null},{"server_id":300,"name":"Uncletopia | Montréal | 1 | All Maps","name_short":"mtl-1","host":"mtl-1.ca.uncletopia.com","port":27015,"enabled":true,"region":"us-east","cc":"ca","latitude":45.50889,"longitude":-73.56167,"reserved":0,"last_update":"0001-01-01T00:00:00Z","name_a2s":"Uncletopia | Montréal | 1 | All Maps","protocol":17,"map":"pl_snowycoast","folder":"tf","game":"Team Fortress","app_id":440,"player_count":0,"max_players":24,"Bots":0,"server_type":"Dedicated","server_os":"Linux","password":true,"vac":true,"version":"7757534","steam_id":85568392924500087,"keywords":["nocrits","nodmgspread","payload","uncletopia"],"game_id":440,"stv_port":27016,"stv_name":"Uncletopia | Montréal | 1 | All Maps | STV","players":null},{"server_id":301,"name":"Uncletopia | Montréal | 2 | All Maps","name_short":"mtl-2","host":"mtl-1.ca.uncletopia.com","port":27025,"enabled":true,"region":"us-east","cc":"ca","latitude":45.50889,"longitude":-73.56167,"reserved":0,"last_update":"0001-01-01T00:00:00Z","name_a2s":"Uncletopia | Montréal | 2 | All Maps","protocol":17,"map":"pl_snowycoast","folder":"tf","game":"Team Fortress","app_id":440,"player_count":0,"max_players":24,"Bots":0,"server_type":"Dedicated","server_os":"Linux","password":true,"vac":true,"version":"7757534","steam_id":85568392924500088,"keywords":["nocrits","nodmgspread","payload","uncletopia"],"game_id":440,"stv_port":27026,"stv_name":"Uncletopia | Montréal | 2 | All Maps | STV","players":null},{"server_id":302,"name":"Uncletopia | Montréal | 3 | All Maps","name_short":"mtl-3","host":"mtl-1.ca.uncletopia.com","port":27035,"enabled":true,"region":"us-east","cc":"ca","latitude":45.50889,"longitude":-73.56167,"reserved":0,"last_update":"0001-01-01T00:00:00Z","name_a2s":"Uncletopia | Montréal | 3 | All Maps","protocol":17,"map":"cp_dustbowl","folder":"tf","game":"Team Fortress","app_id":440,"player_count":2,"max_players":24,"Bots":0,"server_type":"Dedicated","server_os":"Linux","password":true,"vac":true,"version":"7757534","steam_id":85568392924500089,"keywords":["cp","nocrits","nodmgspread","uncletopia"],"game_id":440,"stv_port":27036,"stv_name":"Uncletopia | Montréal | 3 | All Maps | STV","players":[{"user_id":3,"name":"JamesR","steam_id":76561199436941161,"connected_time":434000000000,"state":"active","ping":94},{"user_id":4,"name":"Chickenwing","steam_id":76561199347103141,"connected_time":315000000000,"state":"active","ping":84}]},{"server_id":303,"name":"Uncletopia | Montréal | 4 | No Payload","name_short":"mtl-4","host":"mtl-1.ca.uncletopia.com","port":27045,"enabled":true,"region":"us-east","cc":"ca","latitude":45.50889,"longitude":-73.56167,"reserved":0,"last_update":"0001-01-01T00:00:00Z","name_a2s":"Uncletopia | Montréal | 4 | No Payload","protocol":17,"map":"pl_borneo","folder":"tf","game":"Team Fortress","app_id":440,"player_count":0,"max_players":24,"Bots":0,"server_type":"Dedicated","server_os":"Linux","password":true,"vac":true,"version":"7757534","steam_id":85568392924500090,"keywords":["nocrits","nodmgspread","payload","uncletopia"],"game_id":440,"stv_port":27046,"stv_name":"Uncletopia | Montréal | 4 | No Payload | STV","players":null},{"server_id":13,"name":"Uncletopia | New York City | 1 | All Maps","name_short":"nyc-1","host":"nyc-1.us.uncletopia.com","port":27015,"enabled":true,"region":"us-east","cc":"us","latitude":40.73061,"longitude":-73.93524,"reserved":0,"last_update":"0001-01-01T00:00:00Z","name_a2s":"Uncletopia | New York City | 1 | All Maps","protocol":17,"map":"cp_egypt_final","folder":"tf","game":"Team Fortress","app_id":440,"player_count":24,"max_players":24,"Bots":0,"server_type":"Dedicated","server_os":"Linux","password":true,"vac":true,"version":"7757534","steam_id":85568392924469993,"keywords":["cp","nocrits","nodmgspread","uncletopia"],"game_id":440,"stv_port":27016,"stv_name":"Uncletopia | New York City | 1 | All Maps | STV","players":[{"user_id":158,"name":"mepng","steam_id":76561199018758598,"connected_time":1020000000000,"state":"active","ping":110},{"user_id":110,"name":"fi_ji","steam_id":76561198126087725,"connected_time":4147000000000,"state":"active","ping":53},{"user_id":147,"name":"hierodule","steam_id":76561198023229665,"connected_time":2026000000000,"state":"active","ping":59},{"user_id":168,"name":"kikor8454","steam_id":76561199229716536,"connected_time":667000000000,"state":"active","ping":59},{"user_id":101,"name":"Laelaps","steam_id":76561198100061416,"connected_time":4507000000000,"state":"active","ping":43},{"user_id":156,"name":"The Gamer Chicken","steam_id":76561198058256094,"connected_time":1070000000000,"state":"active","ping":37},{"user_id":164,"name":"Grungy_Greg","steam_id":76561198217362968,"connected_time":690000000000,"state":"active","ping":73},{"user_id":187,"name":"peee pee man","steam_id":76561198044979205,"connected_time":240000000000,"state":"active","ping":60},{"user_id":175,"name":"Pydro","steam_id":76561197995995820,"connected_time":571000000000,"state":"active","ping":76},{"user_id":137,"name":"Walmart Employee","steam_id":76561198840373909,"connected_time":2884000000000,"state":"active","ping":93},{"user_id":133,"name":"Bubz","steam_id":76561199013499631,"connected_time":2977000000000,"state":"active","ping":84},{"user_id":186,"name":"Berries","steam_id":76561198109312962,"connected_time":272000000000,"state":"active","ping":66},{"user_id":152,"name":"Idiot on his Keyboard","steam_id":76561198217662787,"connected_time":1268000000000,"state":"active","ping":65},{"user_id":142,"name":"Vintage Virtual Veteran","steam_id":76561197961329340,"connected_time":2155000000000,"state":"active","ping":57},{"user_id":166,"name":"A Minion Rat","steam_id":76561197979991019,"connected_time":684000000000,"state":"active","ping":57},{"user_id":190,"name":"Gordon From White Castle (real)","steam_id":76561198364172677,"connected_time":179000000000,"state":"active","ping":95},{"user_id":191,"name":"Nice21","steam_id":76561199427548141,"connected_time":132000000000,"state":"active","ping":98},{"user_id":171,"name":"HollowMan","steam_id":76561198967266827,"connected_time":616000000000,"state":"active","ping":99},{"user_id":136,"name":"Rusty","steam_id":76561197972625397,"connected_time":2916000000000,"state":"active","ping":46},{"user_id":114,"name":"Obama F. Kennedy","steam_id":76561198282499318,"connected_time":3981000000000,"state":"active","ping":46},{"user_id":163,"name":"The Fog","steam_id":76561198129302416,"connected_time":705000000000,"state":"active","ping":58},{"user_id":173,"name":"clipsy11","steam_id":76561199185851191,"connected_time":608000000000,"state":"active","ping":144},{"user_id":174,"name":"thanksgiving turkey","steam_id":76561198976876859,"connected_time":602000000000,"state":"active","ping":89},{"user_id":179,"name":"1ynggamer","steam_id":76561198993090929,"connected_time":468000000000,"state":"active","ping":86}]},{"server_id":14,"name":"Uncletopia | New York City | 2 | All Maps","name_short":"nyc-2","host":"nyc-1.us.uncletopia.com","port":27025,"enabled":true,"region":"us-east","cc":"us","latitude":40.73061,"longitude":-73.93524,"reserved":0,"last_update":"0001-01-01T00:00:00Z","name_a2s":"Uncletopia | New York City | 2 | All Maps","protocol":17,"map":"cp_dustbowl","folder":"tf","game":"Team Fortress","app_id":440,"player_count":3,"max_players":24,"Bots":0,"server_type":"Dedicated","server_os":"Linux","password":true,"vac":true,"version":"7757534","steam_id":85568392924469994,"keywords":["cp","nocrits","nodmgspread","uncletopia"],"game_id":440,"stv_port":27026,"stv_name":"Uncletopia | New York City | 2 | All Maps | STV","players":[{"user_id":18,"name":"themankeys","steam_id":76561198149339536,"connected_time":962000000000,"state":"active","ping":79},{"user_id":22,"name":"Help Me","steam_id":76561198133851467,"connected_time":119000000000,"state":"active","ping":182},{"user_id":23,"name":"MaxTheRetroGuy","steam_id":76561198845344731,"connected_time":114000000000,"state":"active","ping":57}]},{"server_id":15,"name":"Uncletopia | New York City | 3 | Stopwatch Beta","name_short":"nyc-3","host":"nyc-1.us.uncletopia.com","port":27035,"enabled":true,"region":"us-east","cc":"us","latitude":40.73061,"longitude":-73.93524,"reserved":0,"last_update":"0001-01-01T00:00:00Z","name_a2s":"Uncletopia | New York City | 3 | Stopwatch Beta","protocol":17,"map":"cp_granary","folder":"tf","game":"Team Fortress","app_id":440,"player_count":0,"max_players":24,"Bots":0,"server_type":"Dedicated","server_os":"Linux","password":true,"vac":true,"version":"7757534","steam_id":85568392924742820,"keywords":["cp","nocrits","nodmgspread","uncletopia"],"game_id":440,"stv_port":27036,"stv_name":"Uncletopia | New York City | 3 | Stopwatch Beta | STV","players":null},{"server_id":16,"name":"Uncletopia | New York City | 4 | Community","name_short":"nyc-4","host":"nyc-1.us.uncletopia.com","port":27045,"enabled":true,"region":"us-east","cc":"us","latitude":40.73061,"longitude":-73.93524,"reserved":0,"last_update":"0001-01-01T00:00:00Z","name_a2s":"Uncletopia | New York City | 4 | Community","protocol":17,"map":"pl_borneo","folder":"tf","game":"Team Fortress","app_id":440,"player_count":0,"max_players":24,"Bots":0,"server_type":"Dedicated","server_os":"Linux","password":true,"vac":true,"version":"7757534","steam_id":85568392924742821,"keywords":["nocrits","nodmgspread","payload","uncletopia"],"game_id":440,"stv_port":27046,"stv_name":"Uncletopia | New York City | 4 | Community | STV","players":null},{"server_id":142,"name":"Uncletopia | São Paulo | 1 | All Maps","name_short":"sao-1","host":"sao-1.br.uncletopia.com","port":27015,"enabled":true,"region":"sa","cc":"br","latitude":-23.533773,"longitude":-46.62529,"reserved":0,"last_update":"0001-01-01T00:00:00Z","name_a2s":"Uncletopia | São Paulo | 1 | All Maps","protocol":17,"map":"pl_badwater","folder":"tf","game":"Team Fortress","app_id":440,"player_count":0,"max_players":24,"Bots":0,"server_type":"Dedicated","server_os":"Linux","password":true,"vac":true,"version":"7757534","steam_id":85568392924469996,"keywords":["nocrits","nodmgspread","payload","uncletopia"],"game_id":440,"stv_port":27016,"stv_name":"Uncletopia | São Paulo | 1 | All Maps | STV","players":null},{"server_id":143,"name":"Uncletopia | São Paulo | 2 | All Maps","name_short":"sao-2","host":"sao-2.br.uncletopia.com","port":27015,"enabled":true,"region":"sa","cc":"br","latitude":-23.533773,"longitude":-46.62529,"reserved":0,"last_update":"0001-01-01T00:00:00Z","name_a2s":"Uncletopia | São Paulo | 2 | All Maps","protocol":17,"map":"cp_dustbowl","folder":"tf","game":"Team Fortress","app_id":440,"player_count":0,"max_players":24,"Bots":0,"server_type":"Dedicated","server_os":"Linux","password":true,"vac":true,"version":"7757534","steam_id":85568392924485349,"keywords":["cp","nocrits","nodmgspread","uncletopia"],"game_id":440,"stv_port":27016,"stv_name":"Uncletopia | São Paulo | 2 | All Maps | STV","players":null},{"server_id":7,"name":"Uncletopia | Seattle | 1 | All Maps","name_short":"sea-1","host":"sea-1.us.uncletopia.com","port":27015,"enabled":true,"region":"us-west","cc":"us","latitude":47.608013,"longitude":-122.33517,"reserved":0,"last_update":"0001-01-01T00:00:00Z","name_a2s":"Uncletopia | Seattle | 1 | All Maps","protocol":17,"map":"pl_swiftwater_final1","folder":"tf","game":"Team Fortress","app_id":440,"player_count":24,"max_players":24,"Bots":0,"server_type":"Dedicated","server_os":"Linux","password":true,"vac":true,"version":"7757534","steam_id":85568392924469997,"keywords":["nocrits","nodmgspread","payload","uncletopia"],"game_id":440,"stv_port":27016,"stv_name":"Uncletopia | Seattle | 1 | All Maps | STV","players":[{"user_id":147,"name":"Sloppy John (Extra Sauce)","steam_id":76561198359703432,"connected_time":519000000000,"state":"active","ping":75},{"user_id":120,"name":"Romo","steam_id":76561198243101572,"connected_time":3040000000000,"state":"active","ping":123},{"user_id":153,"name":"Slowingbranch90","steam_id":76561199445875508,"connected_time":195000000000,"state":"active","ping":143},{"user_id":155,"name":"yawn","steam_id":76561198067753179,"connected_time":185000000000,"state":"active","ping":63},{"user_id":151,"name":"Bluedemon","steam_id":76561199212058684,"connected_time":219000000000,"state":"active","ping":76},{"user_id":145,"name":"captain red","steam_id":76561198191587983,"connected_time":722000000000,"state":"active","ping":76},{"user_id":152,"name":"Super Mega Buster #savetf2","steam_id":76561198160316069,"connected_time":207000000000,"state":"active","ping":47},{"user_id":156,"name":"DaRoyalYoshi","steam_id":76561198145186375,"connected_time":185000000000,"state":"active","ping":88},{"user_id":157,"name":"Gnilkaew","steam_id":76561198202093367,"connected_time":184000000000,"state":"active","ping":136},{"user_id":132,"name":"my monitor is off","steam_id":76561198074499537,"connected_time":2107000000000,"state":"active","ping":85},{"user_id":148,"name":"flavored soap","steam_id":76561198970014265,"connected_time":512000000000,"state":"active","ping":98},{"user_id":71,"name":"xanzabars","steam_id":76561198807593935,"connected_time":7152000000000,"state":"active","ping":69},{"user_id":140,"name":"Arrythmia","steam_id":76561198093748123,"connected_time":1083000000000,"state":"active","ping":54},{"user_id":158,"name":"itsyourpardner","steam_id":76561198354062821,"connected_time":155000000000,"state":"active","ping":109},{"user_id":133,"name":"Tom","steam_id":76561198070630154,"connected_time":2055000000000,"state":"active","ping":81},{"user_id":142,"name":"Pneumo.","steam_id":76561197987911883,"connected_time":903000000000,"state":"active","ping":67},{"user_id":124,"name":"Stranger Danger","steam_id":76561198115242460,"connected_time":2563000000000,"state":"active","ping":46},{"user_id":106,"name":"Little Linguine","steam_id":76561198816986370,"connected_time":4887000000000,"state":"active","ping":101},{"user_id":159,"name":"ikola","steam_id":76561198841721149,"connected_time":152000000000,"state":"active","ping":76},{"user_id":135,"name":"mynameisatif1","steam_id":76561199062993493,"connected_time":2035000000000,"state":"active","ping":81},{"user_id":31,"name":"Turts","steam_id":76561197998448097,"connected_time":10809000000000,"state":"active","ping":64},{"user_id":160,"name":"грустный","steam_id":76561198274550638,"connected_time":116000000000,"state":"active","ping":117},{"user_id":161,"name":"〣dust〣 -she/her-","steam_id":76561198045218909,"connected_time":11000000000,"state":"active","ping":44},{"user_id":136,"name":"5 trillion lemons","steam_id":76561198857237473,"connected_time":2010000000000,"state":"active","ping":48}]},{"server_id":119,"name":"Uncletopia | Seattle | 2 | All Maps","name_short":"sea-2","host":"sea-1.us.uncletopia.com","port":27025,"enabled":true,"region":"us-west","cc":"us","latitude":47.608013,"longitude":-122.33517,"reserved":0,"last_update":"0001-01-01T00:00:00Z","name_a2s":"Uncletopia | Seattle | 2 | All Maps","protocol":17,"map":"koth_viaduct","folder":"tf","game":"Team Fortress","app_id":440,"player_count":0,"max_players":24,"Bots":0,"server_type":"Dedicated","server_os":"Linux","password":true,"vac":true,"version":"7757534","steam_id":85568392924469998,"keywords":["cp","nocrits","nodmgspread","uncletopia"],"game_id":440,"stv_port":27026,"stv_name":"Uncletopia | Seattle | 2 | All Maps | STV","players":null},{"server_id":406,"name":"Uncletopia | Seattle | 3 | Stopwatch Beta","name_short":"sea-3","host":"sea-1.us.uncletopia.com","port":27035,"enabled":true,"region":"us-west","cc":"us","latitude":47.608013,"longitude":-122.33517,"reserved":0,"last_update":"0001-01-01T00:00:00Z","name_a2s":"Uncletopia | Seattle | 3 | Stopwatch Beta","protocol":17,"map":"pl_barnblitz","folder":"tf","game":"Team Fortress","app_id":440,"player_count":0,"max_players":24,"Bots":0,"server_type":"Dedicated","server_os":"Linux","password":true,"vac":true,"version":"7757534","steam_id":85568392924515217,"keywords":["nocrits","nodmgspread","payload","uncletopia"],"game_id":440,"stv_port":27036,"stv_name":"Uncletopia | Seattle | 3 | Stopwatch Beta | STV","players":null},{"server_id":17,"name":"Uncletopia | San Francisco | 1 | All Maps","name_short":"sfo-1","host":"sfo-1.us.uncletopia.com","port":27015,"enabled":true,"region":"us-west","cc":"us","latitude":37.77397,"longitude":-122.4313,"reserved":0,"last_update":"0001-01-01T00:00:00Z","name_a2s":"Uncletopia | San Francisco | 1 | All Maps","protocol":17,"map":"cp_dustbowl","folder":"tf","game":"Team Fortress","app_id":440,"player_count":2,"max_players":24,"Bots":0,"server_type":"Dedicated","server_os":"Linux","password":true,"vac":true,"version":"7757534","steam_id":85568392924469999,"keywords":["cp","nocrits","nodmgspread","uncletopia"],"game_id":440,"stv_port":27016,"stv_name":"Uncletopia | San Francisco | 1 | All Maps | STV","players":[{"user_id":5,"name":"Fazy","steam_id":76561198189233230,"connected_time":343000000000,"state":"active","ping":220},{"user_id":6,"name":"Ribbered","steam_id":76561198242118240,"connected_time":286000000000,"state":"active","ping":90}]},{"server_id":18,"name":"Uncletopia | San Francisco | 2 | All Maps","name_short":"sfo-2","host":"sfo-1.us.uncletopia.com","port":27025,"enabled":true,"region":"us-west","cc":"us","latitude":37.77397,"longitude":-122.4313,"reserved":0,"last_update":"0001-01-01T00:00:00Z","name_a2s":"Uncletopia | San Francisco | 2 | All Maps","protocol":17,"map":"cp_altitude","folder":"tf","game":"Team Fortress","app_id":440,"player_count":0,"max_players":24,"Bots":0,"server_type":"Dedicated","server_os":"Linux","password":true,"vac":true,"version":"7757534","steam_id":85568392924470000,"keywords":["cp","nocrits","nodmgspread","uncletopia"],"game_id":440,"stv_port":27026,"stv_name":"Uncletopia | San Francisco | 2 | All Maps | STV","players":null},{"server_id":19,"name":"Uncletopia | San Francisco | 3 | Stopwatch Beta","name_short":"sfo-3","host":"sfo-1.us.uncletopia.com","port":27035,"enabled":true,"region":"us-west","cc":"us","latitude":37.77397,"longitude":-122.4313,"reserved":0,"last_update":"0001-01-01T00:00:00Z","name_a2s":"Uncletopia | San Francisco | 3 | Stopwatch Beta","protocol":17,"map":"pl_borneo","folder":"tf","game":"Team Fortress","app_id":440,"player_count":0,"max_players":24,"Bots":0,"server_type":"Dedicated","server_os":"Linux","password":true,"vac":true,"version":"7757534","steam_id":85568392924742824,"keywords":["nocrits","nodmgspread","payload","uncletopia"],"game_id":440,"stv_port":27036,"stv_name":"Uncletopia | San Francisco | 3 | Stopwatch Beta | STV","players":null},{"server_id":20,"name":"Uncletopia | San Francisco | 4 | Community","name_short":"sfo-4","host":"sfo-1.us.uncletopia.com","port":27045,"enabled":true,"region":"us-west","cc":"us","latitude":37.77397,"longitude":-122.4313,"reserved":0,"last_update":"0001-01-01T00:00:00Z","name_a2s":"Uncletopia | San Francisco | 4 | Community","protocol":17,"map":"koth_highpass","folder":"tf","game":"Team Fortress","app_id":440,"player_count":6,"max_players":24,"Bots":0,"server_type":"Dedicated","server_os":"Linux","password":true,"vac":true,"version":"7757534","steam_id":85568392924742826,"keywords":["cp","nocrits","nodmgspread","uncletopia"],"game_id":440,"stv_port":27046,"stv_name":"Uncletopia | San Francisco | 4 | Community | STV","players":[{"user_id":6,"name":"JesusLovesYouYAY","steam_id":76561199146362676,"connected_time":670000000000,"state":"active","ping":61},{"user_id":7,"name":"Jesus Loves You57","steam_id":76561199058833769,"connected_time":662000000000,"state":"active","ping":47},{"user_id":5,"name":"foog tropler","steam_id":76561198968338494,"connected_time":820000000000,"state":"active","ping":68},{"user_id":8,"name":"Green_GarBear","steam_id":76561199468912415,"connected_time":208000000000,"state":"active","ping":39},{"user_id":9,"name":"The Harmonica Guy","steam_id":76561199081446939,"connected_time":170000000000,"state":"active","ping":133},{"user_id":10,"name":"Doggo","steam_id":76561198313355373,"connected_time":99000000000,"state":"active","ping":72}]},{"server_id":141,"name":"Uncletopia | Sydney | 1 | All Maps","name_short":"syd-1","host":"syd-1.au.uncletopia.com","port":27015,"enabled":true,"region":"au","cc":"au","latitude":-33.865143,"longitude":151.2099,"reserved":0,"last_update":"0001-01-01T00:00:00Z","name_a2s":"Uncletopia | Sydney | 1 | All Maps","protocol":17,"map":"cp_snakewater_final1","folder":"tf","game":"Team Fortress","app_id":440,"player_count":0,"max_players":24,"Bots":0,"server_type":"Dedicated","server_os":"Linux","password":true,"vac":true,"version":"7757534","steam_id":85568392924470001,"keywords":["cp","nocrits","nodmgspread","uncletopia"],"game_id":440,"stv_port":27016,"stv_name":"Uncletopia | Sydney | 1 | All Maps | STV","players":null},{"server_id":123,"name":"Uncletopia | Sydney | 2 | All Maps","name_short":"syd-2","host":"syd-1.au.uncletopia.com","port":27025,"enabled":true,"region":"au","cc":"au","latitude":-33.865143,"longitude":151.2099,"reserved":0,"last_update":"0001-01-01T00:00:00Z","name_a2s":"Uncletopia | Sydney | 2 | All Maps","protocol":17,"map":"pl_pier","folder":"tf","game":"Team Fortress","app_id":440,"player_count":0,"max_players":24,"Bots":0,"server_type":"Dedicated","server_os":"Linux","password":true,"vac":true,"version":"7757534","steam_id":85568392924470002,"keywords":["nocrits","nodmgspread","payload","uncletopia"],"game_id":440,"stv_port":27026,"stv_name":"Uncletopia | Sydney | 2 | All Maps | STV","players":null},{"server_id":395,"name":"Uncletopia | Sydney | 3 | All Maps","name_short":"syd-3","host":"syd-1.au.uncletopia.com","port":27035,"enabled":true,"region":"au","cc":"au","latitude":-33.865143,"longitude":151.2099,"reserved":0,"last_update":"0001-01-01T00:00:00Z","name_a2s":"Uncletopia | Sydney | 3 | All Maps","protocol":17,"map":"koth_viaduct","folder":"tf","game":"Team Fortress","app_id":440,"player_count":0,"max_players":24,"Bots":0,"server_type":"Dedicated","server_os":"Linux","password":true,"vac":true,"version":"7757534","steam_id":85568392925194467,"keywords":["cp","nocrits","nodmgspread","uncletopia"],"game_id":440,"stv_port":27036,"stv_name":"Uncletopia | Sydney | 3 | All Maps | STV","players":null},{"server_id":396,"name":"Uncletopia | Sydney | 4 | All Maps","name_short":"syd-4","host":"syd-1.au.uncletopia.com","port":27045,"enabled":true,"region":"au","cc":"au","latitude":-33.865143,"longitude":151.2099,"reserved":0,"last_update":"0001-01-01T00:00:00Z","name_a2s":"Uncletopia | Sydney | 4 | All Maps","protocol":17,"map":"koth_viaduct","folder":"tf","game":"Team Fortress","app_id":440,"player_count":0,"max_players":24,"Bots":0,"server_type":"Dedicated","server_os":"Linux","password":true,"vac":true,"version":"7757534","steam_id":85568392925397958,"keywords":["cp","nocrits","nodmgspread","uncletopia"],"game_id":440,"stv_port":27046,"stv_name":"Uncletopia | Sydney | 4 | All Maps | STV","players":null},{"server_id":58,"name":"Uncletopia | Sydney | 5 | Stopwatch Beta","name_short":"syd-5","host":"syd-1.au.uncletopia.com","port":27055,"enabled":true,"region":"au","cc":"au","latitude":-33.865143,"longitude":151.2099,"reserved":0,"last_update":"0001-01-01T00:00:00Z","name_a2s":"Uncletopia | Sydney | 5 | Stopwatch Beta","protocol":17,"map":"pl_swiftwater_final1","folder":"tf","game":"Team Fortress","app_id":440,"player_count":0,"max_players":24,"Bots":0,"server_type":"Dedicated","server_os":"Linux","password":true,"vac":true,"version":"7757534","steam_id":85568392925397959,"keywords":["nocrits","nodmgspread","payload","uncletopia"],"game_id":440,"stv_port":27056,"stv_name":"Uncletopia | Sydney | 5 | Stopwatch Beta | STV","players":null},{"server_id":59,"name":"Uncletopia | Sydney | 6 | Community","name_short":"syd-6","host":"syd-1.au.uncletopia.com","port":27065,"enabled":true,"region":"au","cc":"au","latitude":-33.865143,"longitude":151.2099,"reserved":0,"last_update":"0001-01-01T00:00:00Z","name_a2s":"Uncletopia | Sydney | 6 | Community","protocol":17,"map":"workshop/koth_slaughter_rc1.ugc1712845210","folder":"tf","game":"Team Fortress","app_id":440,"player_count":0,"max_players":24,"Bots":0,"server_type":"Dedicated","server_os":"Linux","password":true,"vac":true,"version":"7757534","steam_id":85568392925397960,"keywords":["cp","nocrits","nodmgspread","uncletopia"],"game_id":440,"stv_port":27066,"stv_name":"Uncletopia | Sydney | 6 | Community | STV","players":null},{"server_id":49,"name":"Uncletopia | Warsaw | 1 | All Maps","name_short":"waw-1","host":"waw-1.pl.uncletopia.com","port":27015,"enabled":true,"region":"eu","cc":"pl","latitude":52.2297,"longitude":21.017532,"reserved":0,"last_update":"0001-01-01T00:00:00Z","name_a2s":"","protocol":0,"map":"","folder":"","game":"","app_id":0,"player_count":0,"max_players":0,"Bots":0,"server_type":"","server_os":"","password":false,"vac":false,"version":"","steam_id":0,"keywords":null,"game_id":0,"stv_port":0,"stv_name":"","players":null},{"server_id":50,"name":"Uncletopia | Warsaw | 2 | All Maps","name_short":"waw-2","host":"waw-1.pl.uncletopia.com","port":27025,"enabled":true,"region":"eu","cc":"pl","latitude":52.2297,"longitude":21.017532,"reserved":0,"last_update":"0001-01-01T00:00:00Z","name_a2s":"Uncletopia | Warsaw | 2 | All Maps","protocol":17,"map":"cp_altitude","folder":"tf","game":"Team Fortress","app_id":440,"player_count":0,"max_players":24,"Bots":0,"server_type":"Dedicated","server_os":"Linux","password":true,"vac":true,"version":"7757534","steam_id":85568392925397851,"keywords":["cp","nocrits","nodmgspread","uncletopia"],"game_id":440,"stv_port":27026,"stv_name":"Uncletopia | Warsaw | 2 | All Maps | STV","players":null},{"server_id":51,"name":"Uncletopia | Warsaw | 3 | All Maps","name_short":"waw-3","host":"waw-1.pl.uncletopia.com","port":27035,"enabled":true,"region":"eu","cc":"pl","latitude":52.2297,"longitude":21.017532,"reserved":0,"last_update":"0001-01-01T00:00:00Z","name_a2s":"Uncletopia | Warsaw | 3 | All Maps","protocol":17,"map":"pl_pier","folder":"tf","game":"Team Fortress","app_id":440,"player_count":0,"max_players":24,"Bots":0,"server_type":"Dedicated","server_os":"Linux","password":true,"vac":true,"version":"7757534","steam_id":85568392925397852,"keywords":["nocrits","nodmgspread","payload","uncletopia"],"game_id":440,"stv_port":27036,"stv_name":"Uncletopia | Warsaw | 3 | All Maps | STV","players":null},{"server_id":52,"name":"Uncletopia | Warsaw | 4 | All Maps","name_short":"waw-4","host":"waw-1.pl.uncletopia.com","port":27045,"enabled":true,"region":"eu","cc":"pl","latitude":52.2297,"longitude":21.017532,"reserved":0,"last_update":"0001-01-01T00:00:00Z","name_a2s":"Uncletopia | Warsaw | 4 | All Maps","protocol":17,"map":"pl_snowycoast","folder":"tf","game":"Team Fortress","app_id":440,"player_count":0,"max_players":24,"Bots":0,"server_type":"Dedicated","server_os":"Linux","password":true,"vac":true,"version":"7757534","steam_id":85568392925397853,"keywords":["nocrits","nodmgspread","payload","uncletopia"],"game_id":440,"stv_port":27046,"stv_name":"Uncletopia | Warsaw | 4 | All Maps | STV","players":null},{"server_id":53,"name":"Uncletopia | Warsaw | 5 | Stopwatch Beta","name_short":"waw-5","host":"waw-1.pl.uncletopia.com","port":27055,"enabled":true,"region":"eu","cc":"pl","latitude":52.2297,"longitude":21.017532,"reserved":0,"last_update":"0001-01-01T00:00:00Z","name_a2s":"Uncletopia | Warsaw | 5 | Stopwatch Beta","protocol":17,"map":"pl_barnblitz","folder":"tf","game":"Team Fortress","app_id":440,"player_count":0,"max_players":24,"Bots":0,"server_type":"Dedicated","server_os":"Linux","password":true,"vac":true,"version":"7757534","steam_id":85568392925397854,"keywords":["nocrits","nodmgspread","payload","uncletopia"],"game_id":440,"stv_port":27056,"stv_name":"Uncletopia | Warsaw | 5 | Stopwatch Beta | STV","players":null},{"server_id":54,"name":"Uncletopia | Warsaw | 6 | Community","name_short":"waw-6","host":"waw-1.pl.uncletopia.com","port":27065,"enabled":true,"region":"eu","cc":"pl","latitude":52.2297,"longitude":21.017532,"reserved":0,"last_update":"0001-01-01T00:00:00Z","name_a2s":"Uncletopia | Warsaw | 6 | Community","protocol":17,"map":"pl_swiftwater_final1","folder":"tf","game":"Team Fortress","app_id":440,"player_count":0,"max_players":24,"Bots":0,"server_type":"Dedicated","server_os":"Linux","password":true,"vac":true,"version":"7757534","steam_id":85568392925397856,"keywords":["nocrits","nodmgspread","payload","uncletopia"],"game_id":440,"stv_port":27066,"stv_name":"Uncletopia | Warsaw | 6 | Community | STV","players":null}]}