{"status":true,"message":"","result":[{"server_id":9,"name":"Uncletopia | Atlanta | 1 | All Maps","name_short":"atl-1","host":"atl-1.us.uncletopia.com","port":27015,"enabled":true,"region":"us-east","cc":"us","latitude":33.753746,"longitude":-84.38633,"reserved":0,"last_update":"0001-01-01T00:00:00Z","name_a2s":"Uncletopia | Atlanta | 1 | All Maps","protocol":17,"map":"koth_cascade","folder":"tf","game":"Team Fortress","app_id":440,"player_count":1,"max_players":24,"Bots":0,"server_type":"Dedicated","server_os":"Linux","password":true,"vac":true,"version":"7757534","steam_id":85568392924469982,"keywords":["cp","nocrits","nodmgspread","uncletopia"],"game_id":440,"stv_port":27016,"stv_name":"Uncletopia | Atlanta | 1 | All Maps | STV","players":[{"user_id":6,"name":"Fredrick","steam_id":76561197981419964,"connected_time":7000000000,"state":"spawning","ping":58}]},{"server_id":104,"name":"Uncletopia | Atlanta | 2 | All Maps","name_short":"atl-2","host":"atl-1.us.uncletopia.com","port":27025,"enabled":true,"region":"us-east","cc":"us","latitude":33.753746,"longitude":-84.38633,"reserved":0,"last_update":"0001-01-01T00:00:00Z","name_a2s":"Uncletopia | Atlanta | 2 | All Maps","protocol":17,"map":"pl_snowycoast","folder":"tf","game":"Team Fortress","app_id":440,"player_count":0,"max_players":24,"Bots":0,"server_type":"Dedicated","server_os":"Linux","password":true,"vac":true,"version":"7757534","steam_id":85568392924469983,"keywords":["nocrits","nodmgspread","payload","uncletopia"],"game_id":440,"stv_port":27026,"stv_name":"Uncletopia | Atlanta | 2 | All Maps | STV","players":null},{"server_id":400,"name":"Uncletopia | Atlanta | 3 | Community","name_short":"atl-3","host":"atl-1.us.uncletopia.com","port":27035,"enabled":true,"region":"us-east","cc":"us","latitude":33.753746,"longitude":-84.38633,"reserved":0,"last_update":"0001-01-01T00:00:00Z","name_a2s":"Uncletopia | Atlanta | 3 | Community","protocol":17,"map":"cp_snakewater_final1","folder":"tf","game":"Team Fortress","app_id":440,"player_count":0,"max_players":24,"Bots":0,"server_type":"Dedicated","server_os":"Linux","password":true,"vac":true,"version":"7757534","steam_id":85568392924515187,"keywords":["cp","nocrits","nodmgspread","uncletopia"],"game_id":440,"stv_port":27036,"stv_name":"Uncletopia | Atlanta | 3 | Community | STV","players":null},{"server_id":401,"name":"Uncletopia | Atlanta | 4 | No Payload","name_short":"atl-4","host":"atl-1.us.uncletopia.com","port":27045,"enabled":true,"region":"us-east","cc":"us","latitude":33.753746,"longitude":-84.38633,"reserved":0,"last_update":"0001-01-01T00:00:00Z","name_a2s":"","protocol":0,"map":"","folder":"","game":"","app_id":0,"player_count":0,"max_players":0,"Bots":0,"server_type":"","server_os":"","password":false,"vac":false,"version":"","steam_id":0,"keywords":null,"game_id":0,"stv_port":0,"stv_name":"","players":null},{"server_id":2,"name":"Uncletopia | Chicago | 1 | All Maps","name_short":"chi-1","host":"chi-1.us.uncletopia.com","port":27015,"enabled":true,"region":"us-central","cc":"us","latitude":41.881832,"longitude":-87.62318,"reserved":0,"last_update":"0001-01-01T00:00:00Z","name_a2s":"Uncletopia | Chicago | 1 | All Maps","protocol":17,"map":"cp_sunshine","folder":"tf","game":"Team Fortress","app_id":440,"player_count":24,"max_players":24,"Bots":0,"server_type":"Dedicated","server_os":"Linux","password":true,"vac":true,"version":"7757534","steam_id":85568392924469984,"keywords":["cp","nocrits","nodmgspread","uncletopia"],"game_id":440,"stv_port":27016,"stv_name":"Uncletopia | Chicago | 1 | All Maps | STV","players":[{"user_id":121,"name":"zik","steam_id":76561198122186802,"connected_time":209000000000,"state":"active","ping":65},{"user_id":95,"name":"richard clock","steam_id":76561198048455671,"connected_time":2447000000000,"state":"active","ping":60},{"user_id":115,"name":"rontu","steam_id":76561199072955534,"connected_time":1154000000000,"state":"active","ping":54},{"user_id":98,"name":"hud_saytext_time 0","steam_id":76561198010327228,"connected_time":1928000000000,"state":"active","ping":172},{"user_id":122,"name":"Goyslop","steam_id":76561198142949496,"connected_time":198000000000,"state":"active","ping":42},{"user_id":124,"name":"abed","steam_id":76561198072856511,"connected_time":165000000000,"state":"active","ping":94},{"user_id":120,"name":"Epifiny","steam_id":76561198027958086,"connected_time":210000000000,"state":"active","ping":67},{"user_id":99,"name":"Stardust Birds","steam_id":76561198056816698,"connected_time":1864000000000,"state":"active","ping":69},{"user_id":125,"name":"Chaotic Rushu","steam_id":76561198170054407,"connected_time":137000000000,"state":"active","ping":289},{"user_id":127,"name":"jorjor wells","steam_id":76561199073429082,"connected_time":69000000000,"state":"active","ping":60},{"user_id":107,"name":"BrokenDoop","steam_id":76561198072954386,"connected_time":1217000000000,"state":"active","ping":82},{"user_id":111,"name":"Your Big Brother","steam_id":76561198196869867,"connected_time":1201000000000,"state":"active","ping":149},{"user_id":89,"name":"vladimirkrol","steam_id":76561198368440233,"connected_time":2634000000000,"state":"active","ping":168},{"user_id":52,"name":"Cuntslinger","steam_id":76561198303948269,"connected_time":4896000000000,"state":"active","ping":64},{"user_id":112,"name":"Keirb","steam_id":76561198027031567,"connected_time":1190000000000,"state":"active","ping":113},{"user_id":85,"name":"Goat","steam_id":76561198068447650,"connected_time":2790000000000,"state":"active","ping":61},{"user_id":119,"name":"Kiss Master","steam_id":76561198289572271,"connected_time":693000000000,"state":"active","ping":70},{"user_id":66,"name":"dog","steam_id":76561197999666480,"connected_time":4395000000000,"state":"active","ping":104},{"user_id":108,"name":"metalfan666","steam_id":76561198386344068,"connected_time":1214000000000,"state":"active","ping":71},{"user_id":69,"name":"Shiro","steam_id":76561197979915878,"connected_time":4218000000000,"state":"active","ping":150},{"user_id":117,"name":"The Honorable Sir Knish IV","steam_id":76561198427047948,"connected_time":967000000000,"state":"active","ping":75},{"user_id":109,"name":"Romo","steam_id":76561198243101572,"connected_time":1213000000000,"state":"active","ping":84},{"user_id":123,"name":"Drapph","steam_id":76561199384213314,"connected_time":196000000000,"state":"active","ping":58},{"user_id":113,"name":"vv","steam_id":76561198134813102,"connected_time":1189000000000,"state":"active","ping":60}]},{"server_id":106,"name":"Uncletopia | Chicago | 2 | All Maps","name_short":"chi-2","host":"chi-1.us.uncletopia.com","port":27025,"enabled":true,"region":"us-central","cc":"us","latitude":41.881832,"longitude":-87.62318,"reserved":0,"last_update":"0001-01-01T00:00:00Z","name_a2s":"Uncletopia | Chicago | 2 | All Maps","protocol":17,"map":"pl_swiftwater_final1","folder":"tf","game":"Team Fortress","app_id":440,"player_count":4,"max_players":24,"Bots":0,"server_type":"Dedicated","server_os":"Linux","password":true,"vac":true,"version":"7757534","steam_id":85568392924469985,"keywords":["nocrits","nodmgspread","payload","uncletopia"],"game_id":440,"stv_port":27026,"stv_name":"Uncletopia | Chicago | 2 | All Maps | STV","players":[{"user_id":3,"name":"Drewey","steam_id":76561199258609863,"connected_time":765000000000,"state":"active","ping":52},{"user_id":4,"name":"cashman33111","steam_id":76561199407254067,"connected_time":616000000000,"state":"active","ping":67},{"user_id":5,"name":"TJGSASQUATCH","steam_id":76561198077806921,"connected_time":566000000000,"state":"active","ping":72},{"user_id":6,"name":"Firedrakecheerful","steam_id":76561198141166902,"connected_time":411000000000,"state":"active","ping":46}]},{"server_id":402,"name":"Uncletopia | Chicago | 3 | All Maps","name_short":"chi-3","host":"chi-1.us.uncletopia.com","port":27035,"enabled":true,"region":"us-central","cc":"us","latitude":41.881832,"longitude":-87.62318,"reserved":0,"last_update":"0001-01-01T00:00:00Z","name_a2s":"Uncletopia | Chicago | 3 | All Maps","protocol":17,"map":"cp_sunshine","folder":"tf","game":"Team Fortress","app_id":440,"player_count":0,"max_players":24,"Bots":0,"server_type":"Dedicated","server_os":"Linux","password":true,"vac":true,"version":"7757534","steam_id":85568392924515191,"keywords":["cp","nocrits","nodmgspread","uncletopia"],"game_id":440,"stv_port":27036,"stv_name":"Uncletopia | Chicago | 3 | All Maps | STV","players":null},{"server_id":403,"name":"Uncletopia | Chicago | 4 | All Maps","name_short":"chi-4","host":"chi-1.us.uncletopia.com","port":27045,"enabled":true,"region":"us-central","cc":"us","latitude":41.881832,"longitude":-87.62318,"reserved":0,"last_update":"0001-01-01T00:00:00Z","name_a2s":"Uncletopia | Chicago | 4 | All Maps","protocol":17,"map":"koth_lakeside_final","folder":"tf","game":"Team Fortress","app_id":440,"player_count":0,"max_players":24,"Bots":0,"server_type":"Dedicated","server_os":"Linux","password":true,"vac":true,"version":"7757534","steam_id":85568392924515193,"keywords":["cp","nocrits","nodmgspread","uncletopia"],"game_id":440,"stv_port":27046,"stv_name":"Uncletopia | Chicago | 4 | All Maps | STV","players":null},{"server_id":36,"name":"Uncletopia | Chicago | 5 | All Maps","name_short":"chi-5","host":"chi-2.us.uncletopia.com","port":27015,"enabled":true,"region":"us-central","cc":"us","latitude":41.881832,"longitude":-87.62318,"reserved":0,"last_update":"0001-01-01T00:00:00Z","name_a2s":"Uncletopia | Chicago | 5 | All Maps","protocol":17,"map":"koth_cascade","folder":"tf","game":"Team Fortress","app_id":440,"player_count":0,"max_players":24,"Bots":0,"server_type":"Dedicated","server_os":"Linux","password":true,"vac":true,"version":"7757534","steam_id":85568392924866362,"keywords":["cp","nocrits","nodmgspread","uncletopia"],"game_id":440,"stv_port":27016,"stv_name":"Uncletopia | Chicago | 5 | All Maps | STV","players":null},{"server_id":37,"name":"Uncletopia | Chicago | 6 | All Maps","name_short":"chi-6","host":"chi-2.us.uncletopia.com","port":27025,"enabled":true,"region":"us-central","cc":"us","latitude":41.881832,"longitude":-87.62318,"reserved":0,"last_update":"0001-01-01T00:00:00Z","name_a2s":"Uncletopia | Chicago | 6 | All Maps","protocol":17,"map":"pl_upward","folder":"tf","game":"Team Fortress","app_id":440,"player_count":0,"max_players":24,"Bots":0,"server_type":"Dedicated","server_os":"Linux","password":true,"vac":true,"version":"7757534","steam_id":85568392924866363,"keywords":["nocrits","nodmgspread","payload","uncletopia"],"game_id":440,"stv_port":27026,"stv_name":"Uncletopia | Chicago | 6 | All Maps | STV","players":null},{"server_id":38,"name":"Uncletopia | Chicago | 7 | Stopwatch Beta","name_short":"chi-7","host":"chi-2.us.uncletopia.com","port":27035,"enabled":true,"region":"us-central","cc":"us","latitude":41.881832,"longitude":-87.62318,"reserved":0,"last_update":"0001-01-01T00:00:00Z","name_a2s":"Uncletopia | Chicago | 7 | Stopwatch Beta","protocol":17,"map":"pl_barnblitz","folder":"tf","game":"Team Fortress","app_id":440,"player_count":0,"max_players":24,"Bots":0,"server_type":"Dedicated","server_os":"Linux","password":true,"vac":true,"version":"7757534","steam_id":85568392924866364,"keywords":["nocrits","nodmgspread","payload","uncletopia"],"game_id":440,"stv_port":27036,"stv_name":"Uncletopia | Chicago | 7 | Stopwatch Beta | STV","players":null},{"server_id":39,"name":"Uncletopia | Chicago | 8 | Community","name_short":"chi-8","host":"chi-2.us.uncletopia.com","port":27045,"enabled":true,"region":"us-central","cc":"us","latitude":41.881832,"longitude":-87.62318,"reserved":0,"last_update":"0001-01-01T00:00:00Z","name_a2s":"Uncletopia | Chicago | 8 | Community","protocol":17,"map":"koth_cascade","folder":"tf","game":"Team Fortress","app_id":440,"player_count":0,"max_players":24,"Bots":0,"server_type":"Dedicated","server_os":"Linux","password":true,"vac":true,"version":"7757534","steam_id":85568392924866365,"keywords":["cp","nocrits","nodmgspread","uncletopia"],"game_id":440,"stv_port":27046,"stv_name":"Uncletopia | Chicago | 8 | Community | STV","players":null},{"server_id":8,"name":"Uncletopia | Dallas | 1 | All Maps","name_short":"dal-1","host":"dal-1.us.uncletopia.com","port":27015,"enabled":true,"region":"us-central","cc":"us","latitude":32.779167,"longitude":-96.80889,"reserved":0,"last_update":"0001-01-01T00:00:00Z","name_a2s":"Uncletopia | Dallas | 1 | All Maps","protocol":17,"map":"cp_snakewater_final1","folder":"tf","game":"Team Fortress","app_id":440,"player_count":9,"max_players":24,"Bots":0,"server_type":"Dedicated","server_os":"Linux","password":true,"vac":true,"version":"7757534","steam_id":85568392924469986,"keywords":["cp","nocrits","nodmgspread","uncletopia"],"game_id":440,"stv_port":27016,"stv_name":"Uncletopia | Dallas | 1 | All Maps | STV","players":[{"user_id":66,"name":"yobelle","steam_id":76561198109598697,"connected_time":4006000000000,"state":"active","ping":158},{"user_id":86,"name":"Mata","steam_id":76561199013450418,"connected_time":1225000000000,"state":"active","ping":173},{"user_id":90,"name":"Wren","steam_id":76561198071109787,"connected_time":611000000000,"state":"active","ping":100},{"user_id":64,"name":"gaming is for girls","steam_id":76561198240344950,"connected_time":4219000000000,"state":"active","ping":82},{"user_id":89,"name":"StormyBoyo","steam_id":76561198273482774,"connected_time":674000000000,"state":"active","ping":100},{"user_id":85,"name":"Pyro Of The Lake","steam_id":76561199149576897,"connected_time":1307000000000,"state":"active","ping":54},{"user_id":93,"name":"rive","steam_id":76561198216487540,"connected_time":450000000000,"state":"active","ping":90},{"user_id":94,"name":"comfy and cozy","steam_id":76561198860068961,"connected_time":429000000000,"state":"active","ping":75},{"user_id":95,"name":"Cynicalrage #TF2center","steam_id":76561198085805532,"connected_time":300000000000,"state":"active","ping":60}]},{"server_id":108,"name":"Uncletopia | Dallas | 2 | All Maps","name_short":"dal-2","host":"dal-1.us.uncletopia.com","port":27025,"enabled":true,"region":"us-central","cc":"us","latitude":32.779167,"longitude":-96.80889,"reserved":0,"last_update":"0001-01-01T00:00:00Z","name_a2s":"Uncletopia | Dallas | 2 | All Maps","protocol":17,"map":"pl_upward","folder":"tf","game":"Team Fortress","app_id":440,"player_count":0,"max_players":24,"Bots":0,"server_type":"Dedicated","server_os":"Linux","password":true,"vac":true,"version":"7757534","steam_id":85568392924469988,"keywords":["nocrits","nodmgspread","payload","uncletopia"],"game_id":440,"stv_port":27026,"stv_name":"Uncletopia | Dallas | 2 | All Maps | STV","players":null},{"server_id":5,"name":"Uncletopia | Frankfurt | 1 | All Maps","name_short":"frk-1","host":"frk-1.de.uncletopia.com","port":27015,"enabled":true,"region":"eu","cc":"de","latitude":50.110924,"longitude":8.682127,"reserved":0,"last_update":"0001-01-01T00:00:00Z","name_a2s":"Uncletopia | Frankfurt | 1 | All Maps","protocol":17,"map":"cp_gravelpit","folder":"tf","game":"Team Fortress","app_id":440,"player_count":24,"max_players":24,"Bots":0,"server_type":"Dedicated","server_os":"Linux","password":true,"vac":true,"version":"7757534","steam_id":85568392924469989,"keywords":["cp","nocrits","nodmgspread","uncletopia"],"game_id":440,"stv_port":27016,"stv_name":"Uncletopia | Frankfurt | 1 | All Maps | STV","players":[{"user_id":475,"name":"Kacperos12","steam_id":76561198044168268,"connected_time":297000000000,"state":"active","ping":91},{"user_id":434,"name":"Chen","steam_id":76561198440363619,"connected_time":2031000000000,"state":"active","ping":48},{"user_id":468,"name":"jShroom","steam_id":76561198833885769,"connected_time":473000000000,"state":"active","ping":70},{"user_id":430,"name":"Fleu","steam_id":76561198387966202,"connected_time":2133000000000,"state":"active","ping":61},{"user_id":461,"name":"Radegast the Brown","steam_id":76561198075489505,"connected_time":660000000000,"state":"active","ping":59},{"user_id":469,"name":"Osmo","steam_id":76561199286764992,"connected_time":415000000000,"state":"active","ping":74},{"user_id":470,"name":"Cosmetic brain","steam_id":76561198055936410,"connected_time":407000000000,"state":"active","ping":85},{"user_id":450,"name":"Huuvi","steam_id":76561198265451304,"connected_time":1344000000000,"state":"active","ping":75},{"user_id":477,"name":"Razorback from Team Fortress 2","steam_id":76561199214163032,"connected_time":127000000000,"state":"active","ping":86},{"user_id":454,"name":"bigboi_potato","steam_id":76561199136341471,"connected_time":922000000000,"state":"active","ping":78},{"user_id":437,"name":"vsakijmaksim","steam_id":76561199478364223,"connected_time":1860000000000,"state":"active","ping":112},{"user_id":471,"name":"Balkan Bulge","steam_id":76561198914610283,"connected_time":382000000000,"state":"active","ping":71},{"user_id":449,"name":"wasps","steam_id":76561198049485054,"connected_time":1354000000000,"state":"active","ping":88},{"user_id":398,"name":"Schelemago","steam_id":76561198074733578,"connected_time":4883000000000,"state":"active","ping":50},{"user_id":472,"name":"strideΔ","steam_id":76561199007826093,"connected_time":380000000000,"state":"active","ping":76},{"user_id":473,"name":"howabe","steam_id":76561197996486818,"connected_time":348000000000,"state":"active","ping":51},{"user_id":474,"name":"Tiki Man","steam_id":76561199274840987,"connected_time":347000000000,"state":"active","ping":93},{"user_id":458,"name":"I fucking hate this game","steam_id":76561198347336086,"connected_time":787000000000,"state":"active","ping":59},{"user_id":476,"name":"Денис Базука","steam_id":76561198835849082,"connected_time":296000000000,"state":"active","ping":94},{"user_id":445,"name":"DanteVeliki","steam_id":76561198159403183,"connected_time":1605000000000,"state":"active","ping":77},{"user_id":397,"name":"hideki","steam_id":76561198030728517,"connected_time":4932000000000,"state":"active","ping":39},{"user_id":455,"name":"Ｒ Ｏ Ｂ Ｂ Ｅ Ｒ Ｔ","steam_id":76561198134404830,"connected_time":921000000000,"state":"active","ping":143},{"user_id":478,"name":"yeldad","steam_id":76561198447264153,"connected_time":18000000000,"state":"active","ping":120},{"user_id":405,"name":"Julmuri","steam_id":76561198284843949,"connected_time":4499000000000,"state":"active","ping":88}]},{"server_id":110,"name":"Uncletopia | Frankfurt | 2 | All Maps","name_short":"frk-2","host":"frk-1.de.uncletopia.com","port":27025,"enabled":true,"region":"eu","cc":"de","latitude":50.110924,"longitude":8.682127,"reserved":0,"last_update":"0001-01-01T00:00:00Z","name_a2s":"Uncletopia | Frankfurt | 2 | All Maps","protocol":17,"map":"koth_cascade","folder":"tf","game":"Team Fortress","app_id":440,"player_count":0,"max_players":24,"Bots":0,"server_type":"Dedicated","server_os":"Linux","password":true,"vac":true,"version":"7757534","steam_id":85568392924469990,"keywords":["cp","nocrits","nodmgspread","uncletopia"],"game_id":440,"stv_port":27026,"stv_name":"Uncletopia | Frankfurt | 2 | All Maps | STV","players":null},{"server_id":308,"name":"Uncletopia | Frankfurt | 3 | All Maps","name_short":"frk-3","host":"frk-1.de.uncletopia.com","port":27035,"enabled":true,"region":"eu","cc":"de","latitude":50.110924,"longitude":8.682127,"reserved":0,"last_update":"0001-01-01T00:00:00Z","name_a2s":"Uncletopia | Frankfurt | 3 | All Maps","protocol":17,"map":"koth_lakeside_final","folder":"tf","game":"Team Fortress","app_id":440,"player_count":0,"max_players":24,"Bots":0,"server_type":"Dedicated","server_os":"Linux","password":true,"vac":true,"version":"7757534","steam_id":85568392924504274,"keywords":["cp","nocrits","nodmgspread","uncletopia"],"game_id":440,"stv_port":27036,"stv_name":"Uncletopia | Frankfurt | 3 | All Maps | STV","players":null},{"server_id":309,"name":"Uncletopia | Frankfurt | 4 | All Maps","name_short":"frk-4","host":"frk-1.de.uncletopia.com","port":27045,"enabled":true,"region":"eu","cc":"de","latitude":50.110924,"longitude":8.682127,"reserved":0,"last_update":"0001-01-01T00:00:00Z","name_a2s":"Uncletopia | Frankfurt | 4 | All Maps","protocol":17,"map":"koth_viaduct","folder":"tf","game":"Team Fortress","app_id":440,"player_count":0,"max_players":24,"Bots":0,"server_type":"Dedicated","server_os":"Linux","password":true,"vac":true,"version":"7757534","steam_id":85568392924504275,"keywords":["cp","nocrits","nodmgspread","uncletopia"],"game_id":440,"stv_port":27046,"stv_name":"Uncletopia | Frankfurt | 4 | All Maps | STV","players":null},{"server_id":310,"name":"Uncletopia | Frankfurt | 5 | All Maps","name_short":"frk-5","host":"frk-1.de.uncletopia.com","port":27055,"enabled":true,"region":"eu","cc":"de","latitude":50.110924,"longitude":8.682127,"reserved":0,"last_update":"0001-01-01T00:00:00Z","name_a2s":"Uncletopia | Frankfurt | 5 | All Maps","protocol":17,"map":"koth_lakeside_final","folder":"tf","game":"Team Fortress","app_id":440,"player_count":0,"max_players":24,"Bots":0,"server_type":"Dedicated","server_os":"Linux","password":true,"vac":true,"version":"7757534","steam_id":85568392924504277,"keywords":["cp","nocrits","nodmgspread","uncletopia"],"game_id":440,"stv_port":27056,"stv_name":"Uncletopia | Frankfurt | 5 | All Maps | STV","players":null},{"server_id":311,"name":"Uncletopia | Frankfurt | 6 | All Maps","name_short":"frk-6","host":"frk-1.de.uncletopia.com","port":27065,"enabled":true,"region":"eu","cc":"de","latitude":50.110924,"longitude":8.682127,"reserved":0,"last_update":"0001-01-01T00:00:00Z","name_a2s":"Uncletopia | Frankfurt | 6 | All Maps","protocol":17,"map":"pl_snowycoast","folder":"tf","game":"Team Fortress","app_id":440,"player_count":0,"max_players":24,"Bots":0,"server_type":"Dedicated","server_os":"Linux","password":true,"vac":true,"version":"7757534","steam_id":85568392924504278,"keywords":["nocrits","nodmgspread","payload","uncletopia"],"game_id":440,"stv_port":27066,"stv_name":"Uncletopia | Frankfurt | 6 | All Maps | STV","players":null},{"server_id":23,"name":"Uncletopia | Frankfurt | 7 | Stopwatch Beta","name_short":"frk-7","host":"frk-1.de.uncletopia.com","port":27075,"enabled":true,"region":"eu","cc":"de","latitude":50.110924,"longitude":8.682127,"reserved":0,"last_update":"0001-01-01T00:00:00Z","name_a2s":"Uncletopia | Frankfurt | 7 | Stopwatch Beta","protocol":17,"map":"cp_sunshine","folder":"tf","game":"Team Fortress","app_id":440,"player_count":0,"max_players":24,"Bots":0,"server_type":"Dedicated","server_os":"Linux","password":true,"vac":true,"version":"7757534","steam_id":85568392924742827,"keywords":["cp","nocrits","nodmgspread","uncletopia"],"game_id":440,"stv_port":27076,"stv_name":"Uncletopia | Frankfurt | 7 | Stopwatch Beta | STV","players":null},{"server_id":24,"name":"Uncletopia | Frankfurt | 8 | Community","name_short":"frk-8","host":"frk-1.de.uncletopia.com","port":27085,"enabled":true,"region":"eu","cc":"de","latitude":50.110924,"longitude":8.682127,"reserved":0,"last_update":"0001-01-01T00:00:00Z","name_a2s":"Uncletopia | Frankfurt | 8 | Community","protocol":17,"map":"koth_lakeside_final","folder":"tf","game":"Team Fortress","app_id":440,"player_count":0,"max_players":24,"Bots":0,"server_type":"Dedicated","server_os":"Linux","password":true,"vac":true,"version":"7757534","steam_id":85568392924742828,"keywords":["cp","nocrits","nodmgspread","uncletopia"],"game_id":440,"stv_port":27086,"stv_name":"Uncletopia | Frankfurt | 8 | Community | STV","players":null},{"server_id":202,"name":"Uncletopia | Hong Kong | 1 | All Maps","name_short":"hgk-1","host":"hgk-1.hk.uncletopia.com","port":27015,"enabled":true,"region":"asia","cc":"hk","latitude":22.302711,"longitude":114.177216,"reserved":0,"last_update":"0001-01-01T00:00:00Z","name_a2s":"Uncletopia | Hong Kong | 1 | All Maps","protocol":17,"map":"pl_barnblitz","folder":"tf","game":"Team Fortress","app_id":440,"player_count":21,"max_players":24,"Bots":0,"server_type":"Dedicated","server_os":"Linux","password":true,"vac":true,"version":"7757534","steam_id":85568392924494504,"keywords":["nocrits","nodmgspread","payload","uncletopia"],"game_id":440,"stv_port":27016,"stv_name":"Uncletopia | Hong Kong | 1 | All Maps | STV","players":[{"user_id":137,"name":"RP birdzz","steam_id":76561198318077734,"connected_time":5297000000000,"state":"active","ping":60},{"user_id":154,"name":"Stan","steam_id":76561198065671595,"connected_time":3888000000000,"state":"active","ping":30},{"user_id":180,"name":"Kek","steam_id":76561199004616229,"connected_time":1254000000000,"state":"active","ping":94},{"user_id":169,"name":"Doctor!","steam_id":76561198041851238,"connected_time":2028000000000,"state":"active","ping":110},{"user_id":162,"name":"쿠키","steam_id":76561197997220367,"connected_time":2632000000000,"state":"active","ping":41},{"user_id":165,"name":"Wizzkill","steam_id":76561199131526926,"connected_time":2222000000000,"state":"active","ping":77},{"user_id":144,"name":"光头强","steam_id":76561198045255591,"connected_time":4689000000000,"state":"active","ping":113},{"user_id":191,"name":"Battery","steam_id":76561198004583032,"connected_time":4000000000,"state":"spawning","ping":89},{"user_id":149,"name":"Prussian","steam_id":76561198974248745,"connected_time":3924000000000,"state":"active","ping":73},{"user_id":127,"name":"Stupid B","steam_id":76561198131423270,"connected_time":5885000000000,"state":"active","ping":127},{"user_id":181,"name":"Giyu","steam_id":76561198299150410,"connected_time":1252000000000,"state":"active","ping":128},{"user_id":168,"name":"ObscuroLucem","steam_id":76561198875037943,"connected_time":2089000000000,"state":"active","ping":86},{"user_id":175,"name":"Othopeus","steam_id":76561198283534382,"connected_time":1310000000000,"state":"active","ping":103},{"user_id":171,"name":"母の肉団子@hao123.com","steam_id":76561198069561896,"connected_time":1345000000000,"state":"active","ping":31},{"user_id":189,"name":"lemonlmao69","steam_id":76561199016539523,"connected_time":635000000000,"state":"active","ping":88},{"user_id":184,"name":"instant karma","steam_id":76561198027307933,"connected_time":1019000000000,"state":"active","ping":54},{"user_id":174,"name":"Banana Milk","steam_id":76561198005156257,"connected_time":1321000000000,"state":"active","ping":140},{"user_id":159,"name":"junbi OK","steam_id":76561198116387218,"connected_time":3137000000000,"state":"active","ping":95},{"user_id":188,"name":"Arhhh","steam_id":76561198264067635,"connected_time":720000000000,"state":"active","ping":99},{"user_id":177,"name":"Bepo","steam_id":76561198136685157,"connected_time":1305000000000,"state":"active","ping":54},{"user_id":187,"name":"蠢脸骑士脸不蠢","steam_id":76561198422372840,"connected_time":855000000000,"state":"active","ping":48}]},{"server_id":1,"name":"Uncletopia | Los Angeles | 1 | All Maps","name_short":"lax-1","host":"lax-1.us.uncletopia.com","port":27015,"enabled":true,"region":"us-west","cc":"us","latitude":33.94279,"longitude":-118.41004,"reserved":0,"last_update":"0001-01-01T00:00:00Z","name_a2s":"Uncletopia | Los Angeles | 1 | All Maps","protocol":17,"map":"koth_lakeside_final","folder":"tf","game":"Team Fortress","app_id":440,"player_count":0,"max_players":24,"Bots":0,"server_type":"Dedicated","server_os":"Linux","password":true,"vac":true,"version":"7757534","steam_id":85568392924469991,"keywords":["cp","nocrits","nodmgspread","uncletopia"],"game_id":440,"stv_port":27016,"stv_name":"Uncletopia | Los Angeles | 1 | All Maps | STV","players":null},{"server_id":112,"name":"Uncletopia | Los Angeles | 2 | All Maps","name_short":"lax-2","host":"lax-1.us.uncletopia.com","port":27025,"enabled":true,"region":"us-west","cc":"us","latitude":33.94279,"longitude":-118.41004,"reserved":0,"last_update":"0001-01-01T00:00:00Z","name_a2s":"Uncletopia | Los Angeles | 2 | All Maps","protocol":17,"map":"pl_badwater","folder":"tf","game":"Team Fortress","app_id":440,"player_count":0,"max_players":24,"Bots":0,"server_type":"Dedicated","server_os":"Linux","password":true,"vac":true,"version":"7757534","steam_id":85568392924469992,"keywords":["nocrits","nodmgspread","payload","uncletopia"],"game_id":440,"stv_port":27026,"stv_name":"Uncletopia | Los Angeles | 2 | All Maps | STV","players":null},{"server_id":324,"name":"Uncletopia | Los Angeles | 3 | All Maps","name_short":"lax-3","host":"lax-1.us.uncletopia.com","port":27035,"enabled":true,"region":"us-west","cc":"us","latitude":33.94279,"longitude":-118.41004,"reserved":0,"last_update":"0001-01-01T00:00:00Z","name_a2s":"Uncletopia | Los Angeles | 3 | All Maps","protocol":17,"map":"pl_barnblitz","folder":"tf","game":"Team Fortress","app_id":440,"player_count":0,"max_players":24,"Bots":0,"server_type":"Dedicated","server_os":"Linux","password":true,"vac":true,"version":"7757534","steam_id":85568392924510198,"keywords":["nocrits","nodmgspread","payload","uncletopia"],"game_id":440,"stv_port":27036,"stv_name":"Uncletopia | Los Angeles | 3 | All Maps | STV","players":null},{"server_id":25,"name":"Uncletopia | Los Angeles | 4 | Stopwatch Beta","name_short":"lax-4","host":"lax-1.us.uncletopia.com","port":27045,"enabled":true,"region":"us-west","cc":"us","latitude":33.94279,"longitude":-118.41004,"reserved":0,"last_update":"0001-01-01T00:00:00Z","name_a2s":"Uncletopia | Los Angeles | 4 | Stopwatch Beta","protocol":17,"map":"pl_swiftwater_final1","folder":"tf","game":"Team Fortress","app_id":440,"player_count":0,"max_players":24,"Bots":0,"server_type":"Dedicated","server_os":"Linux","password":true,"vac":true,"version":"7757534","steam_id":85568392924510199,"keywords":["nocrits","nodmgspread","payload","uncletopia"],"game_id":440,"stv_port":27046,"stv_name":"Uncletopia | Los Angeles | 4 | Stopwatch Beta | STV","players":null},{"server_id":11,"name":"Uncletopia | London | 1 | All Maps","name_short":"lon-1","host":"lon-1.uk.uncletopia.com","port":27015,"enabled":true,"region":"eu","cc":"gb","latitude":51.509865,"longitude":-0.118092,"reserved":0,"last_update":"0001-01-01T00:00:00Z","name_a2s":"Uncletopia | London | 1 | All Maps","protocol":17,"map":"koth_lakeside_final","folder":"tf","game":"Team Fortress","app_id":440,"player_count":1,"max_players":24,"Bots":0,"server_type":"Dedicated","server_os":"Linux","password":true,"vac":true,"version":"7757534","steam_id":85568392924367362,"keywords":["cp","nocrits","nodmgspread","uncletopia"],"game_id":440,"stv_port":27016,"stv_name":"Uncletopia | London | 1 | All Maps | STV","players":null},{"server_id":114,"name":"Uncletopia | London | 2 | All Maps","name_short":"lon-2","host":"lon-1.uk.uncletopia.com","port":27025,"enabled":true,"region":"eu","cc":"gb","latitude":51.509865,"longitude":-0.118092,"reserved":0,"last_update":"0001-01-01T00:00:00Z","name_a2s":"Uncletopia | London | 2 | All Maps","protocol":17,"map":"pl_frontier_final","folder":"tf","game":"Team Fortress","app_id":440,"player_count":24,"max_players":24,"Bots":0,"server_type":"Dedicated","server_os":"Linux","password":true,"vac":true,"version":"7757534","steam_id":85568392924470941,"keywords":["nocrits","nodmgspread","payload","uncletopia"],"game_id":440,"stv_port":27026,"stv_name":"Uncletopia | London | 2 | All Maps | STV","players":[{"user_id":21,"name":"VanderVof","steam_id":76561198068908074,"connected_time":4373000000000,"state":"active","ping":54},{"user_id":54,"name":"Greg","steam_id":76561198014131702,"connected_time":1969000000000,"state":"active","ping":123},{"user_id":20,"name":"PEEPEEPOOPOOGOOBER JR","steam_id":76561198049687408,"connected_time":4427000000000,"state":"active","ping":38},{"user_id":70,"name":"Flare","steam_id":76561198039098320,"connected_time":633000000000,"state":"active","ping":54},{"user_id":76,"name":"THICCOMODE","steam_id":76561198108875162,"connected_time":235000000000,"state":"active","ping":54},{"user_id":77,"name":"Croy","steam_id":76561197972552579,"connected_time":106000000000,"state":"active","ping":45},{"user_id":23,"name":"rhean\u002621","steam_id":76561198389400021,"connected_time":4359000000000,"state":"active","ping":45},{"user_id":45,"name":"cazador","steam_id":76561198123096922,"connected_time":3090000000000,"state":"active","ping":103},{"user_id":17,"name":"Thing","steam_id":76561197997904403,"connected_time":4535000000000,"state":"active","ping":106},{"user_id":78,"name":"Sippie","steam_id":76561198130393388,"connected_time":64000000000,"state":"active","ping":63},{"user_id":57,"name":"Rat head","steam_id":76561198184360615,"connected_time":1550000000000,"state":"active","ping":105},{"user_id":60,"name":"Dan86130","steam_id":76561199187190436,"connected_time":1501000000000,"state":"active","ping":69},{"user_id":59,"name":"nekfresh","steam_id":76561198074821089,"connected_time":1515000000000,"state":"active","ping":45},{"user_id":61,"name":"dafydd","steam_id":76561198052200325,"connected_time":1492000000000,"state":"active","ping":90},{"user_id":48,"name":".::[SerafeTTiN]::.","steam_id":76561198009471724,"connected_time":2654000000000,"state":"active","ping":95},{"user_id":31,"name":"Труп Володя","steam_id":76561198035718457,"connected_time":4031000000000,"state":"active","ping":96},{"user_id":50,"name":"SCRAMMMBLED","steam_id":76561197998307746,"connected_time":2187000000000,"state":"active","ping":74},{"user_id":71,"name":"Heisenbruh","steam_id":76561198072828563,"connected_time":595000000000,"state":"active","ping":47},{"user_id":62,"name":"Boyko Borisov","steam_id":76561199170010907,"connected_time":1442000000000,"state":"active","ping":95},{"user_id":36,"name":"$nØw","steam_id":76561198238781028,"connected_time":3944000000000,"state":"active","ping":104},{"user_id":37,"name":"Tree Enjoyer","steam_id":76561198119372509,"connected_time":3936000000000,"state":"active","ping":58},{"user_id":63,"name":",,","steam_id":76561199258890641,"connected_time":1441000000000,"state":"active","ping":75},{"user_id":55,"name":"ANEY☆ The Music Man","steam_id":76561198074404564,"connected_time":1968000000000,"state":"active","ping":77},{"user_id":75,"name":"leminsc8","steam_id":76561198825084995,"connected_time":251000000000,"state":"active","ping":49}]},{"server_id":320,"name":"Uncletopia | London | 3 | All Maps","name_short":"lon-3","host":"lon-1.uk.uncletopia.com","port":27035,"enabled":true,"region":"eu","cc":"gb","latitude":51.509865,"longitude":-0.118092,"reserved":0,"last_update":"0001-01-01T00:00:00Z","name_a2s":"Uncletopia | London | 3 | All Maps","protocol":17,"map":"pl_pier","folder":"tf","game":"Team Fortress","app_id":440,"player_count":19,"max_players":24,"Bots":0,"server_type":"Dedicated","server_os":"Linux","password":true,"vac":true,"version":"7757534","steam_id":85568392924510192,"keywords":["nocrits","nodmgspread","payload","uncletopia"],"game_id":440,"stv_port":27036,"stv_name":"Uncletopia | London | 3 | All Maps | STV","players":[{"user_id":342,"name":"[P-roc] Cmm Bert","steam_id":76561198016658674,"connected_time":3643000000000,"state":"active","ping":60},{"user_id":407,"name":"SpilledMilk","steam_id":76561198174123971,"connected_time":81000000000,"state":"active","ping":58},{"user_id":389,"name":"Lukas","steam_id":76561198009118452,"connected_time":758000000000,"state":"active","ping":67},{"user_id":391,"name":"TheFox.tf","steam_id":76561197996851702,"connected_time":625000000000,"state":"active","ping":64},{"user_id":382,"name":"Loop_Cat","steam_id":76561199045902145,"connected_time":1185000000000,"state":"active","ping":125},{"user_id":393,"name":"dream-mule","steam_id":76561198943694656,"connected_time":525000000000,"state":"active","ping":145},{"user_id":396,"name":"Alice can't hit pipes","steam_id":76561198052410860,"connected_time":283000000000,"state":"active","ping":142},{"user_id":385,"name":"Dr. Mike","steam_id":76561197991205793,"connected_time":1008000000000,"state":"active","ping":76},{"user_id":408,"name":"dimitrij_6ix_god","steam_id":76561199023275543,"connected_time":80000000000,"state":"active","ping":77},{"user_id":387,"name":"bibib17","steam_id":76561198143319217,"connected_time":826000000000,"state":"active","ping":79},{"user_id":397,"name":"Labia in Fishnets","steam_id":76561198061382104,"connected_time":276000000000,"state":"active","ping":58},{"user_id":398,"name":"BONK-TEC!","steam_id":76561198272667029,"connected_time":276000000000,"state":"active","ping":54},{"user_id":410,"name":"weleenkerk","steam_id":76561198143969491,"connected_time":0,"state":"connecting","ping":0},{"user_id":400,"name":"Slim3rs","steam_id":76561199088010585,"connected_time":260000000000,"state":"active","ping":211},{"user_id":401,"name":"TEMMIE!!!","steam_id":76561198067414021,"connected_time":238000000000,"state":"active","ping":60},{"user_id":402,"name":"Pingus","steam_id":76561198164880756,"connected_time":235000000000,"state":"active","ping":71},{"user_id":404,"name":"bart","steam_id":76561198025395216,"connected_time":209000000000,"state":"active","ping":65},{"user_id":405,"name":"SaltyCupcakes","steam_id":76561198256386417,"connected_time":205000000000,"state":"active","ping":42},{"user_id":406,"name":"peaazi","steam_id":76561198170622207,"connected_time":202000000000,"state":"active","ping":67}]},{"server_id":321,"name":"Uncletopia | London | 4 | All Maps","name_short":"lon-4","host":"lon-1.uk.uncletopia.com","port":27045,"enabled":true,"region":"eu","cc":"gb","latitude":51.509865,"longitude":-0.118092,"reserved":0,"last_update":"0001-01-01T00:00:00Z","name_a2s":"Uncletopia | London | 4 | All Maps","protocol":17,"map":"cp_dustbowl","folder":"tf","game":"Team Fortress","app_id":440,"player_count":0,"max_players":24,"Bots":0,"server_type":"Dedicated","server_os":"Linux","password":true,"vac":true,"version":"7757534","steam_id":85568392924510193,"keywords":["cp","nocrits","nodmgspread","uncletopia"],"game_id":440,"stv_port":27046,"stv_name":"Uncletopia | London | 4 | All Maps | STV","players":null},{"server_id":21,"name":"Uncletopia | London | 5 | All Maps","name_short":"lon-5","host":"lon-1.uk.uncletopia.com","port":27055,"enabled":true,"region":"eu","cc":"gb","latitude":51.509865,"longitude":-0.118092,"reserved":0,"last_update":"0001-01-01T00:00:00Z","name_a2s":"Uncletopia | London | 5 | All Maps","protocol":17,"map":"pl_barnblitz","folder":"tf","game":"Team Fortress","app_id":440,"player_count":24,"max_players":24,"Bots":0,"server_type":"Dedicated","server_os":"Linux","password":true,"vac":true,"version":"7757534","steam_id":85568392924742829,"keywords":["nocrits","nodmgspread","payload","uncletopia"],"game_id":440,"stv_port":27056,"stv_name":"Uncletopia | London | 5 | All Maps | STV","players":[{"user_id":62,"name":"MORTAL-WOMBAT","steam_id":76561198101581746,"connected_time":1082000000000,"state":"active","ping":64},{"user_id":63,"name":"TK.TK","steam_id":76561199384193338,"connected_time":1072000000000,"state":"active","ping":74},{"user_id":64,"name":"MR.CRAB","steam_id":76561198329833659,"connected_time":1067000000000,"state":"active","ping":81},{"user_id":87,"name":"booty jiggae","steam_id":76561198089026129,"connected_time":35000000000,"state":"active","ping":117},{"user_id":85,"name":"Marky","steam_id":76561199474556920,"connected_time":177000000000,"state":"active","ping":100},{"user_id":66,"name":"on1on (fried)","steam_id":76561197995304137,"connected_time":1054000000000,"state":"active","ping":70},{"user_id":84,"name":"no1-","steam_id":76561198067524060,"connected_time":206000000000,"state":"active","ping":71},{"user_id":13,"name":"Lord Giacomo","steam_id":76561198039352216,"connected_time":2876000000000,"state":"active","ping":52},{"user_id":14,"name":"Strafely","steam_id":76561199242567438,"connected_time":2807000000000,"state":"active","ping":67},{"user_id":51,"name":"Ladi","steam_id":76561198047735194,"connected_time":1809000000000,"state":"active","ping":73},{"user_id":54,"name":"Gamebuddy","steam_id":76561198281463084,"connected_time":1712000000000,"state":"active","ping":144},{"user_id":86,"name":"Doctor Marijuana","steam_id":76561198288289879,"connected_time":131000000000,"state":"active","ping":47},{"user_id":74,"name":"Undertaker","steam_id":76561198364121077,"connected_time":527000000000,"state":"active","ping":97},{"user_id":45,"name":"Kowakum","steam_id":76561197998125950,"connected_time":2122000000000,"state":"active","ping":114},{"user_id":75,"name":"Hyperek","steam_id":76561198130797464,"connected_time":488000000000,"state":"active","ping":83},{"user_id":46,"name":"Dr.Cranium","steam_id":76561197992726926,"connected_time":2113000000000,"state":"active","ping":123},{"user_id":58,"name":"uncool","steam_id":76561198083615367,"connected_time":1330000000000,"state":"active","ping":39},{"user_id":76,"name":"bAdmon","steam_id":76561197961785793,"connected_time":478000000000,"state":"active","ping":59},{"user_id":68,"name":"senior pomidor","steam_id":76561198123659806,"connected_time":1011000000000,"state":"active","ping":101},{"user_id":67,"name":"Buriel","steam_id":76561199086856364,"connected_time":1053000000000,"state":"active","ping":75},{"user_id":33,"name":"TryX","steam_id":76561199356781475,"connected_time":2420000000000,"state":"active","ping":74},{"user_id":61,"name":"HugeE*venomxhairs","steam_id":76561198245495152,"connected_time":1177000000000,"state":"active","ping":64},{"user_id":80,"name":"Canis[Magnus]Pectus","steam_id":76561198363775072,"connected_time":245000000000,"state":"active","ping":133},{"user_id":82,"name":"Ran33","steam_id":76561197991474499,"connected_time":232000000000,"state":"active","ping":94}]},{"server_id":22,"name":"Uncletopia | London | 6 | All Maps","name_short":"lon-6","host":"lon-1.uk.uncletopia.com","port":27065,"enabled":true,"region":"eu","cc":"gb","latitude":51.509865,"longitude":-0.118092,"reserved":0,"last_update":"0001-01-01T00:00:00Z","name_a2s":"Uncletopia | London | 6 | All Maps","protocol":17,"map":"pl_barnblitz","folder":"tf","game":"Team Fortress","app_id":440,"player_count":0,"max_players":24,"Bots":0,"server_type":"Dedicated","server_os":"Linux","password":true,"vac":true,"version":"7757534","steam_id":85568392924742830,"keywords":["nocrits","nodmgspread","payload","uncletopia"],"game_id":440,"stv_port":27066,"stv_name":"Uncletopia | London | 6 | All Maps | STV","players":null},{"server_id":40,"name":"Uncletopia | London | 7 | No Payload","name_short":"lon-7","host":"lon-1.uk.uncletopia.com","port":27075,"enabled":true,"region":"eu","cc":"gb","latitude":51.509865,"longitude":-0.118092,"reserved":0,"last_update":"0001-01-01T00:00:00Z","name_a2s":"Uncletopia | London | 7 | No Payload","protocol":17,"map":"cp_dustbowl","folder":"tf","game":"Team Fortress","app_id":440,"player_count":24,"max_players":24,"Bots":0,"server_type":"Dedicated","server_os":"Linux","password":true,"vac":true,"version":"7757534","steam_id":85568392924964314,"keywords":["cp","nocrits","nodmgspread","uncletopia"],"game_id":440,"stv_port":27076,"stv_name":"Uncletopia | London | 7 | No Payload | STV","players":[{"user_id":164,"name":"Labial","steam_id":76561198385163046,"connected_time":800000000000,"state":"active","ping":44},{"user_id":165,"name":"piping hot","steam_id":76561198011692496,"connected_time":782000000000,"state":"active","ping":74},{"user_id":152,"name":"jj","steam_id":76561198079200985,"connected_time":1517000000000,"state":"active","ping":59},{"user_id":120,"name":"lark","steam_id":76561198091724522,"connected_time":4541000000000,"state":"active","ping":47},{"user_id":135,"name":"Rizziologist","steam_id":76561198089003514,"connected_time":2549000000000,"state":"active","ping":59},{"user_id":151,"name":"Csengo Zoli","steam_id":76561198111407227,"connected_time":1857000000000,"state":"active","ping":47},{"user_id":166,"name":"emesis blue gave me nightmares","steam_id":76561198133834262,"connected_time":765000000000,"state":"active","ping":174},{"user_id":171,"name":"Grande1900","steam_id":76561198238729656,"connected_time":680000000000,"state":"active","ping":135},{"user_id":157,"name":"strahphic","steam_id":76561199279295106,"connected_time":1100000000000,"state":"active","ping":120},{"user_id":160,"name":"Pitpit","steam_id":76561198005342133,"connected_time":994000000000,"state":"active","ping":44},{"user_id":168,"name":"Pariton Demolitore Edizione","steam_id":76561199122531372,"connected_time":741000000000,"state":"active","ping":77},{"user_id":178,"name":"ShaDen 16Rus","steam_id":76561197989744083,"connected_time":24000000000,"state":"active","ping":111},{"user_id":159,"name":"Emma","steam_id":76561198076724979,"connected_time":1048000000000,"state":"active","ping":75},{"user_id":114,"name":"Stoic","steam_id":76561199088506542,"connected_time":5255000000000,"state":"active","ping":72},{"user_id":142,"name":"Spy has a gun TF2","steam_id":76561199165355017,"connected_time":2373000000000,"state":"active","ping":112},{"user_id":177,"name":"CNTRL","steam_id":76561199125803827,"connected_time":396000000000,"state":"active","ping":70},{"user_id":144,"name":"Delab Le Fou","steam_id":76561198846356572,"connected_time":2318000000000,"state":"active","ping":95},{"user_id":175,"name":"Broplet.","steam_id":76561198818762423,"connected_time":502000000000,"state":"active","ping":104},{"user_id":176,"name":"Zizman","steam_id":76561198446562910,"connected_time":410000000000,"state":"active","ping":141},{"user_id":105,"name":"MLG Peridot","steam_id":76561198069780233,"connected_time":5631000000000,"state":"active","ping":49},{"user_id":146,"name":"something","steam_id":76561198198581615,"connected_time":2291000000000,"state":"active","ping":76},{"user_id":122,"name":"Soldier Boy","steam_id":76561198042593027,"connected_time":4329000000000,"state":"active","ping":101},{"user_id":170,"name":"hshs","steam_id":76561198314562513,"connected_time":692000000000,"state":"active","ping":72},{"user_id":172,"name":"Pylori","steam_id":76561197993858197,"connected_time":673000000000,"state":"active","ping":45}]},{"server_id":41,"name":"Uncletopia | London | 8 | Community","name_short":"lon-8","host":"lon-1.uk.uncletopia.com","port":27085,"enabled":true,"region":"eu","cc":"gb","latitude":51.509865,"longitude":-0.118092,"reserved":0,"last_update":"0001-01-01T00:00:00Z","name_a2s":"Uncletopia | London | 8 | Community","protocol":17,"map":"pl_barnblitz","folder":"tf","game":"Team Fortress","app_id":440,"player_count":0,"max_players":24,"Bots":0,"server_type":"Dedicated","server_os":"Linux","password":true,"vac":true,"version":"7757534","steam_id":85568392924964315,"keywords":["nocrits","nodmgspread","payload","uncletopia"],"game_id":440,"stv_port":27086,"stv_name":"Uncletopia | London | 8 | Community | STV","players":null},{"server_id":300,"name":"Uncletopia | Montréal | 1 | All Maps","name_short":"mtl-1","host":"mtl-1.ca.uncletopia.com","port":27015,"enabled":true,"region":"us-east","cc":"ca","latitude":45.50889,"longitude":-73.56167,"reserved":0,"last_update":"0001-01-01T00:00:00Z","name_a2s":"Uncletopia | Montréal | 1 | All Maps","protocol":17,"map":"pl_upward","folder":"tf","game":"Team Fortress","app_id":440,"player_count":0,"max_players":24,"Bots":0,"server_type":"Dedicated","server_os":"Linux","password":true,"vac":true,"version":"7757534","steam_id":85568392924500087,"keywords":["nocrits","nodmgspread","payload","uncletopia"],"game_id":440,"stv_port":27016,"stv_name":"Uncletopia | Montréal | 1 | All Maps | STV","players":null},{"server_id":301,"name":"Uncletopia | Montréal | 2 | All Maps","name_short":"mtl-2","host":"mtl-1.ca.uncletopia.com","port":27025,"enabled":true,"region":"us-east","cc":"ca","latitude":45.50889,"longitude":-73.56167,"reserved":0,"last_update":"0001-01-01T00:00:00Z","name_a2s":"Uncletopia | Montréal | 2 | All Maps","protocol":17,"map":"pl_snowycoast","folder":"tf","game":"Team Fortress","app_id":440,"player_count":0,"max_players":24,"Bots":0,"server_type":"Dedicated","server_os":"Linux","password":true,"vac":true,"version":"7757534","steam_id":85568392924500088,"keywords":["nocrits","nodmgspread","payload","uncletopia"],"game_id":440,"stv_port":27026,"stv_name":"Uncletopia | Montréal | 2 | All Maps | STV","players":null},{"server_id":302,"name":"Uncletopia | Montréal | 3 | All Maps","name_short":"mtl-3","host":"mtl-1.ca.uncletopia.com","port":27035,"enabled":true,"region":"us-east","cc":"ca","latitude":45.50889,"longitude":-73.56167,"reserved":0,"last_update":"0001-01-01T00:00:00Z","name_a2s":"Uncletopia | Montréal | 3 | All Maps","protocol":17,"map":"pl_swiftwater_final1","folder":"tf","game":"Team Fortress","app_id":440,"player_count":0,"max_players":24,"Bots":0,"server_type":"Dedicated","server_os":"Linux","password":true,"vac":true,"version":"7757534","steam_id":85568392924500089,"keywords":["nocrits","nodmgspread","payload","uncletopia"],"game_id":440,"stv_port":27036,"stv_name":"Uncletopia | Montréal | 3 | All Maps | STV","players":null},{"server_id":303,"name":"Uncletopia | Montréal | 4 | No Payload","name_short":"mtl-4","host":"mtl-1.ca.uncletopia.com","port":27045,"enabled":true,"region":"us-east","cc":"ca","latitude":45.50889,"longitude":-73.56167,"reserved":0,"last_update":"0001-01-01T00:00:00Z","name_a2s":"Uncletopia | Montréal | 4 | No Payload","protocol":17,"map":"pl_pier","folder":"tf","game":"Team Fortress","app_id":440,"player_count":0,"max_players":24,"Bots":0,"server_type":"Dedicated","server_os":"Linux","password":true,"vac":true,"version":"7757534","steam_id":85568392924500090,"keywords":["nocrits","nodmgspread","payload","uncletopia"],"game_id":440,"stv_port":27046,"stv_name":"Uncletopia | Montréal | 4 | No Payload | STV","players":null},{"server_id":13,"name":"Uncletopia | New York City | 1 | All Maps","name_short":"nyc-1","host":"nyc-1.us.uncletopia.com","port":27015,"enabled":true,"region":"us-east","cc":"us","latitude":40.73061,"longitude":-73.93524,"reserved":0,"last_update":"0001-01-01T00:00:00Z","name_a2s":"Uncletopia | New York City | 1 | All Maps","protocol":17,"map":"koth_viaduct","folder":"tf","game":"Team Fortress","app_id":440,"player_count":0,"max_players":24,"Bots":0,"server_type":"Dedicated","server_os":"Linux","password":true,"vac":true,"version":"7757534","steam_id":85568392924469993,"keywords":["cp","nocrits","nodmgspread","uncletopia"],"game_id":440,"stv_port":27016,"stv_name":"Uncletopia | New York City | 1 | All Maps | STV","players":null},{"server_id":14,"name":"Uncletopia | New York City | 2 | All Maps","name_short":"nyc-2","host":"nyc-1.us.uncletopia.com","port":27025,"enabled":true,"region":"us-east","cc":"us","latitude":40.73061,"longitude":-73.93524,"reserved":0,"last_update":"0001-01-01T00:00:00Z","name_a2s":"Uncletopia | New York City | 2 | All Maps","protocol":17,"map":"pl_badwater","folder":"tf","game":"Team Fortress","app_id":440,"player_count":0,"max_players":24,"Bots":0,"server_type":"Dedicated","server_os":"Linux","password":true,"vac":true,"version":"7757534","steam_id":85568392924469994,"keywords":["nocrits","nodmgspread","payload","uncletopia"],"game_id":440,"stv_port":27026,"stv_name":"Uncletopia | New York City | 2 | All Maps | STV","players":null},{"server_id":15,"name":"Uncletopia | New York City | 3 | Stopwatch Beta","name_short":"nyc-3","host":"nyc-1.us.uncletopia.com","port":27035,"enabled":true,"region":"us-east","cc":"us","latitude":40.73061,"longitude":-73.93524,"reserved":0,"last_update":"0001-01-01T00:00:00Z","name_a2s":"Uncletopia | New York City | 3 | Stopwatch Beta","protocol":17,"map":"pl_upward","folder":"tf","game":"Team Fortress","app_id":440,"player_count":0,"max_players":24,"Bots":0,"server_type":"Dedicated","server_os":"Linux","password":true,"vac":true,"version":"7757534","steam_id":85568392924742820,"keywords":["nocrits","nodmgspread","payload","uncletopia"],"game_id":440,"stv_port":27036,"stv_name":"Uncletopia | New York City | 3 | Stopwatch Beta | STV","players":null},{"server_id":16,"name":"Uncletopia | New York City | 4 | Community","name_short":"nyc-4","host":"nyc-1.us.uncletopia.com","port":27045,"enabled":true,"region":"us-east","cc":"us","latitude":40.73061,"longitude":-73.93524,"reserved":0,"last_update":"0001-01-01T00:00:00Z","name_a2s":"Uncletopia | New York City | 4 | Community","protocol":17,"map":"pl_swiftwater_final1","folder":"tf","game":"Team Fortress","app_id":440,"player_count":0,"max_players":24,"Bots":0,"server_type":"Dedicated","server_os":"Linux","password":true,"vac":true,"version":"7757534","steam_id":85568392924742821,"keywords":["nocrits","nodmgspread","payload","uncletopia"],"game_id":440,"stv_port":27046,"stv_name":"Uncletopia | New York City | 4 | Community | STV","players":null},{"server_id":142,"name":"Uncletopia | São Paulo | 1 | All Maps","name_short":"sao-1","host":"sao-1.br.uncletopia.com","port":27015,"enabled":true,"region":"sa","cc":"br","latitude":-23.533773,"longitude":-46.62529,"reserved":0,"last_update":"0001-01-01T00:00:00Z","name_a2s":"Uncletopia | São Paulo | 1 | All Maps","protocol":17,"map":"cp_process_final","folder":"tf","game":"Team Fortress","app_id":440,"player_count":0,"max_players":24,"Bots":0,"server_type":"Dedicated","server_os":"Linux","password":true,"vac":true,"version":"7757534","steam_id":85568392924469996,"keywords":["cp","nocrits","nodmgspread","uncletopia"],"game_id":440,"stv_port":27016,"stv_name":"Uncletopia | São Paulo | 1 | All Maps | STV","players":null},{"server_id":143,"name":"Uncletopia | São Paulo | 2 | All Maps","name_short":"sao-2","host":"sao-2.br.uncletopia.com","port":27015,"enabled":true,"region":"sa","cc":"br","latitude":-23.533773,"longitude":-46.62529,"reserved":0,"last_update":"0001-01-01T00:00:00Z","name_a2s":"Uncletopia | São Paulo | 2 | All Maps","protocol":17,"map":"pl_barnblitz","folder":"tf","game":"Team Fortress","app_id":440,"player_count":0,"max_players":24,"Bots":0,"server_type":"Dedicated","server_os":"Linux","password":true,"vac":true,"version":"7757534","steam_id":85568392924485349,"keywords":["nocrits","nodmgspread","payload","uncletopia"],"game_id":440,"stv_port":27016,"stv_name":"Uncletopia | São Paulo | 2 | All Maps | STV","players":null},{"server_id":7,"name":"Uncletopia | Seattle | 1 | All Maps","name_short":"sea-1","host":"sea-1.us.uncletopia.com","port":27015,"enabled":true,"region":"us-west","cc":"us","latitude":47.608013,"longitude":-122.33517,"reserved":0,"last_update":"0001-01-01T00:00:00Z","name_a2s":"Uncletopia | Seattle | 1 | All Maps","protocol":17,"map":"koth_lakeside_final","folder":"tf","game":"Team Fortress","app_id":440,"player_count":0,"max_players":24,"Bots":0,"server_type":"Dedicated","server_os":"Linux","password":true,"vac":true,"version":"7757534","steam_id":85568392924469997,"keywords":["cp","nocrits","nodmgspread","uncletopia"],"game_id":440,"stv_port":27016,"stv_name":"Uncletopia | Seattle | 1 | All Maps | STV","players":null},{"server_id":119,"name":"Uncletopia | Seattle | 2 | All Maps","name_short":"sea-2","host":"sea-1.us.uncletopia.com","port":27025,"enabled":true,"region":"us-west","cc":"us","latitude":47.608013,"longitude":-122.33517,"reserved":0,"last_update":"0001-01-01T00:00:00Z","name_a2s":"Uncletopia | Seattle | 2 | All Maps","protocol":17,"map":"pl_badwater","folder":"tf","game":"Team Fortress","app_id":440,"player_count":0,"max_players":24,"Bots":0,"server_type":"Dedicated","server_os":"Linux","password":true,"vac":true,"version":"7757534","steam_id":85568392924469998,"keywords":["nocrits","nodmgspread","payload","uncletopia"],"game_id":440,"stv_port":27026,"stv_name":"Uncletopia | Seattle | 2 | All Maps | STV","players":null},{"server_id":406,"name":"Uncletopia | Seattle | 3 | Stopwatch Beta","name_short":"sea-3","host":"sea-1.us.uncletopia.com","port":27035,"enabled":true,"region":"us-west","cc":"us","latitude":47.608013,"longitude":-122.33517,"reserved":0,"last_update":"0001-01-01T00:00:00Z","name_a2s":"Uncletopia | Seattle | 3 | Stopwatch Beta","protocol":17,"map":"cp_dustbowl","folder":"tf","game":"Team Fortress","app_id":440,"player_count":0,"max_players":24,"Bots":0,"server_type":"Dedicated","server_os":"Linux","password":true,"vac":true,"version":"7757534","steam_id":85568392924515217,"keywords":["cp","nocrits","nodmgspread","uncletopia"],"game_id":440,"stv_port":27036,"stv_name":"Uncletopia | Seattle | 3 | Stopwatch Beta | STV","players":null},{"server_id":17,"name":"Uncletopia | San Francisco | 1 | All Maps","name_short":"sfo-1","host":"sfo-1.us.uncletopia.com","port":27015,"enabled":true,"region":"us-west","cc":"us","latitude":37.77397,"longitude":-122.4313,"reserved":0,"last_update":"0001-01-01T00:00:00Z","name_a2s":"Uncletopia | San Francisco | 1 | All Maps","protocol":17,"map":"cp_process_final","folder":"tf","game":"Team Fortress","app_id":440,"player_count":22,"max_players":24,"Bots":0,"server_type":"Dedicated","server_os":"Linux","password":true,"vac":true,"version":"7757534","steam_id":85568392924469999,"keywords":["cp","nocrits","nodmgspread","uncletopia"],"game_id":440,"stv_port":27016,"stv_name":"Uncletopia | San Francisco | 1 | All Maps | STV","players":[{"user_id":3,"name":"Aircraft Carrier Princess","steam_id":76561198348354629,"connected_time":837000000000,"state":"active","ping":46},{"user_id":4,"name":"BIG HOG","steam_id":76561198079923652,"connected_time":836000000000,"state":"active","ping":83},{"user_id":5,"name":"TATARA","steam_id":76561199098759517,"connected_time":836000000000,"state":"active","ping":151},{"user_id":6,"name":"[Zero] Lag","steam_id":76561198983494186,"connected_time":835000000000,"state":"active","ping":121},{"user_id":7,"name":"Flesh Eating Turtle","steam_id":76561198116742139,"connected_time":834000000000,"state":"active","ping":70},{"user_id":15,"name":"Soul_Intern","steam_id":76561198310238109,"connected_time":799000000000,"state":"active","ping":140},{"user_id":9,"name":"Tyler\u0026Fingers","steam_id":76561198085154485,"connected_time":832000000000,"state":"active","ping":120},{"user_id":10,"name":"NoobPwner","steam_id":76561199122289629,"connected_time":830000000000,"state":"active","ping":86},{"user_id":11,"name":"Swag Messiah","steam_id":76561198149634242,"connected_time":827000000000,"state":"active","ping":85},{"user_id":12,"name":"Alinoth Akagi","steam_id":76561198324613520,"connected_time":827000000000,"state":"active","ping":60},{"user_id":13,"name":"Gray king of the sewers","steam_id":76561199179010340,"connected_time":819000000000,"state":"active","ping":91},{"user_id":14,"name":"Shalrath","steam_id":76561198053151159,"connected_time":812000000000,"state":"active","ping":118},{"user_id":16,"name":"Albino Jellyfish","steam_id":76561198208561097,"connected_time":779000000000,"state":"active","ping":113},{"user_id":18,"name":"fug","steam_id":76561198105374054,"connected_time":663000000000,"state":"active","ping":72},{"user_id":19,"name":"Garfelf","steam_id":76561198419850129,"connected_time":645000000000,"state":"active","ping":86},{"user_id":20,"name":"shrew","steam_id":76561199475276265,"connected_time":643000000000,"state":"active","ping":126},{"user_id":22,"name":"autofill","steam_id":76561198965079927,"connected_time":577000000000,"state":"active","ping":115},{"user_id":23,"name":"Bastee1021","steam_id":76561199456141163,"connected_time":569000000000,"state":"active","ping":84},{"user_id":25,"name":"pt","steam_id":76561198143023330,"connected_time":480000000000,"state":"active","ping":54},{"user_id":26,"name":"Shotgun Shine","steam_id":76561199006388533,"connected_time":337000000000,"state":"active","ping":126},{"user_id":27,"name":"aqua","steam_id":76561199407709552,"connected_time":327000000000,"state":"active","ping":92},{"user_id":30,"name":"chesscake","steam_id":76561199026243858,"connected_time":66000000000,"state":"active","ping":120}]},{"server_id":18,"name":"Uncletopia | San Francisco | 2 | All Maps","name_short":"sfo-2","host":"sfo-1.us.uncletopia.com","port":27025,"enabled":true,"region":"us-west","cc":"us","latitude":37.77397,"longitude":-122.4313,"reserved":0,"last_update":"0001-01-01T00:00:00Z","name_a2s":"Uncletopia | San Francisco | 2 | All Maps","protocol":17,"map":"koth_highpass","folder":"tf","game":"Team Fortress","app_id":440,"player_count":0,"max_players":24,"Bots":0,"server_type":"Dedicated","server_os":"Linux","password":true,"vac":true,"version":"7757534","steam_id":85568392924470000,"keywords":["cp","nocrits","nodmgspread","uncletopia"],"game_id":440,"stv_port":27026,"stv_name":"Uncletopia | San Francisco | 2 | All Maps | STV","players":null},{"server_id":19,"name":"Uncletopia | San Francisco | 3 | Stopwatch Beta","name_short":"sfo-3","host":"sfo-1.us.uncletopia.com","port":27035,"enabled":true,"region":"us-west","cc":"us","latitude":37.77397,"longitude":-122.4313,"reserved":0,"last_update":"0001-01-01T00:00:00Z","name_a2s":"Uncletopia | San Francisco | 3 | Stopwatch Beta","protocol":17,"map":"koth_lakeside_final","folder":"tf","game":"Team Fortress","app_id":440,"player_count":0,"max_players":24,"Bots":0,"server_type":"Dedicated","server_os":"Linux","password":true,"vac":true,"version":"7757534","steam_id":85568392924742824,"keywords":["cp","nocrits","nodmgspread","uncletopia"],"game_id":440,"stv_port":27036,"stv_name":"Uncletopia | San Francisco | 3 | Stopwatch Beta | STV","players":null},{"server_id":20,"name":"Uncletopia | San Francisco | 4 | Community","name_short":"sfo-4","host":"sfo-1.us.uncletopia.com","port":27045,"enabled":true,"region":"us-west","cc":"us","latitude":37.77397,"longitude":-122.4313,"reserved":0,"last_update":"0001-01-01T00:00:00Z","name_a2s":"Uncletopia | San Francisco | 4 | Community","protocol":17,"map":"cp_altitude","folder":"tf","game":"Team Fortress","app_id":440,"player_count":0,"max_players":24,"Bots":0,"server_type":"Dedicated","server_os":"Linux","password":true,"vac":true,"version":"7757534","steam_id":85568392924742826,"keywords":["cp","nocrits","nodmgspread","uncletopia"],"game_id":440,"stv_port":27046,"stv_name":"Uncletopia | San Francisco | 4 | Community | STV","players":null},{"server_id":141,"name":"Uncletopia | Sydney | 1 | All Maps","name_short":"syd-1","host":"syd-1.au.uncletopia.com","port":27015,"enabled":true,"region":"au","cc":"au","latitude":-33.865143,"longitude":151.2099,"reserved":0,"last_update":"0001-01-01T00:00:00Z","name_a2s":"Uncletopia | Sydney | 1 | All Maps","protocol":17,"map":"pl_frontier_final","folder":"tf","game":"Team Fortress","app_id":440,"player_count":7,"max_players":24,"Bots":0,"server_type":"Dedicated","server_os":"Linux","password":true,"vac":true,"version":"7757534","steam_id":85568392924470001,"keywords":["nocrits","nodmgspread","payload","uncletopia"],"game_id":440,"stv_port":27016,"stv_name":"Uncletopia | Sydney | 1 | All Maps | STV","players":[{"user_id":333,"name":"Luscious_Lucifer","steam_id":76561198064993980,"connected_time":2134000000000,"state":"active","ping":126},{"user_id":348,"name":"nata.elistratova.89","steam_id":76561199113268066,"connected_time":141000000000,"state":"active","ping":321},{"user_id":345,"name":"Waltism","steam_id":76561199447676489,"connected_time":268000000000,"state":"active","ping":312},{"user_id":349,"name":"Seductive Sloth","steam_id":76561198158125238,"connected_time":104000000000,"state":"active","ping":58},{"user_id":328,"name":"¿eTheRealMe?","steam_id":76561198033297147,"connected_time":2426000000000,"state":"active","ping":87},{"user_id":340,"name":"the guy","steam_id":76561199287270223,"connected_time":1216000000000,"state":"active","ping":303},{"user_id":326,"name":"Dr Genghis Corn","steam_id":76561198078933176,"connected_time":2563000000000,"state":"active","ping":45}]},{"server_id":123,"name":"Uncletopia | Sydney | 2 | All Maps","name_short":"syd-2","host":"syd-1.au.uncletopia.com","port":27025,"enabled":true,"region":"au","cc":"au","latitude":-33.865143,"longitude":151.2099,"reserved":0,"last_update":"0001-01-01T00:00:00Z","name_a2s":"Uncletopia | Sydney | 2 | All Maps","protocol":17,"map":"cp_snakewater_final1","folder":"tf","game":"Team Fortress","app_id":440,"player_count":0,"max_players":24,"Bots":0,"server_type":"Dedicated","server_os":"Linux","password":true,"vac":true,"version":"7757534","steam_id":85568392924470002,"keywords":["cp","nocrits","nodmgspread","uncletopia"],"game_id":440,"stv_port":27026,"stv_name":"Uncletopia | Sydney | 2 | All Maps | STV","players":null},{"server_id":395,"name":"Uncletopia | Sydney | 3 | All Maps","name_short":"syd-3","host":"syd-1.au.uncletopia.com","port":27035,"enabled":true,"region":"au","cc":"au","latitude":-33.865143,"longitude":151.2099,"reserved":0,"last_update":"0001-01-01T00:00:00Z","name_a2s":"Uncletopia | Sydney | 3 | All Maps","protocol":17,"map":"koth_cascade","folder":"tf","game":"Team Fortress","app_id":440,"player_count":0,"max_players":24,"Bots":0,"server_type":"Dedicated","server_os":"Linux","password":true,"vac":true,"version":"7757534","steam_id":85568392925194467,"keywords":["cp","nocrits","nodmgspread","uncletopia"],"game_id":440,"stv_port":27036,"stv_name":"Uncletopia | Sydney | 3 | All Maps | STV","players":null},{"server_id":396,"name":"Uncletopia | Sydney | 4 | All Maps","name_short":"syd-4","host":"syd-1.au.uncletopia.com","port":27045,"enabled":true,"region":"au","cc":"au","latitude":-33.865143,"longitude":151.2099,"reserved":0,"last_update":"0001-01-01T00:00:00Z","name_a2s":"Uncletopia | Sydney | 4 | All Maps","protocol":17,"map":"koth_highpass","folder":"tf","game":"Team Fortress","app_id":440,"player_count":0,"max_players":24,"Bots":0,"server_type":"Dedicated","server_os":"Linux","password":true,"vac":true,"version":"7757534","steam_id":85568392925397958,"keywords":["cp","nocrits","nodmgspread","uncletopia"],"game_id":440,"stv_port":27046,"stv_name":"Uncletopia | Sydney | 4 | All Maps | STV","players":null},{"server_id":58,"name":"Uncletopia | Sydney | 5 | Stopwatch Beta","name_short":"syd-5","host":"syd-1.au.uncletopia.com","port":27055,"enabled":true,"region":"au","cc":"au","latitude":-33.865143,"longitude":151.2099,"reserved":0,"last_update":"0001-01-01T00:00:00Z","name_a2s":"Uncletopia | Sydney | 5 | Stopwatch Beta","protocol":17,"map":"koth_cascade","folder":"tf","game":"Team Fortress","app_id":440,"player_count":0,"max_players":24,"Bots":0,"server_type":"Dedicated","server_os":"Linux","password":true,"vac":true,"version":"7757534","steam_id":85568392925397959,"keywords":["cp","nocrits","nodmgspread","uncletopia"],"game_id":440,"stv_port":27056,"stv_name":"Uncletopia | Sydney | 5 | Stopwatch Beta | STV","players":null},{"server_id":59,"name":"Uncletopia | Sydney | 6 | Community","name_short":"syd-6","host":"syd-1.au.uncletopia.com","port":27065,"enabled":true,"region":"au","cc":"au","latitude":-33.865143,"longitude":151.2099,"reserved":0,"last_update":"0001-01-01T00:00:00Z","name_a2s":"Uncletopia | Sydney | 6 | Community","protocol":17,"map":"workshop/koth_slaughter_rc1.ugc1712845210","folder":"tf","game":"Team Fortress","app_id":440,"player_count":0,"max_players":24,"Bots":0,"server_type":"Dedicated","server_os":"Linux","password":true,"vac":true,"version":"7757534","steam_id":85568392925397960,"keywords":["cp","nocrits","nodmgspread","uncletopia"],"game_id":440,"stv_port":27066,"stv_name":"Uncletopia | Sydney | 6 | Community | STV","players":null},{"server_id":49,"name":"Uncletopia | Warsaw | 1 | All Maps","name_short":"waw-1","host":"waw-1.pl.uncletopia.com","port":27015,"enabled":true,"region":"eu","cc":"pl","latitude":52.2297,"longitude":21.017532,"reserved":0,"last_update":"0001-01-01T00:00:00Z","name_a2s":"","protocol":0,"map":"","folder":"","game":"","app_id":0,"player_count":0,"max_players":0,"Bots":0,"server_type":"","server_os":"","password":false,"vac":false,"version":"","steam_id":0,"keywords":null,"game_id":0,"stv_port":0,"stv_name":"","players":null},{"server_id":50,"name":"Uncletopia | Warsaw | 2 | All Maps","name_short":"waw-2","host":"waw-1.pl.uncletopia.com","port":27025,"enabled":true,"region":"eu","cc":"pl","latitude":52.2297,"longitude":21.017532,"reserved":0,"last_update":"0001-01-01T00:00:00Z","name_a2s":"Uncletopia | Warsaw | 2 | All Maps","protocol":17,"map":"koth_viaduct","folder":"tf","game":"Team Fortress","app_id":440,"player_count":0,"max_players":24,"Bots":0,"server_type":"Dedicated","server_os":"Linux","password":true,"vac":true,"version":"7757534","steam_id":85568392925397851,"keywords":["cp","nocrits","nodmgspread","uncletopia"],"game_id":440,"stv_port":27026,"stv_name":"Uncletopia | Warsaw | 2 | All Maps | STV","players":null},{"server_id":51,"name":"Uncletopia | Warsaw | 3 | All Maps","name_short":"waw-3","host":"waw-1.pl.uncletopia.com","port":27035,"enabled":true,"region":"eu","cc":"pl","latitude":52.2297,"longitude":21.017532,"reserved":0,"last_update":"0001-01-01T00:00:00Z","name_a2s":"Uncletopia | Warsaw | 3 | All Maps","protocol":17,"map":"pl_badwater","folder":"tf","game":"Team Fortress","app_id":440,"player_count":0,"max_players":24,"Bots":0,"server_type":"Dedicated","server_os":"Linux","password":true,"vac":true,"version":"7757534","steam_id":85568392925397852,"keywords":["nocrits","nodmgspread","payload","uncletopia"],"game_id":440,"stv_port":27036,"stv_name":"Uncletopia | Warsaw | 3 | All Maps | STV","players":null},{"server_id":52,"name":"Uncletopia | Warsaw | 4 | All Maps","name_short":"waw-4","host":"waw-1.pl.uncletopia.com","port":27045,"enabled":true,"region":"eu","cc":"pl","latitude":52.2297,"longitude":21.017532,"reserved":0,"last_update":"0001-01-01T00:00:00Z","name_a2s":"Uncletopia | Warsaw | 4 | All Maps","protocol":17,"map":"koth_lakeside_final","folder":"tf","game":"Team Fortress","app_id":440,"player_count":0,"max_players":24,"Bots":0,"server_type":"Dedicated","server_os":"Linux","password":true,"vac":true,"version":"7757534","steam_id":85568392925397853,"keywords":["cp","nocrits","nodmgspread","uncletopia"],"game_id":440,"stv_port":27046,"stv_name":"Uncletopia | Warsaw | 4 | All Maps | STV","players":null},{"server_id":53,"name":"Uncletopia | Warsaw | 5 | Stopwatch Beta","name_short":"waw-5","host":"waw-1.pl.uncletopia.com","port":27055,"enabled":true,"region":"eu","cc":"pl","latitude":52.2297,"longitude":21.017532,"reserved":0,"last_update":"0001-01-01T00:00:00Z","name_a2s":"Uncletopia | Warsaw | 5 | Stopwatch Beta","protocol":17,"map":"pl_borneo","folder":"tf","game":"Team Fortress","app_id":440,"player_count":0,"max_players":24,"Bots":0,"server_type":"Dedicated","server_os":"Linux","password":true,"vac":true,"version":"7757534","steam_id":85568392925397854,"keywords":["nocrits","nodmgspread","payload","uncletopia"],"game_id":440,"stv_port":27056,"stv_name":"Uncletopia | Warsaw | 5 | Stopwatch Beta | STV","players":null},{"server_id":54,"name":"Uncletopia | Warsaw | 6 | Community","name_short":"waw-6","host":"waw-1.pl.uncletopia.com","port":27065,"enabled":true,"region":"eu","cc":"pl","latitude":52.2297,"longitude":21.017532,"reserved":0,"last_update":"0001-01-01T00:00:00Z","name_a2s":"Uncletopia | Warsaw | 6 | Community","protocol":17,"map":"koth_lakeside_final","folder":"tf","game":"Team Fortress","app_id":440,"player_count":0,"max_players":24,"Bots":0,"server_type":"Dedicated","server_os":"Linux","password":true,"vac":true,"version":"7757534","steam_id":85568392925397856,"keywords":["cp","nocrits","nodmgspread","uncletopia"],"game_id":440,"stv_port":27066,"stv_name":"Uncletopia | Warsaw | 6 | Community | STV","players":null}]}