{"status":true,"message":"","result":[{"server_id":9,"name":"Uncletopia | Atlanta | 1 | All Maps","name_short":"atl-1","host":"atl-1.us.uncletopia.com","port":27015,"enabled":true,"region":"us-east","cc":"us","latitude":33.753746,"longitude":-84.38633,"reserved":0,"last_update":"0001-01-01T00:00:00Z","name_a2s":"Uncletopia | Atlanta | 1 | All Maps","protocol":17,"map":"koth_lakeside_final","folder":"tf","game":"Team Fortress","app_id":440,"player_count":2,"max_players":24,"Bots":0,"server_type":"Dedicated","server_os":"Linux","password":true,"vac":true,"version":"7757534","steam_id":85568392924469982,"keywords":["cp","nocrits","nodmgspread","uncletopia"],"game_id":440,"stv_port":27016,"stv_name":"Uncletopia | Atlanta | 1 | All Maps | STV","players":[{"user_id":11,"name":"SF | Dog Water |HM|","steam_id":76561199135178332,"connected_time":429000000000,"state":"active","ping":133},{"user_id":13,"name":"Year Of The Snitch","steam_id":76561198397009880,"connected_time":252000000000,"state":"active","ping":45}]},{"server_id":400,"name":"Uncletopia | Atlanta | 3 | Stopwatch Beta","name_short":"atl-3","host":"atl-1.us.uncletopia.com","port":27035,"enabled":true,"region":"us-east","cc":"us","latitude":33.753746,"longitude":-84.38633,"reserved":0,"last_update":"0001-01-01T00:00:00Z","name_a2s":"Uncletopia | Atlanta | 3 | Stopwatch Beta","protocol":17,"map":"pl_upward","folder":"tf","game":"Team Fortress","app_id":440,"player_count":0,"max_players":24,"Bots":0,"server_type":"Dedicated","server_os":"Linux","password":true,"vac":true,"version":"7757534","steam_id":85568392924515187,"keywords":["nocrits","nodmgspread","payload","uncletopia"],"game_id":440,"stv_port":27036,"stv_name":"Uncletopia | Atlanta | 3 | Stopwatch Beta | STV","players":null},{"server_id":401,"name":"Uncletopia | Atlanta | 4 | No Payload","name_short":"atl-4","host":"atl-1.us.uncletopia.com","port":27045,"enabled":true,"region":"us-east","cc":"us","latitude":33.753746,"longitude":-84.38633,"reserved":0,"last_update":"0001-01-01T00:00:00Z","name_a2s":"Uncletopia | Atlanta | 4 | No Payload","protocol":17,"map":"pl_pier","folder":"tf","game":"Team Fortress","app_id":440,"player_count":0,"max_players":24,"Bots":0,"server_type":"Dedicated","server_os":"Linux","password":true,"vac":true,"version":"7723704","steam_id":85568392924515188,"keywords":["nocrits","nodmgspread","payload","uncletopia"],"game_id":440,"stv_port":27046,"stv_name":"Uncletopia | Atlanta | 4 | No Payload | STV","players":null},{"server_id":2,"name":"Uncletopia | Chicago | 1 | All Maps","name_short":"chi-1","host":"chi-1.us.uncletopia.com","port":27015,"enabled":true,"region":"us-central","cc":"us","latitude":41.881832,"longitude":-87.62318,"reserved":0,"last_update":"0001-01-01T00:00:00Z","name_a2s":"Uncletopia | Chicago | 1 | All Maps","protocol":17,"map":"cp_dustbowl","folder":"tf","game":"Team Fortress","app_id":440,"player_count":23,"max_players":24,"Bots":0,"server_type":"Dedicated","server_os":"Linux","password":true,"vac":true,"version":"7757534","steam_id":85568392924469984,"keywords":["cp","nocrits","nodmgspread","uncletopia"],"game_id":440,"stv_port":27016,"stv_name":"Uncletopia | Chicago | 1 | All Maps | STV","players":[{"user_id":219,"name":"defs98","steam_id":76561198134813102,"connected_time":1816000000000,"state":"active","ping":56},{"user_id":237,"name":"Bungalow Bill","steam_id":76561198033536404,"connected_time":431000000000,"state":"active","ping":81},{"user_id":231,"name":"stink","steam_id":76561198099318923,"connected_time":992000000000,"state":"active","ping":53},{"user_id":240,"name":"Paco","steam_id":76561198023504958,"connected_time":14000000000,"state":"spawning","ping":59},{"user_id":191,"name":"SkrubWrecker","steam_id":76561198044717015,"connected_time":3855000000000,"state":"active","ping":64},{"user_id":239,"name":"walterfishing_17","steam_id":76561198976904099,"connected_time":172000000000,"state":"active","ping":74},{"user_id":220,"name":"rice white","steam_id":76561198320732910,"connected_time":1777000000000,"state":"active","ping":74},{"user_id":187,"name":"ck_rene","steam_id":76561199079260488,"connected_time":3893000000000,"state":"active","ping":59},{"user_id":241,"name":"BetoelAff es","steam_id":76561198377842585,"connected_time":8000000000,"state":"spawning","ping":571},{"user_id":212,"name":"Kinu","steam_id":76561198066120451,"connected_time":1996000000000,"state":"active","ping":111},{"user_id":228,"name":"Fuegan Ra","steam_id":76561198287923849,"connected_time":1133000000000,"state":"active","ping":46},{"user_id":238,"name":"River Rat","steam_id":76561198116383976,"connected_time":223000000000,"state":"active","ping":106},{"user_id":60,"name":"hamal cine","steam_id":76561198079619374,"connected_time":9555000000000,"state":"active","ping":74},{"user_id":214,"name":"Bowl","steam_id":76561199142318442,"connected_time":1971000000000,"state":"active","ping":86},{"user_id":235,"name":"GREG","steam_id":76561198073021168,"connected_time":619000000000,"state":"active","ping":61},{"user_id":208,"name":"Im High","steam_id":76561198049954886,"connected_time":2133000000000,"state":"active","ping":68},{"user_id":179,"name":"skull","steam_id":76561198821775083,"connected_time":4249000000000,"state":"active","ping":72},{"user_id":210,"name":"Amogus The Sussy Baka ඞ","steam_id":76561198008577961,"connected_time":2029000000000,"state":"active","ping":60},{"user_id":26,"name":"Coffee with a Stranger","steam_id":76561198307422313,"connected_time":13735000000000,"state":"active","ping":66},{"user_id":163,"name":"Clean Lines","steam_id":76561197960691518,"connected_time":5576000000000,"state":"active","ping":47},{"user_id":217,"name":"Chamomile Tea","steam_id":76561198156746320,"connected_time":1894000000000,"state":"active","ping":43},{"user_id":204,"name":"pisssmart","steam_id":76561199097253232,"connected_time":2324000000000,"state":"active","ping":59},{"user_id":227,"name":"So, no bitches?","steam_id":76561198858155238,"connected_time":1303000000000,"state":"active","ping":114}]},{"server_id":106,"name":"Uncletopia | Chicago | 2 | All Maps","name_short":"chi-2","host":"chi-1.us.uncletopia.com","port":27025,"enabled":true,"region":"us-central","cc":"us","latitude":41.881832,"longitude":-87.62318,"reserved":0,"last_update":"0001-01-01T00:00:00Z","name_a2s":"Uncletopia | Chicago | 2 | All Maps","protocol":17,"map":"pl_badwater","folder":"tf","game":"Team Fortress","app_id":440,"player_count":24,"max_players":24,"Bots":0,"server_type":"Dedicated","server_os":"Linux","password":true,"vac":true,"version":"7757534","steam_id":85568392924469985,"keywords":["nocrits","nodmgspread","payload","uncletopia"],"game_id":440,"stv_port":27026,"stv_name":"Uncletopia | Chicago | 2 | All Maps | STV","players":[{"user_id":83,"name":"HaphazardHazel","steam_id":76561198316812693,"connected_time":55000000000,"state":"active","ping":100},{"user_id":34,"name":"mepng","steam_id":76561199018758598,"connected_time":3574000000000,"state":"active","ping":101},{"user_id":64,"name":"no","steam_id":76561198248853140,"connected_time":2532000000000,"state":"active","ping":47},{"user_id":59,"name":"Finger (Real)","steam_id":76561198406094935,"connected_time":2996000000000,"state":"active","ping":64},{"user_id":73,"name":"nalezinik","steam_id":76561198030026119,"connected_time":1606000000000,"state":"active","ping":59},{"user_id":43,"name":"caberknight tf2","steam_id":76561199273882768,"connected_time":3257000000000,"state":"active","ping":69},{"user_id":31,"name":"dmdr1969","steam_id":76561198080469611,"connected_time":3926000000000,"state":"active","ping":72},{"user_id":32,"name":"mars (she/they)","steam_id":76561198127459772,"connected_time":3822000000000,"state":"active","ping":68},{"user_id":80,"name":"Chase McCain","steam_id":76561198314538469,"connected_time":582000000000,"state":"active","ping":80},{"user_id":46,"name":"Tallyden","steam_id":76561197998572962,"connected_time":3168000000000,"state":"active","ping":67},{"user_id":74,"name":"b. eno","steam_id":76561198109901138,"connected_time":1584000000000,"state":"active","ping":76},{"user_id":76,"name":"Thefatfriar","steam_id":76561199013385965,"connected_time":1145000000000,"state":"active","ping":130},{"user_id":57,"name":"Demilious","steam_id":76561198090525010,"connected_time":3024000000000,"state":"active","ping":70},{"user_id":44,"name":"manbearswineflu","steam_id":76561198083945137,"connected_time":3244000000000,"state":"active","ping":64},{"user_id":45,"name":"RaddahRaddah","steam_id":76561198194462829,"connected_time":3241000000000,"state":"active","ping":53},{"user_id":69,"name":"Kurt Biscuitmaker","steam_id":76561198331701823,"connected_time":1783000000000,"state":"active","ping":75},{"user_id":81,"name":"trippingbull419","steam_id":76561199111639935,"connected_time":297000000000,"state":"active","ping":84},{"user_id":75,"name":"Sure, yeah, totally","steam_id":76561199210977804,"connected_time":1546000000000,"state":"active","ping":64},{"user_id":65,"name":"with no fear","steam_id":76561198045725613,"connected_time":2237000000000,"state":"active","ping":55},{"user_id":52,"name":"kametro4","steam_id":76561198835430429,"connected_time":3132000000000,"state":"active","ping":75},{"user_id":66,"name":"Strange Festive Femboy","steam_id":76561198050385093,"connected_time":2134000000000,"state":"active","ping":84},{"user_id":82,"name":"hummus in my tummus","steam_id":76561199438698036,"connected_time":75000000000,"state":"active","ping":54},{"user_id":56,"name":"Chrome Knight","steam_id":76561198851348871,"connected_time":3037000000000,"state":"active","ping":81},{"user_id":78,"name":"Y0C0 B3NITO","steam_id":76561198072200952,"connected_time":1139000000000,"state":"active","ping":100}]},{"server_id":402,"name":"Uncletopia | Chicago | 3 | All Maps","name_short":"chi-3","host":"chi-1.us.uncletopia.com","port":27035,"enabled":true,"region":"us-central","cc":"us","latitude":41.881832,"longitude":-87.62318,"reserved":0,"last_update":"0001-01-01T00:00:00Z","name_a2s":"Uncletopia | Chicago | 3 | All Maps","protocol":17,"map":"cp_mountainlab","folder":"tf","game":"Team Fortress","app_id":440,"player_count":0,"max_players":24,"Bots":0,"server_type":"Dedicated","server_os":"Linux","password":true,"vac":true,"version":"7757534","steam_id":85568392924515191,"keywords":["cp","nocrits","nodmgspread","uncletopia"],"game_id":440,"stv_port":27036,"stv_name":"Uncletopia | Chicago | 3 | All Maps | STV","players":null},{"server_id":403,"name":"Uncletopia | Chicago | 4 | All Maps","name_short":"chi-4","host":"chi-1.us.uncletopia.com","port":27045,"enabled":true,"region":"us-central","cc":"us","latitude":41.881832,"longitude":-87.62318,"reserved":0,"last_update":"0001-01-01T00:00:00Z","name_a2s":"Uncletopia | Chicago | 4 | All Maps","protocol":17,"map":"pl_pier","folder":"tf","game":"Team Fortress","app_id":440,"player_count":8,"max_players":24,"Bots":0,"server_type":"Dedicated","server_os":"Linux","password":true,"vac":true,"version":"7757534","steam_id":85568392924515193,"keywords":["nocrits","nodmgspread","payload","uncletopia"],"game_id":440,"stv_port":27046,"stv_name":"Uncletopia | Chicago | 4 | All Maps | STV","players":[{"user_id":5,"name":"McBarry","steam_id":76561198099214526,"connected_time":577000000000,"state":"active","ping":55},{"user_id":6,"name":"ScottyMcBeard","steam_id":76561199007271061,"connected_time":299000000000,"state":"active","ping":106},{"user_id":7,"name":"tucker","steam_id":76561198348308711,"connected_time":229000000000,"state":"active","ping":68},{"user_id":8,"name":"KingSteve42","steam_id":76561198409455888,"connected_time":151000000000,"state":"active","ping":99},{"user_id":9,"name":"saber_not_found (FREE TO PLAY)","steam_id":76561199146302602,"connected_time":122000000000,"state":"active","ping":201},{"user_id":10,"name":"Hi! I'm Chunk ʕ •ᴥ•ʔ","steam_id":76561197968103161,"connected_time":87000000000,"state":"active","ping":58},{"user_id":11,"name":"Phantom","steam_id":76561199200400404,"connected_time":61000000000,"state":"active","ping":108},{"user_id":12,"name":"SwivelHipSmith","steam_id":76561198043906334,"connected_time":50000000000,"state":"active","ping":54}]},{"server_id":36,"name":"Uncletopia | Chicago | 5 | All Maps","name_short":"chi-5","host":"chi-2.us.uncletopia.com","port":27015,"enabled":true,"region":"us-central","cc":"us","latitude":41.881832,"longitude":-87.62318,"reserved":0,"last_update":"0001-01-01T00:00:00Z","name_a2s":"Uncletopia | Chicago | 5 | All Maps","protocol":17,"map":"koth_cascade","folder":"tf","game":"Team Fortress","app_id":440,"player_count":0,"max_players":24,"Bots":0,"server_type":"Dedicated","server_os":"Linux","password":true,"vac":true,"version":"7757534","steam_id":85568392924866362,"keywords":["cp","nocrits","nodmgspread","uncletopia"],"game_id":440,"stv_port":27016,"stv_name":"Uncletopia | Chicago | 5 | All Maps | STV","players":null},{"server_id":37,"name":"Uncletopia | Chicago | 6 | All Maps","name_short":"chi-6","host":"chi-2.us.uncletopia.com","port":27025,"enabled":true,"region":"us-central","cc":"us","latitude":41.881832,"longitude":-87.62318,"reserved":0,"last_update":"0001-01-01T00:00:00Z","name_a2s":"Uncletopia | Chicago | 6 | All Maps","protocol":17,"map":"cp_altitude","folder":"tf","game":"Team Fortress","app_id":440,"player_count":24,"max_players":24,"Bots":0,"server_type":"Dedicated","server_os":"Linux","password":true,"vac":true,"version":"7757534","steam_id":85568392924866363,"keywords":["cp","nocrits","nodmgspread","uncletopia"],"game_id":440,"stv_port":27026,"stv_name":"Uncletopia | Chicago | 6 | All Maps | STV","players":[{"user_id":8,"name":"Lil_Ghost","steam_id":76561198141892875,"connected_time":2140000000000,"state":"active","ping":71},{"user_id":9,"name":"Clanker","steam_id":76561198164315915,"connected_time":2114000000000,"state":"active","ping":81},{"user_id":10,"name":"zzzPoison","steam_id":76561198302928116,"connected_time":2038000000000,"state":"active","ping":51},{"user_id":51,"name":"THE GOOP","steam_id":76561199058211576,"connected_time":237000000000,"state":"active","ping":168},{"user_id":12,"name":"Slowingbranch90","steam_id":76561199445875508,"connected_time":1855000000000,"state":"active","ping":89},{"user_id":13,"name":"the_capybara_bandit","steam_id":76561198372030749,"connected_time":1696000000000,"state":"active","ping":90},{"user_id":14,"name":"Fish-Lord Silvers","steam_id":76561198264722817,"connected_time":1501000000000,"state":"active","ping":60},{"user_id":46,"name":"otter","steam_id":76561198180787351,"connected_time":283000000000,"state":"active","ping":60},{"user_id":16,"name":"NovaStar","steam_id":76561198421340963,"connected_time":1293000000000,"state":"active","ping":76},{"user_id":42,"name":"tA.CHRONIC","steam_id":76561197960760990,"connected_time":345000000000,"state":"active","ping":44},{"user_id":39,"name":"earthtraveler413","steam_id":76561198865139926,"connected_time":628000000000,"state":"active","ping":111},{"user_id":19,"name":"EmeraldCola","steam_id":76561198066663687,"connected_time":1103000000000,"state":"active","ping":70},{"user_id":31,"name":"limegrass619","steam_id":76561198167789909,"connected_time":783000000000,"state":"active","ping":116},{"user_id":54,"name":"Anax Alter","steam_id":76561198110249546,"connected_time":41000000000,"state":"active","ping":54},{"user_id":26,"name":"Plato the Battle Philosopher","steam_id":76561198000299187,"connected_time":870000000000,"state":"active","ping":97},{"user_id":23,"name":"INFINITE","steam_id":76561197971285557,"connected_time":937000000000,"state":"active","ping":68},{"user_id":28,"name":"GAME GAMING","steam_id":76561199222119901,"connected_time":865000000000,"state":"active","ping":100},{"user_id":29,"name":"spring bonnie","steam_id":76561198988350454,"connected_time":855000000000,"state":"active","ping":161},{"user_id":30,"name":"Pleple895","steam_id":76561198085556553,"connected_time":853000000000,"state":"active","ping":127},{"user_id":41,"name":"kwout","steam_id":76561197997139225,"connected_time":534000000000,"state":"active","ping":64},{"user_id":33,"name":"jayzak24","steam_id":76561198354267509,"connected_time":768000000000,"state":"active","ping":75},{"user_id":52,"name":"TravelerFinis","steam_id":76561199181244690,"connected_time":220000000000,"state":"active","ping":104},{"user_id":38,"name":"Diatomaceous","steam_id":76561198333556852,"connected_time":691000000000,"state":"active","ping":108},{"user_id":45,"name":"zziRizz","steam_id":76561198021224745,"connected_time":290000000000,"state":"active","ping":60}]},{"server_id":38,"name":"Uncletopia | Chicago | 7 | Stopwatch Beta","name_short":"chi-7","host":"chi-2.us.uncletopia.com","port":27035,"enabled":true,"region":"us-central","cc":"us","latitude":41.881832,"longitude":-87.62318,"reserved":0,"last_update":"0001-01-01T00:00:00Z","name_a2s":"Uncletopia | Chicago | 7 | Stopwatch Beta","protocol":17,"map":"cp_sunshine","folder":"tf","game":"Team Fortress","app_id":440,"player_count":0,"max_players":24,"Bots":0,"server_type":"Dedicated","server_os":"Linux","password":true,"vac":true,"version":"7757534","steam_id":85568392924866364,"keywords":["cp","nocrits","nodmgspread","uncletopia"],"game_id":440,"stv_port":27036,"stv_name":"Uncletopia | Chicago | 7 | Stopwatch Beta | STV","players":null},{"server_id":39,"name":"Uncletopia | Chicago | 8 | Community","name_short":"chi-8","host":"chi-2.us.uncletopia.com","port":27045,"enabled":true,"region":"us-central","cc":"us","latitude":41.881832,"longitude":-87.62318,"reserved":0,"last_update":"0001-01-01T00:00:00Z","name_a2s":"Uncletopia | Chicago | 8 | Community","protocol":17,"map":"pl_pier","folder":"tf","game":"Team Fortress","app_id":440,"player_count":0,"max_players":24,"Bots":0,"server_type":"Dedicated","server_os":"Linux","password":true,"vac":true,"version":"7757534","steam_id":85568392924866365,"keywords":["nocrits","nodmgspread","payload","uncletopia"],"game_id":440,"stv_port":27046,"stv_name":"Uncletopia | Chicago | 8 | Community | STV","players":null},{"server_id":8,"name":"Uncletopia | Dallas | 1 | All Maps","name_short":"dal-1","host":"dal-1.us.uncletopia.com","port":27015,"enabled":true,"region":"us-central","cc":"us","latitude":32.779167,"longitude":-96.80889,"reserved":0,"last_update":"0001-01-01T00:00:00Z","name_a2s":"Uncletopia | Dallas | 1 | All Maps","protocol":17,"map":"cp_dustbowl","folder":"tf","game":"Team Fortress","app_id":440,"player_count":22,"max_players":24,"Bots":0,"server_type":"Dedicated","server_os":"Linux","password":true,"vac":true,"version":"7757534","steam_id":85568392924469986,"keywords":["cp","nocrits","nodmgspread","uncletopia"],"game_id":440,"stv_port":27016,"stv_name":"Uncletopia | Dallas | 1 | All Maps | STV","players":[{"user_id":11,"name":"A Gamer [F2P]","steam_id":76561198138712892,"connected_time":8060000000000,"state":"active","ping":40},{"user_id":102,"name":"Jelpo","steam_id":76561198406920072,"connected_time":1772000000000,"state":"active","ping":66},{"user_id":64,"name":"DSM-IVCE","steam_id":76561199438515797,"connected_time":5029000000000,"state":"active","ping":134},{"user_id":98,"name":"rustyorion","steam_id":76561198439186347,"connected_time":2525000000000,"state":"active","ping":98},{"user_id":105,"name":"czarchasm","steam_id":76561198055712749,"connected_time":1759000000000,"state":"active","ping":50},{"user_id":106,"name":"Kuddly Kay (She/Her)","steam_id":76561198353432576,"connected_time":1737000000000,"state":"active","ping":104},{"user_id":49,"name":"miraakz420","steam_id":76561199013850154,"connected_time":5380000000000,"state":"active","ping":79},{"user_id":107,"name":"Gustavo","steam_id":76561198310387331,"connected_time":1731000000000,"state":"active","ping":58},{"user_id":79,"name":"Stranger Danger","steam_id":76561198115242460,"connected_time":4258000000000,"state":"active","ping":116},{"user_id":72,"name":"Katrielle","steam_id":76561198054131477,"connected_time":4553000000000,"state":"active","ping":76},{"user_id":69,"name":"resh","steam_id":76561198066619792,"connected_time":4594000000000,"state":"active","ping":62},{"user_id":101,"name":"soujirou_85","steam_id":76561198833239304,"connected_time":2161000000000,"state":"active","ping":143},{"user_id":114,"name":"ender","steam_id":76561198092159728,"connected_time":151000000000,"state":"active","ping":43},{"user_id":83,"name":"The Drunk Clown","steam_id":76561197986850426,"connected_time":4154000000000,"state":"active","ping":90},{"user_id":111,"name":"blundering","steam_id":76561199084941913,"connected_time":479000000000,"state":"active","ping":128},{"user_id":85,"name":"M'kai Noren","steam_id":76561198046737869,"connected_time":3979000000000,"state":"active","ping":73},{"user_id":94,"name":"Platino","steam_id":76561198410957728,"connected_time":2917000000000,"state":"active","ping":62},{"user_id":88,"name":"cheeseburger shootout","steam_id":76561198328675913,"connected_time":3424000000000,"state":"active","ping":118},{"user_id":113,"name":"Fishstall","steam_id":76561198038126034,"connected_time":164000000000,"state":"active","ping":65},{"user_id":104,"name":"_Lusty_","steam_id":76561198876948142,"connected_time":1759000000000,"state":"active","ping":62},{"user_id":91,"name":"when she travis on my touchdown","steam_id":76561198128164970,"connected_time":3292000000000,"state":"active","ping":75},{"user_id":110,"name":"Motreir","steam_id":76561198151717946,"connected_time":1385000000000,"state":"active","ping":85}]},{"server_id":108,"name":"Uncletopia | Dallas | 2 | All Maps","name_short":"dal-2","host":"dal-1.us.uncletopia.com","port":27025,"enabled":true,"region":"us-central","cc":"us","latitude":32.779167,"longitude":-96.80889,"reserved":0,"last_update":"0001-01-01T00:00:00Z","name_a2s":"Uncletopia | Dallas | 2 | All Maps","protocol":17,"map":"koth_highpass","folder":"tf","game":"Team Fortress","app_id":440,"player_count":0,"max_players":24,"Bots":0,"server_type":"Dedicated","server_os":"Linux","password":true,"vac":true,"version":"7757534","steam_id":85568392924469988,"keywords":["cp","nocrits","nodmgspread","uncletopia"],"game_id":440,"stv_port":27026,"stv_name":"Uncletopia | Dallas | 2 | All Maps | STV","players":null},{"server_id":5,"name":"Uncletopia | Frankfurt | 1 | All Maps","name_short":"frk-1","host":"frk-1.de.uncletopia.com","port":27015,"enabled":true,"region":"eu","cc":"de","latitude":50.110924,"longitude":8.682127,"reserved":0,"last_update":"0001-01-01T00:00:00Z","name_a2s":"Uncletopia | Frankfurt | 1 | All Maps","protocol":17,"map":"pl_pier","folder":"tf","game":"Team Fortress","app_id":440,"player_count":25,"max_players":24,"Bots":0,"server_type":"Dedicated","server_os":"Linux","password":true,"vac":true,"version":"7757534","steam_id":85568392924469989,"keywords":["nocrits","nodmgspread","payload","uncletopia"],"game_id":440,"stv_port":27016,"stv_name":"Uncletopia | Frankfurt | 1 | All Maps | STV","players":[{"user_id":375,"name":"Bell","steam_id":76561199454586928,"connected_time":2848000000000,"state":"active","ping":125},{"user_id":373,"name":"Mugelzz","steam_id":76561198048528709,"connected_time":2871000000000,"state":"active","ping":105},{"user_id":416,"name":"nikals brawltf","steam_id":76561197965607462,"connected_time":273000000000,"state":"active","ping":75},{"user_id":409,"name":"\"Crucified\"","steam_id":76561198131471207,"connected_time":454000000000,"state":"active","ping":62},{"user_id":404,"name":"Nibbenji2077","steam_id":76561199219663655,"connected_time":559000000000,"state":"active","ping":145},{"user_id":410,"name":"disposablesuperbread","steam_id":76561199074703607,"connected_time":363000000000,"state":"active","ping":68},{"user_id":411,"name":"Uriri","steam_id":76561198085588686,"connected_time":362000000000,"state":"active","ping":85},{"user_id":381,"name":"SpeddyMeddy","steam_id":76561197999693825,"connected_time":1976000000000,"state":"active","ping":65},{"user_id":412,"name":"SirNeeco \u003c3","steam_id":76561198103014203,"connected_time":352000000000,"state":"active","ping":45},{"user_id":339,"name":"Mλt","steam_id":76561198070826903,"connected_time":4566000000000,"state":"active","ping":77},{"user_id":413,"name":"justajem101","steam_id":76561199228510573,"connected_time":351000000000,"state":"active","ping":81},{"user_id":397,"name":"русофоб бандера","steam_id":76561199405386077,"connected_time":1060000000000,"state":"active","ping":66},{"user_id":349,"name":"TheShadowScribe","steam_id":76561199037525945,"connected_time":4126000000000,"state":"active","ping":89},{"user_id":414,"name":"PLUTO","steam_id":76561198312436128,"connected_time":344000000000,"state":"active","ping":125},{"user_id":389,"name":"F2P gameing","steam_id":76561198834713682,"connected_time":1716000000000,"state":"active","ping":79},{"user_id":388,"name":"persian terrorist (EdD) vrain.h","steam_id":76561199203608558,"connected_time":1762000000000,"state":"active","ping":86},{"user_id":379,"name":"mohamadparadox","steam_id":76561198346156085,"connected_time":2318000000000,"state":"active","ping":154},{"user_id":401,"name":"43291842381","steam_id":76561198038160325,"connected_time":840000000000,"state":"active","ping":66},{"user_id":415,"name":"Lössö","steam_id":76561197994254413,"connected_time":327000000000,"state":"active","ping":72},{"user_id":326,"name":"Realist 40","steam_id":76561198052476979,"connected_time":5514000000000,"state":"active","ping":75},{"user_id":405,"name":"banana peel","steam_id":76561198129704959,"connected_time":558000000000,"state":"active","ping":120},{"user_id":394,"name":"Orville Wilcox","steam_id":76561198210512053,"connected_time":1327000000000,"state":"active","ping":44},{"user_id":336,"name":"Optimist 50","steam_id":76561198039631442,"connected_time":5007000000000,"state":"active","ping":88},{"user_id":417,"name":"Kawa inka","steam_id":76561198055900955,"connected_time":2000000000,"state":"spawning","ping":56},{"user_id":408,"name":"DOMINOS","steam_id":76561198334591211,"connected_time":487000000000,"state":"active","ping":70}]},{"server_id":110,"name":"Uncletopia | Frankfurt | 2 | All Maps","name_short":"frk-2","host":"frk-1.de.uncletopia.com","port":27025,"enabled":true,"region":"eu","cc":"de","latitude":50.110924,"longitude":8.682127,"reserved":0,"last_update":"0001-01-01T00:00:00Z","name_a2s":"Uncletopia | Frankfurt | 2 | All Maps","protocol":17,"map":"pl_barnblitz","folder":"tf","game":"Team Fortress","app_id":440,"player_count":24,"max_players":24,"Bots":0,"server_type":"Dedicated","server_os":"Linux","password":true,"vac":true,"version":"7757534","steam_id":85568392924469990,"keywords":["nocrits","nodmgspread","payload","uncletopia"],"game_id":440,"stv_port":27026,"stv_name":"Uncletopia | Frankfurt | 2 | All Maps | STV","players":[{"user_id":318,"name":"Old Beavis","steam_id":76561198065951617,"connected_time":2982000000000,"state":"active","ping":69},{"user_id":357,"name":"Creme Fraiche","steam_id":76561198052466306,"connected_time":1579000000000,"state":"active","ping":67},{"user_id":362,"name":"[FIN KFC]","steam_id":76561199001928845,"connected_time":355000000000,"state":"active","ping":138},{"user_id":337,"name":"[Unga Bunga] Beggar","steam_id":76561198990955923,"connected_time":2448000000000,"state":"active","ping":57},{"user_id":350,"name":"[Unga Bunga] Bugger","steam_id":76561198990438917,"connected_time":1830000000000,"state":"active","ping":69},{"user_id":320,"name":"Kaujuc™","steam_id":76561198059702273,"connected_time":2922000000000,"state":"active","ping":50},{"user_id":326,"name":"zek","steam_id":76561198862763731,"connected_time":2677000000000,"state":"active","ping":55},{"user_id":351,"name":"Doriian","steam_id":76561198071438810,"connected_time":1817000000000,"state":"active","ping":75},{"user_id":347,"name":"Premysl","steam_id":76561198075584825,"connected_time":1973000000000,"state":"active","ping":52},{"user_id":355,"name":"simplistic","steam_id":76561198231690748,"connected_time":1726000000000,"state":"active","ping":75},{"user_id":343,"name":"Schmidt","steam_id":76561198001058733,"connected_time":2161000000000,"state":"active","ping":105},{"user_id":359,"name":"Samaruun","steam_id":76561198048841418,"connected_time":1359000000000,"state":"active","ping":58},{"user_id":356,"name":"Mao Zedong","steam_id":76561198347020945,"connected_time":1639000000000,"state":"active","ping":82},{"user_id":352,"name":"Giovine Killjoy","steam_id":76561198059375315,"connected_time":1812000000000,"state":"active","ping":67},{"user_id":331,"name":"Ilya","steam_id":76561198150513420,"connected_time":2622000000000,"state":"active","ping":102},{"user_id":308,"name":"Gordon Birdman","steam_id":76561198013382324,"connected_time":4593000000000,"state":"active","ping":73},{"user_id":330,"name":"UltimateAura","steam_id":76561198338361324,"connected_time":2643000000000,"state":"active","ping":49},{"user_id":287,"name":"yyny","steam_id":76561198066287297,"connected_time":6262000000000,"state":"active","ping":57},{"user_id":358,"name":"Нікітрон","steam_id":76561198044401080,"connected_time":1483000000000,"state":"active","ping":60},{"user_id":353,"name":"ඞ","steam_id":76561198351154533,"connected_time":1782000000000,"state":"active","ping":67},{"user_id":361,"name":"Palettenbrett","steam_id":76561198124162943,"connected_time":854000000000,"state":"active","ping":70},{"user_id":345,"name":"Rez","steam_id":76561198410598772,"connected_time":2132000000000,"state":"active","ping":51},{"user_id":354,"name":"Kayy","steam_id":76561198030350848,"connected_time":1776000000000,"state":"active","ping":69},{"user_id":336,"name":"estrogen deliver","steam_id":76561198190259726,"connected_time":2547000000000,"state":"active","ping":85}]},{"server_id":308,"name":"Uncletopia | Frankfurt | 3 | All Maps","name_short":"frk-3","host":"frk-1.de.uncletopia.com","port":27035,"enabled":true,"region":"eu","cc":"de","latitude":50.110924,"longitude":8.682127,"reserved":0,"last_update":"0001-01-01T00:00:00Z","name_a2s":"Uncletopia | Frankfurt | 3 | All Maps","protocol":17,"map":"cp_process_final","folder":"tf","game":"Team Fortress","app_id":440,"player_count":0,"max_players":24,"Bots":0,"server_type":"Dedicated","server_os":"Linux","password":true,"vac":true,"version":"7757534","steam_id":85568392924504274,"keywords":["cp","nocrits","nodmgspread","uncletopia"],"game_id":440,"stv_port":27036,"stv_name":"Uncletopia | Frankfurt | 3 | All Maps | STV","players":null},{"server_id":309,"name":"Uncletopia | Frankfurt | 4 | All Maps","name_short":"frk-4","host":"frk-1.de.uncletopia.com","port":27045,"enabled":true,"region":"eu","cc":"de","latitude":50.110924,"longitude":8.682127,"reserved":0,"last_update":"0001-01-01T00:00:00Z","name_a2s":"Uncletopia | Frankfurt | 4 | All Maps","protocol":17,"map":"pl_swiftwater_final1","folder":"tf","game":"Team Fortress","app_id":440,"player_count":20,"max_players":24,"Bots":0,"server_type":"Dedicated","server_os":"Linux","password":true,"vac":true,"version":"7757534","steam_id":85568392924504275,"keywords":["nocrits","nodmgspread","payload","uncletopia"],"game_id":440,"stv_port":27046,"stv_name":"Uncletopia | Frankfurt | 4 | All Maps | STV","players":[{"user_id":9,"name":"Yoio","steam_id":76561198326661498,"connected_time":6629000000000,"state":"active","ping":76},{"user_id":46,"name":"Average meme enjoyer","steam_id":76561199087566663,"connected_time":3729000000000,"state":"active","ping":79},{"user_id":56,"name":"I LOVE THE HIGH GROUND","steam_id":76561198989449047,"connected_time":3507000000000,"state":"active","ping":128},{"user_id":14,"name":"( ͡ ͡° ͜ ʖ ͡ ͡°) \\ ☞","steam_id":76561198084597975,"connected_time":5564000000000,"state":"active","ping":66},{"user_id":67,"name":"feed","steam_id":76561198311512285,"connected_time":2541000000000,"state":"active","ping":94},{"user_id":49,"name":"Nyguus","steam_id":76561198198944159,"connected_time":3682000000000,"state":"active","ping":95},{"user_id":79,"name":"plazma","steam_id":76561198886594048,"connected_time":1707000000000,"state":"active","ping":81},{"user_id":98,"name":"djent","steam_id":76561198324934874,"connected_time":855000000000,"state":"active","ping":76},{"user_id":103,"name":"『Albato』","steam_id":76561198051342255,"connected_time":418000000000,"state":"active","ping":44},{"user_id":81,"name":"ssd","steam_id":76561198058479009,"connected_time":1510000000000,"state":"active","ping":56},{"user_id":74,"name":"dalthurae","steam_id":76561198006477551,"connected_time":2085000000000,"state":"active","ping":54},{"user_id":26,"name":"LAYNOSTAYKO","steam_id":76561198218557183,"connected_time":4859000000000,"state":"active","ping":87},{"user_id":101,"name":"ijustsmokeandcry","steam_id":76561198044189114,"connected_time":522000000000,"state":"active","ping":53},{"user_id":107,"name":"0xDEADBEEF","steam_id":76561199075416111,"connected_time":126000000000,"state":"active","ping":92},{"user_id":34,"name":"Skeletros","steam_id":76561198130969152,"connected_time":4480000000000,"state":"active","ping":136},{"user_id":105,"name":"invasion","steam_id":76561198235739036,"connected_time":359000000000,"state":"active","ping":75},{"user_id":78,"name":"Hydnhof","steam_id":76561198120989805,"connected_time":1863000000000,"state":"active","ping":69},{"user_id":71,"name":"Guru","steam_id":76561198093853069,"connected_time":2249000000000,"state":"active","ping":53},{"user_id":40,"name":"Yoshikage Kira","steam_id":76561199051752886,"connected_time":4285000000000,"state":"active","ping":54},{"user_id":92,"name":"peams","steam_id":76561198343328308,"connected_time":1289000000000,"state":"active","ping":55}]},{"server_id":310,"name":"Uncletopia | Frankfurt | 5 | All Maps","name_short":"frk-5","host":"frk-1.de.uncletopia.com","port":27055,"enabled":true,"region":"eu","cc":"de","latitude":50.110924,"longitude":8.682127,"reserved":0,"last_update":"0001-01-01T00:00:00Z","name_a2s":"Uncletopia | Frankfurt | 5 | All Maps","protocol":17,"map":"pl_upward","folder":"tf","game":"Team Fortress","app_id":440,"player_count":24,"max_players":24,"Bots":0,"server_type":"Dedicated","server_os":"Linux","password":true,"vac":true,"version":"7757534","steam_id":85568392924504277,"keywords":["nocrits","nodmgspread","payload","uncletopia"],"game_id":440,"stv_port":27056,"stv_name":"Uncletopia | Frankfurt | 5 | All Maps | STV","players":[{"user_id":125,"name":"SaphriX","steam_id":76561198092239262,"connected_time":3428000000000,"state":"active","ping":52},{"user_id":178,"name":"Spoody #JustPassing","steam_id":76561198031523769,"connected_time":101000000000,"state":"active","ping":45},{"user_id":160,"name":"happy","steam_id":76561198053141766,"connected_time":1011000000000,"state":"active","ping":90},{"user_id":155,"name":"Welder","steam_id":76561198355300561,"connected_time":1292000000000,"state":"active","ping":70},{"user_id":173,"name":"Lyell","steam_id":76561198350329389,"connected_time":321000000000,"state":"active","ping":83},{"user_id":180,"name":"video game enjoyer","steam_id":76561198045505082,"connected_time":45000000000,"state":"active","ping":69},{"user_id":149,"name":"Latgaul","steam_id":76561199009145544,"connected_time":1741000000000,"state":"active","ping":98},{"user_id":97,"name":"Menty","steam_id":76561198036748212,"connected_time":4503000000000,"state":"active","ping":45},{"user_id":138,"name":"citronous","steam_id":76561198093290934,"connected_time":2420000000000,"state":"active","ping":57},{"user_id":99,"name":"leminsc8","steam_id":76561198825084995,"connected_time":4432000000000,"state":"active","ping":43},{"user_id":130,"name":"ILDPRUT","steam_id":76561198024545611,"connected_time":3280000000000,"state":"active","ping":52},{"user_id":163,"name":"ZeeZer0","steam_id":76561198043828441,"connected_time":836000000000,"state":"active","ping":45},{"user_id":152,"name":"I miss a lot","steam_id":76561198185322979,"connected_time":1526000000000,"state":"active","ping":52},{"user_id":165,"name":"rmz.ssj","steam_id":76561198329613930,"connected_time":779000000000,"state":"active","ping":60},{"user_id":179,"name":"amjadgx9","steam_id":76561199388681087,"connected_time":91000000000,"state":"active","ping":124},{"user_id":113,"name":"CRAZY VIKING","steam_id":76561198061440669,"connected_time":3735000000000,"state":"active","ping":67},{"user_id":150,"name":"Alfred2.2","steam_id":76561198339314744,"connected_time":1733000000000,"state":"active","ping":71},{"user_id":166,"name":"Delacroix","steam_id":76561198842964669,"connected_time":779000000000,"state":"active","ping":151},{"user_id":177,"name":"pebbles","steam_id":76561198884449271,"connected_time":132000000000,"state":"active","ping":63},{"user_id":176,"name":"Albert Einstein","steam_id":76561198351190006,"connected_time":160000000000,"state":"active","ping":155},{"user_id":151,"name":"LV. 90 BOSS","steam_id":76561198248574732,"connected_time":1686000000000,"state":"active","ping":77},{"user_id":116,"name":"burger","steam_id":76561198071674964,"connected_time":3722000000000,"state":"active","ping":69},{"user_id":122,"name":"MS","steam_id":76561198037560108,"connected_time":3511000000000,"state":"active","ping":46},{"user_id":121,"name":"skittish maiden","steam_id":76561198096856475,"connected_time":3558000000000,"state":"active","ping":45}]},{"server_id":311,"name":"Uncletopia | Frankfurt | 6 | All Maps","name_short":"frk-6","host":"frk-1.de.uncletopia.com","port":27065,"enabled":true,"region":"eu","cc":"de","latitude":50.110924,"longitude":8.682127,"reserved":0,"last_update":"0001-01-01T00:00:00Z","name_a2s":"Uncletopia | Frankfurt | 6 | All Maps","protocol":17,"map":"pl_upward","folder":"tf","game":"Team Fortress","app_id":440,"player_count":24,"max_players":24,"Bots":0,"server_type":"Dedicated","server_os":"Linux","password":true,"vac":true,"version":"7757534","steam_id":85568392924504278,"keywords":["nocrits","nodmgspread","payload","uncletopia"],"game_id":440,"stv_port":27066,"stv_name":"Uncletopia | Frankfurt | 6 | All Maps | STV","players":[{"user_id":136,"name":"nachtraaf","steam_id":76561197960473205,"connected_time":127000000000,"state":"active","ping":60},{"user_id":135,"name":"7-Zip","steam_id":76561198099726966,"connected_time":483000000000,"state":"active","ping":101},{"user_id":128,"name":"Silverowl","steam_id":76561198045773877,"connected_time":1281000000000,"state":"active","ping":59},{"user_id":122,"name":"zaleek69","steam_id":76561198058877595,"connected_time":1329000000000,"state":"active","ping":60},{"user_id":108,"name":"Well","steam_id":76561198411337640,"connected_time":2732000000000,"state":"active","ping":90},{"user_id":137,"name":"Fizzing Fool","steam_id":76561198425415033,"connected_time":102000000000,"state":"active","ping":103},{"user_id":79,"name":"toust","steam_id":76561199103417422,"connected_time":4419000000000,"state":"active","ping":58},{"user_id":109,"name":"verm man","steam_id":76561198891698133,"connected_time":2727000000000,"state":"active","ping":73},{"user_id":123,"name":"Kremete","steam_id":76561198047984096,"connected_time":1319000000000,"state":"active","ping":75},{"user_id":131,"name":"Dunya","steam_id":76561198041371314,"connected_time":1143000000000,"state":"active","ping":133},{"user_id":138,"name":"aimee","steam_id":76561198834309212,"connected_time":87000000000,"state":"active","ping":147},{"user_id":98,"name":"SEMIK","steam_id":76561199088506542,"connected_time":3907000000000,"state":"active","ping":54},{"user_id":139,"name":"Flump","steam_id":76561198106352373,"connected_time":86000000000,"state":"active","ping":60},{"user_id":113,"name":"Boki","steam_id":76561198044553351,"connected_time":2287000000000,"state":"active","ping":75},{"user_id":141,"name":"Mike Rizzowski","steam_id":76561198798657045,"connected_time":9000000000,"state":"active","ping":71},{"user_id":82,"name":"StringSteve","steam_id":76561199071327816,"connected_time":4364000000000,"state":"active","ping":81},{"user_id":41,"name":"Kenopsia","steam_id":76561198126750888,"connected_time":6437000000000,"state":"active","ping":86},{"user_id":126,"name":"テイルス","steam_id":76561198022403271,"connected_time":1306000000000,"state":"active","ping":45},{"user_id":140,"name":"Mailer","steam_id":76561198062690074,"connected_time":80000000000,"state":"active","ping":64},{"user_id":127,"name":"n-ski","steam_id":76561198020550849,"connected_time":1298000000000,"state":"active","ping":76},{"user_id":106,"name":"Wdfrodo","steam_id":76561198985647263,"connected_time":2748000000000,"state":"active","ping":69},{"user_id":83,"name":"Equinox","steam_id":76561199055592635,"connected_time":4324000000000,"state":"active","ping":74},{"user_id":129,"name":"Jay.k","steam_id":76561198079387590,"connected_time":1277000000000,"state":"active","ping":79},{"user_id":130,"name":"AYE","steam_id":76561198181368101,"connected_time":1255000000000,"state":"active","ping":53}]},{"server_id":23,"name":"Uncletopia | Frankfurt | 7 | Stopwatch Beta","name_short":"frk-7","host":"frk-1.de.uncletopia.com","port":27075,"enabled":true,"region":"eu","cc":"de","latitude":50.110924,"longitude":8.682127,"reserved":0,"last_update":"0001-01-01T00:00:00Z","name_a2s":"Uncletopia | Frankfurt | 7 | Stopwatch Beta","protocol":17,"map":"pl_borneo","folder":"tf","game":"Team Fortress","app_id":440,"player_count":0,"max_players":24,"Bots":0,"server_type":"Dedicated","server_os":"Linux","password":true,"vac":true,"version":"7757534","steam_id":85568392924742827,"keywords":["nocrits","nodmgspread","payload","uncletopia"],"game_id":440,"stv_port":27076,"stv_name":"Uncletopia | Frankfurt | 7 | Stopwatch Beta | STV","players":null},{"server_id":24,"name":"Uncletopia | Frankfurt | 8 | Community","name_short":"frk-8","host":"frk-1.de.uncletopia.com","port":27085,"enabled":true,"region":"eu","cc":"de","latitude":50.110924,"longitude":8.682127,"reserved":0,"last_update":"0001-01-01T00:00:00Z","name_a2s":"Uncletopia | Frankfurt | 8 | Community","protocol":17,"map":"koth_cascade","folder":"tf","game":"Team Fortress","app_id":440,"player_count":0,"max_players":24,"Bots":0,"server_type":"Dedicated","server_os":"Linux","password":true,"vac":true,"version":"7757534","steam_id":85568392924742828,"keywords":["cp","nocrits","nodmgspread","uncletopia"],"game_id":440,"stv_port":27086,"stv_name":"Uncletopia | Frankfurt | 8 | Community | STV","players":null},{"server_id":202,"name":"Uncletopia | Hong Kong | 1 | All Maps","name_short":"hgk-1","host":"hgk-1.hk.uncletopia.com","port":27015,"enabled":true,"region":"asia","cc":"hk","latitude":22.302711,"longitude":114.177216,"reserved":0,"last_update":"0001-01-01T00:00:00Z","name_a2s":"Uncletopia | Hong Kong | 1 | All Maps","protocol":17,"map":"pl_frontier_final","folder":"tf","game":"Team Fortress","app_id":440,"player_count":22,"max_players":24,"Bots":0,"server_type":"Dedicated","server_os":"Linux","password":true,"vac":true,"version":"7757534","steam_id":85568392924494504,"keywords":["nocrits","nodmgspread","payload","uncletopia"],"game_id":440,"stv_port":27016,"stv_name":"Uncletopia | Hong Kong | 1 | All Maps | STV","players":[{"user_id":618,"name":"silverhouse7","steam_id":76561198349634906,"connected_time":8209000000000,"state":"active","ping":81},{"user_id":759,"name":"SICSIN","steam_id":76561198083923462,"connected_time":455000000000,"state":"active","ping":76},{"user_id":760,"name":"Momoxhien","steam_id":76561198414997429,"connected_time":452000000000,"state":"active","ping":61},{"user_id":697,"name":"Violezine","steam_id":76561199000502615,"connected_time":6609000000000,"state":"active","ping":88},{"user_id":749,"name":"domjni","steam_id":76561198287931508,"connected_time":1070000000000,"state":"active","ping":76},{"user_id":752,"name":"killman47","steam_id":76561198348487408,"connected_time":860000000000,"state":"active","ping":41},{"user_id":730,"name":"moguizhong","steam_id":76561198152588681,"connected_time":2119000000000,"state":"active","ping":82},{"user_id":758,"name":"1673*","steam_id":76561198338911926,"connected_time":579000000000,"state":"active","ping":59},{"user_id":761,"name":"Nimbus","steam_id":76561198877713016,"connected_time":360000000000,"state":"active","ping":93},{"user_id":766,"name":"hasty","steam_id":76561198439382132,"connected_time":104000000000,"state":"active","ping":116},{"user_id":764,"name":"juan233","steam_id":76561198867566247,"connected_time":200000000000,"state":"active","ping":104},{"user_id":770,"name":"QWQ","steam_id":76561198886731650,"connected_time":3000000000,"state":"spawning","ping":90},{"user_id":722,"name":"Cloud","steam_id":76561198272454184,"connected_time":3363000000000,"state":"active","ping":101},{"user_id":750,"name":"i poop standing up","steam_id":76561199107098137,"connected_time":1016000000000,"state":"active","ping":119},{"user_id":754,"name":"Gotta be Mad","steam_id":76561198013546584,"connected_time":818000000000,"state":"active","ping":61},{"user_id":768,"name":"AtaTheMen","steam_id":76561199310425804,"connected_time":99000000000,"state":"active","ping":398},{"user_id":703,"name":"tiden2000","steam_id":76561198092969425,"connected_time":6113000000000,"state":"active","ping":105},{"user_id":739,"name":"gilsomnia","steam_id":76561198830813639,"connected_time":1892000000000,"state":"active","ping":114},{"user_id":721,"name":"ey","steam_id":76561198413116920,"connected_time":3383000000000,"state":"active","ping":75},{"user_id":570,"name":"母の肉団子","steam_id":76561198069561896,"connected_time":9026000000000,"state":"active","ping":40},{"user_id":756,"name":"Guns","steam_id":76561198109372394,"connected_time":712000000000,"state":"active","ping":70},{"user_id":662,"name":"AmaiToxic","steam_id":76561199122491157,"connected_time":7482000000000,"state":"active","ping":76}]},{"server_id":1,"name":"Uncletopia | Los Angeles | 1 | All Maps","name_short":"lax-1","host":"lax-1.us.uncletopia.com","port":27015,"enabled":true,"region":"us-west","cc":"us","latitude":33.94279,"longitude":-118.41004,"reserved":0,"last_update":"0001-01-01T00:00:00Z","name_a2s":"Uncletopia | Los Angeles | 1 | All Maps","protocol":17,"map":"koth_viaduct","folder":"tf","game":"Team Fortress","app_id":440,"player_count":0,"max_players":24,"Bots":0,"server_type":"Dedicated","server_os":"Linux","password":true,"vac":true,"version":"7757534","steam_id":85568392924469991,"keywords":["cp","nocrits","nodmgspread","uncletopia"],"game_id":440,"stv_port":27016,"stv_name":"Uncletopia | Los Angeles | 1 | All Maps | STV","players":null},{"server_id":112,"name":"Uncletopia | Los Angeles | 2 | All Maps","name_short":"lax-2","host":"lax-1.us.uncletopia.com","port":27025,"enabled":true,"region":"us-west","cc":"us","latitude":33.94279,"longitude":-118.41004,"reserved":0,"last_update":"0001-01-01T00:00:00Z","name_a2s":"Uncletopia | Los Angeles | 2 | All Maps","protocol":17,"map":"cp_mountainlab","folder":"tf","game":"Team Fortress","app_id":440,"player_count":0,"max_players":24,"Bots":0,"server_type":"Dedicated","server_os":"Linux","password":true,"vac":true,"version":"7757534","steam_id":85568392924469992,"keywords":["cp","nocrits","nodmgspread","uncletopia"],"game_id":440,"stv_port":27026,"stv_name":"Uncletopia | Los Angeles | 2 | All Maps | STV","players":null},{"server_id":324,"name":"Uncletopia | Los Angeles | 3 | All Maps","name_short":"lax-3","host":"lax-1.us.uncletopia.com","port":27035,"enabled":true,"region":"us-west","cc":"us","latitude":33.94279,"longitude":-118.41004,"reserved":0,"last_update":"0001-01-01T00:00:00Z","name_a2s":"Uncletopia | Los Angeles | 3 | All Maps","protocol":17,"map":"cp_snakewater_final1","folder":"tf","game":"Team Fortress","app_id":440,"player_count":0,"max_players":24,"Bots":0,"server_type":"Dedicated","server_os":"Linux","password":true,"vac":true,"version":"7757534","steam_id":85568392924510198,"keywords":["cp","nocrits","nodmgspread","uncletopia"],"game_id":440,"stv_port":27036,"stv_name":"Uncletopia | Los Angeles | 3 | All Maps | STV","players":null},{"server_id":25,"name":"Uncletopia | Los Angeles | 4 | Stopwatch Beta","name_short":"lax-4","host":"lax-1.us.uncletopia.com","port":27045,"enabled":true,"region":"us-west","cc":"us","latitude":33.94279,"longitude":-118.41004,"reserved":0,"last_update":"0001-01-01T00:00:00Z","name_a2s":"Uncletopia | Los Angeles | 4 | Stopwatch Beta","protocol":17,"map":"koth_viaduct","folder":"tf","game":"Team Fortress","app_id":440,"player_count":0,"max_players":24,"Bots":0,"server_type":"Dedicated","server_os":"Linux","password":true,"vac":true,"version":"7757534","steam_id":85568392924510199,"keywords":["cp","nocrits","nodmgspread","uncletopia"],"game_id":440,"stv_port":27046,"stv_name":"Uncletopia | Los Angeles | 4 | Stopwatch Beta | STV","players":null},{"server_id":11,"name":"Uncletopia | London | 1 | All Maps","name_short":"lon-1","host":"lon-1.uk.uncletopia.com","port":27015,"enabled":true,"region":"eu","cc":"gb","latitude":51.509865,"longitude":-0.118092,"reserved":0,"last_update":"0001-01-01T00:00:00Z","name_a2s":"Uncletopia | London | 1 | All Maps","protocol":17,"map":"pl_frontier_final","folder":"tf","game":"Team Fortress","app_id":440,"player_count":24,"max_players":24,"Bots":0,"server_type":"Dedicated","server_os":"Linux","password":true,"vac":true,"version":"7757534","steam_id":85568392924367362,"keywords":["nocrits","nodmgspread","payload","uncletopia"],"game_id":440,"stv_port":27016,"stv_name":"Uncletopia | London | 1 | All Maps | STV","players":[{"user_id":344,"name":"Dexity","steam_id":76561198056130461,"connected_time":4140000000000,"state":"active","ping":56},{"user_id":387,"name":"JOHN GAMING (based)","steam_id":76561199085822219,"connected_time":1001000000000,"state":"active","ping":90},{"user_id":388,"name":"✪ Danny","steam_id":76561198104483241,"connected_time":661000000000,"state":"active","ping":48},{"user_id":348,"name":"tm","steam_id":76561198256619964,"connected_time":4100000000000,"state":"active","ping":81},{"user_id":330,"name":"Fran","steam_id":76561199070516960,"connected_time":4927000000000,"state":"active","ping":70},{"user_id":404,"name":"cris","steam_id":76561198047662200,"connected_time":24000000000,"state":"active","ping":47},{"user_id":385,"name":"Wiltaar","steam_id":76561198055530717,"connected_time":1154000000000,"state":"active","ping":57},{"user_id":338,"name":"ivanmixo","steam_id":76561198160213989,"connected_time":4731000000000,"state":"active","ping":69},{"user_id":368,"name":"Nebunuliii","steam_id":76561198953360954,"connected_time":2284000000000,"state":"active","ping":87},{"user_id":361,"name":"Spageti","steam_id":76561198074122906,"connected_time":2566000000000,"state":"active","ping":89},{"user_id":383,"name":"jona3838","steam_id":76561199097658195,"connected_time":1278000000000,"state":"active","ping":93},{"user_id":391,"name":"onku","steam_id":76561199230709660,"connected_time":520000000000,"state":"active","ping":61},{"user_id":370,"name":"RubyTheUnicorn","steam_id":76561198091772218,"connected_time":2236000000000,"state":"active","ping":61},{"user_id":401,"name":"Yessirskiii","steam_id":76561198179324075,"connected_time":158000000000,"state":"active","ping":63},{"user_id":398,"name":"obscure","steam_id":76561198119532381,"connected_time":360000000000,"state":"active","ping":52},{"user_id":354,"name":"Ark-e","steam_id":76561198261870909,"connected_time":3059000000000,"state":"active","ping":38},{"user_id":390,"name":"Mommy Harper♥","steam_id":76561199441240601,"connected_time":551000000000,"state":"active","ping":101},{"user_id":402,"name":"trans werewolf","steam_id":76561198107235989,"connected_time":138000000000,"state":"active","ping":66},{"user_id":315,"name":"Jørn","steam_id":76561199073257952,"connected_time":6285000000000,"state":"active","ping":76},{"user_id":377,"name":"A Succulent Chinese Meal","steam_id":76561198069472440,"connected_time":1711000000000,"state":"active","ping":60},{"user_id":386,"name":"Meaty","steam_id":76561198047728158,"connected_time":1067000000000,"state":"active","ping":44},{"user_id":399,"name":"GARbageTrash","steam_id":76561199101269633,"connected_time":355000000000,"state":"active","ping":97},{"user_id":395,"name":"Mr. Hunts","steam_id":76561197981910397,"connected_time":485000000000,"state":"active","ping":63},{"user_id":403,"name":"Bucket","steam_id":76561198814907468,"connected_time":65000000000,"state":"active","ping":41}]},{"server_id":114,"name":"Uncletopia | London | 2 | All Maps","name_short":"lon-2","host":"lon-1.uk.uncletopia.com","port":27025,"enabled":true,"region":"eu","cc":"gb","latitude":51.509865,"longitude":-0.118092,"reserved":0,"last_update":"0001-01-01T00:00:00Z","name_a2s":"Uncletopia | London | 2 | All Maps","protocol":17,"map":"ctf_2fort","folder":"tf","game":"Team Fortress","app_id":440,"player_count":24,"max_players":24,"Bots":0,"server_type":"Dedicated","server_os":"Linux","password":true,"vac":true,"version":"7757534","steam_id":85568392924470941,"keywords":["ctf","nocrits","nodmgspread","uncletopia"],"game_id":440,"stv_port":27026,"stv_name":"Uncletopia | London | 2 | All Maps | STV","players":[{"user_id":537,"name":"Zerzark","steam_id":76561198070118903,"connected_time":1054000000000,"state":"active","ping":56},{"user_id":475,"name":"Salad's Warband","steam_id":76561198214089583,"connected_time":5145000000000,"state":"active","ping":57},{"user_id":564,"name":"H00m4n_P3r50n #savetf2","steam_id":76561199205261307,"connected_time":222000000000,"state":"active","ping":54},{"user_id":560,"name":"Soya Suki","steam_id":76561197998106435,"connected_time":324000000000,"state":"active","ping":45},{"user_id":531,"name":"Вадим Какашкин","steam_id":76561198383509320,"connected_time":1748000000000,"state":"active","ping":80},{"user_id":525,"name":"AndroKing","steam_id":76561198840591678,"connected_time":2185000000000,"state":"active","ping":89},{"user_id":506,"name":"Mr.Kevin120","steam_id":76561199186919096,"connected_time":2690000000000,"state":"active","ping":158},{"user_id":530,"name":"Koi-Koi","steam_id":76561198045527771,"connected_time":1784000000000,"state":"active","ping":57},{"user_id":557,"name":"Nitroless","steam_id":76561198390931328,"connected_time":516000000000,"state":"active","ping":79},{"user_id":312,"name":"john fortress","steam_id":76561198013237629,"connected_time":14965000000000,"state":"active","ping":84},{"user_id":533,"name":"darktheif54","steam_id":76561198043650119,"connected_time":1452000000000,"state":"active","ping":55},{"user_id":515,"name":"Swagger64","steam_id":76561198158347026,"connected_time":2451000000000,"state":"active","ping":95},{"user_id":516,"name":"Dimitri_612","steam_id":76561199223984137,"connected_time":2448000000000,"state":"active","ping":54},{"user_id":521,"name":"Xtreme™","steam_id":76561198050144913,"connected_time":2407000000000,"state":"active","ping":75},{"user_id":480,"name":"suna militisto","steam_id":76561198352926998,"connected_time":4816000000000,"state":"active","ping":105},{"user_id":555,"name":"KeanuCheems","steam_id":76561198145580689,"connected_time":663000000000,"state":"active","ping":86},{"user_id":548,"name":"Estrogen Overdoser","steam_id":76561198288776967,"connected_time":887000000000,"state":"active","ping":80},{"user_id":559,"name":"the real lancer from deltarune","steam_id":76561199078505144,"connected_time":341000000000,"state":"active","ping":75},{"user_id":562,"name":"klv","steam_id":76561198052158288,"connected_time":284000000000,"state":"active","ping":92},{"user_id":421,"name":"LordTrap.exe","steam_id":76561198318089716,"connected_time":8566000000000,"state":"active","ping":56},{"user_id":552,"name":"Dispenser","steam_id":76561199383851079,"connected_time":817000000000,"state":"active","ping":73},{"user_id":503,"name":"tur$turi","steam_id":76561198082954375,"connected_time":3156000000000,"state":"active","ping":93},{"user_id":545,"name":"Activating the Barrier","steam_id":76561198174510235,"connected_time":927000000000,"state":"active","ping":58},{"user_id":567,"name":"CouchPotato","steam_id":76561198849369915,"connected_time":51000000000,"state":"active","ping":54}]},{"server_id":320,"name":"Uncletopia | London | 3 | All Maps","name_short":"lon-3","host":"lon-1.uk.uncletopia.com","port":27035,"enabled":true,"region":"eu","cc":"gb","latitude":51.509865,"longitude":-0.118092,"reserved":0,"last_update":"0001-01-01T00:00:00Z","name_a2s":"Uncletopia | London | 3 | All Maps","protocol":17,"map":"pl_frontier_final","folder":"tf","game":"Team Fortress","app_id":440,"player_count":24,"max_players":24,"Bots":0,"server_type":"Dedicated","server_os":"Linux","password":true,"vac":true,"version":"7757534","steam_id":85568392924510192,"keywords":["nocrits","nodmgspread","payload","uncletopia"],"game_id":440,"stv_port":27036,"stv_name":"Uncletopia | London | 3 | All Maps | STV","players":[{"user_id":184,"name":"Vikud","steam_id":76561199110575856,"connected_time":4522000000000,"state":"active","ping":153},{"user_id":115,"name":".::[SerafeTTiN]::.","steam_id":76561198009471724,"connected_time":9123000000000,"state":"active","ping":98},{"user_id":193,"name":"✪ qua ✪","steam_id":76561198066408333,"connected_time":3974000000000,"state":"active","ping":75},{"user_id":169,"name":"After8","steam_id":76561198090750865,"connected_time":5301000000000,"state":"active","ping":74},{"user_id":210,"name":"Nickbro101","steam_id":76561198044271692,"connected_time":927000000000,"state":"active","ping":48},{"user_id":216,"name":"Sodsboy","steam_id":76561198030482006,"connected_time":581000000000,"state":"active","ping":44},{"user_id":223,"name":"piece of mind","steam_id":76561198263466276,"connected_time":64000000000,"state":"active","ping":59},{"user_id":173,"name":"Hot Beverage Enjoyer","steam_id":76561198060638325,"connected_time":5184000000000,"state":"active","ping":48},{"user_id":205,"name":"Hexagon","steam_id":76561198151205758,"connected_time":1148000000000,"state":"active","ping":60},{"user_id":225,"name":"jaime8D","steam_id":76561197980590671,"connected_time":53000000000,"state":"active","ping":90},{"user_id":218,"name":"Theresa May's nips","steam_id":76561199124105402,"connected_time":490000000000,"state":"active","ping":71},{"user_id":215,"name":"Atom","steam_id":76561198042963204,"connected_time":658000000000,"state":"active","ping":50},{"user_id":194,"name":"Nifi","steam_id":76561198102682566,"connected_time":3370000000000,"state":"active","ping":75},{"user_id":196,"name":"radek","steam_id":76561197998883721,"connected_time":2916000000000,"state":"active","ping":73},{"user_id":139,"name":"Cars","steam_id":76561198173329977,"connected_time":7377000000000,"state":"active","ping":49},{"user_id":162,"name":"Greenmaker","steam_id":76561198060466591,"connected_time":5837000000000,"state":"active","ping":89},{"user_id":213,"name":"GhostXD","steam_id":76561199180491944,"connected_time":694000000000,"state":"active","ping":60},{"user_id":214,"name":"Tom","steam_id":76561198008519979,"connected_time":687000000000,"state":"active","ping":59},{"user_id":222,"name":"Milfshake","steam_id":76561198208740557,"connected_time":81000000000,"state":"active","ping":60},{"user_id":227,"name":"tactical783","steam_id":76561199051688560,"connected_time":34000000000,"state":"active","ping":65},{"user_id":224,"name":"thomas","steam_id":76561198355097756,"connected_time":64000000000,"state":"spawning","ping":58},{"user_id":208,"name":"Pyrolander","steam_id":76561198050785450,"connected_time":1060000000000,"state":"active","ping":52},{"user_id":228,"name":"Fat Bloke","steam_id":76561199101664674,"connected_time":32000000000,"state":"active","ping":59},{"user_id":197,"name":"subway vergil","steam_id":76561199110064166,"connected_time":2713000000000,"state":"active","ping":56}]},{"server_id":321,"name":"Uncletopia | London | 4 | All Maps","name_short":"lon-4","host":"lon-1.uk.uncletopia.com","port":27045,"enabled":true,"region":"eu","cc":"gb","latitude":51.509865,"longitude":-0.118092,"reserved":0,"last_update":"0001-01-01T00:00:00Z","name_a2s":"Uncletopia | London | 4 | All Maps","protocol":17,"map":"pl_barnblitz","folder":"tf","game":"Team Fortress","app_id":440,"player_count":24,"max_players":24,"Bots":0,"server_type":"Dedicated","server_os":"Linux","password":true,"vac":true,"version":"7757534","steam_id":85568392924510193,"keywords":["nocrits","nodmgspread","payload","uncletopia"],"game_id":440,"stv_port":27046,"stv_name":"Uncletopia | London | 4 | All Maps | STV","players":[{"user_id":163,"name":"British Disapproval","steam_id":76561198001375260,"connected_time":2395000000000,"state":"active","ping":53},{"user_id":181,"name":"Jayco","steam_id":76561198122497262,"connected_time":1198000000000,"state":"active","ping":67},{"user_id":182,"name":"Mata_FM11","steam_id":76561198044824504,"connected_time":1048000000000,"state":"active","ping":73},{"user_id":160,"name":"The Fellow Feller","steam_id":76561198188864306,"connected_time":2563000000000,"state":"active","ping":80},{"user_id":133,"name":"M. Hulot","steam_id":76561197994284798,"connected_time":3329000000000,"state":"active","ping":64},{"user_id":183,"name":"Kris","steam_id":76561198240638652,"connected_time":497000000000,"state":"active","ping":44},{"user_id":134,"name":"Roe Jogan","steam_id":76561198871991529,"connected_time":3117000000000,"state":"active","ping":62},{"user_id":139,"name":"chopsticks","steam_id":76561198045899345,"connected_time":2942000000000,"state":"active","ping":118},{"user_id":159,"name":"M.L.JEW","steam_id":76561198997375055,"connected_time":2578000000000,"state":"active","ping":162},{"user_id":148,"name":"Aoshi","steam_id":76561198043868358,"connected_time":2773000000000,"state":"active","ping":57},{"user_id":172,"name":"[BUFF] Artgrenadier","steam_id":76561198063305359,"connected_time":1368000000000,"state":"active","ping":134},{"user_id":140,"name":"Havelyn","steam_id":76561198036159862,"connected_time":2936000000000,"state":"active","ping":138},{"user_id":141,"name":"Butt Fangs Fetish","steam_id":76561198038130063,"connected_time":2932000000000,"state":"active","ping":79},{"user_id":170,"name":"Аdаmy","steam_id":76561198059932441,"connected_time":1655000000000,"state":"active","ping":62},{"user_id":173,"name":"dopey","steam_id":76561198054224363,"connected_time":1339000000000,"state":"active","ping":57},{"user_id":168,"name":"Festive Erma","steam_id":76561198038718342,"connected_time":1782000000000,"state":"active","ping":70},{"user_id":174,"name":"Volkan, Pervert Extraordinaire","steam_id":76561198004569575,"connected_time":1335000000000,"state":"active","ping":130},{"user_id":184,"name":"ahhhhhhhhhh","steam_id":76561198271867664,"connected_time":471000000000,"state":"active","ping":52},{"user_id":149,"name":"Johnny Cockroach","steam_id":76561198049648277,"connected_time":2768000000000,"state":"active","ping":112},{"user_id":189,"name":"MAKHINA","steam_id":76561198074530948,"connected_time":117000000000,"state":"active","ping":71},{"user_id":151,"name":"Yassine","steam_id":76561198140565712,"connected_time":2748000000000,"state":"active","ping":47},{"user_id":179,"name":"TMC","steam_id":76561198077956157,"connected_time":1244000000000,"state":"active","ping":40},{"user_id":186,"name":"bad at gaem","steam_id":76561198072373587,"connected_time":463000000000,"state":"active","ping":65},{"user_id":188,"name":"Záporák","steam_id":76561198207175503,"connected_time":194000000000,"state":"active","ping":63}]},{"server_id":21,"name":"Uncletopia | London | 5 | All Maps","name_short":"lon-5","host":"lon-1.uk.uncletopia.com","port":27055,"enabled":true,"region":"eu","cc":"gb","latitude":51.509865,"longitude":-0.118092,"reserved":0,"last_update":"0001-01-01T00:00:00Z","name_a2s":"Uncletopia | London | 5 | All Maps","protocol":17,"map":"koth_highpass","folder":"tf","game":"Team Fortress","app_id":440,"player_count":0,"max_players":24,"Bots":0,"server_type":"Dedicated","server_os":"Linux","password":true,"vac":true,"version":"7757534","steam_id":85568392924742829,"keywords":["cp","nocrits","nodmgspread","uncletopia"],"game_id":440,"stv_port":27056,"stv_name":"Uncletopia | London | 5 | All Maps | STV","players":null},{"server_id":22,"name":"Uncletopia | London | 6 | All Maps","name_short":"lon-6","host":"lon-1.uk.uncletopia.com","port":27065,"enabled":true,"region":"eu","cc":"gb","latitude":51.509865,"longitude":-0.118092,"reserved":0,"last_update":"0001-01-01T00:00:00Z","name_a2s":"Uncletopia | London | 6 | All Maps","protocol":17,"map":"koth_lakeside_final","folder":"tf","game":"Team Fortress","app_id":440,"player_count":24,"max_players":24,"Bots":0,"server_type":"Dedicated","server_os":"Linux","password":true,"vac":true,"version":"7757534","steam_id":85568392924742830,"keywords":["cp","nocrits","nodmgspread","uncletopia"],"game_id":440,"stv_port":27066,"stv_name":"Uncletopia | London | 6 | All Maps | STV","players":[{"user_id":280,"name":"Iphy","steam_id":76561198137519489,"connected_time":4151000000000,"state":"active","ping":76},{"user_id":325,"name":"Leszy","steam_id":76561198372172135,"connected_time":1231000000000,"state":"active","ping":61},{"user_id":277,"name":"Borko","steam_id":76561199097266352,"connected_time":4471000000000,"state":"active","ping":90},{"user_id":289,"name":"Pan Pan","steam_id":76561199074670515,"connected_time":3339000000000,"state":"active","ping":85},{"user_id":339,"name":"New","steam_id":76561198402195911,"connected_time":148000000000,"state":"active","ping":131},{"user_id":333,"name":"=PB=","steam_id":76561197999146612,"connected_time":674000000000,"state":"active","ping":33},{"user_id":266,"name":"HUIL","steam_id":76561198973440902,"connected_time":5035000000000,"state":"active","ping":145},{"user_id":329,"name":"=Xal=","steam_id":76561198052622095,"connected_time":854000000000,"state":"active","ping":62},{"user_id":239,"name":"StandAlloy","steam_id":76561199466218699,"connected_time":6389000000000,"state":"active","ping":104},{"user_id":298,"name":"The one True Mads","steam_id":76561197999204692,"connected_time":3149000000000,"state":"active","ping":63},{"user_id":273,"name":"MasterNaglis","steam_id":76561198348834177,"connected_time":4589000000000,"state":"active","ping":81},{"user_id":315,"name":"Landsknecht","steam_id":76561199293036742,"connected_time":1958000000000,"state":"active","ping":59},{"user_id":259,"name":"bae","steam_id":76561198102360746,"connected_time":5712000000000,"state":"active","ping":71},{"user_id":336,"name":"PotatoBob","steam_id":76561199192517531,"connected_time":421000000000,"state":"active","ping":56},{"user_id":290,"name":"mge bro","steam_id":76561198796600155,"connected_time":3328000000000,"state":"active","ping":99},{"user_id":327,"name":"gnome","steam_id":76561198262275475,"connected_time":1117000000000,"state":"active","ping":157},{"user_id":288,"name":"Minimi","steam_id":76561198873850443,"connected_time":3356000000000,"state":"active","ping":44},{"user_id":316,"name":"powej","steam_id":76561198056381418,"connected_time":1952000000000,"state":"active","ping":39},{"user_id":334,"name":"Hu Yuu Hai Ding","steam_id":76561198254210743,"connected_time":535000000000,"state":"active","ping":45},{"user_id":337,"name":"kamu","steam_id":76561198367337443,"connected_time":275000000000,"state":"active","ping":90},{"user_id":323,"name":"BERLIN RP ZAKRIT","steam_id":76561198830119061,"connected_time":1262000000000,"state":"active","ping":86},{"user_id":335,"name":"SR. AGENTE JOAO","steam_id":76561198854417161,"connected_time":467000000000,"state":"active","ping":100},{"user_id":320,"name":"Estrogen Overdoser","steam_id":76561199030306982,"connected_time":1599000000000,"state":"active","ping":76},{"user_id":338,"name":"Rainlamp @SaveTF2","steam_id":76561198007394958,"connected_time":235000000000,"state":"active","ping":58}]},{"server_id":40,"name":"Uncletopia | London | 7 | No Payload","name_short":"lon-7","host":"lon-1.uk.uncletopia.com","port":27075,"enabled":true,"region":"eu","cc":"gb","latitude":51.509865,"longitude":-0.118092,"reserved":0,"last_update":"0001-01-01T00:00:00Z","name_a2s":"Uncletopia | London | 7 | No Payload","protocol":17,"map":"ctf_2fort","folder":"tf","game":"Team Fortress","app_id":440,"player_count":21,"max_players":24,"Bots":0,"server_type":"Dedicated","server_os":"Linux","password":true,"vac":true,"version":"7757534","steam_id":85568392924964314,"keywords":["ctf","nocrits","nodmgspread","uncletopia"],"game_id":440,"stv_port":27076,"stv_name":"Uncletopia | London | 7 | No Payload | STV","players":[{"user_id":316,"name":"fox_evo","steam_id":76561198280210205,"connected_time":1438000000000,"state":"active","ping":75},{"user_id":307,"name":"Spycrab101","steam_id":76561198141836805,"connected_time":1809000000000,"state":"active","ping":52},{"user_id":313,"name":"Daud","steam_id":76561199177668753,"connected_time":1584000000000,"state":"active","ping":36},{"user_id":318,"name":"Minotaur milking","steam_id":76561198799097492,"connected_time":1426000000000,"state":"active","ping":45},{"user_id":302,"name":"ArikMor","steam_id":76561199124472513,"connected_time":2029000000000,"state":"active","ping":116},{"user_id":301,"name":"Unvid","steam_id":76561198031588080,"connected_time":2035000000000,"state":"active","ping":64},{"user_id":247,"name":"Portal2Player","steam_id":76561198062870114,"connected_time":5211000000000,"state":"active","ping":135},{"user_id":346,"name":"I-I","steam_id":76561198267969436,"connected_time":71000000000,"state":"active","ping":89},{"user_id":253,"name":"Sippie","steam_id":76561198130393388,"connected_time":4879000000000,"state":"active","ping":58},{"user_id":323,"name":"2-D (secretly undercover)","steam_id":76561198287344223,"connected_time":868000000000,"state":"active","ping":102},{"user_id":324,"name":"Catboy 9S gaming","steam_id":76561197999024118,"connected_time":735000000000,"state":"active","ping":88},{"user_id":322,"name":"uncooldude","steam_id":76561198819723200,"connected_time":1084000000000,"state":"active","ping":84},{"user_id":347,"name":"t.tv/FamilyGuyFunnyMoments277","steam_id":76561198416047580,"connected_time":32000000000,"state":"active","ping":150},{"user_id":328,"name":"Whizzo","steam_id":76561198058762428,"connected_time":638000000000,"state":"active","ping":66},{"user_id":329,"name":"KarvaPerse","steam_id":76561198141907704,"connected_time":589000000000,"state":"active","ping":114},{"user_id":331,"name":"sex your mother","steam_id":76561199098942658,"connected_time":556000000000,"state":"active","ping":57},{"user_id":333,"name":"Malinok","steam_id":76561198025681131,"connected_time":463000000000,"state":"active","ping":164},{"user_id":342,"name":"asdfasdfwe","steam_id":76561198079277466,"connected_time":231000000000,"state":"active","ping":65},{"user_id":336,"name":"Drade","steam_id":76561198394605337,"connected_time":397000000000,"state":"active","ping":161},{"user_id":338,"name":"quoffee","steam_id":76561199058500526,"connected_time":337000000000,"state":"active","ping":92},{"user_id":339,"name":"nhstefanov","steam_id":76561198811811405,"connected_time":337000000000,"state":"active","ping":71}]},{"server_id":41,"name":"Uncletopia | London | 8 | Community","name_short":"lon-8","host":"lon-1.uk.uncletopia.com","port":27085,"enabled":true,"region":"eu","cc":"gb","latitude":51.509865,"longitude":-0.118092,"reserved":0,"last_update":"0001-01-01T00:00:00Z","name_a2s":"Uncletopia | London | 8 | Community","protocol":17,"map":"workshop/koth_ashville_final.ugc2130459942","folder":"tf","game":"Team Fortress","app_id":440,"player_count":0,"max_players":24,"Bots":0,"server_type":"Dedicated","server_os":"Linux","password":true,"vac":true,"version":"7757534","steam_id":85568392924964315,"keywords":["cp","nocrits","nodmgspread","uncletopia"],"game_id":440,"stv_port":27086,"stv_name":"Uncletopia | London | 8 | Community | STV","players":null},{"server_id":300,"name":"Uncletopia | Montréal | 1 | All Maps","name_short":"mtl-1","host":"mtl-1.ca.uncletopia.com","port":27015,"enabled":true,"region":"us-east","cc":"ca","latitude":45.50889,"longitude":-73.56167,"reserved":0,"last_update":"0001-01-01T00:00:00Z","name_a2s":"Uncletopia | Montréal | 1 | All Maps","protocol":17,"map":"koth_cascade","folder":"tf","game":"Team Fortress","app_id":440,"player_count":0,"max_players":24,"Bots":0,"server_type":"Dedicated","server_os":"Linux","password":true,"vac":true,"version":"7757534","steam_id":85568392924500087,"keywords":["cp","nocrits","nodmgspread","uncletopia"],"game_id":440,"stv_port":27016,"stv_name":"Uncletopia | Montréal | 1 | All Maps | STV","players":null},{"server_id":301,"name":"Uncletopia | Montréal | 2 | All Maps","name_short":"mtl-2","host":"mtl-1.ca.uncletopia.com","port":27025,"enabled":true,"region":"us-east","cc":"ca","latitude":45.50889,"longitude":-73.56167,"reserved":0,"last_update":"0001-01-01T00:00:00Z","name_a2s":"Uncletopia | Montréal | 2 | All Maps","protocol":17,"map":"pl_borneo","folder":"tf","game":"Team Fortress","app_id":440,"player_count":0,"max_players":24,"Bots":0,"server_type":"Dedicated","server_os":"Linux","password":true,"vac":true,"version":"7757534","steam_id":85568392924500088,"keywords":["nocrits","nodmgspread","payload","uncletopia"],"game_id":440,"stv_port":27026,"stv_name":"Uncletopia | Montréal | 2 | All Maps | STV","players":null},{"server_id":302,"name":"Uncletopia | Montréal | 3 | All Maps","name_short":"mtl-3","host":"mtl-1.ca.uncletopia.com","port":27035,"enabled":true,"region":"us-east","cc":"ca","latitude":45.50889,"longitude":-73.56167,"reserved":0,"last_update":"0001-01-01T00:00:00Z","name_a2s":"Uncletopia | Montréal | 3 | All Maps","protocol":17,"map":"cp_sunshine","folder":"tf","game":"Team Fortress","app_id":440,"player_count":0,"max_players":24,"Bots":0,"server_type":"Dedicated","server_os":"Linux","password":true,"vac":true,"version":"7757534","steam_id":85568392924500089,"keywords":["cp","nocrits","nodmgspread","uncletopia"],"game_id":440,"stv_port":27036,"stv_name":"Uncletopia | Montréal | 3 | All Maps | STV","players":null},{"server_id":303,"name":"Uncletopia | Montréal | 4 | No Payload","name_short":"mtl-4","host":"mtl-1.ca.uncletopia.com","port":27045,"enabled":true,"region":"us-east","cc":"ca","latitude":45.50889,"longitude":-73.56167,"reserved":0,"last_update":"0001-01-01T00:00:00Z","name_a2s":"Uncletopia | Montréal | 4 | No Payload","protocol":17,"map":"koth_lakeside_final","folder":"tf","game":"Team Fortress","app_id":440,"player_count":0,"max_players":24,"Bots":0,"server_type":"Dedicated","server_os":"Linux","password":true,"vac":true,"version":"7757534","steam_id":85568392924500090,"keywords":["cp","nocrits","nodmgspread","uncletopia"],"game_id":440,"stv_port":27046,"stv_name":"Uncletopia | Montréal | 4 | No Payload | STV","players":null},{"server_id":13,"name":"Uncletopia | New York City | 1 | All Maps","name_short":"nyc-1","host":"nyc-1.us.uncletopia.com","port":27015,"enabled":true,"region":"us-east","cc":"us","latitude":40.73061,"longitude":-73.93524,"reserved":0,"last_update":"0001-01-01T00:00:00Z","name_a2s":"Uncletopia | New York City | 1 | All Maps","protocol":17,"map":"koth_cascade","folder":"tf","game":"Team Fortress","app_id":440,"player_count":0,"max_players":24,"Bots":0,"server_type":"Dedicated","server_os":"Linux","password":true,"vac":true,"version":"7757534","steam_id":85568392924469993,"keywords":["cp","nocrits","nodmgspread","uncletopia"],"game_id":440,"stv_port":27016,"stv_name":"Uncletopia | New York City | 1 | All Maps | STV","players":null},{"server_id":14,"name":"Uncletopia | New York City | 2 | All Maps","name_short":"nyc-2","host":"nyc-1.us.uncletopia.com","port":27025,"enabled":true,"region":"us-east","cc":"us","latitude":40.73061,"longitude":-73.93524,"reserved":0,"last_update":"0001-01-01T00:00:00Z","name_a2s":"Uncletopia | New York City | 2 | All Maps","protocol":17,"map":"pl_badwater","folder":"tf","game":"Team Fortress","app_id":440,"player_count":24,"max_players":24,"Bots":0,"server_type":"Dedicated","server_os":"Linux","password":true,"vac":true,"version":"7757534","steam_id":85568392924469994,"keywords":["nocrits","nodmgspread","payload","uncletopia"],"game_id":440,"stv_port":27026,"stv_name":"Uncletopia | New York City | 2 | All Maps | STV","players":[{"user_id":5,"name":"The Rat King","steam_id":76561198913754180,"connected_time":1683000000000,"state":"active","ping":55},{"user_id":6,"name":"Elmo","steam_id":76561198838596371,"connected_time":1493000000000,"state":"active","ping":80},{"user_id":36,"name":"Saturn","steam_id":76561199239752278,"connected_time":138000000000,"state":"active","ping":70},{"user_id":37,"name":"cremeoner","steam_id":76561198372332251,"connected_time":128000000000,"state":"active","ping":37},{"user_id":9,"name":"will.e179","steam_id":76561198029341369,"connected_time":1068000000000,"state":"active","ping":88},{"user_id":10,"name":"CreativeUsername","steam_id":76561198186045503,"connected_time":886000000000,"state":"active","ping":75},{"user_id":11,"name":"super mario","steam_id":76561198311704368,"connected_time":873000000000,"state":"active","ping":65},{"user_id":13,"name":"Bonthenob","steam_id":76561198132465950,"connected_time":620000000000,"state":"active","ping":103},{"user_id":32,"name":"protogen degenerate","steam_id":76561199059816047,"connected_time":184000000000,"state":"active","ping":69},{"user_id":15,"name":"John Yakuza","steam_id":76561198112388117,"connected_time":590000000000,"state":"active","ping":77},{"user_id":16,"name":"Zenix","steam_id":76561198261817732,"connected_time":549000000000,"state":"active","ping":123},{"user_id":33,"name":"Appa","steam_id":76561198110449520,"connected_time":170000000000,"state":"active","ping":90},{"user_id":18,"name":"6t26j","steam_id":76561198278282836,"connected_time":512000000000,"state":"active","ping":57},{"user_id":19,"name":"TV","steam_id":76561198177326926,"connected_time":445000000000,"state":"active","ping":83},{"user_id":31,"name":"Yayifications","steam_id":76561198066227208,"connected_time":232000000000,"state":"active","ping":45},{"user_id":34,"name":"Bogos Binted","steam_id":76561198340250531,"connected_time":170000000000,"state":"active","ping":53},{"user_id":35,"name":"cillow","steam_id":76561198060201542,"connected_time":159000000000,"state":"active","ping":44},{"user_id":24,"name":"Ethana","steam_id":76561199243359064,"connected_time":344000000000,"state":"active","ping":69},{"user_id":25,"name":"WannaSeeA","steam_id":76561198097701042,"connected_time":343000000000,"state":"active","ping":91},{"user_id":26,"name":"Winter the Witchie","steam_id":76561198151971178,"connected_time":332000000000,"state":"active","ping":72},{"user_id":27,"name":"(Edited)","steam_id":76561198201657342,"connected_time":311000000000,"state":"active","ping":76},{"user_id":28,"name":"Pecan","steam_id":76561198209866668,"connected_time":304000000000,"state":"active","ping":126},{"user_id":29,"name":"jzplr 🎷🐛","steam_id":76561198091901520,"connected_time":299000000000,"state":"active","ping":49},{"user_id":30,"name":"Panckakebro","steam_id":76561198106419992,"connected_time":288000000000,"state":"active","ping":82}]},{"server_id":15,"name":"Uncletopia | New York City | 3 | Stopwatch Beta","name_short":"nyc-3","host":"nyc-1.us.uncletopia.com","port":27035,"enabled":true,"region":"us-east","cc":"us","latitude":40.73061,"longitude":-73.93524,"reserved":0,"last_update":"0001-01-01T00:00:00Z","name_a2s":"Uncletopia | New York City | 3 | Stopwatch Beta","protocol":17,"map":"koth_lakeside_final","folder":"tf","game":"Team Fortress","app_id":440,"player_count":0,"max_players":24,"Bots":0,"server_type":"Dedicated","server_os":"Linux","password":true,"vac":true,"version":"7757534","steam_id":85568392924742820,"keywords":["cp","nocrits","nodmgspread","uncletopia"],"game_id":440,"stv_port":27036,"stv_name":"Uncletopia | New York City | 3 | Stopwatch Beta | STV","players":null},{"server_id":16,"name":"Uncletopia | New York City | 4 | Community","name_short":"nyc-4","host":"nyc-1.us.uncletopia.com","port":27045,"enabled":true,"region":"us-east","cc":"us","latitude":40.73061,"longitude":-73.93524,"reserved":0,"last_update":"0001-01-01T00:00:00Z","name_a2s":"Uncletopia | New York City | 4 | Community","protocol":17,"map":"workshop/pl_barnblitz_pro7.ugc582280235","folder":"tf","game":"Team Fortress","app_id":440,"player_count":0,"max_players":24,"Bots":0,"server_type":"Dedicated","server_os":"Linux","password":true,"vac":true,"version":"7757534","steam_id":85568392924742821,"keywords":["nocrits","nodmgspread","payload","uncletopia"],"game_id":440,"stv_port":27046,"stv_name":"Uncletopia | New York City | 4 | Community | STV","players":null},{"server_id":142,"name":"Uncletopia | São Paulo | 1 | All Maps","name_short":"sao-1","host":"sao-1.br.uncletopia.com","port":27015,"enabled":true,"region":"sa","cc":"br","latitude":-23.533773,"longitude":-46.62529,"reserved":0,"last_update":"0001-01-01T00:00:00Z","name_a2s":"Uncletopia | São Paulo | 1 | All Maps","protocol":17,"map":"cp_process_final","folder":"tf","game":"Team Fortress","app_id":440,"player_count":0,"max_players":24,"Bots":0,"server_type":"Dedicated","server_os":"Linux","password":true,"vac":true,"version":"7757534","steam_id":85568392924469996,"keywords":["cp","nocrits","nodmgspread","uncletopia"],"game_id":440,"stv_port":27016,"stv_name":"Uncletopia | São Paulo | 1 | All Maps | STV","players":null},{"server_id":143,"name":"Uncletopia | São Paulo | 2 | All Maps","name_short":"sao-2","host":"sao-2.br.uncletopia.com","port":27015,"enabled":true,"region":"sa","cc":"br","latitude":-23.533773,"longitude":-46.62529,"reserved":0,"last_update":"0001-01-01T00:00:00Z","name_a2s":"Uncletopia | São Paulo | 2 | All Maps","protocol":17,"map":"cp_altitude","folder":"tf","game":"Team Fortress","app_id":440,"player_count":0,"max_players":24,"Bots":0,"server_type":"Dedicated","server_os":"Linux","password":true,"vac":true,"version":"7757534","steam_id":85568392924485349,"keywords":["cp","nocrits","nodmgspread","uncletopia"],"game_id":440,"stv_port":27016,"stv_name":"Uncletopia | São Paulo | 2 | All Maps | STV","players":null},{"server_id":7,"name":"Uncletopia | Seattle | 1 | All Maps","name_short":"sea-1","host":"sea-1.us.uncletopia.com","port":27015,"enabled":true,"region":"us-west","cc":"us","latitude":47.608013,"longitude":-122.33517,"reserved":0,"last_update":"0001-01-01T00:00:00Z","name_a2s":"Uncletopia | Seattle | 1 | All Maps","protocol":17,"map":"koth_harvest_final","folder":"tf","game":"Team Fortress","app_id":440,"player_count":0,"max_players":24,"Bots":0,"server_type":"Dedicated","server_os":"Linux","password":true,"vac":true,"version":"7757534","steam_id":85568392924469997,"keywords":["cp","nocrits","nodmgspread","uncletopia"],"game_id":440,"stv_port":27016,"stv_name":"Uncletopia | Seattle | 1 | All Maps | STV","players":null},{"server_id":119,"name":"Uncletopia | Seattle | 2 | All Maps","name_short":"sea-2","host":"sea-1.us.uncletopia.com","port":27025,"enabled":true,"region":"us-west","cc":"us","latitude":47.608013,"longitude":-122.33517,"reserved":0,"last_update":"0001-01-01T00:00:00Z","name_a2s":"Uncletopia | Seattle | 2 | All Maps","protocol":17,"map":"pl_borneo","folder":"tf","game":"Team Fortress","app_id":440,"player_count":0,"max_players":24,"Bots":0,"server_type":"Dedicated","server_os":"Linux","password":true,"vac":true,"version":"7757534","steam_id":85568392924469998,"keywords":["nocrits","nodmgspread","payload","uncletopia"],"game_id":440,"stv_port":27026,"stv_name":"Uncletopia | Seattle | 2 | All Maps | STV","players":null},{"server_id":406,"name":"Uncletopia | Seattle | 3 | Stopwatch Beta","name_short":"sea-3","host":"sea-1.us.uncletopia.com","port":27035,"enabled":true,"region":"us-west","cc":"us","latitude":47.608013,"longitude":-122.33517,"reserved":0,"last_update":"0001-01-01T00:00:00Z","name_a2s":"Uncletopia | Seattle | 3 | Stopwatch Beta","protocol":17,"map":"cp_sunshine","folder":"tf","game":"Team Fortress","app_id":440,"player_count":0,"max_players":24,"Bots":0,"server_type":"Dedicated","server_os":"Linux","password":true,"vac":true,"version":"7757534","steam_id":85568392924515217,"keywords":["cp","nocrits","nodmgspread","uncletopia"],"game_id":440,"stv_port":27036,"stv_name":"Uncletopia | Seattle | 3 | Stopwatch Beta | STV","players":null},{"server_id":17,"name":"Uncletopia | San Francisco | 1 | All Maps","name_short":"sfo-1","host":"sfo-1.us.uncletopia.com","port":27015,"enabled":true,"region":"us-west","cc":"us","latitude":37.77397,"longitude":-122.4313,"reserved":0,"last_update":"0001-01-01T00:00:00Z","name_a2s":"Uncletopia | San Francisco | 1 | All Maps","protocol":17,"map":"pl_frontier_final","folder":"tf","game":"Team Fortress","app_id":440,"player_count":23,"max_players":24,"Bots":0,"server_type":"Dedicated","server_os":"Linux","password":true,"vac":true,"version":"7757534","steam_id":85568392924469999,"keywords":["nocrits","nodmgspread","payload","uncletopia"],"game_id":440,"stv_port":27016,"stv_name":"Uncletopia | San Francisco | 1 | All Maps | STV","players":[{"user_id":51,"name":"Johno","steam_id":76561199231993886,"connected_time":1063000000000,"state":"active","ping":59},{"user_id":33,"name":"DK360","steam_id":76561198796783094,"connected_time":1947000000000,"state":"active","ping":75},{"user_id":13,"name":"Zokku","steam_id":76561198070185695,"connected_time":2942000000000,"state":"active","ping":129},{"user_id":15,"name":"The Great Eagle Scourge of 1822","steam_id":76561198325086209,"connected_time":2884000000000,"state":"active","ping":67},{"user_id":45,"name":"Monketron","steam_id":76561198014225523,"connected_time":1216000000000,"state":"active","ping":87},{"user_id":17,"name":"tacofever","steam_id":76561198010966507,"connected_time":2705000000000,"state":"active","ping":53},{"user_id":46,"name":"Mury","steam_id":76561198069743049,"connected_time":1194000000000,"state":"active","ping":136},{"user_id":50,"name":"Cyanid3","steam_id":76561198259972621,"connected_time":1133000000000,"state":"active","ping":68},{"user_id":16,"name":"cheese man","steam_id":76561199016285746,"connected_time":2817000000000,"state":"active","ping":58},{"user_id":59,"name":"MilimeterPeter","steam_id":76561198999725595,"connected_time":81000000000,"state":"active","ping":75},{"user_id":21,"name":"JesusLovesYouYAY","steam_id":76561199146362676,"connected_time":2455000000000,"state":"active","ping":63},{"user_id":22,"name":"Jesus Loves You57","steam_id":76561199058833769,"connected_time":2448000000000,"state":"active","ping":50},{"user_id":47,"name":"Lord Scrubling","steam_id":76561198263744445,"connected_time":1145000000000,"state":"active","ping":79},{"user_id":35,"name":"Quickxdeathx02","steam_id":76561198396771470,"connected_time":1901000000000,"state":"active","ping":75},{"user_id":53,"name":"ap","steam_id":76561198202273263,"connected_time":923000000000,"state":"active","ping":90},{"user_id":55,"name":"Team Fortress 2","steam_id":76561198334059206,"connected_time":263000000000,"state":"active","ping":45},{"user_id":32,"name":"cigarette","steam_id":76561198317827526,"connected_time":2053000000000,"state":"active","ping":127},{"user_id":39,"name":"Octis","steam_id":76561198118322999,"connected_time":1567000000000,"state":"active","ping":78},{"user_id":40,"name":"vintage","steam_id":76561198179249054,"connected_time":1532000000000,"state":"active","ping":60},{"user_id":54,"name":"Jailbreak","steam_id":76561198802085218,"connected_time":719000000000,"state":"active","ping":89},{"user_id":42,"name":"shake","steam_id":76561199064204750,"connected_time":1351000000000,"state":"active","ping":140},{"user_id":44,"name":"Jesus love you but I don't","steam_id":76561198909415646,"connected_time":1308000000000,"state":"active","ping":107},{"user_id":58,"name":"Saber","steam_id":76561198012624420,"connected_time":188000000000,"state":"active","ping":69}]},{"server_id":18,"name":"Uncletopia | San Francisco | 2 | All Maps","name_short":"sfo-2","host":"sfo-1.us.uncletopia.com","port":27025,"enabled":true,"region":"us-west","cc":"us","latitude":37.77397,"longitude":-122.4313,"reserved":0,"last_update":"0001-01-01T00:00:00Z","name_a2s":"Uncletopia | San Francisco | 2 | All Maps","protocol":17,"map":"cp_mountainlab","folder":"tf","game":"Team Fortress","app_id":440,"player_count":0,"max_players":24,"Bots":0,"server_type":"Dedicated","server_os":"Linux","password":true,"vac":true,"version":"7757534","steam_id":85568392924470000,"keywords":["cp","nocrits","nodmgspread","uncletopia"],"game_id":440,"stv_port":27026,"stv_name":"Uncletopia | San Francisco | 2 | All Maps | STV","players":null},{"server_id":19,"name":"Uncletopia | San Francisco | 3 | Stopwatch Beta","name_short":"sfo-3","host":"sfo-1.us.uncletopia.com","port":27035,"enabled":true,"region":"us-west","cc":"us","latitude":37.77397,"longitude":-122.4313,"reserved":0,"last_update":"0001-01-01T00:00:00Z","name_a2s":"Uncletopia | San Francisco | 3 | Stopwatch Beta","protocol":17,"map":"koth_viaduct","folder":"tf","game":"Team Fortress","app_id":440,"player_count":0,"max_players":24,"Bots":0,"server_type":"Dedicated","server_os":"Linux","password":true,"vac":true,"version":"7757534","steam_id":85568392924742824,"keywords":["cp","nocrits","nodmgspread","uncletopia"],"game_id":440,"stv_port":27036,"stv_name":"Uncletopia | San Francisco | 3 | Stopwatch Beta | STV","players":null},{"server_id":20,"name":"Uncletopia | San Francisco | 4 | Community","name_short":"sfo-4","host":"sfo-1.us.uncletopia.com","port":27045,"enabled":true,"region":"us-west","cc":"us","latitude":37.77397,"longitude":-122.4313,"reserved":0,"last_update":"0001-01-01T00:00:00Z","name_a2s":"Uncletopia | San Francisco | 4 | Community","protocol":17,"map":"workshop/koth_synthetic_rc6a.ugc1549817316","folder":"tf","game":"Team Fortress","app_id":440,"player_count":0,"max_players":24,"Bots":0,"server_type":"Dedicated","server_os":"Linux","password":true,"vac":true,"version":"7757534","steam_id":85568392924742826,"keywords":["cp","nocrits","nodmgspread","uncletopia"],"game_id":440,"stv_port":27046,"stv_name":"Uncletopia | San Francisco | 4 | Community | STV","players":null},{"server_id":141,"name":"Uncletopia | Sydney | 1 | All Maps","name_short":"syd-1","host":"syd-1.au.uncletopia.com","port":27015,"enabled":true,"region":"au","cc":"au","latitude":-33.865143,"longitude":151.2099,"reserved":0,"last_update":"0001-01-01T00:00:00Z","name_a2s":"Uncletopia | Sydney | 1 | All Maps","protocol":17,"map":"koth_viaduct","folder":"tf","game":"Team Fortress","app_id":440,"player_count":0,"max_players":24,"Bots":0,"server_type":"Dedicated","server_os":"Linux","password":true,"vac":true,"version":"7757534","steam_id":85568392924470001,"keywords":["cp","nocrits","nodmgspread","uncletopia"],"game_id":440,"stv_port":27016,"stv_name":"Uncletopia | Sydney | 1 | All Maps | STV","players":null},{"server_id":123,"name":"Uncletopia | Sydney | 2 | All Maps","name_short":"syd-2","host":"syd-1.au.uncletopia.com","port":27025,"enabled":true,"region":"au","cc":"au","latitude":-33.865143,"longitude":151.2099,"reserved":0,"last_update":"0001-01-01T00:00:00Z","name_a2s":"Uncletopia | Sydney | 2 | All Maps","protocol":17,"map":"koth_highpass","folder":"tf","game":"Team Fortress","app_id":440,"player_count":0,"max_players":24,"Bots":0,"server_type":"Dedicated","server_os":"Linux","password":true,"vac":true,"version":"7757534","steam_id":85568392924470002,"keywords":["cp","nocrits","nodmgspread","uncletopia"],"game_id":440,"stv_port":27026,"stv_name":"Uncletopia | Sydney | 2 | All Maps | STV","players":null},{"server_id":395,"name":"Uncletopia | Sydney | 3 | All Maps","name_short":"syd-3","host":"syd-1.au.uncletopia.com","port":27035,"enabled":true,"region":"au","cc":"au","latitude":-33.865143,"longitude":151.2099,"reserved":0,"last_update":"0001-01-01T00:00:00Z","name_a2s":"Uncletopia | Sydney | 3 | All Maps","protocol":17,"map":"pl_upward","folder":"tf","game":"Team Fortress","app_id":440,"player_count":0,"max_players":24,"Bots":0,"server_type":"Dedicated","server_os":"Linux","password":true,"vac":true,"version":"7757534","steam_id":85568392925194467,"keywords":["nocrits","nodmgspread","payload","uncletopia"],"game_id":440,"stv_port":27036,"stv_name":"Uncletopia | Sydney | 3 | All Maps | STV","players":null},{"server_id":396,"name":"Uncletopia | Sydney | 4 | All Maps","name_short":"syd-4","host":"syd-1.au.uncletopia.com","port":27045,"enabled":true,"region":"au","cc":"au","latitude":-33.865143,"longitude":151.2099,"reserved":0,"last_update":"0001-01-01T00:00:00Z","name_a2s":"Uncletopia | Sydney | 4 | All Maps","protocol":17,"map":"koth_highpass","folder":"tf","game":"Team Fortress","app_id":440,"player_count":0,"max_players":24,"Bots":0,"server_type":"Dedicated","server_os":"Linux","password":true,"vac":true,"version":"7757534","steam_id":85568392925397958,"keywords":["cp","nocrits","nodmgspread","uncletopia"],"game_id":440,"stv_port":27046,"stv_name":"Uncletopia | Sydney | 4 | All Maps | STV","players":null},{"server_id":58,"name":"Uncletopia | Sydney | 5 | Stopwatch Beta","name_short":"syd-5","host":"syd-1.au.uncletopia.com","port":27055,"enabled":true,"region":"au","cc":"au","latitude":-33.865143,"longitude":151.2099,"reserved":0,"last_update":"0001-01-01T00:00:00Z","name_a2s":"Uncletopia | Sydney | 5 | Stopwatch Beta","protocol":17,"map":"koth_lakeside_final","folder":"tf","game":"Team Fortress","app_id":440,"player_count":0,"max_players":24,"Bots":0,"server_type":"Dedicated","server_os":"Linux","password":true,"vac":true,"version":"7757534","steam_id":85568392925397959,"keywords":["cp","nocrits","nodmgspread","uncletopia"],"game_id":440,"stv_port":27056,"stv_name":"Uncletopia | Sydney | 5 | Stopwatch Beta | STV","players":null},{"server_id":59,"name":"Uncletopia | Sydney | 6 | Community","name_short":"syd-6","host":"syd-1.au.uncletopia.com","port":27065,"enabled":true,"region":"au","cc":"au","latitude":-33.865143,"longitude":151.2099,"reserved":0,"last_update":"0001-01-01T00:00:00Z","name_a2s":"Uncletopia | Sydney | 6 | Community","protocol":17,"map":"workshop/koth_ramjam_rc1.ugc459778887","folder":"tf","game":"Team Fortress","app_id":440,"player_count":0,"max_players":24,"Bots":0,"server_type":"Dedicated","server_os":"Linux","password":true,"vac":true,"version":"7757534","steam_id":85568392925397960,"keywords":["cp","nocrits","nodmgspread","uncletopia"],"game_id":440,"stv_port":27066,"stv_name":"Uncletopia | Sydney | 6 | Community | STV","players":null},{"server_id":49,"name":"Uncletopia | Warsaw | 1 | All Maps","name_short":"waw-1","host":"waw-1.pl.uncletopia.com","port":27015,"enabled":true,"region":"eu","cc":"pl","latitude":52.2297,"longitude":21.017532,"reserved":0,"last_update":"0001-01-01T00:00:00Z","name_a2s":"","protocol":0,"map":"","folder":"","game":"","app_id":0,"player_count":0,"max_players":0,"Bots":0,"server_type":"","server_os":"","password":false,"vac":false,"version":"","steam_id":0,"keywords":null,"game_id":0,"stv_port":0,"stv_name":"","players":null},{"server_id":50,"name":"Uncletopia | Warsaw | 2 | All Maps","name_short":"waw-2","host":"waw-1.pl.uncletopia.com","port":27025,"enabled":true,"region":"eu","cc":"pl","latitude":52.2297,"longitude":21.017532,"reserved":0,"last_update":"0001-01-01T00:00:00Z","name_a2s":"Uncletopia | Warsaw | 2 | All Maps","protocol":17,"map":"koth_highpass","folder":"tf","game":"Team Fortress","app_id":440,"player_count":0,"max_players":24,"Bots":0,"server_type":"Dedicated","server_os":"Linux","password":true,"vac":true,"version":"7757534","steam_id":85568392925397851,"keywords":["cp","nocrits","nodmgspread","uncletopia"],"game_id":440,"stv_port":27026,"stv_name":"Uncletopia | Warsaw | 2 | All Maps | STV","players":null},{"server_id":51,"name":"Uncletopia | Warsaw | 3 | All Maps","name_short":"waw-3","host":"waw-1.pl.uncletopia.com","port":27035,"enabled":true,"region":"eu","cc":"pl","latitude":52.2297,"longitude":21.017532,"reserved":0,"last_update":"0001-01-01T00:00:00Z","name_a2s":"Uncletopia | Warsaw | 3 | All Maps","protocol":17,"map":"koth_highpass","folder":"tf","game":"Team Fortress","app_id":440,"player_count":0,"max_players":24,"Bots":0,"server_type":"Dedicated","server_os":"Linux","password":true,"vac":true,"version":"7757534","steam_id":85568392925397852,"keywords":["cp","nocrits","nodmgspread","uncletopia"],"game_id":440,"stv_port":27036,"stv_name":"Uncletopia | Warsaw | 3 | All Maps | STV","players":null},{"server_id":52,"name":"Uncletopia | Warsaw | 4 | All Maps","name_short":"waw-4","host":"waw-1.pl.uncletopia.com","port":27045,"enabled":true,"region":"eu","cc":"pl","latitude":52.2297,"longitude":21.017532,"reserved":0,"last_update":"0001-01-01T00:00:00Z","name_a2s":"Uncletopia | Warsaw | 4 | All Maps","protocol":17,"map":"koth_highpass","folder":"tf","game":"Team Fortress","app_id":440,"player_count":0,"max_players":24,"Bots":0,"server_type":"Dedicated","server_os":"Linux","password":true,"vac":true,"version":"7757534","steam_id":85568392925397853,"keywords":["cp","nocrits","nodmgspread","uncletopia"],"game_id":440,"stv_port":27046,"stv_name":"Uncletopia | Warsaw | 4 | All Maps | STV","players":null},{"server_id":53,"name":"Uncletopia | Warsaw | 5 | Stopwatch Beta","name_short":"waw-5","host":"waw-1.pl.uncletopia.com","port":27055,"enabled":true,"region":"eu","cc":"pl","latitude":52.2297,"longitude":21.017532,"reserved":0,"last_update":"0001-01-01T00:00:00Z","name_a2s":"Uncletopia | Warsaw | 5 | Stopwatch Beta","protocol":17,"map":"pl_borneo","folder":"tf","game":"Team Fortress","app_id":440,"player_count":0,"max_players":24,"Bots":0,"server_type":"Dedicated","server_os":"Linux","password":true,"vac":true,"version":"7757534","steam_id":85568392925397854,"keywords":["nocrits","nodmgspread","payload","uncletopia"],"game_id":440,"stv_port":27056,"stv_name":"Uncletopia | Warsaw | 5 | Stopwatch Beta | STV","players":null},{"server_id":54,"name":"Uncletopia | Warsaw | 6 | Community","name_short":"waw-6","host":"waw-1.pl.uncletopia.com","port":27065,"enabled":true,"region":"eu","cc":"pl","latitude":52.2297,"longitude":21.017532,"reserved":0,"last_update":"0001-01-01T00:00:00Z","name_a2s":"Uncletopia | Warsaw | 6 | Community","protocol":17,"map":"workshop/pl_cactuscanyon_redux_rc4b.ugc2579644293","folder":"tf","game":"Team Fortress","app_id":440,"player_count":0,"max_players":24,"Bots":0,"server_type":"Dedicated","server_os":"Linux","password":true,"vac":true,"version":"7757534","steam_id":85568392925397856,"keywords":["nocrits","nodmgspread","payload","uncletopia"],"game_id":440,"stv_port":27066,"stv_name":"Uncletopia | Warsaw | 6 | Community | STV","players":null}]}