{"status":true,"message":"","result":[{"server_id":9,"name":"Uncletopia | Atlanta | 1 | All Maps","name_short":"atl-1","host":"atl-1.us.uncletopia.com","port":27015,"enabled":true,"region":"us-east","cc":"us","latitude":33.753746,"longitude":-84.38633,"reserved":0,"last_update":"0001-01-01T00:00:00Z","name_a2s":"Uncletopia | Atlanta | 1 | All Maps","protocol":17,"map":"koth_king","folder":"tf","game":"Team Fortress","app_id":440,"player_count":24,"max_players":24,"Bots":0,"server_type":"Dedicated","server_os":"Linux","password":true,"vac":true,"version":"7961495","steam_id":85568392924469982,"keywords":["cp","nocrits","nodmgspread","uncletopia"],"game_id":440,"stv_port":27016,"stv_name":"Uncletopia | Atlanta | 1 | All Maps | STV","players":[{"user_id":71,"name":"Ashes!","steam_id":76561197998475441,"connected_time":6955000000000,"state":"active","ping":78},{"user_id":141,"name":"Cervidé","steam_id":76561198098579497,"connected_time":255000000000,"state":"active","ping":91},{"user_id":142,"name":"Asanez3","steam_id":76561198037381436,"connected_time":237000000000,"state":"active","ping":72},{"user_id":136,"name":"--_Cook_--","steam_id":76561198080855748,"connected_time":322000000000,"state":"active","ping":60},{"user_id":143,"name":"maxxuss [AiRe]","steam_id":76561197999155912,"connected_time":225000000000,"state":"active","ping":60},{"user_id":112,"name":"Femboy Medic Main","steam_id":76561198268225109,"connected_time":2519000000000,"state":"active","ping":101},{"user_id":144,"name":"ballScartch13","steam_id":76561198969143876,"connected_time":186000000000,"state":"active","ping":119},{"user_id":129,"name":"Woke Bush","steam_id":76561198047994501,"connected_time":1703000000000,"state":"active","ping":43},{"user_id":145,"name":"MeatGrinderGuy(Vegans Beware)","steam_id":76561198833470398,"connected_time":176000000000,"state":"active","ping":62},{"user_id":146,"name":"CopperBox","steam_id":76561198068217248,"connected_time":154000000000,"state":"active","ping":90},{"user_id":116,"name":"ATL1 I'm a girl","steam_id":76561198825997674,"connected_time":2466000000000,"state":"active","ping":48},{"user_id":117,"name":"ndvr (femboy (REAL))","steam_id":76561199379200102,"connected_time":2438000000000,"state":"active","ping":70},{"user_id":138,"name":"DuckKey","steam_id":76561198904477889,"connected_time":307000000000,"state":"active","ping":60},{"user_id":134,"name":"HARRY B HOLE","steam_id":76561198842067238,"connected_time":549000000000,"state":"active","ping":62},{"user_id":121,"name":"TerracottaP","steam_id":76561199402983168,"connected_time":2285000000000,"state":"active","ping":70},{"user_id":149,"name":"Texas Methhead","steam_id":76561199205120538,"connected_time":75000000000,"state":"active","ping":80},{"user_id":128,"name":"Buck","steam_id":76561198064244796,"connected_time":1735000000000,"state":"active","ping":61},{"user_id":147,"name":"Le4n!!!","steam_id":76561198045522596,"connected_time":128000000000,"state":"active","ping":69},{"user_id":107,"name":"Thotimus Begonimus","steam_id":76561197970275938,"connected_time":3145000000000,"state":"active","ping":46},{"user_id":135,"name":"thomasdee725???","steam_id":76561199189526173,"connected_time":432000000000,"state":"active","ping":85},{"user_id":120,"name":"ATL1 | to4st","steam_id":76561198981009008,"connected_time":2319000000000,"state":"active","ping":72},{"user_id":137,"name":"Amber","steam_id":76561198834232506,"connected_time":320000000000,"state":"active","ping":46},{"user_id":148,"name":"lynt","steam_id":76561198988333976,"connected_time":128000000000,"state":"active","ping":45},{"user_id":89,"name":"lucin","steam_id":76561198258062078,"connected_time":4760000000000,"state":"active","ping":62}]},{"server_id":104,"name":"Uncletopia | Atlanta | 2 | All Maps","name_short":"atl-2","host":"atl-1.us.uncletopia.com","port":27025,"enabled":true,"region":"us-east","cc":"us","latitude":33.753746,"longitude":-84.38633,"reserved":0,"last_update":"0001-01-01T00:00:00Z","name_a2s":"Uncletopia | Atlanta | 2 | All Maps","protocol":17,"map":"cp_sunshine","folder":"tf","game":"Team Fortress","app_id":440,"player_count":25,"max_players":24,"Bots":0,"server_type":"Dedicated","server_os":"Linux","password":true,"vac":true,"version":"7961495","steam_id":85568392924469983,"keywords":["cp","nocrits","nodmgspread","uncletopia"],"game_id":440,"stv_port":27026,"stv_name":"Uncletopia | Atlanta | 2 | All Maps | STV","players":[{"user_id":88,"name":"ewp","steam_id":76561199148289271,"connected_time":988000000000,"state":"active","ping":143},{"user_id":105,"name":"AwesomeDavid702","steam_id":76561198880336261,"connected_time":322000000000,"state":"active","ping":87},{"user_id":46,"name":"Erchius","steam_id":76561198256892300,"connected_time":3215000000000,"state":"active","ping":60},{"user_id":107,"name":"Pickles","steam_id":76561198010609340,"connected_time":6000000000,"state":"spawning","ping":44},{"user_id":97,"name":"Rderks","steam_id":76561198017213295,"connected_time":864000000000,"state":"active","ping":98},{"user_id":98,"name":"FearMeisterMedusa","steam_id":76561198330311673,"connected_time":788000000000,"state":"active","ping":89},{"user_id":70,"name":"Training Bot [Easy]","steam_id":76561199119473164,"connected_time":2228000000000,"state":"active","ping":89},{"user_id":90,"name":"Jury","steam_id":76561198116427955,"connected_time":967000000000,"state":"active","ping":83},{"user_id":91,"name":"my mom","steam_id":76561199225201569,"connected_time":954000000000,"state":"active","ping":62},{"user_id":104,"name":"Hound_","steam_id":76561199389781834,"connected_time":554000000000,"state":"active","ping":116},{"user_id":99,"name":"Hawkborne","steam_id":76561198107249245,"connected_time":785000000000,"state":"active","ping":72},{"user_id":19,"name":"JustAnotherHuman","steam_id":76561199018122924,"connected_time":4476000000000,"state":"active","ping":106},{"user_id":21,"name":"lil' Wayne","steam_id":76561198050136796,"connected_time":4448000000000,"state":"active","ping":89},{"user_id":94,"name":"Tony Slark","steam_id":76561198151256410,"connected_time":925000000000,"state":"active","ping":114},{"user_id":72,"name":"Trapilicious","steam_id":76561198061430457,"connected_time":2160000000000,"state":"active","ping":72},{"user_id":38,"name":"Scita","steam_id":76561198066861559,"connected_time":3981000000000,"state":"active","ping":68},{"user_id":87,"name":"Oopsie Daisy ❋","steam_id":76561198042144492,"connected_time":1219000000000,"state":"active","ping":55},{"user_id":74,"name":"Mr. E","steam_id":76561198060381147,"connected_time":2151000000000,"state":"active","ping":115},{"user_id":100,"name":"he suckin on my rick til i mort","steam_id":76561198310711692,"connected_time":784000000000,"state":"active","ping":166},{"user_id":106,"name":"Skudge Sister","steam_id":76561198041766766,"connected_time":321000000000,"state":"active","ping":100},{"user_id":80,"name":"Robo","steam_id":76561199106531261,"connected_time":1739000000000,"state":"active","ping":55},{"user_id":54,"name":"King Cotton","steam_id":76561198292444376,"connected_time":3002000000000,"state":"active","ping":88},{"user_id":62,"name":"El Bondin","steam_id":76561198820792434,"connected_time":2653000000000,"state":"active","ping":86},{"user_id":96,"name":"gorf?","steam_id":76561198142286417,"connected_time":918000000000,"state":"active","ping":75},{"user_id":108,"name":"Notsocreative","steam_id":76561198236372202,"connected_time":6000000000,"state":"spawning","ping":73}]},{"server_id":400,"name":"Uncletopia | Atlanta | 3 | Stopwatch","name_short":"atl-3","host":"atl-1.us.uncletopia.com","port":27035,"enabled":true,"region":"us-east","cc":"us","latitude":33.753746,"longitude":-84.38633,"reserved":0,"last_update":"0001-01-01T00:00:00Z","name_a2s":"Uncletopia | Atlanta | 3 | Stopwatch","protocol":17,"map":"pl_badwater","folder":"tf","game":"Team Fortress","app_id":440,"player_count":0,"max_players":24,"Bots":0,"server_type":"Dedicated","server_os":"Linux","password":true,"vac":true,"version":"7961495","steam_id":85568392924515187,"keywords":["nocrits","nodmgspread","payload","uncletopia"],"game_id":440,"stv_port":27036,"stv_name":"Uncletopia | Atlanta | 3 | Stopwatch | STV","players":null},{"server_id":401,"name":"Uncletopia | Atlanta | 4 | Community","name_short":"atl-4","host":"atl-1.us.uncletopia.com","port":27045,"enabled":true,"region":"us-east","cc":"us","latitude":33.753746,"longitude":-84.38633,"reserved":0,"last_update":"0001-01-01T00:00:00Z","name_a2s":"Uncletopia | Atlanta | 4 | Community","protocol":17,"map":"workshop/koth_product_final.ugc454272353","folder":"tf","game":"Team Fortress","app_id":440,"player_count":0,"max_players":24,"Bots":0,"server_type":"Dedicated","server_os":"Linux","password":true,"vac":true,"version":"7961495","steam_id":85568392924515188,"keywords":["cp","nocrits","nodmgspread","uncletopia"],"game_id":440,"stv_port":27046,"stv_name":"Uncletopia | Atlanta | 4 | Community | STV","players":null},{"server_id":2,"name":"Uncletopia | Chicago | 1 | All Maps","name_short":"chi-1","host":"chi-1.us.uncletopia.com","port":27015,"enabled":true,"region":"us-central","cc":"us","latitude":41.881832,"longitude":-87.62318,"reserved":0,"last_update":"0001-01-01T00:00:00Z","name_a2s":"Uncletopia | Chicago | 1 | All Maps","protocol":17,"map":"pl_thundermountain","folder":"tf","game":"Team Fortress","app_id":440,"player_count":20,"max_players":24,"Bots":0,"server_type":"Dedicated","server_os":"Linux","password":true,"vac":true,"version":"7961495","steam_id":85568392924469984,"keywords":["cp","nocrits","nodmgspread","uncletopia"],"game_id":440,"stv_port":27016,"stv_name":"Uncletopia | Chicago | 1 | All Maps | STV","players":[{"user_id":346,"name":"TheSnipersHat","steam_id":76561198057684066,"connected_time":715000000000,"state":"connecting","ping":50},{"user_id":321,"name":"I shovel mayonnaise in mouth","steam_id":76561199123118241,"connected_time":2334000000000,"state":"connecting","ping":115},{"user_id":356,"name":"qory","steam_id":76561198152064890,"connected_time":10000000000,"state":"connecting","ping":45},{"user_id":208,"name":"loser","steam_id":76561198259380127,"connected_time":11068000000000,"state":"connecting","ping":66},{"user_id":329,"name":"damoke44","steam_id":76561198409185643,"connected_time":1963000000000,"state":"connecting","ping":118},{"user_id":336,"name":"swee","steam_id":76561198264702085,"connected_time":1400000000000,"state":"connecting","ping":75},{"user_id":353,"name":"Cummies for daddy","steam_id":76561198994110070,"connected_time":135000000000,"state":"connecting","ping":189},{"user_id":316,"name":"Nortel Network Telephone T7316","steam_id":76561198399261089,"connected_time":2963000000000,"state":"connecting","ping":107},{"user_id":351,"name":"Elias","steam_id":76561198106431732,"connected_time":296000000000,"state":"connecting","ping":56},{"user_id":320,"name":"Siz","steam_id":76561198072962154,"connected_time":2357000000000,"state":"connecting","ping":78},{"user_id":342,"name":"Magilla","steam_id":76561197972368756,"connected_time":876000000000,"state":"connecting","ping":54},{"user_id":340,"name":"P. Yoshi","steam_id":76561197974290515,"connected_time":937000000000,"state":"connecting","ping":75},{"user_id":354,"name":"daithy","steam_id":76561198168295777,"connected_time":132000000000,"state":"connecting","ping":122},{"user_id":355,"name":"beats (16:38)","steam_id":76561199245717718,"connected_time":30000000000,"state":"connecting","ping":56},{"user_id":332,"name":"Sunshine","steam_id":76561198885528098,"connected_time":1713000000000,"state":"connecting","ping":81},{"user_id":343,"name":"SandHanitizer","steam_id":76561198234676500,"connected_time":866000000000,"state":"connecting","ping":74},{"user_id":327,"name":"Wooden E","steam_id":76561198020308956,"connected_time":2143000000000,"state":"connecting","ping":75},{"user_id":350,"name":"YOU ARE S L E E P Y","steam_id":76561198133858463,"connected_time":510000000000,"state":"connecting","ping":59},{"user_id":345,"name":"Lyathan","steam_id":76561198062773218,"connected_time":858000000000,"state":"connecting","ping":73}]},{"server_id":106,"name":"Uncletopia | Chicago | 2 | All Maps","name_short":"chi-2","host":"chi-1.us.uncletopia.com","port":27025,"enabled":true,"region":"us-central","cc":"us","latitude":41.881832,"longitude":-87.62318,"reserved":0,"last_update":"0001-01-01T00:00:00Z","name_a2s":"Uncletopia | Chicago | 2 | All Maps","protocol":17,"map":"plr_bananabay","folder":"tf","game":"Team Fortress","app_id":440,"player_count":21,"max_players":24,"Bots":0,"server_type":"Dedicated","server_os":"Linux","password":true,"vac":true,"version":"7961495","steam_id":85568392924469985,"keywords":["nocrits","nodmgspread","payload","uncletopia"],"game_id":440,"stv_port":27026,"stv_name":"Uncletopia | Chicago | 2 | All Maps | STV","players":[{"user_id":235,"name":"Makima Enjoyer","steam_id":76561198852044774,"connected_time":572000000000,"state":"active","ping":82},{"user_id":216,"name":"tiananmensquare1989","steam_id":76561199076837870,"connected_time":1802000000000,"state":"active","ping":84},{"user_id":212,"name":"Fearlessmetal2","steam_id":76561198129226335,"connected_time":1857000000000,"state":"active","ping":72},{"user_id":208,"name":"opps fucked up his do","steam_id":76561198803704016,"connected_time":2010000000000,"state":"active","ping":68},{"user_id":218,"name":"nuclear gorilla","steam_id":76561198858445311,"connected_time":1709000000000,"state":"active","ping":62},{"user_id":245,"name":"Hugs","steam_id":76561198214584133,"connected_time":30000000000,"state":"active","ping":112},{"user_id":228,"name":"Adam (Cursed Confetti Creature)","steam_id":76561198317690197,"connected_time":945000000000,"state":"active","ping":48},{"user_id":221,"name":"AilurosMajor88","steam_id":76561198350900640,"connected_time":1555000000000,"state":"active","ping":94},{"user_id":219,"name":"EvilStickGuy","steam_id":76561197985379320,"connected_time":1665000000000,"state":"active","ping":66},{"user_id":236,"name":"Candy Sparkles","steam_id":76561198126871264,"connected_time":530000000000,"state":"active","ping":87},{"user_id":217,"name":"Ben Dover","steam_id":76561199414514585,"connected_time":1760000000000,"state":"active","ping":59},{"user_id":177,"name":"Bobato Chaps","steam_id":76561198065103552,"connected_time":3945000000000,"state":"active","ping":46},{"user_id":209,"name":"cheeserific","steam_id":76561198087598341,"connected_time":1997000000000,"state":"active","ping":81},{"user_id":244,"name":"Varveer","steam_id":76561198218897383,"connected_time":187000000000,"state":"active","ping":53},{"user_id":214,"name":"breakcore enjoyer","steam_id":76561198031400151,"connected_time":1816000000000,"state":"active","ping":55},{"user_id":237,"name":"Horseless Headless Horseman","steam_id":76561199229388635,"connected_time":504000000000,"state":"active","ping":76},{"user_id":239,"name":"Mr. Hankey","steam_id":76561198872852200,"connected_time":441000000000,"state":"active","ping":200},{"user_id":240,"name":"reymundo","steam_id":76561197989412830,"connected_time":413000000000,"state":"active","ping":111},{"user_id":230,"name":"kashroomski","steam_id":76561198057076267,"connected_time":798000000000,"state":"active","ping":73},{"user_id":179,"name":"Jaeger","steam_id":76561199392187099,"connected_time":3886000000000,"state":"active","ping":80},{"user_id":223,"name":"yomo","steam_id":76561198063175935,"connected_time":1463000000000,"state":"active","ping":74}]},{"server_id":402,"name":"Uncletopia | Chicago | 3 | All Maps","name_short":"chi-3","host":"chi-1.us.uncletopia.com","port":27035,"enabled":true,"region":"us-central","cc":"us","latitude":41.881832,"longitude":-87.62318,"reserved":0,"last_update":"0001-01-01T00:00:00Z","name_a2s":"Uncletopia | Chicago | 3 | All Maps","protocol":17,"map":"cp_dustbowl","folder":"tf","game":"Team Fortress","app_id":440,"player_count":24,"max_players":24,"Bots":0,"server_type":"Dedicated","server_os":"Linux","password":true,"vac":true,"version":"7961495","steam_id":85568392924515191,"keywords":["cp","nocrits","nodmgspread","uncletopia"],"game_id":440,"stv_port":27036,"stv_name":"Uncletopia | Chicago | 3 | All Maps | STV","players":[{"user_id":202,"name":"Rambly Dambly","steam_id":76561198844496567,"connected_time":683000000000,"state":"active","ping":60},{"user_id":207,"name":"Kellyn Nova \\\\SQC//","steam_id":76561198064588009,"connected_time":119000000000,"state":"active","ping":69},{"user_id":205,"name":"Reiner","steam_id":76561199201762178,"connected_time":353000000000,"state":"active","ping":76},{"user_id":154,"name":"The Khronicles of Keith","steam_id":76561198056622157,"connected_time":3930000000000,"state":"active","ping":62},{"user_id":206,"name":"eish","steam_id":76561198089463603,"connected_time":252000000000,"state":"active","ping":131},{"user_id":128,"name":"corntent","steam_id":76561198824847948,"connected_time":5963000000000,"state":"active","ping":60},{"user_id":201,"name":"[`420`] FADED THAN A HOE","steam_id":76561198058540459,"connected_time":715000000000,"state":"active","ping":70},{"user_id":177,"name":"Helmet Hands","steam_id":76561197961141994,"connected_time":2338000000000,"state":"active","ping":101},{"user_id":173,"name":"Minkiraj","steam_id":76561198000381909,"connected_time":2522000000000,"state":"active","ping":76},{"user_id":190,"name":"mikeyreal0813","steam_id":76561199500596867,"connected_time":1191000000000,"state":"active","ping":105},{"user_id":187,"name":"LoboSolo","steam_id":76561198006883170,"connected_time":1416000000000,"state":"active","ping":136},{"user_id":125,"name":"Vaudeville Villain","steam_id":76561197991063996,"connected_time":5995000000000,"state":"active","ping":58},{"user_id":199,"name":"Wafflemouth","steam_id":76561198086040614,"connected_time":847000000000,"state":"active","ping":61},{"user_id":150,"name":"Kung fu MUNGUS","steam_id":76561198069281556,"connected_time":4368000000000,"state":"active","ping":75},{"user_id":197,"name":"Cherry Coke","steam_id":76561198178233006,"connected_time":919000000000,"state":"active","ping":49},{"user_id":203,"name":"LogicGate","steam_id":76561199189481990,"connected_time":680000000000,"state":"active","ping":84},{"user_id":204,"name":"scrambledeggs3","steam_id":76561198066112579,"connected_time":405000000000,"state":"active","ping":61},{"user_id":195,"name":"BluWolf74","steam_id":76561198976113683,"connected_time":992000000000,"state":"active","ping":140},{"user_id":191,"name":"FungusBreeder","steam_id":76561198818724472,"connected_time":1187000000000,"state":"active","ping":72},{"user_id":134,"name":"HUMBY","steam_id":76561198065045867,"connected_time":5853000000000,"state":"active","ping":81},{"user_id":145,"name":"ham salmontizer","steam_id":76561198168840293,"connected_time":5121000000000,"state":"active","ping":77},{"user_id":143,"name":"Waesel","steam_id":76561198069188177,"connected_time":5156000000000,"state":"active","ping":74},{"user_id":176,"name":"ṽ⧉ cookie","steam_id":76561197998884823,"connected_time":2404000000000,"state":"active","ping":68},{"user_id":147,"name":"Try Gardening","steam_id":76561198120311340,"connected_time":5046000000000,"state":"active","ping":49}]},{"server_id":403,"name":"Uncletopia | Chicago | 4 | All Maps","name_short":"chi-4","host":"chi-1.us.uncletopia.com","port":27045,"enabled":true,"region":"us-central","cc":"us","latitude":41.881832,"longitude":-87.62318,"reserved":0,"last_update":"0001-01-01T00:00:00Z","name_a2s":"Uncletopia | Chicago | 4 | All Maps","protocol":17,"map":"koth_cascade","folder":"tf","game":"Team Fortress","app_id":440,"player_count":0,"max_players":24,"Bots":0,"server_type":"Dedicated","server_os":"Linux","password":true,"vac":true,"version":"7961495","steam_id":85568392924515193,"keywords":["cp","nocrits","nodmgspread","uncletopia"],"game_id":440,"stv_port":27046,"stv_name":"Uncletopia | Chicago | 4 | All Maps | STV","players":null},{"server_id":36,"name":"Uncletopia | Chicago | 5 | All Maps","name_short":"chi-5","host":"chi-2.us.uncletopia.com","port":27015,"enabled":true,"region":"us-central","cc":"us","latitude":41.881832,"longitude":-87.62318,"reserved":0,"last_update":"0001-01-01T00:00:00Z","name_a2s":"Uncletopia | Chicago | 5 | All Maps","protocol":17,"map":"pl_upward","folder":"tf","game":"Team Fortress","app_id":440,"player_count":24,"max_players":24,"Bots":0,"server_type":"Dedicated","server_os":"Linux","password":true,"vac":true,"version":"7961495","steam_id":85568392924866362,"keywords":["nocrits","nodmgspread","payload","uncletopia"],"game_id":440,"stv_port":27016,"stv_name":"Uncletopia | Chicago | 5 | All Maps | STV","players":[{"user_id":82,"name":"Jim the Fish","steam_id":76561199135784419,"connected_time":465000000000,"state":"active","ping":86},{"user_id":92,"name":"Harley [Ramiel]","steam_id":76561198079510840,"connected_time":94000000000,"state":"active","ping":90},{"user_id":81,"name":"Junk","steam_id":76561198024382753,"connected_time":505000000000,"state":"active","ping":48},{"user_id":65,"name":"Eiss","steam_id":76561198343183806,"connected_time":1858000000000,"state":"active","ping":77},{"user_id":36,"name":"Pyrrhon the Aurum","steam_id":76561198046272856,"connected_time":3657000000000,"state":"active","ping":113},{"user_id":60,"name":"lcy13vv","steam_id":76561197995997446,"connected_time":2344000000000,"state":"active","ping":59},{"user_id":84,"name":"Lead Tooth","steam_id":76561198047668895,"connected_time":453000000000,"state":"active","ping":71},{"user_id":89,"name":"Sheev Palpatine","steam_id":76561198252332430,"connected_time":248000000000,"state":"active","ping":75},{"user_id":79,"name":"laz","steam_id":76561198334164507,"connected_time":551000000000,"state":"active","ping":71},{"user_id":85,"name":"Da McSpanker","steam_id":76561198208743000,"connected_time":451000000000,"state":"active","ping":78},{"user_id":48,"name":"Smoeker","steam_id":76561198166723053,"connected_time":2680000000000,"state":"active","ping":55},{"user_id":41,"name":"MiPlatypus","steam_id":76561198210393620,"connected_time":2980000000000,"state":"active","ping":55},{"user_id":42,"name":"shanerbaker","steam_id":76561198252522438,"connected_time":2973000000000,"state":"active","ping":102},{"user_id":51,"name":"ball thrower","steam_id":76561198433240073,"connected_time":2606000000000,"state":"active","ping":67},{"user_id":44,"name":"sharpshooterz16","steam_id":76561199073828371,"connected_time":2826000000000,"state":"active","ping":128},{"user_id":45,"name":"Mom","steam_id":76561198207936000,"connected_time":2799000000000,"state":"active","ping":90},{"user_id":86,"name":"c64guy","steam_id":76561198023022744,"connected_time":448000000000,"state":"active","ping":63},{"user_id":52,"name":"Eviscerator","steam_id":76561197980073637,"connected_time":2603000000000,"state":"active","ping":76},{"user_id":53,"name":"chen","steam_id":76561198064872330,"connected_time":2601000000000,"state":"active","ping":69},{"user_id":54,"name":"MillerWhite","steam_id":76561198076060357,"connected_time":2600000000000,"state":"active","ping":85},{"user_id":67,"name":"dadgummit","steam_id":76561198005806915,"connected_time":1818000000000,"state":"active","ping":61},{"user_id":91,"name":"Wackford","steam_id":76561199159971150,"connected_time":129000000000,"state":"active","ping":83},{"user_id":57,"name":"incredirocks","steam_id":76561198061079993,"connected_time":2501000000000,"state":"active","ping":56},{"user_id":93,"name":"Antiparticle #SaveTF2","steam_id":76561197990545681,"connected_time":55000000000,"state":"active","ping":142}]},{"server_id":37,"name":"Uncletopia | Chicago | 6 | All Maps","name_short":"chi-6","host":"chi-2.us.uncletopia.com","port":27025,"enabled":true,"region":"us-central","cc":"us","latitude":41.881832,"longitude":-87.62318,"reserved":0,"last_update":"0001-01-01T00:00:00Z","name_a2s":"Uncletopia | Chicago | 6 | All Maps","protocol":17,"map":"koth_highpass","folder":"tf","game":"Team Fortress","app_id":440,"player_count":0,"max_players":24,"Bots":0,"server_type":"Dedicated","server_os":"Linux","password":true,"vac":true,"version":"7961495","steam_id":85568392924866363,"keywords":["cp","nocrits","nodmgspread","uncletopia"],"game_id":440,"stv_port":27026,"stv_name":"Uncletopia | Chicago | 6 | All Maps | STV","players":null},{"server_id":38,"name":"Uncletopia | Chicago | 7 | Stopwatch","name_short":"chi-7","host":"chi-2.us.uncletopia.com","port":27035,"enabled":true,"region":"us-central","cc":"us","latitude":41.881832,"longitude":-87.62318,"reserved":0,"last_update":"0001-01-01T00:00:00Z","name_a2s":"Uncletopia | Chicago | 7 | Stopwatch","protocol":17,"map":"cp_metalworks","folder":"tf","game":"Team Fortress","app_id":440,"player_count":0,"max_players":24,"Bots":0,"server_type":"Dedicated","server_os":"Linux","password":true,"vac":true,"version":"7961495","steam_id":85568392924866364,"keywords":["cp","nocrits","nodmgspread","uncletopia"],"game_id":440,"stv_port":27036,"stv_name":"Uncletopia | Chicago | 7 | Stopwatch | STV","players":null},{"server_id":39,"name":"Uncletopia | Chicago | 8 | Community","name_short":"chi-8","host":"chi-2.us.uncletopia.com","port":27045,"enabled":true,"region":"us-central","cc":"us","latitude":41.881832,"longitude":-87.62318,"reserved":0,"last_update":"0001-01-01T00:00:00Z","name_a2s":"Uncletopia | Chicago | 8 | Community","protocol":17,"map":"pl_pier","folder":"tf","game":"Team Fortress","app_id":440,"player_count":4,"max_players":24,"Bots":0,"server_type":"Dedicated","server_os":"Linux","password":true,"vac":true,"version":"7961495","steam_id":85568392924866365,"keywords":["nocrits","nodmgspread","payload","uncletopia"],"game_id":440,"stv_port":27046,"stv_name":"Uncletopia | Chicago | 8 | Community | STV","players":[{"user_id":16,"name":"Cybertruck","steam_id":76561197993623674,"connected_time":54000000000,"state":"active","ping":70},{"user_id":6,"name":"ctf_well","steam_id":76561198016826181,"connected_time":2107000000000,"state":"active","ping":70},{"user_id":11,"name":"INFECTED SPAM'DWICH, lostlaptop","steam_id":76561198860068961,"connected_time":1037000000000,"state":"active","ping":61},{"user_id":15,"name":"Robot_mann","steam_id":76561198340434264,"connected_time":666000000000,"state":"active","ping":66}]},{"server_id":8,"name":"Uncletopia | Dallas | 1 | All Maps","name_short":"dal-1","host":"dal-1.us.uncletopia.com","port":27015,"enabled":true,"region":"us-central","cc":"us","latitude":32.779167,"longitude":-96.80889,"reserved":0,"last_update":"0001-01-01T00:00:00Z","name_a2s":"Uncletopia | Dallas | 1 | All Maps","protocol":17,"map":"cp_steel","folder":"tf","game":"Team Fortress","app_id":440,"player_count":23,"max_players":24,"Bots":0,"server_type":"Dedicated","server_os":"Linux","password":true,"vac":true,"version":"7961495","steam_id":85568392924469986,"keywords":["cp","nocrits","nodmgspread","uncletopia"],"game_id":440,"stv_port":27016,"stv_name":"Uncletopia | Dallas | 1 | All Maps | STV","players":[{"user_id":90,"name":"b0urbaki7","steam_id":76561198141342345,"connected_time":2792000000000,"state":"active","ping":89},{"user_id":118,"name":"Ones","steam_id":76561199072202376,"connected_time":751000000000,"state":"active","ping":73},{"user_id":119,"name":"Silly Shark","steam_id":76561198130714378,"connected_time":730000000000,"state":"active","ping":116},{"user_id":103,"name":"crumbles","steam_id":76561198168707036,"connected_time":1631000000000,"state":"active","ping":90},{"user_id":114,"name":"freesia","steam_id":76561198127525888,"connected_time":1172000000000,"state":"active","ping":52},{"user_id":101,"name":"_","steam_id":76561199030697193,"connected_time":1692000000000,"state":"active","ping":70},{"user_id":92,"name":"Your Loyal Familiar","steam_id":76561198106476075,"connected_time":2706000000000,"state":"active","ping":77},{"user_id":117,"name":"Snitzman","steam_id":76561198068303272,"connected_time":795000000000,"state":"active","ping":81},{"user_id":88,"name":"Пвт Динго","steam_id":76561198119683217,"connected_time":3212000000000,"state":"active","ping":93},{"user_id":128,"name":"Spooky","steam_id":76561198317988296,"connected_time":45000000000,"state":"active","ping":81},{"user_id":124,"name":"HackerSmacker","steam_id":76561198086688073,"connected_time":398000000000,"state":"active","ping":80},{"user_id":122,"name":"Shattered Glass","steam_id":76561198116835391,"connected_time":701000000000,"state":"active","ping":97},{"user_id":111,"name":"Shootco","steam_id":76561198156959719,"connected_time":1346000000000,"state":"active","ping":71},{"user_id":78,"name":"godsdoctor","steam_id":76561198055010413,"connected_time":4394000000000,"state":"active","ping":117},{"user_id":123,"name":"Devlyn77","steam_id":76561198108965341,"connected_time":672000000000,"state":"active","ping":62},{"user_id":112,"name":"Fred Ott","steam_id":76561198099088693,"connected_time":1319000000000,"state":"active","ping":81},{"user_id":87,"name":"Bogey","steam_id":76561198096227944,"connected_time":3269000000000,"state":"active","ping":52},{"user_id":89,"name":"emerge","steam_id":76561198186882891,"connected_time":3205000000000,"state":"active","ping":86},{"user_id":116,"name":"Alkimia","steam_id":76561198385763137,"connected_time":849000000000,"state":"active","ping":106},{"user_id":107,"name":"Dr. Unventor","steam_id":76561199174694230,"connected_time":1601000000000,"state":"active","ping":61},{"user_id":121,"name":"SLaPPy- oNaSiS","steam_id":76561198009286862,"connected_time":718000000000,"state":"active","ping":94},{"user_id":127,"name":"APOTATO","steam_id":76561198118199858,"connected_time":142000000000,"state":"active","ping":74},{"user_id":59,"name":"∫ (x + 1) / (x^2 + x) d x","steam_id":76561198313364985,"connected_time":5743000000000,"state":"active","ping":88}]},{"server_id":108,"name":"Uncletopia | Dallas | 2 | All Maps","name_short":"dal-2","host":"dal-1.us.uncletopia.com","port":27025,"enabled":true,"region":"us-central","cc":"us","latitude":32.779167,"longitude":-96.80889,"reserved":0,"last_update":"0001-01-01T00:00:00Z","name_a2s":"Uncletopia | Dallas | 2 | All Maps","protocol":17,"map":"pl_pier","folder":"tf","game":"Team Fortress","app_id":440,"player_count":21,"max_players":24,"Bots":0,"server_type":"Dedicated","server_os":"Linux","password":true,"vac":true,"version":"7961495","steam_id":85568392924469988,"keywords":["nocrits","nodmgspread","payload","uncletopia"],"game_id":440,"stv_port":27026,"stv_name":"Uncletopia | Dallas | 2 | All Maps | STV","players":[{"user_id":289,"name":"Gingy","steam_id":76561198024301169,"connected_time":1128000000000,"state":"active","ping":76},{"user_id":290,"name":"The Chosen One","steam_id":76561199046984627,"connected_time":1110000000000,"state":"active","ping":86},{"user_id":285,"name":"Insizhen","steam_id":76561198051352605,"connected_time":1845000000000,"state":"active","ping":50},{"user_id":271,"name":"God's Wet Diaper","steam_id":76561198273203726,"connected_time":2536000000000,"state":"active","ping":66},{"user_id":282,"name":"Lain","steam_id":76561198029303534,"connected_time":2018000000000,"state":"active","ping":63},{"user_id":300,"name":"artichoke","steam_id":76561198980994364,"connected_time":696000000000,"state":"active","ping":103},{"user_id":313,"name":"sailor","steam_id":76561198091015050,"connected_time":204000000000,"state":"active","ping":75},{"user_id":310,"name":"ShapedSilver","steam_id":76561199073305310,"connected_time":228000000000,"state":"active","ping":74},{"user_id":272,"name":"Skiddy","steam_id":76561198125942665,"connected_time":2528000000000,"state":"active","ping":90},{"user_id":306,"name":"7thelden","steam_id":76561198297428761,"connected_time":452000000000,"state":"active","ping":85},{"user_id":292,"name":"Daddy Topps","steam_id":76561198203594332,"connected_time":1086000000000,"state":"active","ping":102},{"user_id":283,"name":"᲼᲼᲼","steam_id":76561198845246815,"connected_time":2009000000000,"state":"active","ping":76},{"user_id":302,"name":"Freyja","steam_id":76561198207412177,"connected_time":650000000000,"state":"active","ping":81},{"user_id":311,"name":"info","steam_id":76561198119354946,"connected_time":216000000000,"state":"active","ping":175},{"user_id":312,"name":"Jaked0cxTTV","steam_id":76561198357732040,"connected_time":209000000000,"state":"active","ping":85},{"user_id":317,"name":"story","steam_id":76561199088496817,"connected_time":62000000000,"state":"active","ping":62},{"user_id":298,"name":"Normalux","steam_id":76561198293891426,"connected_time":783000000000,"state":"active","ping":106},{"user_id":255,"name":"Mr.Sex","steam_id":76561198169957571,"connected_time":3609000000000,"state":"active","ping":62},{"user_id":318,"name":"Tritium","steam_id":76561198043305626,"connected_time":53000000000,"state":"active","ping":104},{"user_id":307,"name":"Waluweebgi","steam_id":76561198825432603,"connected_time":437000000000,"state":"active","ping":72},{"user_id":308,"name":"doorlarkeded","steam_id":76561199439227968,"connected_time":408000000000,"state":"active","ping":109}]},{"server_id":404,"name":"Uncletopia | Dallas | 3 | All Maps","name_short":"dal-3","host":"dal-1.us.uncletopia.com","port":27035,"enabled":true,"region":"us-central","cc":"us","latitude":32.779167,"longitude":-96.80889,"reserved":0,"last_update":"0001-01-01T00:00:00Z","name_a2s":"Uncletopia | Dallas | 3 | All Maps","protocol":17,"map":"plr_hightower","folder":"tf","game":"Team Fortress","app_id":440,"player_count":24,"max_players":24,"Bots":0,"server_type":"Dedicated","server_os":"Linux","password":true,"vac":true,"version":"7961495","steam_id":85568392924515219,"keywords":["nocrits","nodmgspread","payload","uncletopia"],"game_id":440,"stv_port":27036,"stv_name":"Uncletopia | Dallas | 3 | All Maps | STV","players":[{"user_id":80,"name":"Joe Biden","steam_id":76561198056170906,"connected_time":3101000000000,"state":"active","ping":86},{"user_id":88,"name":"wetbrain","steam_id":76561198796967995,"connected_time":2544000000000,"state":"active","ping":170},{"user_id":122,"name":"The Fiend","steam_id":76561199229771413,"connected_time":831000000000,"state":"active","ping":72},{"user_id":65,"name":"Lunarthrope","steam_id":76561198292132147,"connected_time":3774000000000,"state":"active","ping":93},{"user_id":127,"name":"lazy bones","steam_id":76561199471507997,"connected_time":637000000000,"state":"active","ping":86},{"user_id":113,"name":"how tf am I an essential worker","steam_id":76561199017002442,"connected_time":1242000000000,"state":"active","ping":81},{"user_id":90,"name":"bowling","steam_id":76561198854571744,"connected_time":2395000000000,"state":"active","ping":79},{"user_id":117,"name":"slafflow","steam_id":76561199381012350,"connected_time":984000000000,"state":"active","ping":77},{"user_id":138,"name":"bird who can't aim","steam_id":76561198062360755,"connected_time":89000000000,"state":"active","ping":76},{"user_id":137,"name":"j3","steam_id":76561198934493061,"connected_time":332000000000,"state":"active","ping":167},{"user_id":99,"name":"Rearranging furniture","steam_id":76561199054971009,"connected_time":2178000000000,"state":"active","ping":53},{"user_id":134,"name":"TheBrocklobster","steam_id":76561198039682984,"connected_time":511000000000,"state":"active","ping":95},{"user_id":129,"name":"Kraftlos","steam_id":76561198074350350,"connected_time":615000000000,"state":"active","ping":102},{"user_id":116,"name":"UnforeseenCabbages","steam_id":76561198079386608,"connected_time":1068000000000,"state":"active","ping":77},{"user_id":125,"name":"Firedust19","steam_id":76561198153238631,"connected_time":710000000000,"state":"active","ping":92},{"user_id":132,"name":"Coach McFish","steam_id":76561198210456405,"connected_time":545000000000,"state":"active","ping":98},{"user_id":133,"name":"NicoTheMilkman","steam_id":76561199093111171,"connected_time":534000000000,"state":"active","ping":133},{"user_id":112,"name":"wrongthink","steam_id":76561198830293087,"connected_time":1297000000000,"state":"active","ping":70},{"user_id":128,"name":"Alastor","steam_id":76561198854106154,"connected_time":633000000000,"state":"active","ping":153},{"user_id":135,"name":"mj1203mom","steam_id":76561199060392010,"connected_time":476000000000,"state":"active","ping":57},{"user_id":97,"name":"Exidy","steam_id":76561198036216584,"connected_time":2241000000000,"state":"active","ping":93},{"user_id":118,"name":"kelvindavid121","steam_id":76561199010489413,"connected_time":978000000000,"state":"active","ping":137},{"user_id":136,"name":"orangePulp","steam_id":76561198038373636,"connected_time":475000000000,"state":"active","ping":97},{"user_id":98,"name":"Melonfrog","steam_id":76561198389885427,"connected_time":2234000000000,"state":"active","ping":77}]},{"server_id":405,"name":"Uncletopia | Dallas | 4 | Community","name_short":"dal-4","host":"dal-1.us.uncletopia.com","port":27045,"enabled":true,"region":"us-central","cc":"us","latitude":32.779167,"longitude":-96.80889,"reserved":0,"last_update":"0001-01-01T00:00:00Z","name_a2s":"Uncletopia | Dallas | 4 | Community","protocol":17,"map":"workshop/koth_product_final.ugc454272353","folder":"tf","game":"Team Fortress","app_id":440,"player_count":0,"max_players":24,"Bots":0,"server_type":"Dedicated","server_os":"Linux","password":true,"vac":true,"version":"7961495","steam_id":85568392924515220,"keywords":["cp","nocrits","nodmgspread","uncletopia"],"game_id":440,"stv_port":27046,"stv_name":"Uncletopia | Dallas | 4 | Community | STV","players":null},{"server_id":5,"name":"Uncletopia | Frankfurt | 1 | All Maps","name_short":"frk-1","host":"frk-1.de.uncletopia.com","port":27015,"enabled":true,"region":"eu","cc":"de","latitude":50.110924,"longitude":8.682127,"reserved":0,"last_update":"0001-01-01T00:00:00Z","name_a2s":"Uncletopia | Frankfurt | 1 | All Maps","protocol":17,"map":"pl_borneo","folder":"tf","game":"Team Fortress","app_id":440,"player_count":24,"max_players":24,"Bots":0,"server_type":"Dedicated","server_os":"Linux","password":true,"vac":true,"version":"7961495","steam_id":85568392924469989,"keywords":["nocrits","nodmgspread","payload","uncletopia"],"game_id":440,"stv_port":27016,"stv_name":"Uncletopia | Frankfurt | 1 | All Maps | STV","players":[{"user_id":487,"name":"Titut11","steam_id":76561198392505656,"connected_time":552000000000,"state":"active","ping":65},{"user_id":488,"name":"Kiwi","steam_id":76561198162162816,"connected_time":341000000000,"state":"active","ping":69},{"user_id":469,"name":"Toasted Toby","steam_id":76561198002139581,"connected_time":998000000000,"state":"active","ping":70},{"user_id":470,"name":"I919I","steam_id":76561198141049923,"connected_time":993000000000,"state":"active","ping":73},{"user_id":471,"name":"angry russian man","steam_id":76561198386712795,"connected_time":941000000000,"state":"active","ping":64},{"user_id":472,"name":"jabar7","steam_id":76561198055137986,"connected_time":914000000000,"state":"active","ping":61},{"user_id":461,"name":"pardner","steam_id":76561198451471161,"connected_time":1821000000000,"state":"active","ping":67},{"user_id":484,"name":"goz","steam_id":76561198155229347,"connected_time":703000000000,"state":"active","ping":53},{"user_id":474,"name":"Creamy","steam_id":76561198063907478,"connected_time":902000000000,"state":"active","ping":75},{"user_id":446,"name":"DOOKIEBOB","steam_id":76561198061248547,"connected_time":2508000000000,"state":"active","ping":59},{"user_id":485,"name":"Finnish Farmer","steam_id":76561198205366043,"connected_time":575000000000,"state":"active","ping":86},{"user_id":467,"name":"HRTV","steam_id":76561198978457123,"connected_time":1462000000000,"state":"active","ping":79},{"user_id":327,"name":"nyanezt","steam_id":76561198253734265,"connected_time":11775000000000,"state":"active","ping":79},{"user_id":482,"name":"Mr. Fox","steam_id":76561198803610709,"connected_time":856000000000,"state":"active","ping":113},{"user_id":454,"name":"WEEP","steam_id":76561199499933159,"connected_time":2080000000000,"state":"active","ping":59},{"user_id":468,"name":"Vischan but worse","steam_id":76561199371650805,"connected_time":1071000000000,"state":"active","ping":92},{"user_id":455,"name":"jonas","steam_id":76561198883559477,"connected_time":2080000000000,"state":"active","ping":60},{"user_id":427,"name":"wee nut","steam_id":76561198083288197,"connected_time":3619000000000,"state":"active","ping":113},{"user_id":483,"name":"Well","steam_id":76561198411337640,"connected_time":835000000000,"state":"active","ping":90},{"user_id":477,"name":"Pyrolander","steam_id":76561198050785450,"connected_time":881000000000,"state":"active","ping":49},{"user_id":436,"name":"tallen","steam_id":76561198061708595,"connected_time":3244000000000,"state":"active","ping":81},{"user_id":450,"name":"Redrim","steam_id":76561197998374658,"connected_time":2386000000000,"state":"active","ping":79},{"user_id":479,"name":"Alfred Shroom","steam_id":76561198117990411,"connected_time":878000000000,"state":"active","ping":97},{"user_id":480,"name":"DaviX","steam_id":76561198345406679,"connected_time":878000000000,"state":"active","ping":79}]},{"server_id":110,"name":"Uncletopia | Frankfurt | 2 | All Maps","name_short":"frk-2","host":"frk-1.de.uncletopia.com","port":27025,"enabled":true,"region":"eu","cc":"de","latitude":50.110924,"longitude":8.682127,"reserved":0,"last_update":"0001-01-01T00:00:00Z","name_a2s":"Uncletopia | Frankfurt | 2 | All Maps","protocol":17,"map":"pl_snowycoast","folder":"tf","game":"Team Fortress","app_id":440,"player_count":24,"max_players":24,"Bots":0,"server_type":"Dedicated","server_os":"Linux","password":true,"vac":true,"version":"7961495","steam_id":85568392924469990,"keywords":["nocrits","nodmgspread","payload","uncletopia"],"game_id":440,"stv_port":27026,"stv_name":"Uncletopia | Frankfurt | 2 | All Maps | STV","players":[{"user_id":503,"name":"Ink in veins","steam_id":76561199082262091,"connected_time":179000000000,"state":"active","ping":74},{"user_id":485,"name":"NALA","steam_id":76561198039806469,"connected_time":1735000000000,"state":"active","ping":69},{"user_id":499,"name":"Scout","steam_id":76561198992898803,"connected_time":236000000000,"state":"active","ping":71},{"user_id":493,"name":"Caliban","steam_id":76561197999696839,"connected_time":1216000000000,"state":"active","ping":107},{"user_id":497,"name":"Thisisforyou!","steam_id":76561198052113055,"connected_time":625000000000,"state":"active","ping":117},{"user_id":508,"name":"aqpw","steam_id":76561198346638308,"connected_time":75000000000,"state":"active","ping":69},{"user_id":474,"name":"runcar222","steam_id":76561198077085528,"connected_time":2281000000000,"state":"active","ping":65},{"user_id":494,"name":"Lolmaster338","steam_id":76561198409733492,"connected_time":1007000000000,"state":"active","ping":60},{"user_id":501,"name":"rummy","steam_id":76561197997573379,"connected_time":227000000000,"state":"active","ping":57},{"user_id":476,"name":"Lyell","steam_id":76561198350329389,"connected_time":2241000000000,"state":"active","ping":80},{"user_id":489,"name":"Toca","steam_id":76561198039582547,"connected_time":1469000000000,"state":"active","ping":60},{"user_id":502,"name":"Bumblebee","steam_id":76561198033551105,"connected_time":215000000000,"state":"active","ping":79},{"user_id":469,"name":"warforge3","steam_id":76561199276024310,"connected_time":2677000000000,"state":"active","ping":96},{"user_id":478,"name":"Noice","steam_id":76561198142980847,"connected_time":2138000000000,"state":"active","ping":87},{"user_id":492,"name":"Hegyi tahó F2P","steam_id":76561199219150356,"connected_time":1274000000000,"state":"active","ping":82},{"user_id":495,"name":"FistfulOfKittens","steam_id":76561198323611129,"connected_time":844000000000,"state":"active","ping":67},{"user_id":504,"name":"Syd","steam_id":76561198020515027,"connected_time":172000000000,"state":"active","ping":70},{"user_id":491,"name":"TotallyRealRunarTvålfager™","steam_id":76561198018228013,"connected_time":1418000000000,"state":"active","ping":70},{"user_id":505,"name":"Nuuskis","steam_id":76561198084042012,"connected_time":170000000000,"state":"active","ping":80},{"user_id":498,"name":"Wild_Xray26","steam_id":76561198059386050,"connected_time":315000000000,"state":"active","ping":74},{"user_id":496,"name":"Adam","steam_id":76561198083655265,"connected_time":671000000000,"state":"active","ping":67},{"user_id":484,"name":"e","steam_id":76561198204685028,"connected_time":1799000000000,"state":"active","ping":79},{"user_id":509,"name":"Mster","steam_id":76561198261312349,"connected_time":56000000000,"state":"active","ping":83},{"user_id":506,"name":"slnc","steam_id":76561198041151496,"connected_time":167000000000,"state":"active","ping":56}]},{"server_id":308,"name":"Uncletopia | Frankfurt | 3 | All Maps","name_short":"frk-3","host":"frk-1.de.uncletopia.com","port":27035,"enabled":true,"region":"eu","cc":"de","latitude":50.110924,"longitude":8.682127,"reserved":0,"last_update":"0001-01-01T00:00:00Z","name_a2s":"Uncletopia | Frankfurt | 3 | All Maps","protocol":17,"map":"cp_process_final","folder":"tf","game":"Team Fortress","app_id":440,"player_count":24,"max_players":24,"Bots":0,"server_type":"Dedicated","server_os":"Linux","password":true,"vac":true,"version":"7961495","steam_id":85568392924504274,"keywords":["cp","nocrits","nodmgspread","uncletopia"],"game_id":440,"stv_port":27036,"stv_name":"Uncletopia | Frankfurt | 3 | All Maps | STV","players":[{"user_id":487,"name":"-rikeOo-","steam_id":76561198303995379,"connected_time":666000000000,"state":"active","ping":64},{"user_id":472,"name":"cuddles","steam_id":76561198805181599,"connected_time":1124000000000,"state":"active","ping":68},{"user_id":396,"name":"urby7","steam_id":76561198042122860,"connected_time":7490000000000,"state":"active","ping":76},{"user_id":478,"name":"Triggerhappy","steam_id":76561198334672983,"connected_time":1013000000000,"state":"active","ping":103},{"user_id":431,"name":"Udinese Dion","steam_id":76561198067931573,"connected_time":4550000000000,"state":"active","ping":53},{"user_id":493,"name":"the lorax","steam_id":76561199180176442,"connected_time":396000000000,"state":"active","ping":71},{"user_id":445,"name":"Hungeryan","steam_id":76561198887299930,"connected_time":3457000000000,"state":"active","ping":97},{"user_id":488,"name":"Jesus (real)","steam_id":76561199106262610,"connected_time":634000000000,"state":"active","ping":54},{"user_id":489,"name":"ANGHENFILOD","steam_id":76561199492622823,"connected_time":629000000000,"state":"active","ping":58},{"user_id":495,"name":"cp lover","steam_id":76561198413275515,"connected_time":234000000000,"state":"active","ping":74},{"user_id":490,"name":"tealoverr.190","steam_id":76561199028497703,"connected_time":625000000000,"state":"active","ping":104},{"user_id":492,"name":"Mitt","steam_id":76561199011013919,"connected_time":491000000000,"state":"active","ping":80},{"user_id":475,"name":"SalCrabber deluxe","steam_id":76561198275942961,"connected_time":1096000000000,"state":"active","ping":42},{"user_id":461,"name":"anders McFlanders","steam_id":76561198022811995,"connected_time":2352000000000,"state":"active","ping":61},{"user_id":477,"name":"Rock..","steam_id":76561198004641963,"connected_time":1021000000000,"state":"active","ping":85},{"user_id":449,"name":"mt","steam_id":76561197961319303,"connected_time":3074000000000,"state":"active","ping":45},{"user_id":441,"name":"sondi","steam_id":76561198045466209,"connected_time":3774000000000,"state":"active","ping":63},{"user_id":467,"name":"SodaHead13","steam_id":76561198202990635,"connected_time":1645000000000,"state":"active","ping":61},{"user_id":497,"name":"蓮 Lotus","steam_id":76561198083141117,"connected_time":31000000000,"state":"active","ping":60},{"user_id":469,"name":"7oid","steam_id":76561198142074232,"connected_time":1192000000000,"state":"active","ping":103},{"user_id":480,"name":"akakez","steam_id":76561198095432821,"connected_time":974000000000,"state":"active","ping":119},{"user_id":481,"name":"SirClyan","steam_id":76561199196651938,"connected_time":919000000000,"state":"active","ping":76},{"user_id":491,"name":"joebot","steam_id":76561197975606100,"connected_time":621000000000,"state":"active","ping":139},{"user_id":496,"name":"slippin jimmy","steam_id":76561198090788590,"connected_time":226000000000,"state":"active","ping":56}]},{"server_id":309,"name":"Uncletopia | Frankfurt | 4 | All Maps","name_short":"frk-4","host":"frk-1.de.uncletopia.com","port":27045,"enabled":true,"region":"eu","cc":"de","latitude":50.110924,"longitude":8.682127,"reserved":0,"last_update":"0001-01-01T00:00:00Z","name_a2s":"Uncletopia | Frankfurt | 4 | All Maps","protocol":17,"map":"cp_process_final","folder":"tf","game":"Team Fortress","app_id":440,"player_count":23,"max_players":24,"Bots":0,"server_type":"Dedicated","server_os":"Linux","password":true,"vac":true,"version":"7961495","steam_id":85568392924504275,"keywords":["cp","nocrits","nodmgspread","uncletopia"],"game_id":440,"stv_port":27046,"stv_name":"Uncletopia | Frankfurt | 4 | All Maps | STV","players":[{"user_id":526,"name":"Fran","steam_id":76561199070516960,"connected_time":1014000000000,"state":"active","ping":61},{"user_id":518,"name":"Warkzt","steam_id":76561198098166869,"connected_time":1766000000000,"state":"active","ping":69},{"user_id":527,"name":"R8N - Obismal","steam_id":76561198007482714,"connected_time":1005000000000,"state":"active","ping":74},{"user_id":467,"name":"Bloody Wolf","steam_id":76561198109282610,"connected_time":5674000000000,"state":"active","ping":65},{"user_id":542,"name":"J. Robert Oppenheimer","steam_id":76561198451550309,"connected_time":335000000000,"state":"active","ping":45},{"user_id":496,"name":"engineer drip","steam_id":76561198991032570,"connected_time":3260000000000,"state":"active","ping":94},{"user_id":538,"name":"Jimmy Poppadopolos","steam_id":76561198044825612,"connected_time":780000000000,"state":"active","ping":59},{"user_id":530,"name":"PENGUN","steam_id":76561199015156956,"connected_time":975000000000,"state":"active","ping":96},{"user_id":466,"name":"Plop_","steam_id":76561198112567921,"connected_time":5717000000000,"state":"active","ping":44},{"user_id":486,"name":"Swagmaster","steam_id":76561198045828392,"connected_time":3569000000000,"state":"active","ping":73},{"user_id":505,"name":"dildo_swaggins","steam_id":76561198049764599,"connected_time":2397000000000,"state":"active","ping":66},{"user_id":531,"name":"tully","steam_id":76561198058012525,"connected_time":893000000000,"state":"active","ping":59},{"user_id":532,"name":"rocze","steam_id":76561198088280730,"connected_time":867000000000,"state":"active","ping":72},{"user_id":544,"name":"Jela331","steam_id":76561198112625107,"connected_time":60000000000,"state":"active","ping":65},{"user_id":503,"name":"sticks","steam_id":76561198127099299,"connected_time":2887000000000,"state":"active","ping":58},{"user_id":488,"name":"Vacys Maslionka","steam_id":76561198126518252,"connected_time":3440000000000,"state":"active","ping":67},{"user_id":533,"name":"The Knight","steam_id":76561198055320626,"connected_time":864000000000,"state":"active","ping":99},{"user_id":536,"name":"Janosik","steam_id":76561198013528365,"connected_time":806000000000,"state":"active","ping":51},{"user_id":537,"name":"Beer Prophet #humanrights","steam_id":76561198020989545,"connected_time":802000000000,"state":"active","ping":89},{"user_id":539,"name":"smiley","steam_id":76561198042245117,"connected_time":756000000000,"state":"active","ping":78},{"user_id":453,"name":"bid","steam_id":76561198083863043,"connected_time":6182000000000,"state":"active","ping":59},{"user_id":469,"name":"breadbear \u003c3","steam_id":76561198036895007,"connected_time":5499000000000,"state":"active","ping":81},{"user_id":543,"name":"Im trash, sorry","steam_id":76561198115505047,"connected_time":152000000000,"state":"active","ping":49}]},{"server_id":310,"name":"Uncletopia | Frankfurt | 5 | All Maps","name_short":"frk-5","host":"frk-1.de.uncletopia.com","port":27055,"enabled":true,"region":"eu","cc":"de","latitude":50.110924,"longitude":8.682127,"reserved":0,"last_update":"0001-01-01T00:00:00Z","name_a2s":"Uncletopia | Frankfurt | 5 | All Maps","protocol":17,"map":"cp_steel","folder":"tf","game":"Team Fortress","app_id":440,"player_count":24,"max_players":24,"Bots":0,"server_type":"Dedicated","server_os":"Linux","password":true,"vac":true,"version":"7961495","steam_id":85568392924504277,"keywords":["cp","nocrits","nodmgspread","uncletopia"],"game_id":440,"stv_port":27056,"stv_name":"Uncletopia | Frankfurt | 5 | All Maps | STV","players":[{"user_id":612,"name":"Sympathetic","steam_id":76561198028087123,"connected_time":127000000000,"state":"active","ping":74},{"user_id":603,"name":"Peat","steam_id":76561197992168067,"connected_time":748000000000,"state":"active","ping":73},{"user_id":579,"name":"Jethro Tull","steam_id":76561199034041634,"connected_time":1867000000000,"state":"active","ping":67},{"user_id":575,"name":"mag̶p̶i̶e ✿","steam_id":76561198797266244,"connected_time":1955000000000,"state":"active","ping":54},{"user_id":614,"name":"We are in a world of magic","steam_id":76561198104745492,"connected_time":74000000000,"state":"spawning","ping":52},{"user_id":551,"name":"NikyuuVl","steam_id":76561198159506454,"connected_time":3041000000000,"state":"active","ping":56},{"user_id":615,"name":"Arc","steam_id":76561198805049375,"connected_time":72000000000,"state":"active","ping":57},{"user_id":588,"name":"Lord Perhaps","steam_id":76561198065211253,"connected_time":1261000000000,"state":"active","ping":53},{"user_id":596,"name":"Snowy","steam_id":76561198169992461,"connected_time":1102000000000,"state":"active","ping":56},{"user_id":616,"name":"lurid","steam_id":76561198063159528,"connected_time":63000000000,"state":"active","ping":48},{"user_id":582,"name":"Alegz","steam_id":76561198287810139,"connected_time":1637000000000,"state":"active","ping":67},{"user_id":620,"name":"Glonkdod","steam_id":76561198035119964,"connected_time":31000000000,"state":"active","ping":77},{"user_id":598,"name":"Speedwagen","steam_id":76561197983932032,"connected_time":1046000000000,"state":"active","ping":70},{"user_id":610,"name":"JohkupohkuXD","steam_id":76561198391108762,"connected_time":319000000000,"state":"active","ping":76},{"user_id":561,"name":"TOKOZACKO","steam_id":76561198125163526,"connected_time":2740000000000,"state":"active","ping":86},{"user_id":600,"name":"Urfangonultasadana","steam_id":76561199389286151,"connected_time":956000000000,"state":"active","ping":98},{"user_id":618,"name":"totkenjoyer","steam_id":76561199128528323,"connected_time":55000000000,"state":"active","ping":44},{"user_id":520,"name":"Doctor Medic","steam_id":76561198100957443,"connected_time":5595000000000,"state":"active","ping":70},{"user_id":577,"name":"toad (ungodly gigantic)","steam_id":76561198870327755,"connected_time":1905000000000,"state":"active","ping":68},{"user_id":619,"name":"i have bomb","steam_id":76561199382978934,"connected_time":32000000000,"state":"active","ping":87},{"user_id":621,"name":"puffled","steam_id":76561198894774140,"connected_time":29000000000,"state":"active","ping":59},{"user_id":521,"name":"random gaming","steam_id":76561198087970118,"connected_time":5566000000000,"state":"active","ping":64},{"user_id":594,"name":"Talyos","steam_id":76561198040184806,"connected_time":1142000000000,"state":"active","ping":74},{"user_id":611,"name":"Rummin","steam_id":76561198064739834,"connected_time":219000000000,"state":"active","ping":71}]},{"server_id":311,"name":"Uncletopia | Frankfurt | 6 | All Maps","name_short":"frk-6","host":"frk-1.de.uncletopia.com","port":27065,"enabled":true,"region":"eu","cc":"de","latitude":50.110924,"longitude":8.682127,"reserved":0,"last_update":"0001-01-01T00:00:00Z","name_a2s":"Uncletopia | Frankfurt | 6 | All Maps","protocol":17,"map":"koth_cascade","folder":"tf","game":"Team Fortress","app_id":440,"player_count":22,"max_players":24,"Bots":0,"server_type":"Dedicated","server_os":"Linux","password":true,"vac":true,"version":"7961495","steam_id":85568392924504278,"keywords":["cp","nocrits","nodmgspread","uncletopia"],"game_id":440,"stv_port":27066,"stv_name":"Uncletopia | Frankfurt | 6 | All Maps | STV","players":[{"user_id":516,"name":"Mr. Pinkie","steam_id":76561198002258053,"connected_time":146000000000,"state":"active","ping":59},{"user_id":503,"name":"Immortalyes","steam_id":76561198050800698,"connected_time":515000000000,"state":"active","ping":68},{"user_id":433,"name":"wes","steam_id":76561198067000117,"connected_time":4577000000000,"state":"active","ping":60},{"user_id":504,"name":"Sesse","steam_id":76561198254375590,"connected_time":498000000000,"state":"active","ping":72},{"user_id":506,"name":"Pestilence","steam_id":76561198140938904,"connected_time":425000000000,"state":"active","ping":83},{"user_id":507,"name":"Aregularhuman","steam_id":76561198343319848,"connected_time":383000000000,"state":"active","ping":44},{"user_id":427,"name":"nezolif","steam_id":76561198102030382,"connected_time":4985000000000,"state":"active","ping":63},{"user_id":499,"name":"krishtanv","steam_id":76561198155492861,"connected_time":1024000000000,"state":"active","ping":102},{"user_id":508,"name":"Nintails","steam_id":76561198075157560,"connected_time":371000000000,"state":"active","ping":60},{"user_id":512,"name":"Hopper","steam_id":76561198842778221,"connected_time":305000000000,"state":"active","ping":83},{"user_id":473,"name":"Gas Doge","steam_id":76561198074869243,"connected_time":2357000000000,"state":"active","ping":68},{"user_id":510,"name":"V@nn1e","steam_id":76561199099194994,"connected_time":312000000000,"state":"active","ping":193},{"user_id":522,"name":"White boy carl","steam_id":76561199114508250,"connected_time":34000000000,"state":"active","ping":78},{"user_id":513,"name":"arinyan","steam_id":76561198097716506,"connected_time":293000000000,"state":"active","ping":61},{"user_id":515,"name":"goofy ahh","steam_id":76561199066430860,"connected_time":186000000000,"state":"active","ping":64},{"user_id":517,"name":"iAmBack!\u003c3","steam_id":76561198004525276,"connected_time":99000000000,"state":"active","ping":60},{"user_id":518,"name":"sharkybro_nl","steam_id":76561198316862224,"connected_time":92000000000,"state":"active","ping":54},{"user_id":521,"name":"mp1mp2mp3","steam_id":76561198088967665,"connected_time":46000000000,"state":"spawning","ping":75},{"user_id":426,"name":"debil boywife","steam_id":76561198160047415,"connected_time":5025000000000,"state":"active","ping":86},{"user_id":520,"name":"mo","steam_id":76561198089471606,"connected_time":76000000000,"state":"active","ping":205},{"user_id":523,"name":"TheEmeraldStar","steam_id":76561198072942529,"connected_time":29000000000,"state":"active","ping":74},{"user_id":488,"name":"Mr. Voice","steam_id":76561198121649244,"connected_time":1927000000000,"state":"active","ping":57}]},{"server_id":23,"name":"Uncletopia | Frankfurt | 7 | Stopwatch","name_short":"frk-7","host":"frk-1.de.uncletopia.com","port":27075,"enabled":true,"region":"eu","cc":"de","latitude":50.110924,"longitude":8.682127,"reserved":0,"last_update":"0001-01-01T00:00:00Z","name_a2s":"Uncletopia | Frankfurt | 7 | Stopwatch","protocol":17,"map":"workshop/koth_ashville_final.ugc2130459942","folder":"tf","game":"Team Fortress","app_id":440,"player_count":0,"max_players":24,"Bots":0,"server_type":"Dedicated","server_os":"Linux","password":true,"vac":true,"version":"7961495","steam_id":85568392924742827,"keywords":["cp","nocrits","nodmgspread","uncletopia"],"game_id":440,"stv_port":27076,"stv_name":"Uncletopia | Frankfurt | 7 | Stopwatch | STV","players":null},{"server_id":24,"name":"Uncletopia | Frankfurt | 8 | Community","name_short":"frk-8","host":"frk-1.de.uncletopia.com","port":27085,"enabled":true,"region":"eu","cc":"de","latitude":50.110924,"longitude":8.682127,"reserved":0,"last_update":"0001-01-01T00:00:00Z","name_a2s":"Uncletopia | Frankfurt | 8 | Community","protocol":17,"map":"workshop/koth_trenchfoot_ab1.ugc731436616","folder":"tf","game":"Team Fortress","app_id":440,"player_count":5,"max_players":24,"Bots":0,"server_type":"Dedicated","server_os":"Linux","password":true,"vac":true,"version":"7961495","steam_id":85568392924742828,"keywords":["cp","nocrits","nodmgspread","uncletopia"],"game_id":440,"stv_port":27086,"stv_name":"Uncletopia | Frankfurt | 8 | Community | STV","players":[{"user_id":44,"name":"F","steam_id":76561199149462792,"connected_time":763000000000,"state":"active","ping":61},{"user_id":38,"name":"The_Dark_Night","steam_id":76561198884257698,"connected_time":4109000000000,"state":"active","ping":120},{"user_id":39,"name":"Mr.Beans","steam_id":76561199062611417,"connected_time":4090000000000,"state":"active","ping":74},{"user_id":45,"name":"Gregor Samsa","steam_id":76561198973069177,"connected_time":488000000000,"state":"active","ping":45},{"user_id":46,"name":"Collet-Gaming69","steam_id":76561198335486000,"connected_time":253000000000,"state":"active","ping":111}]},{"server_id":202,"name":"Uncletopia | Hong Kong | 1 | All Maps","name_short":"hgk-1","host":"hgk-1.hk.uncletopia.com","port":27015,"enabled":true,"region":"asia","cc":"hk","latitude":22.302711,"longitude":114.177216,"reserved":0,"last_update":"0001-01-01T00:00:00Z","name_a2s":"Uncletopia | Hong Kong | 1 | All Maps","protocol":17,"map":"cp_snakewater_final1","folder":"tf","game":"Team Fortress","app_id":440,"player_count":0,"max_players":24,"Bots":0,"server_type":"Dedicated","server_os":"Linux","password":true,"vac":true,"version":"7961495","steam_id":85568392924494504,"keywords":["cp","nocrits","nodmgspread","uncletopia"],"game_id":440,"stv_port":27016,"stv_name":"Uncletopia | Hong Kong | 1 | All Maps | STV","players":null},{"server_id":1,"name":"Uncletopia | Los Angeles | 1 | All Maps","name_short":"lax-1","host":"lax-1.us.uncletopia.com","port":27015,"enabled":true,"region":"us-west","cc":"us","latitude":33.94279,"longitude":-118.41004,"reserved":0,"last_update":"0001-01-01T00:00:00Z","name_a2s":"Uncletopia | Los Angeles | 1 | All Maps","protocol":17,"map":"pl_pier","folder":"tf","game":"Team Fortress","app_id":440,"player_count":0,"max_players":24,"Bots":0,"server_type":"Dedicated","server_os":"Linux","password":true,"vac":true,"version":"7961495","steam_id":85568392924469991,"keywords":["nocrits","nodmgspread","payload","uncletopia"],"game_id":440,"stv_port":27016,"stv_name":"Uncletopia | Los Angeles | 1 | All Maps | STV","players":null},{"server_id":112,"name":"Uncletopia | Los Angeles | 2 | All Maps","name_short":"lax-2","host":"lax-1.us.uncletopia.com","port":27025,"enabled":true,"region":"us-west","cc":"us","latitude":33.94279,"longitude":-118.41004,"reserved":0,"last_update":"0001-01-01T00:00:00Z","name_a2s":"Uncletopia | Los Angeles | 2 | All Maps","protocol":17,"map":"cp_snakewater_final1","folder":"tf","game":"Team Fortress","app_id":440,"player_count":0,"max_players":24,"Bots":0,"server_type":"Dedicated","server_os":"Linux","password":true,"vac":true,"version":"7961495","steam_id":85568392924469992,"keywords":["cp","nocrits","nodmgspread","uncletopia"],"game_id":440,"stv_port":27026,"stv_name":"Uncletopia | Los Angeles | 2 | All Maps | STV","players":null},{"server_id":324,"name":"Uncletopia | Los Angeles | 3 | All Maps","name_short":"lax-3","host":"lax-1.us.uncletopia.com","port":27035,"enabled":true,"region":"us-west","cc":"us","latitude":33.94279,"longitude":-118.41004,"reserved":0,"last_update":"0001-01-01T00:00:00Z","name_a2s":"Uncletopia | Los Angeles | 3 | All Maps","protocol":17,"map":"pl_frontier_final","folder":"tf","game":"Team Fortress","app_id":440,"player_count":0,"max_players":24,"Bots":0,"server_type":"Dedicated","server_os":"Linux","password":true,"vac":true,"version":"7961495","steam_id":85568392924510198,"keywords":["nocrits","nodmgspread","payload","uncletopia"],"game_id":440,"stv_port":27036,"stv_name":"Uncletopia | Los Angeles | 3 | All Maps | STV","players":null},{"server_id":25,"name":"Uncletopia | Los Angeles | 4 | Stopwatch","name_short":"lax-4","host":"lax-1.us.uncletopia.com","port":27045,"enabled":true,"region":"us-west","cc":"us","latitude":33.94279,"longitude":-118.41004,"reserved":0,"last_update":"0001-01-01T00:00:00Z","name_a2s":"Uncletopia | Los Angeles | 4 | Stopwatch","protocol":17,"map":"pl_barnblitz","folder":"tf","game":"Team Fortress","app_id":440,"player_count":0,"max_players":24,"Bots":0,"server_type":"Dedicated","server_os":"Linux","password":true,"vac":true,"version":"7961495","steam_id":85568392924510199,"keywords":["nocrits","nodmgspread","payload","uncletopia"],"game_id":440,"stv_port":27046,"stv_name":"Uncletopia | Los Angeles | 4 | Stopwatch | STV","players":null},{"server_id":11,"name":"Uncletopia | London | 1 | All Maps","name_short":"lon-1","host":"lon-1.uk.uncletopia.com","port":27015,"enabled":true,"region":"eu","cc":"gb","latitude":51.509865,"longitude":-0.118092,"reserved":0,"last_update":"0001-01-01T00:00:00Z","name_a2s":"Uncletopia | London | 1 | All Maps","protocol":17,"map":"ctf_2fort","folder":"tf","game":"Team Fortress","app_id":440,"player_count":18,"max_players":24,"Bots":0,"server_type":"Dedicated","server_os":"Linux","password":true,"vac":true,"version":"7961495","steam_id":85568392924367362,"keywords":["ctf","nocrits","nodmgspread","uncletopia"],"game_id":440,"stv_port":27016,"stv_name":"Uncletopia | London | 1 | All Maps | STV","players":[{"user_id":627,"name":"Woman (Real)","steam_id":76561199151823932,"connected_time":72000000000,"state":"active","ping":86},{"user_id":519,"name":"RubyTheUnicorn","steam_id":76561198091772218,"connected_time":6173000000000,"state":"active","ping":61},{"user_id":631,"name":"W","steam_id":76561199501358967,"connected_time":23000000000,"state":"active","ping":69},{"user_id":533,"name":"Janneke Maan","steam_id":76561198069290924,"connected_time":5309000000000,"state":"active","ping":64},{"user_id":616,"name":"getpost","steam_id":76561198260064876,"connected_time":829000000000,"state":"active","ping":94},{"user_id":629,"name":"Duktigafred","steam_id":76561199211222396,"connected_time":67000000000,"state":"active","ping":72},{"user_id":598,"name":"Vito","steam_id":76561198103978102,"connected_time":2353000000000,"state":"active","ping":77},{"user_id":585,"name":"Chinpo to bōru no gōmon","steam_id":76561199214163032,"connected_time":2649000000000,"state":"active","ping":95},{"user_id":576,"name":"nappo","steam_id":76561198060105180,"connected_time":2927000000000,"state":"active","ping":74},{"user_id":567,"name":"kräk","steam_id":76561198040725235,"connected_time":3786000000000,"state":"active","ping":72},{"user_id":577,"name":"kinesitherapie","steam_id":76561198087909358,"connected_time":2846000000000,"state":"active","ping":83},{"user_id":630,"name":"piub4003","steam_id":76561199403971797,"connected_time":65000000000,"state":"active","ping":60},{"user_id":607,"name":"YARrICk.«+»","steam_id":76561197990126485,"connected_time":1606000000000,"state":"active","ping":60},{"user_id":608,"name":"OutOfDucks","steam_id":76561198166376227,"connected_time":1547000000000,"state":"active","ping":57},{"user_id":620,"name":"milo","steam_id":76561198119016918,"connected_time":564000000000,"state":"active","ping":62},{"user_id":542,"name":"sokige","steam_id":76561198167112371,"connected_time":4845000000000,"state":"active","ping":104},{"user_id":615,"name":"albert","steam_id":76561198353496134,"connected_time":860000000000,"state":"active","ping":62},{"user_id":602,"name":"the silly creature","steam_id":76561198819986745,"connected_time":2000000000000,"state":"active","ping":91}]},{"server_id":114,"name":"Uncletopia | London | 2 | All Maps","name_short":"lon-2","host":"lon-1.uk.uncletopia.com","port":27025,"enabled":true,"region":"eu","cc":"gb","latitude":51.509865,"longitude":-0.118092,"reserved":0,"last_update":"0001-01-01T00:00:00Z","name_a2s":"Uncletopia | London | 2 | All Maps","protocol":17,"map":"pl_borneo","folder":"tf","game":"Team Fortress","app_id":440,"player_count":24,"max_players":24,"Bots":0,"server_type":"Dedicated","server_os":"Linux","password":true,"vac":true,"version":"7961495","steam_id":85568392924470941,"keywords":["nocrits","nodmgspread","payload","uncletopia"],"game_id":440,"stv_port":27026,"stv_name":"Uncletopia | London | 2 | All Maps | STV","players":[{"user_id":487,"name":"im not a femboy i swear","steam_id":76561198441084881,"connected_time":2735000000000,"state":"active","ping":69},{"user_id":353,"name":"Demicore","steam_id":76561197976922136,"connected_time":13489000000000,"state":"active","ping":70},{"user_id":467,"name":"British Disapproval","steam_id":76561198001375260,"connected_time":3461000000000,"state":"active","ping":55},{"user_id":496,"name":"Citrus","steam_id":76561198090650837,"connected_time":2037000000000,"state":"active","ping":56},{"user_id":497,"name":"01010110 00110001","steam_id":76561198039914302,"connected_time":1964000000000,"state":"active","ping":131},{"user_id":509,"name":"The Lady","steam_id":76561198029895809,"connected_time":1008000000000,"state":"active","ping":84},{"user_id":512,"name":"GNOMECATCHER","steam_id":76561198072638124,"connected_time":598000000000,"state":"active","ping":60},{"user_id":486,"name":"LordTrap.exe","steam_id":76561198318089716,"connected_time":2744000000000,"state":"active","ping":58},{"user_id":511,"name":"forest","steam_id":76561199247203382,"connected_time":649000000000,"state":"active","ping":54},{"user_id":499,"name":"Urtaras","steam_id":76561198085604412,"connected_time":1602000000000,"state":"active","ping":53},{"user_id":513,"name":"☠The Boio☠","steam_id":76561198114166378,"connected_time":555000000000,"state":"active","ping":65},{"user_id":491,"name":"Visphiric","steam_id":76561198071938027,"connected_time":2578000000000,"state":"active","ping":45},{"user_id":514,"name":"finbar","steam_id":76561198056812396,"connected_time":547000000000,"state":"active","ping":75},{"user_id":507,"name":"Kappa","steam_id":76561198089341471,"connected_time":1201000000000,"state":"active","ping":72},{"user_id":431,"name":"GhastlyPann","steam_id":76561198825373404,"connected_time":7111000000000,"state":"active","ping":121},{"user_id":416,"name":"(MAC) [BN] Crazyking","steam_id":76561198001668616,"connected_time":7942000000000,"state":"active","ping":57},{"user_id":517,"name":"bl0x","steam_id":76561199061345151,"connected_time":186000000000,"state":"active","ping":107},{"user_id":418,"name":"gapeboi farti","steam_id":76561199121999431,"connected_time":7808000000000,"state":"active","ping":54},{"user_id":426,"name":"Fiishi","steam_id":76561198098706390,"connected_time":7372000000000,"state":"active","ping":138},{"user_id":493,"name":"Horrowes","steam_id":76561198318446417,"connected_time":2255000000000,"state":"active","ping":133},{"user_id":519,"name":"Swiss_Nostalgia","steam_id":76561199159896259,"connected_time":125000000000,"state":"active","ping":65},{"user_id":505,"name":"meriones","steam_id":76561198034234373,"connected_time":1268000000000,"state":"active","ping":39},{"user_id":516,"name":"JohnTraveltime","steam_id":76561199244281754,"connected_time":531000000000,"state":"active","ping":80},{"user_id":506,"name":"Dogdigger","steam_id":76561198032893130,"connected_time":1252000000000,"state":"active","ping":99}]},{"server_id":320,"name":"Uncletopia | London | 3 | All Maps","name_short":"lon-3","host":"lon-1.uk.uncletopia.com","port":27035,"enabled":true,"region":"eu","cc":"gb","latitude":51.509865,"longitude":-0.118092,"reserved":0,"last_update":"0001-01-01T00:00:00Z","name_a2s":"Uncletopia | London | 3 | All Maps","protocol":17,"map":"koth_cascade","folder":"tf","game":"Team Fortress","app_id":440,"player_count":23,"max_players":24,"Bots":0,"server_type":"Dedicated","server_os":"Linux","password":true,"vac":true,"version":"7961495","steam_id":85568392924510192,"keywords":["cp","nocrits","nodmgspread","uncletopia"],"game_id":440,"stv_port":27036,"stv_name":"Uncletopia | London | 3 | All Maps | STV","players":[{"user_id":294,"name":"Hyperwizard of Space Conquest","steam_id":76561198953210459,"connected_time":949000000000,"state":"active","ping":96},{"user_id":283,"name":"Skelet","steam_id":76561198051685232,"connected_time":1679000000000,"state":"active","ping":44},{"user_id":317,"name":"Mr. Hunts","steam_id":76561197981910397,"connected_time":12000000000,"state":"active","ping":67},{"user_id":310,"name":"gosi","steam_id":76561198084111532,"connected_time":361000000000,"state":"active","ping":69},{"user_id":295,"name":"Jackal","steam_id":76561198263001231,"connected_time":944000000000,"state":"active","ping":37},{"user_id":225,"name":"soil.dirt.earth","steam_id":76561198014377623,"connected_time":7640000000000,"state":"active","ping":31},{"user_id":296,"name":"ACG_Dubsy","steam_id":76561198797308565,"connected_time":911000000000,"state":"active","ping":66},{"user_id":298,"name":"Robo-Tavish","steam_id":76561198073284118,"connected_time":882000000000,"state":"active","ping":40},{"user_id":213,"name":"Dr_Agent","steam_id":76561198330355519,"connected_time":9299000000000,"state":"active","ping":65},{"user_id":290,"name":"fernandobmwm355555","steam_id":76561198086609447,"connected_time":1318000000000,"state":"active","ping":61},{"user_id":196,"name":"Marcel","steam_id":76561198348686648,"connected_time":10386000000000,"state":"active","ping":45},{"user_id":299,"name":"Goldblade","steam_id":76561198382997614,"connected_time":858000000000,"state":"active","ping":86},{"user_id":278,"name":"Bighead","steam_id":76561197970693183,"connected_time":2715000000000,"state":"active","ping":97},{"user_id":200,"name":"LiterallyRyanGosling","steam_id":76561199017856691,"connected_time":10166000000000,"state":"active","ping":57},{"user_id":304,"name":"CallMeUnoriginal","steam_id":76561198977528294,"connected_time":722000000000,"state":"active","ping":51},{"user_id":301,"name":"scott steiners strongest warrio","steam_id":76561198148888622,"connected_time":835000000000,"state":"active","ping":60},{"user_id":211,"name":"Rjay","steam_id":76561198026151229,"connected_time":9545000000000,"state":"active","ping":106},{"user_id":308,"name":"Gym teacher","steam_id":76561198382706733,"connected_time":390000000000,"state":"active","ping":84},{"user_id":307,"name":"Çodar","steam_id":76561198235518444,"connected_time":637000000000,"state":"active","ping":41},{"user_id":275,"name":"Chonky dorito","steam_id":76561199076870571,"connected_time":2919000000000,"state":"active","ping":98},{"user_id":247,"name":"MakeItRainbow","steam_id":76561198045098064,"connected_time":6253000000000,"state":"active","ping":71},{"user_id":315,"name":"Keany","steam_id":76561199041393458,"connected_time":87000000000,"state":"active","ping":59},{"user_id":316,"name":"[L-eOS] Fioralys","steam_id":76561198043945899,"connected_time":66000000000,"state":"active","ping":58}]},{"server_id":321,"name":"Uncletopia | London | 4 | All Maps","name_short":"lon-4","host":"lon-1.uk.uncletopia.com","port":27045,"enabled":true,"region":"eu","cc":"gb","latitude":51.509865,"longitude":-0.118092,"reserved":0,"last_update":"0001-01-01T00:00:00Z","name_a2s":"Uncletopia | London | 4 | All Maps","protocol":17,"map":"pl_swiftwater_final1","folder":"tf","game":"Team Fortress","app_id":440,"player_count":16,"max_players":24,"Bots":0,"server_type":"Dedicated","server_os":"Linux","password":true,"vac":true,"version":"7961495","steam_id":85568392924510193,"keywords":["nocrits","nodmgspread","payload","uncletopia"],"game_id":440,"stv_port":27046,"stv_name":"Uncletopia | London | 4 | All Maps | STV","players":[{"user_id":385,"name":"wG silentes","steam_id":76561197999595616,"connected_time":65000000000,"state":"active","ping":40},{"user_id":289,"name":"gentoo stage 1 tarball","steam_id":76561199077022985,"connected_time":5784000000000,"state":"active","ping":52},{"user_id":356,"name":"Cantro","steam_id":76561199026052361,"connected_time":2234000000000,"state":"active","ping":75},{"user_id":378,"name":"onixed766","steam_id":76561198995478547,"connected_time":1445000000000,"state":"active","ping":71},{"user_id":383,"name":"LOBZIK","steam_id":76561198114830120,"connected_time":979000000000,"state":"active","ping":76},{"user_id":361,"name":"VampireSunflower","steam_id":76561199007012355,"connected_time":2040000000000,"state":"active","ping":57},{"user_id":387,"name":"meatsoupcube","steam_id":76561198276802249,"connected_time":32000000000,"state":"active","ping":99},{"user_id":341,"name":"Plep","steam_id":76561198840259819,"connected_time":3394000000000,"state":"active","ping":59},{"user_id":381,"name":"Milk","steam_id":76561198125876588,"connected_time":1189000000000,"state":"active","ping":36},{"user_id":355,"name":"Enda","steam_id":76561198202980164,"connected_time":2345000000000,"state":"active","ping":86},{"user_id":379,"name":"useless","steam_id":76561198842020955,"connected_time":1387000000000,"state":"active","ping":76},{"user_id":333,"name":"Rez","steam_id":76561198410598772,"connected_time":4093000000000,"state":"active","ping":42},{"user_id":368,"name":"Mirru","steam_id":76561198078247594,"connected_time":1830000000000,"state":"active","ping":92},{"user_id":374,"name":"cisgender clown","steam_id":76561199469909295,"connected_time":1708000000000,"state":"active","ping":68},{"user_id":372,"name":"mick","steam_id":76561199473954060,"connected_time":1784000000000,"state":"active","ping":89},{"user_id":373,"name":"theodorc68","steam_id":76561199250592158,"connected_time":1759000000000,"state":"active","ping":72}]},{"server_id":21,"name":"Uncletopia | London | 5 | All Maps","name_short":"lon-5","host":"lon-1.uk.uncletopia.com","port":27055,"enabled":true,"region":"eu","cc":"gb","latitude":51.509865,"longitude":-0.118092,"reserved":0,"last_update":"0001-01-01T00:00:00Z","name_a2s":"Uncletopia | London | 5 | All Maps","protocol":17,"map":"cp_dustbowl","folder":"tf","game":"Team Fortress","app_id":440,"player_count":24,"max_players":24,"Bots":0,"server_type":"Dedicated","server_os":"Linux","password":true,"vac":true,"version":"7961495","steam_id":85568392924742829,"keywords":["cp","nocrits","nodmgspread","uncletopia"],"game_id":440,"stv_port":27056,"stv_name":"Uncletopia | London | 5 | All Maps | STV","players":[{"user_id":259,"name":"Team Fortress","steam_id":76561198058722801,"connected_time":1125000000000,"state":"active","ping":49},{"user_id":274,"name":"Shinru","steam_id":76561198285951918,"connected_time":511000000000,"state":"active","ping":90},{"user_id":272,"name":"TamiyaGuy","steam_id":76561197994489789,"connected_time":855000000000,"state":"active","ping":40},{"user_id":257,"name":"Mono","steam_id":76561198114569493,"connected_time":1147000000000,"state":"active","ping":39},{"user_id":244,"name":"Oak","steam_id":76561198067315672,"connected_time":2482000000000,"state":"active","ping":46},{"user_id":260,"name":"Equipment of war","steam_id":76561198030563843,"connected_time":1120000000000,"state":"active","ping":68},{"user_id":256,"name":"Mother","steam_id":76561198038282957,"connected_time":1160000000000,"state":"active","ping":77},{"user_id":270,"name":"Eric Catman","steam_id":76561198802117294,"connected_time":905000000000,"state":"active","ping":69},{"user_id":261,"name":"Graham","steam_id":76561198062668942,"connected_time":1111000000000,"state":"active","ping":47},{"user_id":258,"name":"jon_chris","steam_id":76561198121431680,"connected_time":1147000000000,"state":"active","ping":69},{"user_id":262,"name":"lemonboi33","steam_id":76561198218335387,"connected_time":1104000000000,"state":"active","ping":84},{"user_id":263,"name":"Android Device Connected","steam_id":76561199244250562,"connected_time":1102000000000,"state":"active","ping":105},{"user_id":239,"name":"Outlaw Sniff Gluer","steam_id":76561198263263692,"connected_time":2769000000000,"state":"active","ping":96},{"user_id":273,"name":"Pjuske","steam_id":76561198013943953,"connected_time":843000000000,"state":"active","ping":64},{"user_id":211,"name":"G-Man Follower","steam_id":76561199384234822,"connected_time":4481000000000,"state":"active","ping":70},{"user_id":265,"name":"Lemmy","steam_id":76561199038870751,"connected_time":1076000000000,"state":"active","ping":68},{"user_id":203,"name":"[FP] Shiken","steam_id":76561198257905663,"connected_time":5250000000000,"state":"active","ping":66},{"user_id":241,"name":"Mozzaza","steam_id":76561198156316111,"connected_time":2751000000000,"state":"active","ping":144},{"user_id":188,"name":"engineer gaming","steam_id":76561198976416610,"connected_time":5550000000000,"state":"active","ping":56},{"user_id":245,"name":"♥Neko Girlfriend♥","steam_id":76561198143422702,"connected_time":2308000000000,"state":"active","ping":127},{"user_id":268,"name":"BardiBoi","steam_id":76561197985615971,"connected_time":968000000000,"state":"active","ping":68},{"user_id":206,"name":"Beep","steam_id":76561198120500488,"connected_time":4866000000000,"state":"active","ping":56},{"user_id":267,"name":"BLINKY","steam_id":76561198990110546,"connected_time":1061000000000,"state":"active","ping":113},{"user_id":202,"name":"[FP] Rune","steam_id":76561198030842879,"connected_time":5330000000000,"state":"active","ping":45}]},{"server_id":22,"name":"Uncletopia | London | 6 | All Maps","name_short":"lon-6","host":"lon-1.uk.uncletopia.com","port":27065,"enabled":true,"region":"eu","cc":"gb","latitude":51.509865,"longitude":-0.118092,"reserved":0,"last_update":"0001-01-01T00:00:00Z","name_a2s":"Uncletopia | London | 6 | All Maps","protocol":17,"map":"pl_frontier_final","folder":"tf","game":"Team Fortress","app_id":440,"player_count":24,"max_players":24,"Bots":0,"server_type":"Dedicated","server_os":"Linux","password":true,"vac":true,"version":"7961495","steam_id":85568392924742830,"keywords":["nocrits","nodmgspread","payload","uncletopia"],"game_id":440,"stv_port":27066,"stv_name":"Uncletopia | London | 6 | All Maps | STV","players":[{"user_id":421,"name":"GoatLord1","steam_id":76561198157964544,"connected_time":1383000000000,"state":"active","ping":51},{"user_id":415,"name":"mugshot","steam_id":76561198363841749,"connected_time":1847000000000,"state":"active","ping":75},{"user_id":428,"name":"KAngel","steam_id":76561198060307235,"connected_time":486000000000,"state":"active","ping":64},{"user_id":382,"name":"Deez nuts","steam_id":76561199429562693,"connected_time":3675000000000,"state":"active","ping":78},{"user_id":417,"name":"CherrySnek","steam_id":76561198095222514,"connected_time":1787000000000,"state":"active","ping":71},{"user_id":429,"name":"Katy","steam_id":76561198079395814,"connected_time":467000000000,"state":"active","ping":157},{"user_id":393,"name":"Jeff","steam_id":76561198074722832,"connected_time":2926000000000,"state":"active","ping":62},{"user_id":430,"name":"♠️♦️Luigi♦️♠","steam_id":76561198819200795,"connected_time":464000000000,"state":"active","ping":68},{"user_id":416,"name":"gwenllian1136","steam_id":76561198958303726,"connected_time":1840000000000,"state":"active","ping":67},{"user_id":388,"name":"The Bread Bringer","steam_id":76561198264079743,"connected_time":3381000000000,"state":"active","ping":45},{"user_id":427,"name":"Worm","steam_id":76561198296497176,"connected_time":748000000000,"state":"active","ping":52},{"user_id":418,"name":"Pew","steam_id":76561198425388109,"connected_time":1754000000000,"state":"active","ping":66},{"user_id":390,"name":"Tavish","steam_id":76561197971486686,"connected_time":3330000000000,"state":"active","ping":53},{"user_id":425,"name":"night.s","steam_id":76561198326287823,"connected_time":792000000000,"state":"active","ping":68},{"user_id":412,"name":"GopniC","steam_id":76561198015529261,"connected_time":2103000000000,"state":"active","ping":59},{"user_id":423,"name":"Alyx","steam_id":76561198064654326,"connected_time":967000000000,"state":"active","ping":69},{"user_id":406,"name":"Jon","steam_id":76561199380849468,"connected_time":2706000000000,"state":"active","ping":74},{"user_id":380,"name":"Warrior555MainsGanon","steam_id":76561198388627786,"connected_time":3875000000000,"state":"active","ping":68},{"user_id":434,"name":"[Imbr] kurush117","steam_id":76561198003364899,"connected_time":38000000000,"state":"active","ping":62},{"user_id":396,"name":"Spurt","steam_id":76561198078523852,"connected_time":2922000000000,"state":"active","ping":48},{"user_id":397,"name":"Sebab","steam_id":76561198122706821,"connected_time":2919000000000,"state":"active","ping":49},{"user_id":433,"name":"[Imbr] Supe7nova","steam_id":76561197986998963,"connected_time":57000000000,"state":"active","ping":45},{"user_id":431,"name":"alibi","steam_id":76561198079490000,"connected_time":464000000000,"state":"active","ping":65},{"user_id":352,"name":"Adam","steam_id":76561198259467867,"connected_time":4969000000000,"state":"active","ping":94}]},{"server_id":40,"name":"Uncletopia | London | 7 | Stopwatch","name_short":"lon-7","host":"lon-1.uk.uncletopia.com","port":27075,"enabled":true,"region":"eu","cc":"gb","latitude":51.509865,"longitude":-0.118092,"reserved":0,"last_update":"0001-01-01T00:00:00Z","name_a2s":"Uncletopia | London | 7 | Stopwatch","protocol":17,"map":"koth_highpass","folder":"tf","game":"Team Fortress","app_id":440,"player_count":0,"max_players":24,"Bots":0,"server_type":"Dedicated","server_os":"Linux","password":true,"vac":true,"version":"7961495","steam_id":85568392924964314,"keywords":["cp","nocrits","nodmgspread","uncletopia"],"game_id":440,"stv_port":27076,"stv_name":"Uncletopia | London | 7 | Stopwatch | STV","players":null},{"server_id":41,"name":"Uncletopia | London | 8 | Community","name_short":"lon-8","host":"lon-1.uk.uncletopia.com","port":27085,"enabled":true,"region":"eu","cc":"gb","latitude":51.509865,"longitude":-0.118092,"reserved":0,"last_update":"0001-01-01T00:00:00Z","name_a2s":"Uncletopia | London | 8 | Community","protocol":17,"map":"workshop/pl_divulgence_b4b.ugc2884808746","folder":"tf","game":"Team Fortress","app_id":440,"player_count":8,"max_players":24,"Bots":0,"server_type":"Dedicated","server_os":"Linux","password":true,"vac":true,"version":"7961495","steam_id":85568392924964315,"keywords":["nocrits","nodmgspread","payload","uncletopia"],"game_id":440,"stv_port":27086,"stv_name":"Uncletopia | London | 8 | Community | STV","players":[{"user_id":8,"name":"TSx* Osa__PL","steam_id":76561198027016799,"connected_time":4871000000000,"state":"active","ping":68},{"user_id":32,"name":"SirDirtbag","steam_id":76561198091890855,"connected_time":442000000000,"state":"active","ping":75},{"user_id":10,"name":"TSx* Naxer","steam_id":76561198011986779,"connected_time":4841000000000,"state":"active","ping":81},{"user_id":11,"name":"TSx* Dante","steam_id":76561198139309331,"connected_time":4829000000000,"state":"active","ping":69},{"user_id":35,"name":"TSx* {Demon-Angel}","steam_id":76561198151486463,"connected_time":12000000000,"state":"active","ping":80},{"user_id":31,"name":"GMAN_L@ver_6978 [GMF][Priest]","steam_id":76561199461851882,"connected_time":672000000000,"state":"active","ping":56},{"user_id":33,"name":"gemaidcol","steam_id":76561198279645176,"connected_time":295000000000,"state":"active","ping":60},{"user_id":34,"name":"♿ Leonard","steam_id":76561198885843716,"connected_time":156000000000,"state":"active","ping":48}]},{"server_id":300,"name":"Uncletopia | Montréal | 1 | One Thousand Uncles","name_short":"mtl-1","host":"mtl-1.ca.uncletopia.com","port":27015,"enabled":true,"region":"us-east","cc":"ca","latitude":45.50889,"longitude":-73.56167,"reserved":0,"last_update":"0001-01-01T00:00:00Z","name_a2s":"","protocol":0,"map":"","folder":"","game":"","app_id":0,"player_count":3,"max_players":0,"Bots":0,"server_type":"","server_os":"","password":false,"vac":false,"version":"","steam_id":0,"keywords":null,"game_id":0,"stv_port":0,"stv_name":"","players":[{"user_id":230,"name":"Yep","steam_id":76561198041437251,"connected_time":1731000000000,"state":"active","ping":56},{"user_id":257,"name":"caberknight tf2  (f2p-ish)","steam_id":76561199273882768,"connected_time":417000000000,"state":"active","ping":53},{"user_id":229,"name":"rb_quick","steam_id":76561197992053677,"connected_time":1959000000000,"state":"active","ping":204}]},{"server_id":301,"name":"Uncletopia | Montréal | 2 | One Thousand Uncles","name_short":"mtl-2","host":"mtl-1.ca.uncletopia.com","port":27025,"enabled":true,"region":"us-east","cc":"ca","latitude":45.50889,"longitude":-73.56167,"reserved":0,"last_update":"0001-01-01T00:00:00Z","name_a2s":"","protocol":0,"map":"","folder":"","game":"","app_id":0,"player_count":0,"max_players":0,"Bots":0,"server_type":"","server_os":"","password":false,"vac":false,"version":"","steam_id":0,"keywords":null,"game_id":0,"stv_port":0,"stv_name":"","players":null},{"server_id":302,"name":"Uncletopia | Montréal | 3 | One Thousand Uncles","name_short":"mtl-3","host":"mtl-1.ca.uncletopia.com","port":27035,"enabled":true,"region":"us-east","cc":"ca","latitude":45.50889,"longitude":-73.56167,"reserved":0,"last_update":"0001-01-01T00:00:00Z","name_a2s":"","protocol":0,"map":"","folder":"","game":"","app_id":0,"player_count":0,"max_players":0,"Bots":0,"server_type":"","server_os":"","password":false,"vac":false,"version":"","steam_id":0,"keywords":null,"game_id":0,"stv_port":0,"stv_name":"","players":null},{"server_id":13,"name":"Uncletopia | New York City | 1 | All Maps","name_short":"nyc-1","host":"nyc-1.us.uncletopia.com","port":27015,"enabled":true,"region":"us-east","cc":"us","latitude":40.73061,"longitude":-73.93524,"reserved":0,"last_update":"0001-01-01T00:00:00Z","name_a2s":"Uncletopia | New York City | 1 | All Maps","protocol":17,"map":"koth_cascade","folder":"tf","game":"Team Fortress","app_id":440,"player_count":2,"max_players":24,"Bots":0,"server_type":"Dedicated","server_os":"Linux","password":true,"vac":true,"version":"7961495","steam_id":85568392924469993,"keywords":["cp","nocrits","nodmgspread","uncletopia"],"game_id":440,"stv_port":27016,"stv_name":"Uncletopia | New York City | 1 | All Maps | STV","players":[{"user_id":27,"name":"Bee_Pirate","steam_id":76561199000599111,"connected_time":706000000000,"state":"active","ping":53},{"user_id":28,"name":"feleven","steam_id":76561198853721046,"connected_time":629000000000,"state":"active","ping":54}]},{"server_id":14,"name":"Uncletopia | New York City | 2 | All Maps","name_short":"nyc-2","host":"nyc-1.us.uncletopia.com","port":27025,"enabled":true,"region":"us-east","cc":"us","latitude":40.73061,"longitude":-73.93524,"reserved":0,"last_update":"0001-01-01T00:00:00Z","name_a2s":"Uncletopia | New York City | 2 | All Maps","protocol":17,"map":"pl_badwater","folder":"tf","game":"Team Fortress","app_id":440,"player_count":23,"max_players":24,"Bots":0,"server_type":"Dedicated","server_os":"Linux","password":true,"vac":true,"version":"7961495","steam_id":85568392924469994,"keywords":["nocrits","nodmgspread","payload","uncletopia"],"game_id":440,"stv_port":27026,"stv_name":"Uncletopia | New York City | 2 | All Maps | STV","players":[{"user_id":351,"name":"9c","steam_id":76561198315632083,"connected_time":714000000000,"state":"active","ping":145},{"user_id":86,"name":"Jin","steam_id":76561198119873148,"connected_time":19842000000000,"state":"active","ping":47},{"user_id":330,"name":"BoxOfStaples","steam_id":76561198834773017,"connected_time":2841000000000,"state":"active","ping":97},{"user_id":356,"name":"viedoamges","steam_id":76561198025295263,"connected_time":188000000000,"state":"active","ping":85},{"user_id":352,"name":"jorjor wells","steam_id":76561199073429082,"connected_time":595000000000,"state":"active","ping":57},{"user_id":339,"name":"2 Percent Milk","steam_id":76561198118529039,"connected_time":2265000000000,"state":"active","ping":45},{"user_id":348,"name":"e doctor","steam_id":76561198081851446,"connected_time":771000000000,"state":"active","ping":60},{"user_id":304,"name":"Brawns","steam_id":76561198045190199,"connected_time":5257000000000,"state":"active","ping":61},{"user_id":317,"name":"AstronautPug","steam_id":76561198162372709,"connected_time":4518000000000,"state":"active","ping":79},{"user_id":314,"name":"Delsym Sipper","steam_id":76561198206177593,"connected_time":4913000000000,"state":"active","ping":105},{"user_id":337,"name":"Krispy","steam_id":76561197994783393,"connected_time":2371000000000,"state":"active","ping":59},{"user_id":331,"name":"Werm","steam_id":76561198149601897,"connected_time":2478000000000,"state":"active","ping":60},{"user_id":349,"name":"Reznika","steam_id":76561198116144377,"connected_time":770000000000,"state":"active","ping":57},{"user_id":357,"name":"Coke Himmy","steam_id":76561198397459211,"connected_time":177000000000,"state":"active","ping":68},{"user_id":346,"name":"TheFrogGoesMoo","steam_id":76561198841671908,"connected_time":1226000000000,"state":"active","ping":35},{"user_id":341,"name":"Sahalanthro","steam_id":76561199073298722,"connected_time":2182000000000,"state":"active","ping":120},{"user_id":303,"name":"Bother","steam_id":76561198336750909,"connected_time":5359000000000,"state":"active","ping":37},{"user_id":355,"name":"MaxTheRetroGuy","steam_id":76561198845344731,"connected_time":223000000000,"state":"active","ping":55},{"user_id":345,"name":"nuts","steam_id":76561198066494938,"connected_time":1524000000000,"state":"active","ping":54},{"user_id":290,"name":"Matt","steam_id":76561198182639406,"connected_time":6856000000000,"state":"active","ping":68},{"user_id":338,"name":"Baron von Whoopsie","steam_id":76561197996691013,"connected_time":2283000000000,"state":"active","ping":61},{"user_id":354,"name":"Orange Triangle","steam_id":76561198320498182,"connected_time":257000000000,"state":"active","ping":86},{"user_id":253,"name":"Voracious Puma","steam_id":76561197963621649,"connected_time":10406000000000,"state":"active","ping":88}]},{"server_id":15,"name":"Uncletopia | New York City | 3 | Stopwatch","name_short":"nyc-3","host":"nyc-1.us.uncletopia.com","port":27035,"enabled":true,"region":"us-east","cc":"us","latitude":40.73061,"longitude":-73.93524,"reserved":0,"last_update":"0001-01-01T00:00:00Z","name_a2s":"Uncletopia | New York City | 3 | Stopwatch","protocol":17,"map":"workshop/koth_product_final.ugc454272353","folder":"tf","game":"Team Fortress","app_id":440,"player_count":0,"max_players":24,"Bots":0,"server_type":"Dedicated","server_os":"Linux","password":true,"vac":true,"version":"7961495","steam_id":85568392924742820,"keywords":["cp","nocrits","nodmgspread","uncletopia"],"game_id":440,"stv_port":27036,"stv_name":"Uncletopia | New York City | 3 | Stopwatch | STV","players":null},{"server_id":16,"name":"Uncletopia | New York City | 4 | Community","name_short":"nyc-4","host":"nyc-1.us.uncletopia.com","port":27045,"enabled":true,"region":"us-east","cc":"us","latitude":40.73061,"longitude":-73.93524,"reserved":0,"last_update":"0001-01-01T00:00:00Z","name_a2s":"Uncletopia | New York City | 4 | Community","protocol":17,"map":"workshop/cp_fulgur_rc2a.ugc2068252300","folder":"tf","game":"Team Fortress","app_id":440,"player_count":0,"max_players":24,"Bots":0,"server_type":"Dedicated","server_os":"Linux","password":true,"vac":true,"version":"7961495","steam_id":85568392924742821,"keywords":["cp","nocrits","nodmgspread","uncletopia"],"game_id":440,"stv_port":27046,"stv_name":"Uncletopia | New York City | 4 | Community | STV","players":null},{"server_id":142,"name":"Uncletopia | São Paulo | 1 | All Maps","name_short":"sao-1","host":"sao-1.br.uncletopia.com","port":27015,"enabled":true,"region":"sa","cc":"br","latitude":-23.533773,"longitude":-46.62529,"reserved":0,"last_update":"0001-01-01T00:00:00Z","name_a2s":"Uncletopia | São Paulo | 1 | All Maps","protocol":17,"map":"koth_viaduct","folder":"tf","game":"Team Fortress","app_id":440,"player_count":0,"max_players":24,"Bots":0,"server_type":"Dedicated","server_os":"Linux","password":true,"vac":true,"version":"7961495","steam_id":85568392924469996,"keywords":["cp","nocrits","nodmgspread","uncletopia"],"game_id":440,"stv_port":27016,"stv_name":"Uncletopia | São Paulo | 1 | All Maps | STV","players":null},{"server_id":143,"name":"Uncletopia | São Paulo | 2 | Community","name_short":"sao-2","host":"sao-2.br.uncletopia.com","port":27015,"enabled":true,"region":"sa","cc":"br","latitude":-23.533773,"longitude":-46.62529,"reserved":0,"last_update":"0001-01-01T00:00:00Z","name_a2s":"Uncletopia | São Paulo | 2 | Community","protocol":17,"map":"workshop/cp_snowbase_b21.ugc2081770490","folder":"tf","game":"Team Fortress","app_id":440,"player_count":0,"max_players":24,"Bots":0,"server_type":"Dedicated","server_os":"Linux","password":true,"vac":true,"version":"7961495","steam_id":85568392924485349,"keywords":["cp","nocrits","nodmgspread","uncletopia"],"game_id":440,"stv_port":27016,"stv_name":"Uncletopia | São Paulo | 2 | Community | STV","players":null},{"server_id":7,"name":"Uncletopia | Seattle | 1 | All Maps","name_short":"sea-1","host":"sea-1.us.uncletopia.com","port":27015,"enabled":true,"region":"us-west","cc":"us","latitude":47.608013,"longitude":-122.33517,"reserved":0,"last_update":"0001-01-01T00:00:00Z","name_a2s":"Uncletopia | Seattle | 1 | All Maps","protocol":17,"map":"koth_cascade","folder":"tf","game":"Team Fortress","app_id":440,"player_count":24,"max_players":24,"Bots":0,"server_type":"Dedicated","server_os":"Linux","password":true,"vac":true,"version":"7961495","steam_id":85568392924469997,"keywords":["cp","nocrits","nodmgspread","uncletopia"],"game_id":440,"stv_port":27016,"stv_name":"Uncletopia | Seattle | 1 | All Maps | STV","players":[{"user_id":232,"name":"rad killl raccoon","steam_id":76561198980975595,"connected_time":5765000000000,"state":"active","ping":41},{"user_id":290,"name":"Twitch.tv/Jinx_VM","steam_id":76561198280150602,"connected_time":310000000000,"state":"active","ping":53},{"user_id":272,"name":"Dimple","steam_id":76561198980324190,"connected_time":2174000000000,"state":"active","ping":59},{"user_id":284,"name":"pyllw","steam_id":76561199094351893,"connected_time":1260000000000,"state":"active","ping":52},{"user_id":286,"name":"Wessle T","steam_id":76561198295353875,"connected_time":1205000000000,"state":"active","ping":123},{"user_id":279,"name":"Madam Zo-Zo","steam_id":76561198136789464,"connected_time":1682000000000,"state":"active","ping":59},{"user_id":285,"name":"Walter White","steam_id":76561199102963294,"connected_time":1216000000000,"state":"active","ping":136},{"user_id":274,"name":"Uncle Dang","steam_id":76561198131567365,"connected_time":2011000000000,"state":"active","ping":56},{"user_id":245,"name":"MrYadaization","steam_id":76561198050770818,"connected_time":5180000000000,"state":"active","ping":58},{"user_id":294,"name":"Skribbles","steam_id":76561198373073766,"connected_time":147000000000,"state":"active","ping":79},{"user_id":292,"name":"Maid 'n' China","steam_id":76561198423392976,"connected_time":204000000000,"state":"active","ping":60},{"user_id":269,"name":"Peppy","steam_id":76561198866629645,"connected_time":3188000000000,"state":"active","ping":55},{"user_id":282,"name":"Arkus","steam_id":76561199092478198,"connected_time":1432000000000,"state":"active","ping":48},{"user_id":289,"name":"Joyous Jenny","steam_id":76561198127998866,"connected_time":792000000000,"state":"active","ping":125},{"user_id":293,"name":"invenomious","steam_id":76561199032714821,"connected_time":191000000000,"state":"active","ping":45},{"user_id":261,"name":"Iron Fox (Update-sized)","steam_id":76561198326520372,"connected_time":4013000000000,"state":"active","ping":130},{"user_id":281,"name":"BasedGod","steam_id":76561198061177973,"connected_time":1505000000000,"state":"active","ping":62},{"user_id":248,"name":"Mr. Cheesey","steam_id":76561198153462183,"connected_time":5040000000000,"state":"active","ping":96},{"user_id":295,"name":"Real_Jakepaul","steam_id":76561198170243578,"connected_time":122000000000,"state":"active","ping":91},{"user_id":270,"name":"Havi","steam_id":76561198197832829,"connected_time":2900000000000,"state":"active","ping":57},{"user_id":273,"name":"Chimp Peen's Revunge","steam_id":76561198165778514,"connected_time":2074000000000,"state":"active","ping":77},{"user_id":277,"name":"danthediamondminecraft","steam_id":76561198870728607,"connected_time":1910000000000,"state":"active","ping":121},{"user_id":288,"name":"soup","steam_id":76561198043209046,"connected_time":799000000000,"state":"active","ping":72},{"user_id":296,"name":"Esquire","steam_id":76561198044350326,"connected_time":77000000000,"state":"active","ping":69}]},{"server_id":119,"name":"Uncletopia | Seattle | 2 | All Maps","name_short":"sea-2","host":"sea-1.us.uncletopia.com","port":27025,"enabled":true,"region":"us-west","cc":"us","latitude":47.608013,"longitude":-122.33517,"reserved":0,"last_update":"0001-01-01T00:00:00Z","name_a2s":"Uncletopia | Seattle | 2 | All Maps","protocol":17,"map":"koth_cascade","folder":"tf","game":"Team Fortress","app_id":440,"player_count":0,"max_players":24,"Bots":0,"server_type":"Dedicated","server_os":"Linux","password":true,"vac":true,"version":"7961495","steam_id":85568392924469998,"keywords":["cp","nocrits","nodmgspread","uncletopia"],"game_id":440,"stv_port":27026,"stv_name":"Uncletopia | Seattle | 2 | All Maps | STV","players":null},{"server_id":406,"name":"Uncletopia | Seattle | 3 | Stopwatch","name_short":"sea-3","host":"sea-1.us.uncletopia.com","port":27035,"enabled":true,"region":"us-west","cc":"us","latitude":47.608013,"longitude":-122.33517,"reserved":0,"last_update":"0001-01-01T00:00:00Z","name_a2s":"Uncletopia | Seattle | 3 | Stopwatch","protocol":17,"map":"workshop/cp_reckoner_rc6.ugc674719999","folder":"tf","game":"Team Fortress","app_id":440,"player_count":8,"max_players":24,"Bots":0,"server_type":"Dedicated","server_os":"Linux","password":true,"vac":true,"version":"7961495","steam_id":85568392924515217,"keywords":["cp","nocrits","nodmgspread","uncletopia"],"game_id":440,"stv_port":27036,"stv_name":"Uncletopia | Seattle | 3 | Stopwatch | STV","players":[{"user_id":19,"name":"a familiar cat","steam_id":76561198080046542,"connected_time":953000000000,"state":"active","ping":44},{"user_id":4,"name":"cool beans","steam_id":76561198321591685,"connected_time":3218000000000,"state":"active","ping":69},{"user_id":17,"name":"Cosmoose","steam_id":76561198120336284,"connected_time":1571000000000,"state":"active","ping":91},{"user_id":10,"name":"Fresh Lychee","steam_id":76561198045399559,"connected_time":2545000000000,"state":"active","ping":104},{"user_id":20,"name":"lolzfrdawin21","steam_id":76561199006665979,"connected_time":797000000000,"state":"active","ping":144},{"user_id":9,"name":"Dr,Dan64","steam_id":76561199013363718,"connected_time":2781000000000,"state":"active","ping":111},{"user_id":21,"name":"knight of yakub","steam_id":76561198086126153,"connected_time":594000000000,"state":"active","ping":53},{"user_id":22,"name":"🅜🅔🅔🅚🅢🅣🅔\ufffd\ufffd\ufffd","steam_id":76561197999748343,"connected_time":322000000000,"state":"active","ping":84}]},{"server_id":17,"name":"Uncletopia | San Francisco | 1 | All Maps","name_short":"sfo-1","host":"sfo-1.us.uncletopia.com","port":27015,"enabled":true,"region":"us-west","cc":"us","latitude":37.77397,"longitude":-122.4313,"reserved":0,"last_update":"0001-01-01T00:00:00Z","name_a2s":"Uncletopia | San Francisco | 1 | All Maps","protocol":17,"map":"koth_cascade","folder":"tf","game":"Team Fortress","app_id":440,"player_count":0,"max_players":24,"Bots":0,"server_type":"Dedicated","server_os":"Linux","password":true,"vac":true,"version":"7961495","steam_id":85568392924469999,"keywords":["cp","nocrits","nodmgspread","uncletopia"],"game_id":440,"stv_port":27016,"stv_name":"Uncletopia | San Francisco | 1 | All Maps | STV","players":null},{"server_id":18,"name":"Uncletopia | San Francisco | 2 | All Maps","name_short":"sfo-2","host":"sfo-1.us.uncletopia.com","port":27025,"enabled":true,"region":"us-west","cc":"us","latitude":37.77397,"longitude":-122.4313,"reserved":0,"last_update":"0001-01-01T00:00:00Z","name_a2s":"Uncletopia | San Francisco | 2 | All Maps","protocol":17,"map":"koth_cascade","folder":"tf","game":"Team Fortress","app_id":440,"player_count":0,"max_players":24,"Bots":0,"server_type":"Dedicated","server_os":"Linux","password":true,"vac":true,"version":"7961495","steam_id":85568392924470000,"keywords":["cp","nocrits","nodmgspread","uncletopia"],"game_id":440,"stv_port":27026,"stv_name":"Uncletopia | San Francisco | 2 | All Maps | STV","players":null},{"server_id":19,"name":"Uncletopia | San Francisco | 3 | Stopwatch","name_short":"sfo-3","host":"sfo-1.us.uncletopia.com","port":27035,"enabled":true,"region":"us-west","cc":"us","latitude":37.77397,"longitude":-122.4313,"reserved":0,"last_update":"0001-01-01T00:00:00Z","name_a2s":"Uncletopia | San Francisco | 3 | Stopwatch","protocol":17,"map":"workshop/koth_clearcut_b15.ugc2107050255","folder":"tf","game":"Team Fortress","app_id":440,"player_count":0,"max_players":24,"Bots":0,"server_type":"Dedicated","server_os":"Linux","password":true,"vac":true,"version":"7961495","steam_id":85568392924742824,"keywords":["cp","nocrits","nodmgspread","uncletopia"],"game_id":440,"stv_port":27036,"stv_name":"Uncletopia | San Francisco | 3 | Stopwatch | STV","players":null},{"server_id":20,"name":"Uncletopia | San Francisco | 4 | Community","name_short":"sfo-4","host":"sfo-1.us.uncletopia.com","port":27045,"enabled":true,"region":"us-west","cc":"us","latitude":37.77397,"longitude":-122.4313,"reserved":0,"last_update":"0001-01-01T00:00:00Z","name_a2s":"Uncletopia | San Francisco | 4 | Community","protocol":17,"map":"pl_pier","folder":"tf","game":"Team Fortress","app_id":440,"player_count":0,"max_players":24,"Bots":0,"server_type":"Dedicated","server_os":"Linux","password":true,"vac":true,"version":"7961495","steam_id":85568392924742826,"keywords":["nocrits","nodmgspread","payload","uncletopia"],"game_id":440,"stv_port":27046,"stv_name":"Uncletopia | San Francisco | 4 | Community | STV","players":null},{"server_id":141,"name":"Uncletopia | Sydney | 1 | All Maps","name_short":"syd-1","host":"syd-1.au.uncletopia.com","port":27015,"enabled":true,"region":"au","cc":"au","latitude":-33.865143,"longitude":151.2099,"reserved":0,"last_update":"0001-01-01T00:00:00Z","name_a2s":"Uncletopia | Sydney | 1 | All Maps","protocol":17,"map":"koth_viaduct","folder":"tf","game":"Team Fortress","app_id":440,"player_count":0,"max_players":24,"Bots":0,"server_type":"Dedicated","server_os":"Linux","password":true,"vac":true,"version":"7961495","steam_id":85568392924470001,"keywords":["cp","nocrits","nodmgspread","uncletopia"],"game_id":440,"stv_port":27016,"stv_name":"Uncletopia | Sydney | 1 | All Maps | STV","players":null},{"server_id":123,"name":"Uncletopia | Sydney | 2 | All Maps","name_short":"syd-2","host":"syd-1.au.uncletopia.com","port":27025,"enabled":true,"region":"au","cc":"au","latitude":-33.865143,"longitude":151.2099,"reserved":0,"last_update":"0001-01-01T00:00:00Z","name_a2s":"Uncletopia | Sydney | 2 | All Maps","protocol":17,"map":"pl_pier","folder":"tf","game":"Team Fortress","app_id":440,"player_count":0,"max_players":24,"Bots":0,"server_type":"Dedicated","server_os":"Linux","password":true,"vac":true,"version":"7961495","steam_id":85568392924470002,"keywords":["nocrits","nodmgspread","payload","uncletopia"],"game_id":440,"stv_port":27026,"stv_name":"Uncletopia | Sydney | 2 | All Maps | STV","players":null},{"server_id":395,"name":"Uncletopia | Sydney | 3 | All Maps","name_short":"syd-3","host":"syd-1.au.uncletopia.com","port":27035,"enabled":true,"region":"au","cc":"au","latitude":-33.865143,"longitude":151.2099,"reserved":0,"last_update":"0001-01-01T00:00:00Z","name_a2s":"Uncletopia | Sydney | 3 | All Maps","protocol":17,"map":"pl_pier","folder":"tf","game":"Team Fortress","app_id":440,"player_count":0,"max_players":24,"Bots":0,"server_type":"Dedicated","server_os":"Linux","password":true,"vac":true,"version":"7961495","steam_id":85568392925194467,"keywords":["nocrits","nodmgspread","payload","uncletopia"],"game_id":440,"stv_port":27036,"stv_name":"Uncletopia | Sydney | 3 | All Maps | STV","players":null},{"server_id":396,"name":"Uncletopia | Sydney | 4 | All Maps","name_short":"syd-4","host":"syd-1.au.uncletopia.com","port":27045,"enabled":true,"region":"au","cc":"au","latitude":-33.865143,"longitude":151.2099,"reserved":0,"last_update":"0001-01-01T00:00:00Z","name_a2s":"Uncletopia | Sydney | 4 | All Maps","protocol":17,"map":"koth_lakeside_final","folder":"tf","game":"Team Fortress","app_id":440,"player_count":0,"max_players":24,"Bots":0,"server_type":"Dedicated","server_os":"Linux","password":true,"vac":true,"version":"7961495","steam_id":85568392925397958,"keywords":["cp","nocrits","nodmgspread","uncletopia"],"game_id":440,"stv_port":27046,"stv_name":"Uncletopia | Sydney | 4 | All Maps | STV","players":null},{"server_id":58,"name":"Uncletopia | Sydney | 5 | Stopwatch","name_short":"syd-5","host":"syd-1.au.uncletopia.com","port":27055,"enabled":true,"region":"au","cc":"au","latitude":-33.865143,"longitude":151.2099,"reserved":0,"last_update":"0001-01-01T00:00:00Z","name_a2s":"Uncletopia | Sydney | 5 | Stopwatch","protocol":17,"map":"workshop/pl_badwater_pro_v12.ugc2142942074","folder":"tf","game":"Team Fortress","app_id":440,"player_count":0,"max_players":24,"Bots":0,"server_type":"Dedicated","server_os":"Linux","password":true,"vac":true,"version":"7961495","steam_id":85568392925397959,"keywords":["nocrits","nodmgspread","payload","uncletopia"],"game_id":440,"stv_port":27056,"stv_name":"Uncletopia | Sydney | 5 | Stopwatch | STV","players":null},{"server_id":59,"name":"Uncletopia | Sydney | 6 | Community","name_short":"syd-6","host":"syd-1.au.uncletopia.com","port":27065,"enabled":true,"region":"au","cc":"au","latitude":-33.865143,"longitude":151.2099,"reserved":0,"last_update":"0001-01-01T00:00:00Z","name_a2s":"Uncletopia | Sydney | 6 | Community","protocol":17,"map":"workshop/pl_boundary_final1.ugc456799153","folder":"tf","game":"Team Fortress","app_id":440,"player_count":0,"max_players":24,"Bots":0,"server_type":"Dedicated","server_os":"Linux","password":true,"vac":true,"version":"7961495","steam_id":85568392925397960,"keywords":["nocrits","nodmgspread","payload","uncletopia"],"game_id":440,"stv_port":27066,"stv_name":"Uncletopia | Sydney | 6 | Community | STV","players":null},{"server_id":49,"name":"Uncletopia | Warsaw | 1 | One Thousand Uncles","name_short":"waw-1","host":"waw-1.pl.uncletopia.com","port":27015,"enabled":true,"region":"eu","cc":"pl","latitude":52.2297,"longitude":21.017532,"reserved":0,"last_update":"0001-01-01T00:00:00Z","name_a2s":"Uncletopia | Warsaw | 1 | One Thousand Uncles","protocol":17,"map":"pl_goldrush","folder":"tf","game":"Team Fortress","app_id":440,"player_count":29,"max_players":32,"Bots":16,"server_type":"Dedicated","server_os":"Linux","password":true,"vac":true,"version":"7961495","steam_id":85568392925397850,"keywords":["alltalk","bots","danepve","increased_maxplayers","nocrits","norespawntime","payload","uncletopia"],"game_id":440,"stv_port":0,"stv_name":"","players":[{"user_id":714,"name":"Ruygun","steam_id":76561198294755098,"connected_time":1310000000000,"state":"active","ping":84},{"user_id":736,"name":"Womanticore","steam_id":76561199235582031,"connected_time":717000000000,"state":"active","ping":256},{"user_id":737,"name":"jan09102004","steam_id":76561198445458615,"connected_time":233000000000,"state":"active","ping":48},{"user_id":739,"name":"(злий чародій)","steam_id":76561199149550710,"connected_time":94000000000,"state":"active","ping":56},{"user_id":740,"name":"cheesecake hunter","steam_id":76561198097769060,"connected_time":88000000000,"state":"active","ping":78},{"user_id":709,"name":"demo flower","steam_id":76561199401272759,"connected_time":1948000000000,"state":"active","ping":72},{"user_id":677,"name":"[Mann Co]Puzzle Games","steam_id":76561198022078318,"connected_time":3751000000000,"state":"active","ping":70},{"user_id":673,"name":"PuPuruPuruPumPu","steam_id":76561198391950490,"connected_time":4404000000000,"state":"active","ping":102},{"user_id":741,"name":"SEBANKA","steam_id":76561199142082436,"connected_time":87000000000,"state":"active","ping":59},{"user_id":742,"name":"henrique_best","steam_id":76561199317304919,"connected_time":76000000000,"state":"active","ping":100},{"user_id":707,"name":"dimavokijbum","steam_id":76561199235847588,"connected_time":2081000000000,"state":"active","ping":45},{"user_id":653,"name":"SeaDeez","steam_id":76561198171637283,"connected_time":4623000000000,"state":"active","ping":189},{"user_id":688,"name":"sussygamer2023","steam_id":76561199473267237,"connected_time":2703000000000,"state":"active","ping":56}]},{"server_id":50,"name":"Uncletopia | Warsaw | 2 | One Thousand Uncles","name_short":"waw-2","host":"waw-1.pl.uncletopia.com","port":27025,"enabled":true,"region":"eu","cc":"pl","latitude":52.2297,"longitude":21.017532,"reserved":0,"last_update":"0001-01-01T00:00:00Z","name_a2s":"Uncletopia | Warsaw | 2 | One Thousand Uncles","protocol":17,"map":"pl_goldrush","folder":"tf","game":"Team Fortress","app_id":440,"player_count":0,"max_players":32,"Bots":0,"server_type":"Dedicated","server_os":"Linux","password":true,"vac":true,"version":"7961495","steam_id":85568392925397851,"keywords":["alltalk","danepve","increased_maxplayers","nocrits","norespawntime","payload","uncletopia"],"game_id":440,"stv_port":0,"stv_name":"","players":null},{"server_id":51,"name":"Uncletopia | Warsaw | 3 | All Maps","name_short":"waw-3","host":"waw-1.pl.uncletopia.com","port":27035,"enabled":true,"region":"eu","cc":"pl","latitude":52.2297,"longitude":21.017532,"reserved":0,"last_update":"0001-01-01T00:00:00Z","name_a2s":"Uncletopia | Warsaw | 3 | All Maps","protocol":17,"map":"pl_upward","folder":"tf","game":"Team Fortress","app_id":440,"player_count":6,"max_players":24,"Bots":0,"server_type":"Dedicated","server_os":"Linux","password":true,"vac":true,"version":"7961495","steam_id":85568392925397852,"keywords":["nocrits","nodmgspread","payload","uncletopia"],"game_id":440,"stv_port":27036,"stv_name":"Uncletopia | Warsaw | 3 | All Maps | STV","players":[{"user_id":40,"name":"Pablo","steam_id":76561198129035532,"connected_time":3248000000000,"state":"active","ping":75},{"user_id":41,"name":"womanizer","steam_id":76561198127480138,"connected_time":3241000000000,"state":"active","ping":83},{"user_id":54,"name":"MaTTy","steam_id":76561198154318571,"connected_time":32000000000,"state":"active","ping":64},{"user_id":43,"name":"El Racismus","steam_id":76561198063131706,"connected_time":3148000000000,"state":"active","ping":92},{"user_id":52,"name":"Папаша","steam_id":76561198950820678,"connected_time":483000000000,"state":"active","ping":82},{"user_id":53,"name":"AH","steam_id":76561198089886364,"connected_time":391000000000,"state":"active","ping":79}]},{"server_id":52,"name":"Uncletopia | Warsaw | 4 | All Maps","name_short":"waw-4","host":"waw-1.pl.uncletopia.com","port":27045,"enabled":true,"region":"eu","cc":"pl","latitude":52.2297,"longitude":21.017532,"reserved":0,"last_update":"0001-01-01T00:00:00Z","name_a2s":"Uncletopia | Warsaw | 4 | All Maps","protocol":17,"map":"koth_viaduct","folder":"tf","game":"Team Fortress","app_id":440,"player_count":2,"max_players":24,"Bots":0,"server_type":"Dedicated","server_os":"Linux","password":true,"vac":true,"version":"7961495","steam_id":85568392925397853,"keywords":["cp","nocrits","nodmgspread","uncletopia"],"game_id":440,"stv_port":27046,"stv_name":"Uncletopia | Warsaw | 4 | All Maps | STV","players":[{"user_id":33,"name":"Turecki Gołąb","steam_id":76561199116183115,"connected_time":62000000000,"state":"active","ping":41},{"user_id":34,"name":"killed by Kacper.exe","steam_id":76561199075173183,"connected_time":55000000000,"state":"active","ping":39}]},{"server_id":53,"name":"Uncletopia | Warsaw | 5 | Stopwatch","name_short":"waw-5","host":"waw-1.pl.uncletopia.com","port":27055,"enabled":true,"region":"eu","cc":"pl","latitude":52.2297,"longitude":21.017532,"reserved":0,"last_update":"0001-01-01T00:00:00Z","name_a2s":"Uncletopia | Warsaw | 5 | Stopwatch","protocol":17,"map":"workshop/koth_bagel_rc6.ugc2514036946","folder":"tf","game":"Team Fortress","app_id":440,"player_count":0,"max_players":24,"Bots":0,"server_type":"Dedicated","server_os":"Linux","password":true,"vac":true,"version":"7961495","steam_id":85568392925397854,"keywords":["cp","nocrits","nodmgspread","uncletopia"],"game_id":440,"stv_port":27056,"stv_name":"Uncletopia | Warsaw | 5 | Stopwatch | STV","players":null},{"server_id":54,"name":"Uncletopia | Warsaw | 6 | Community","name_short":"waw-6","host":"waw-1.pl.uncletopia.com","port":27065,"enabled":true,"region":"eu","cc":"pl","latitude":52.2297,"longitude":21.017532,"reserved":0,"last_update":"0001-01-01T00:00:00Z","name_a2s":"Uncletopia | Warsaw | 6 | Community","protocol":17,"map":"workshop/cp_mannbase_rc2a.ugc1900737467","folder":"tf","game":"Team Fortress","app_id":440,"player_count":0,"max_players":24,"Bots":0,"server_type":"Dedicated","server_os":"Linux","password":true,"vac":true,"version":"7961495","steam_id":85568392925397856,"keywords":["cp","nocrits","nodmgspread","uncletopia"],"game_id":440,"stv_port":27066,"stv_name":"Uncletopia | Warsaw | 6 | Community | STV","players":null}]}