{"status":true,"message":"","result":[{"server_id":9,"name":"Uncletopia | Atlanta | 1 | All Maps","name_short":"atl-1","host":"atl-1.us.uncletopia.com","port":27015,"enabled":true,"region":"us-east","cc":"us","latitude":33.753746,"longitude":-84.38633,"reserved":0,"last_update":"0001-01-01T00:00:00Z","name_a2s":"Uncletopia | Atlanta | 1 | All Maps","protocol":17,"map":"koth_cascade","folder":"tf","game":"Team Fortress","app_id":440,"player_count":0,"max_players":24,"Bots":0,"server_type":"Dedicated","server_os":"Linux","password":true,"vac":true,"version":"7757534","steam_id":85568392924469982,"keywords":["cp","nocrits","nodmgspread","uncletopia"],"game_id":440,"stv_port":27016,"stv_name":"Uncletopia | Atlanta | 1 | All Maps | STV","players":null},{"server_id":104,"name":"Uncletopia | Atlanta | 2 | All Maps","name_short":"atl-2","host":"atl-1.us.uncletopia.com","port":27025,"enabled":true,"region":"us-east","cc":"us","latitude":33.753746,"longitude":-84.38633,"reserved":0,"last_update":"0001-01-01T00:00:00Z","name_a2s":"Uncletopia | Atlanta | 2 | All Maps","protocol":17,"map":"cp_dustbowl","folder":"tf","game":"Team Fortress","app_id":440,"player_count":0,"max_players":24,"Bots":0,"server_type":"Dedicated","server_os":"Linux","password":true,"vac":true,"version":"7757534","steam_id":85568392924469983,"keywords":["cp","nocrits","nodmgspread","uncletopia"],"game_id":440,"stv_port":27026,"stv_name":"Uncletopia | Atlanta | 2 | All Maps | STV","players":null},{"server_id":400,"name":"Uncletopia | Atlanta | 3 | Community","name_short":"atl-3","host":"atl-1.us.uncletopia.com","port":27035,"enabled":true,"region":"us-east","cc":"us","latitude":33.753746,"longitude":-84.38633,"reserved":0,"last_update":"0001-01-01T00:00:00Z","name_a2s":"Uncletopia | Atlanta | 3 | Community","protocol":17,"map":"workshop/koth_trenchfoot_b1a.ugc731436616","folder":"tf","game":"Team Fortress","app_id":440,"player_count":0,"max_players":24,"Bots":0,"server_type":"Dedicated","server_os":"Linux","password":true,"vac":true,"version":"7757534","steam_id":85568392924515187,"keywords":["cp","nocrits","nodmgspread","uncletopia"],"game_id":440,"stv_port":27036,"stv_name":"Uncletopia | Atlanta | 3 | Community | STV","players":null},{"server_id":401,"name":"Uncletopia | Atlanta | 4 | No Payload","name_short":"atl-4","host":"atl-1.us.uncletopia.com","port":27045,"enabled":true,"region":"us-east","cc":"us","latitude":33.753746,"longitude":-84.38633,"reserved":0,"last_update":"0001-01-01T00:00:00Z","name_a2s":"","protocol":0,"map":"","folder":"","game":"","app_id":0,"player_count":0,"max_players":0,"Bots":0,"server_type":"","server_os":"","password":false,"vac":false,"version":"","steam_id":0,"keywords":null,"game_id":0,"stv_port":0,"stv_name":"","players":null},{"server_id":2,"name":"Uncletopia | Chicago | 1 | All Maps","name_short":"chi-1","host":"chi-1.us.uncletopia.com","port":27015,"enabled":true,"region":"us-central","cc":"us","latitude":41.881832,"longitude":-87.62318,"reserved":0,"last_update":"0001-01-01T00:00:00Z","name_a2s":"Uncletopia | Chicago | 1 | All Maps","protocol":17,"map":"cp_altitude","folder":"tf","game":"Team Fortress","app_id":440,"player_count":0,"max_players":24,"Bots":0,"server_type":"Dedicated","server_os":"Linux","password":true,"vac":true,"version":"7757534","steam_id":85568392924469984,"keywords":["cp","nocrits","nodmgspread","uncletopia"],"game_id":440,"stv_port":27016,"stv_name":"Uncletopia | Chicago | 1 | All Maps | STV","players":null},{"server_id":106,"name":"Uncletopia | Chicago | 2 | All Maps","name_short":"chi-2","host":"chi-1.us.uncletopia.com","port":27025,"enabled":true,"region":"us-central","cc":"us","latitude":41.881832,"longitude":-87.62318,"reserved":0,"last_update":"0001-01-01T00:00:00Z","name_a2s":"Uncletopia | Chicago | 2 | All Maps","protocol":17,"map":"pl_swiftwater_final1","folder":"tf","game":"Team Fortress","app_id":440,"player_count":24,"max_players":24,"Bots":0,"server_type":"Dedicated","server_os":"Linux","password":true,"vac":true,"version":"7757534","steam_id":85568392924469985,"keywords":["nocrits","nodmgspread","payload","uncletopia"],"game_id":440,"stv_port":27026,"stv_name":"Uncletopia | Chicago | 2 | All Maps | STV","players":[{"user_id":132,"name":"L-BOLT","steam_id":76561198200688349,"connected_time":82000000000,"state":"active","ping":75},{"user_id":131,"name":"LW | [wrd]HaloLagann","steam_id":76561198047561568,"connected_time":102000000000,"state":"active","ping":75},{"user_id":133,"name":"Kiso 火","steam_id":76561198141026844,"connected_time":76000000000,"state":"active","ping":136},{"user_id":134,"name":"Porsy","steam_id":76561198041850843,"connected_time":66000000000,"state":"active","ping":41},{"user_id":119,"name":"4+1MyriadFuturesCosMo@BousouFC","steam_id":76561198181929019,"connected_time":1353000000000,"state":"active","ping":48},{"user_id":124,"name":"kametro4","steam_id":76561198835430429,"connected_time":128000000000,"state":"active","ping":75},{"user_id":135,"name":"LimeAide","steam_id":76561199196369249,"connected_time":33000000000,"state":"active","ping":105},{"user_id":101,"name":"LerN","steam_id":76561198083463877,"connected_time":2214000000000,"state":"active","ping":46},{"user_id":123,"name":"jid","steam_id":76561198067111272,"connected_time":135000000000,"state":"active","ping":54},{"user_id":75,"name":"Koffie Ω","steam_id":76561198065176679,"connected_time":3867000000000,"state":"active","ping":93},{"user_id":128,"name":"hilarious dinglebat","steam_id":76561198170840838,"connected_time":112000000000,"state":"active","ping":77},{"user_id":129,"name":"Mr. Cheesey","steam_id":76561198153462183,"connected_time":110000000000,"state":"active","ping":60},{"user_id":120,"name":"sex_haver2009","steam_id":76561198068603757,"connected_time":1278000000000,"state":"active","ping":75},{"user_id":96,"name":"rad","steam_id":76561198413125750,"connected_time":2748000000000,"state":"active","ping":68},{"user_id":130,"name":"Delsato","steam_id":76561198304505626,"connected_time":109000000000,"state":"active","ping":52},{"user_id":98,"name":"Code","steam_id":76561198121528534,"connected_time":2633000000000,"state":"active","ping":75},{"user_id":110,"name":"Lilith","steam_id":76561198125102885,"connected_time":1721000000000,"state":"active","ping":69},{"user_id":82,"name":"Coffee with a Stranger","steam_id":76561198307422313,"connected_time":3449000000000,"state":"active","ping":78},{"user_id":108,"name":"\\|)=|_|=(|/","steam_id":76561198171491110,"connected_time":1918000000000,"state":"active","ping":69},{"user_id":118,"name":"AverageJoe","steam_id":76561198313420109,"connected_time":1427000000000,"state":"active","ping":56},{"user_id":92,"name":"eat cheese and sin","steam_id":76561197999948296,"connected_time":3270000000000,"state":"active","ping":56},{"user_id":49,"name":"gghfgfgfg","steam_id":76561198064823861,"connected_time":6041000000000,"state":"active","ping":66},{"user_id":113,"name":"Dr. Chad Feelgood, P.I.","steam_id":76561198454077219,"connected_time":1578000000000,"state":"active","ping":58},{"user_id":125,"name":"roo the observer","steam_id":76561198120684348,"connected_time":127000000000,"state":"active","ping":57}]},{"server_id":402,"name":"Uncletopia | Chicago | 3 | All Maps","name_short":"chi-3","host":"chi-1.us.uncletopia.com","port":27035,"enabled":true,"region":"us-central","cc":"us","latitude":41.881832,"longitude":-87.62318,"reserved":0,"last_update":"0001-01-01T00:00:00Z","name_a2s":"Uncletopia | Chicago | 3 | All Maps","protocol":17,"map":"cp_sunshine","folder":"tf","game":"Team Fortress","app_id":440,"player_count":0,"max_players":24,"Bots":0,"server_type":"Dedicated","server_os":"Linux","password":true,"vac":true,"version":"7757534","steam_id":85568392924515191,"keywords":["cp","nocrits","nodmgspread","uncletopia"],"game_id":440,"stv_port":27036,"stv_name":"Uncletopia | Chicago | 3 | All Maps | STV","players":null},{"server_id":403,"name":"Uncletopia | Chicago | 4 | All Maps","name_short":"chi-4","host":"chi-1.us.uncletopia.com","port":27045,"enabled":true,"region":"us-central","cc":"us","latitude":41.881832,"longitude":-87.62318,"reserved":0,"last_update":"0001-01-01T00:00:00Z","name_a2s":"Uncletopia | Chicago | 4 | All Maps","protocol":17,"map":"koth_lakeside_final","folder":"tf","game":"Team Fortress","app_id":440,"player_count":0,"max_players":24,"Bots":0,"server_type":"Dedicated","server_os":"Linux","password":true,"vac":true,"version":"7757534","steam_id":85568392924515193,"keywords":["cp","nocrits","nodmgspread","uncletopia"],"game_id":440,"stv_port":27046,"stv_name":"Uncletopia | Chicago | 4 | All Maps | STV","players":null},{"server_id":36,"name":"Uncletopia | Chicago | 5 | All Maps","name_short":"chi-5","host":"chi-2.us.uncletopia.com","port":27015,"enabled":true,"region":"us-central","cc":"us","latitude":41.881832,"longitude":-87.62318,"reserved":0,"last_update":"0001-01-01T00:00:00Z","name_a2s":"Uncletopia | Chicago | 5 | All Maps","protocol":17,"map":"koth_cascade","folder":"tf","game":"Team Fortress","app_id":440,"player_count":0,"max_players":24,"Bots":0,"server_type":"Dedicated","server_os":"Linux","password":true,"vac":true,"version":"7757534","steam_id":85568392924866362,"keywords":["cp","nocrits","nodmgspread","uncletopia"],"game_id":440,"stv_port":27016,"stv_name":"Uncletopia | Chicago | 5 | All Maps | STV","players":null},{"server_id":37,"name":"Uncletopia | Chicago | 6 | All Maps","name_short":"chi-6","host":"chi-2.us.uncletopia.com","port":27025,"enabled":true,"region":"us-central","cc":"us","latitude":41.881832,"longitude":-87.62318,"reserved":0,"last_update":"0001-01-01T00:00:00Z","name_a2s":"Uncletopia | Chicago | 6 | All Maps","protocol":17,"map":"pl_borneo","folder":"tf","game":"Team Fortress","app_id":440,"player_count":0,"max_players":24,"Bots":0,"server_type":"Dedicated","server_os":"Linux","password":true,"vac":true,"version":"7757534","steam_id":85568392924866363,"keywords":["nocrits","nodmgspread","payload","uncletopia"],"game_id":440,"stv_port":27026,"stv_name":"Uncletopia | Chicago | 6 | All Maps | STV","players":null},{"server_id":38,"name":"Uncletopia | Chicago | 7 | Stopwatch Beta","name_short":"chi-7","host":"chi-2.us.uncletopia.com","port":27035,"enabled":true,"region":"us-central","cc":"us","latitude":41.881832,"longitude":-87.62318,"reserved":0,"last_update":"0001-01-01T00:00:00Z","name_a2s":"Uncletopia | Chicago | 7 | Stopwatch Beta","protocol":17,"map":"pl_barnblitz","folder":"tf","game":"Team Fortress","app_id":440,"player_count":0,"max_players":24,"Bots":0,"server_type":"Dedicated","server_os":"Linux","password":true,"vac":true,"version":"7757534","steam_id":85568392924866364,"keywords":["nocrits","nodmgspread","payload","uncletopia"],"game_id":440,"stv_port":27036,"stv_name":"Uncletopia | Chicago | 7 | Stopwatch Beta | STV","players":null},{"server_id":39,"name":"Uncletopia | Chicago | 8 | Community","name_short":"chi-8","host":"chi-2.us.uncletopia.com","port":27045,"enabled":true,"region":"us-central","cc":"us","latitude":41.881832,"longitude":-87.62318,"reserved":0,"last_update":"0001-01-01T00:00:00Z","name_a2s":"Uncletopia | Chicago | 8 | Community","protocol":17,"map":"koth_cascade","folder":"tf","game":"Team Fortress","app_id":440,"player_count":0,"max_players":24,"Bots":0,"server_type":"Dedicated","server_os":"Linux","password":true,"vac":true,"version":"7757534","steam_id":85568392924866365,"keywords":["cp","nocrits","nodmgspread","uncletopia"],"game_id":440,"stv_port":27046,"stv_name":"Uncletopia | Chicago | 8 | Community | STV","players":null},{"server_id":8,"name":"Uncletopia | Dallas | 1 | All Maps","name_short":"dal-1","host":"dal-1.us.uncletopia.com","port":27015,"enabled":true,"region":"us-central","cc":"us","latitude":32.779167,"longitude":-96.80889,"reserved":0,"last_update":"0001-01-01T00:00:00Z","name_a2s":"Uncletopia | Dallas | 1 | All Maps","protocol":17,"map":"pl_pier","folder":"tf","game":"Team Fortress","app_id":440,"player_count":24,"max_players":24,"Bots":0,"server_type":"Dedicated","server_os":"Linux","password":true,"vac":true,"version":"7757534","steam_id":85568392924469986,"keywords":["nocrits","nodmgspread","payload","uncletopia"],"game_id":440,"stv_port":27016,"stv_name":"Uncletopia | Dallas | 1 | All Maps | STV","players":[{"user_id":55,"name":"MasterAmongRust","steam_id":76561198010160233,"connected_time":4182000000000,"state":"active","ping":90},{"user_id":107,"name":"✧Goofball✧","steam_id":76561199200969139,"connected_time":151000000000,"state":"active","ping":189},{"user_id":87,"name":"Quiver Cakes ._.","steam_id":76561198243155576,"connected_time":1627000000000,"state":"active","ping":72},{"user_id":6,"name":"r0zemary","steam_id":76561198128494897,"connected_time":8020000000000,"state":"active","ping":88},{"user_id":86,"name":"upside down cat","steam_id":76561198028288349,"connected_time":1642000000000,"state":"active","ping":87},{"user_id":100,"name":"S9","steam_id":76561198065339248,"connected_time":375000000000,"state":"active","ping":88},{"user_id":9,"name":"Soozy420","steam_id":76561198809074422,"connected_time":7953000000000,"state":"active","ping":94},{"user_id":96,"name":"Jarvis from Avengers","steam_id":76561198164035863,"connected_time":531000000000,"state":"active","ping":77},{"user_id":95,"name":"私は不正行為をしてい","steam_id":76561199465653959,"connected_time":584000000000,"state":"active","ping":138},{"user_id":74,"name":"Bong Rips for Karl","steam_id":76561197976436609,"connected_time":2511000000000,"state":"active","ping":88},{"user_id":98,"name":"Brute","steam_id":76561198828790457,"connected_time":485000000000,"state":"active","ping":35},{"user_id":103,"name":"yavin IV","steam_id":76561198061135335,"connected_time":261000000000,"state":"active","ping":78},{"user_id":85,"name":"amalgam virgo","steam_id":76561198085044565,"connected_time":1690000000000,"state":"active","ping":83},{"user_id":108,"name":"Misery ★","steam_id":76561198055710666,"connected_time":81000000000,"state":"active","ping":105},{"user_id":33,"name":"pencil","steam_id":76561198119826352,"connected_time":6533000000000,"state":"active","ping":51},{"user_id":83,"name":"Theristes#SaveTf2","steam_id":76561198055947434,"connected_time":2064000000000,"state":"active","ping":112},{"user_id":109,"name":"banana man","steam_id":76561199385170644,"connected_time":36000000000,"state":"active","ping":73},{"user_id":94,"name":"Prof. Eggnog","steam_id":76561198193389166,"connected_time":707000000000,"state":"active","ping":92},{"user_id":101,"name":"Bernkastel","steam_id":76561198035535924,"connected_time":318000000000,"state":"active","ping":65},{"user_id":92,"name":"Metna ☁","steam_id":76561198092381079,"connected_time":814000000000,"state":"active","ping":103},{"user_id":63,"name":"FluttyPutty","steam_id":76561198218446556,"connected_time":3125000000000,"state":"active","ping":67},{"user_id":70,"name":"yourfirewall","steam_id":76561199370630168,"connected_time":2943000000000,"state":"active","ping":118},{"user_id":78,"name":"Eric4bz","steam_id":76561198054439606,"connected_time":2213000000000,"state":"active","ping":134},{"user_id":99,"name":"Just_Another_Weeb","steam_id":76561198378496342,"connected_time":434000000000,"state":"active","ping":74}]},{"server_id":108,"name":"Uncletopia | Dallas | 2 | All Maps","name_short":"dal-2","host":"dal-1.us.uncletopia.com","port":27025,"enabled":true,"region":"us-central","cc":"us","latitude":32.779167,"longitude":-96.80889,"reserved":0,"last_update":"0001-01-01T00:00:00Z","name_a2s":"Uncletopia | Dallas | 2 | All Maps","protocol":17,"map":"pl_borneo","folder":"tf","game":"Team Fortress","app_id":440,"player_count":0,"max_players":24,"Bots":0,"server_type":"Dedicated","server_os":"Linux","password":true,"vac":true,"version":"7757534","steam_id":85568392924469988,"keywords":["nocrits","nodmgspread","payload","uncletopia"],"game_id":440,"stv_port":27026,"stv_name":"Uncletopia | Dallas | 2 | All Maps | STV","players":null},{"server_id":5,"name":"Uncletopia | Frankfurt | 1 | All Maps","name_short":"frk-1","host":"frk-1.de.uncletopia.com","port":27015,"enabled":true,"region":"eu","cc":"de","latitude":50.110924,"longitude":8.682127,"reserved":0,"last_update":"0001-01-01T00:00:00Z","name_a2s":"Uncletopia | Frankfurt | 1 | All Maps","protocol":17,"map":"pl_upward","folder":"tf","game":"Team Fortress","app_id":440,"player_count":24,"max_players":24,"Bots":0,"server_type":"Dedicated","server_os":"Linux","password":true,"vac":true,"version":"7757534","steam_id":85568392924469989,"keywords":["nocrits","nodmgspread","payload","uncletopia"],"game_id":440,"stv_port":27016,"stv_name":"Uncletopia | Frankfurt | 1 | All Maps | STV","players":[{"user_id":288,"name":"Ezekyhl","steam_id":76561198355964282,"connected_time":1359000000000,"state":"active","ping":68},{"user_id":310,"name":"JeanCorben","steam_id":76561197965133561,"connected_time":534000000000,"state":"active","ping":46},{"user_id":303,"name":"thekoolest88","steam_id":76561199022415672,"connected_time":789000000000,"state":"active","ping":148},{"user_id":297,"name":"Maximus","steam_id":76561198032472655,"connected_time":1037000000000,"state":"active","ping":47},{"user_id":263,"name":"Cheddar Goblin","steam_id":76561198007891376,"connected_time":3108000000000,"state":"active","ping":110},{"user_id":291,"name":"Udinese Dion","steam_id":76561198067931573,"connected_time":1219000000000,"state":"active","ping":45},{"user_id":292,"name":"PrinzAnalFaust","steam_id":76561198136407626,"connected_time":1193000000000,"state":"active","ping":72},{"user_id":286,"name":"Poppy Stingray","steam_id":76561198049673783,"connected_time":1561000000000,"state":"active","ping":73},{"user_id":293,"name":"LuCroGi","steam_id":76561198057283891,"connected_time":1176000000000,"state":"active","ping":58},{"user_id":306,"name":"Perämiehenä","steam_id":76561197968945306,"connected_time":707000000000,"state":"active","ping":74},{"user_id":295,"name":"Grelamass","steam_id":76561199372198864,"connected_time":1114000000000,"state":"active","ping":89},{"user_id":309,"name":"Enigma","steam_id":76561198035401717,"connected_time":606000000000,"state":"active","ping":59},{"user_id":315,"name":"Elon Ma","steam_id":76561199018053264,"connected_time":125000000000,"state":"active","ping":75},{"user_id":266,"name":"HERISSON","steam_id":76561199062194778,"connected_time":2966000000000,"state":"active","ping":66},{"user_id":280,"name":"Spajro","steam_id":76561198257383813,"connected_time":1935000000000,"state":"active","ping":63},{"user_id":311,"name":"Gibbed_GIBus30","steam_id":76561199272782484,"connected_time":518000000000,"state":"active","ping":58},{"user_id":298,"name":"COFFEE","steam_id":76561198869355986,"connected_time":1016000000000,"state":"active","ping":73},{"user_id":281,"name":"ginger cunt","steam_id":76561198334528186,"connected_time":1934000000000,"state":"active","ping":57},{"user_id":250,"name":"Myrmodion","steam_id":76561198054746247,"connected_time":3878000000000,"state":"active","ping":68},{"user_id":316,"name":"Yessirskiii","steam_id":76561198179324075,"connected_time":88000000000,"state":"active","ping":75},{"user_id":312,"name":"Flying Objects","steam_id":76561198018207813,"connected_time":492000000000,"state":"active","ping":62},{"user_id":317,"name":"MAKENTAKEN","steam_id":76561199127359587,"connected_time":88000000000,"state":"active","ping":90},{"user_id":314,"name":"✪ qua ✪","steam_id":76561198066408333,"connected_time":395000000000,"state":"active","ping":73},{"user_id":210,"name":"Sh1n","steam_id":76561199012155377,"connected_time":7069000000000,"state":"active","ping":47}]},{"server_id":110,"name":"Uncletopia | Frankfurt | 2 | All Maps","name_short":"frk-2","host":"frk-1.de.uncletopia.com","port":27025,"enabled":true,"region":"eu","cc":"de","latitude":50.110924,"longitude":8.682127,"reserved":0,"last_update":"0001-01-01T00:00:00Z","name_a2s":"Uncletopia | Frankfurt | 2 | All Maps","protocol":17,"map":"cp_dustbowl","folder":"tf","game":"Team Fortress","app_id":440,"player_count":0,"max_players":24,"Bots":0,"server_type":"Dedicated","server_os":"Linux","password":true,"vac":true,"version":"7757534","steam_id":85568392924469990,"keywords":["cp","nocrits","nodmgspread","uncletopia"],"game_id":440,"stv_port":27026,"stv_name":"Uncletopia | Frankfurt | 2 | All Maps | STV","players":null},{"server_id":308,"name":"Uncletopia | Frankfurt | 3 | All Maps","name_short":"frk-3","host":"frk-1.de.uncletopia.com","port":27035,"enabled":true,"region":"eu","cc":"de","latitude":50.110924,"longitude":8.682127,"reserved":0,"last_update":"0001-01-01T00:00:00Z","name_a2s":"Uncletopia | Frankfurt | 3 | All Maps","protocol":17,"map":"pl_pier","folder":"tf","game":"Team Fortress","app_id":440,"player_count":0,"max_players":24,"Bots":0,"server_type":"Dedicated","server_os":"Linux","password":true,"vac":true,"version":"7757534","steam_id":85568392924504274,"keywords":["nocrits","nodmgspread","payload","uncletopia"],"game_id":440,"stv_port":27036,"stv_name":"Uncletopia | Frankfurt | 3 | All Maps | STV","players":null},{"server_id":309,"name":"Uncletopia | Frankfurt | 4 | All Maps","name_short":"frk-4","host":"frk-1.de.uncletopia.com","port":27045,"enabled":true,"region":"eu","cc":"de","latitude":50.110924,"longitude":8.682127,"reserved":0,"last_update":"0001-01-01T00:00:00Z","name_a2s":"Uncletopia | Frankfurt | 4 | All Maps","protocol":17,"map":"pl_borneo","folder":"tf","game":"Team Fortress","app_id":440,"player_count":0,"max_players":24,"Bots":0,"server_type":"Dedicated","server_os":"Linux","password":true,"vac":true,"version":"7757534","steam_id":85568392924504275,"keywords":["nocrits","nodmgspread","payload","uncletopia"],"game_id":440,"stv_port":27046,"stv_name":"Uncletopia | Frankfurt | 4 | All Maps | STV","players":null},{"server_id":310,"name":"Uncletopia | Frankfurt | 5 | All Maps","name_short":"frk-5","host":"frk-1.de.uncletopia.com","port":27055,"enabled":true,"region":"eu","cc":"de","latitude":50.110924,"longitude":8.682127,"reserved":0,"last_update":"0001-01-01T00:00:00Z","name_a2s":"Uncletopia | Frankfurt | 5 | All Maps","protocol":17,"map":"koth_lakeside_final","folder":"tf","game":"Team Fortress","app_id":440,"player_count":0,"max_players":24,"Bots":0,"server_type":"Dedicated","server_os":"Linux","password":true,"vac":true,"version":"7757534","steam_id":85568392924504277,"keywords":["cp","nocrits","nodmgspread","uncletopia"],"game_id":440,"stv_port":27056,"stv_name":"Uncletopia | Frankfurt | 5 | All Maps | STV","players":null},{"server_id":311,"name":"Uncletopia | Frankfurt | 6 | All Maps","name_short":"frk-6","host":"frk-1.de.uncletopia.com","port":27065,"enabled":true,"region":"eu","cc":"de","latitude":50.110924,"longitude":8.682127,"reserved":0,"last_update":"0001-01-01T00:00:00Z","name_a2s":"Uncletopia | Frankfurt | 6 | All Maps","protocol":17,"map":"pl_swiftwater_final1","folder":"tf","game":"Team Fortress","app_id":440,"player_count":24,"max_players":24,"Bots":0,"server_type":"Dedicated","server_os":"Linux","password":true,"vac":true,"version":"7757534","steam_id":85568392924504278,"keywords":["nocrits","nodmgspread","payload","uncletopia"],"game_id":440,"stv_port":27066,"stv_name":"Uncletopia | Frankfurt | 6 | All Maps | STV","players":[{"user_id":203,"name":"GuSkand","steam_id":76561198043775605,"connected_time":47000000000,"state":"active","ping":84},{"user_id":60,"name":"Sus Fring","steam_id":76561198821542489,"connected_time":5415000000000,"state":"active","ping":95},{"user_id":197,"name":"My left foot itches","steam_id":76561198078411001,"connected_time":532000000000,"state":"active","ping":94},{"user_id":177,"name":"Kwizine","steam_id":76561198147999400,"connected_time":2799000000000,"state":"active","ping":60},{"user_id":163,"name":"SuntanPikachu","steam_id":76561198121242476,"connected_time":3835000000000,"state":"active","ping":85},{"user_id":175,"name":"Ashi","steam_id":76561198859705639,"connected_time":2867000000000,"state":"active","ping":104},{"user_id":195,"name":"NLSAM","steam_id":76561199111154916,"connected_time":843000000000,"state":"active","ping":67},{"user_id":181,"name":"quickfast","steam_id":76561199438900919,"connected_time":2503000000000,"state":"active","ping":58},{"user_id":17,"name":"Enigmus","steam_id":76561197994063627,"connected_time":7552000000000,"state":"active","ping":90},{"user_id":198,"name":"poo brother","steam_id":76561199368726811,"connected_time":480000000000,"state":"active","ping":81},{"user_id":199,"name":"PASITA","steam_id":76561198347903262,"connected_time":420000000000,"state":"active","ping":89},{"user_id":187,"name":"Radegast the Brown","steam_id":76561198075489505,"connected_time":1566000000000,"state":"active","ping":67},{"user_id":196,"name":"1112","steam_id":76561198172046813,"connected_time":621000000000,"state":"active","ping":76},{"user_id":172,"name":"Cosmonaut","steam_id":76561198239514504,"connected_time":2889000000000,"state":"active","ping":59},{"user_id":131,"name":"Grillem Dafoe","steam_id":76561198306874574,"connected_time":4496000000000,"state":"active","ping":78},{"user_id":192,"name":"SCRAMMMBLED","steam_id":76561197998307746,"connected_time":1026000000000,"state":"active","ping":71},{"user_id":202,"name":"Chopperson_","steam_id":76561198873728497,"connected_time":236000000000,"state":"active","ping":113},{"user_id":201,"name":"SpeddyMeddy","steam_id":76561197999693825,"connected_time":388000000000,"state":"active","ping":67},{"user_id":188,"name":"tam","steam_id":76561199472600621,"connected_time":1505000000000,"state":"active","ping":138},{"user_id":51,"name":"If I top 3 my team sucks","steam_id":76561198147668373,"connected_time":5816000000000,"state":"active","ping":59},{"user_id":43,"name":"badrobot","steam_id":76561198322878356,"connected_time":6593000000000,"state":"active","ping":99},{"user_id":204,"name":"when the vlandan","steam_id":76561198849104908,"connected_time":35000000000,"state":"spawning","ping":155},{"user_id":139,"name":"BeefHammer","steam_id":76561198078426223,"connected_time":4277000000000,"state":"active","ping":104},{"user_id":112,"name":"MRLOLENO","steam_id":76561198450911838,"connected_time":4692000000000,"state":"active","ping":60}]},{"server_id":23,"name":"Uncletopia | Frankfurt | 7 | Stopwatch Beta","name_short":"frk-7","host":"frk-1.de.uncletopia.com","port":27075,"enabled":true,"region":"eu","cc":"de","latitude":50.110924,"longitude":8.682127,"reserved":0,"last_update":"0001-01-01T00:00:00Z","name_a2s":"Uncletopia | Frankfurt | 7 | Stopwatch Beta","protocol":17,"map":"workshop/koth_ramjam_rc1.ugc459778887","folder":"tf","game":"Team Fortress","app_id":440,"player_count":0,"max_players":24,"Bots":0,"server_type":"Dedicated","server_os":"Linux","password":true,"vac":true,"version":"7757534","steam_id":85568392924742827,"keywords":["cp","nocrits","nodmgspread","uncletopia"],"game_id":440,"stv_port":27076,"stv_name":"Uncletopia | Frankfurt | 7 | Stopwatch Beta | STV","players":null},{"server_id":24,"name":"Uncletopia | Frankfurt | 8 | Community","name_short":"frk-8","host":"frk-1.de.uncletopia.com","port":27085,"enabled":true,"region":"eu","cc":"de","latitude":50.110924,"longitude":8.682127,"reserved":0,"last_update":"0001-01-01T00:00:00Z","name_a2s":"Uncletopia | Frankfurt | 8 | Community","protocol":17,"map":"workshop/koth_synthetic_rc6a.ugc1549817316","folder":"tf","game":"Team Fortress","app_id":440,"player_count":23,"max_players":24,"Bots":0,"server_type":"Dedicated","server_os":"Linux","password":true,"vac":true,"version":"7757534","steam_id":85568392924742828,"keywords":["cp","nocrits","nodmgspread","uncletopia"],"game_id":440,"stv_port":27086,"stv_name":"Uncletopia | Frankfurt | 8 | Community | STV","players":[{"user_id":31,"name":"Raccoon gal","steam_id":76561198200607926,"connected_time":1873000000000,"state":"active","ping":85},{"user_id":55,"name":"SaSSolino","steam_id":76561198011308018,"connected_time":870000000000,"state":"active","ping":57},{"user_id":36,"name":"poliakov.noam","steam_id":76561199259322961,"connected_time":1639000000000,"state":"active","ping":102},{"user_id":20,"name":"UnknownHero","steam_id":76561198864766392,"connected_time":3017000000000,"state":"active","ping":78},{"user_id":8,"name":"Creasman","steam_id":76561198875379322,"connected_time":3493000000000,"state":"active","ping":113},{"user_id":23,"name":"Boba","steam_id":76561198261766530,"connected_time":2158000000000,"state":"active","ping":93},{"user_id":48,"name":"Mr. Smooooth","steam_id":76561198037566858,"connected_time":1095000000000,"state":"active","ping":141},{"user_id":21,"name":"Nut With Potential","steam_id":76561198293297458,"connected_time":2873000000000,"state":"active","ping":59},{"user_id":19,"name":"Piquesque","steam_id":76561198286763046,"connected_time":3143000000000,"state":"active","ping":116},{"user_id":33,"name":"Kati","steam_id":76561198007231088,"connected_time":1791000000000,"state":"active","ping":60},{"user_id":39,"name":"Ja-We","steam_id":76561198273184043,"connected_time":1359000000000,"state":"active","ping":72},{"user_id":24,"name":"Tails8521","steam_id":76561198051747164,"connected_time":2155000000000,"state":"active","ping":54},{"user_id":49,"name":"acuifex","steam_id":76561198106266513,"connected_time":999000000000,"state":"active","ping":75},{"user_id":30,"name":"CringeIsaac","steam_id":76561199082217398,"connected_time":2007000000000,"state":"active","ping":95},{"user_id":27,"name":"shenanigan","steam_id":76561198043452925,"connected_time":2123000000000,"state":"active","ping":99},{"user_id":34,"name":"The Golden King","steam_id":76561199227965166,"connected_time":1789000000000,"state":"active","ping":87},{"user_id":35,"name":"Arti","steam_id":76561197983352845,"connected_time":1724000000000,"state":"active","ping":67},{"user_id":41,"name":"Balls","steam_id":76561198086400484,"connected_time":1344000000000,"state":"active","ping":86},{"user_id":60,"name":"hodeiraeta","steam_id":76561198954369215,"connected_time":552000000000,"state":"active","ping":87},{"user_id":56,"name":"shaansiet","steam_id":76561199477022971,"connected_time":794000000000,"state":"active","ping":182},{"user_id":45,"name":"FZStick","steam_id":76561198086617223,"connected_time":1204000000000,"state":"active","ping":60},{"user_id":54,"name":"Amon Gus","steam_id":76561199094540960,"connected_time":919000000000,"state":"active","ping":58},{"user_id":59,"name":"Gordon","steam_id":76561198088042034,"connected_time":710000000000,"state":"active","ping":111}]},{"server_id":202,"name":"Uncletopia | Hong Kong | 1 | All Maps","name_short":"hgk-1","host":"hgk-1.hk.uncletopia.com","port":27015,"enabled":true,"region":"asia","cc":"hk","latitude":22.302711,"longitude":114.177216,"reserved":0,"last_update":"0001-01-01T00:00:00Z","name_a2s":"Uncletopia | Hong Kong | 1 | All Maps","protocol":17,"map":"pl_snowycoast","folder":"tf","game":"Team Fortress","app_id":440,"player_count":23,"max_players":24,"Bots":0,"server_type":"Dedicated","server_os":"Linux","password":true,"vac":true,"version":"7757534","steam_id":85568392924494504,"keywords":["nocrits","nodmgspread","payload","uncletopia"],"game_id":440,"stv_port":27016,"stv_name":"Uncletopia | Hong Kong | 1 | All Maps | STV","players":[{"user_id":211,"name":"ChoboUnjeon","steam_id":76561198806095977,"connected_time":529000000000,"state":"active","ping":86},{"user_id":145,"name":"UltraFat","steam_id":76561198253918132,"connected_time":5567000000000,"state":"active","ping":99},{"user_id":173,"name":"bocchistani cunnyseur","steam_id":76561198138187921,"connected_time":4156000000000,"state":"active","ping":50},{"user_id":178,"name":"Slim3rs","steam_id":76561199088010585,"connected_time":3660000000000,"state":"active","ping":170},{"user_id":201,"name":"Hakuko","steam_id":76561198078974501,"connected_time":1387000000000,"state":"active","ping":91},{"user_id":186,"name":"hish (f2p)","steam_id":76561198984254527,"connected_time":2851000000000,"state":"active","ping":94},{"user_id":202,"name":"P","steam_id":76561198304514505,"connected_time":1245000000000,"state":"active","ping":76},{"user_id":180,"name":"DUDE","steam_id":76561198017159562,"connected_time":3451000000000,"state":"active","ping":89},{"user_id":206,"name":"zzz","steam_id":76561198219926077,"connected_time":1116000000000,"state":"active","ping":41},{"user_id":190,"name":"Momoxhien","steam_id":76561198414997429,"connected_time":2412000000000,"state":"active","ping":62},{"user_id":214,"name":"Rudy","steam_id":76561198089227368,"connected_time":60000000000,"state":"active","ping":142},{"user_id":193,"name":"Prof Booster","steam_id":76561199148930929,"connected_time":2270000000000,"state":"active","ping":32},{"user_id":187,"name":"쿠키","steam_id":76561197997220367,"connected_time":2732000000000,"state":"active","ping":51},{"user_id":154,"name":"Waltuh (CEO of Chicanery)","steam_id":76561199257300024,"connected_time":5055000000000,"state":"active","ping":85},{"user_id":169,"name":"wong","steam_id":76561198375093234,"connected_time":4296000000000,"state":"active","ping":65},{"user_id":188,"name":"Basscus","steam_id":76561198866547450,"connected_time":2613000000000,"state":"active","ping":67},{"user_id":189,"name":"Steve","steam_id":76561198429235506,"connected_time":2574000000000,"state":"active","ping":72},{"user_id":192,"name":"aeross","steam_id":76561198834445483,"connected_time":2332000000000,"state":"active","ping":66},{"user_id":195,"name":"siyu","steam_id":76561198952342211,"connected_time":2153000000000,"state":"active","ping":44},{"user_id":205,"name":"Buttman","steam_id":76561198044693388,"connected_time":1146000000000,"state":"active","ping":55},{"user_id":209,"name":"Deleth","steam_id":76561199381418653,"connected_time":588000000000,"state":"active","ping":86},{"user_id":200,"name":"Zoy","steam_id":76561198135656220,"connected_time":1429000000000,"state":"active","ping":92},{"user_id":204,"name":"Stupid B","steam_id":76561198131423270,"connected_time":1191000000000,"state":"active","ping":90}]},{"server_id":1,"name":"Uncletopia | Los Angeles | 1 | All Maps","name_short":"lax-1","host":"lax-1.us.uncletopia.com","port":27015,"enabled":true,"region":"us-west","cc":"us","latitude":33.94279,"longitude":-118.41004,"reserved":0,"last_update":"0001-01-01T00:00:00Z","name_a2s":"Uncletopia | Los Angeles | 1 | All Maps","protocol":17,"map":"koth_lakeside_final","folder":"tf","game":"Team Fortress","app_id":440,"player_count":0,"max_players":24,"Bots":0,"server_type":"Dedicated","server_os":"Linux","password":true,"vac":true,"version":"7757534","steam_id":85568392924469991,"keywords":["cp","nocrits","nodmgspread","uncletopia"],"game_id":440,"stv_port":27016,"stv_name":"Uncletopia | Los Angeles | 1 | All Maps | STV","players":null},{"server_id":112,"name":"Uncletopia | Los Angeles | 2 | All Maps","name_short":"lax-2","host":"lax-1.us.uncletopia.com","port":27025,"enabled":true,"region":"us-west","cc":"us","latitude":33.94279,"longitude":-118.41004,"reserved":0,"last_update":"0001-01-01T00:00:00Z","name_a2s":"Uncletopia | Los Angeles | 2 | All Maps","protocol":17,"map":"pl_badwater","folder":"tf","game":"Team Fortress","app_id":440,"player_count":0,"max_players":24,"Bots":0,"server_type":"Dedicated","server_os":"Linux","password":true,"vac":true,"version":"7757534","steam_id":85568392924469992,"keywords":["nocrits","nodmgspread","payload","uncletopia"],"game_id":440,"stv_port":27026,"stv_name":"Uncletopia | Los Angeles | 2 | All Maps | STV","players":null},{"server_id":324,"name":"Uncletopia | Los Angeles | 3 | All Maps","name_short":"lax-3","host":"lax-1.us.uncletopia.com","port":27035,"enabled":true,"region":"us-west","cc":"us","latitude":33.94279,"longitude":-118.41004,"reserved":0,"last_update":"0001-01-01T00:00:00Z","name_a2s":"Uncletopia | Los Angeles | 3 | All Maps","protocol":17,"map":"pl_barnblitz","folder":"tf","game":"Team Fortress","app_id":440,"player_count":0,"max_players":24,"Bots":0,"server_type":"Dedicated","server_os":"Linux","password":true,"vac":true,"version":"7757534","steam_id":85568392924510198,"keywords":["nocrits","nodmgspread","payload","uncletopia"],"game_id":440,"stv_port":27036,"stv_name":"Uncletopia | Los Angeles | 3 | All Maps | STV","players":null},{"server_id":25,"name":"Uncletopia | Los Angeles | 4 | Stopwatch Beta","name_short":"lax-4","host":"lax-1.us.uncletopia.com","port":27045,"enabled":true,"region":"us-west","cc":"us","latitude":33.94279,"longitude":-118.41004,"reserved":0,"last_update":"0001-01-01T00:00:00Z","name_a2s":"Uncletopia | Los Angeles | 4 | Stopwatch Beta","protocol":17,"map":"pl_swiftwater_final1","folder":"tf","game":"Team Fortress","app_id":440,"player_count":0,"max_players":24,"Bots":0,"server_type":"Dedicated","server_os":"Linux","password":true,"vac":true,"version":"7757534","steam_id":85568392924510199,"keywords":["nocrits","nodmgspread","payload","uncletopia"],"game_id":440,"stv_port":27046,"stv_name":"Uncletopia | Los Angeles | 4 | Stopwatch Beta | STV","players":null},{"server_id":11,"name":"Uncletopia | London | 1 | All Maps","name_short":"lon-1","host":"lon-1.uk.uncletopia.com","port":27015,"enabled":true,"region":"eu","cc":"gb","latitude":51.509865,"longitude":-0.118092,"reserved":0,"last_update":"0001-01-01T00:00:00Z","name_a2s":"Uncletopia | London | 1 | All Maps","protocol":17,"map":"koth_highpass","folder":"tf","game":"Team Fortress","app_id":440,"player_count":0,"max_players":24,"Bots":0,"server_type":"Dedicated","server_os":"Linux","password":true,"vac":true,"version":"7757534","steam_id":85568392924367362,"keywords":["cp","nocrits","nodmgspread","uncletopia"],"game_id":440,"stv_port":27016,"stv_name":"Uncletopia | London | 1 | All Maps | STV","players":null},{"server_id":114,"name":"Uncletopia | London | 2 | All Maps","name_short":"lon-2","host":"lon-1.uk.uncletopia.com","port":27025,"enabled":true,"region":"eu","cc":"gb","latitude":51.509865,"longitude":-0.118092,"reserved":0,"last_update":"0001-01-01T00:00:00Z","name_a2s":"Uncletopia | London | 2 | All Maps","protocol":17,"map":"pl_upward","folder":"tf","game":"Team Fortress","app_id":440,"player_count":21,"max_players":24,"Bots":0,"server_type":"Dedicated","server_os":"Linux","password":true,"vac":true,"version":"7757534","steam_id":85568392924470941,"keywords":["nocrits","nodmgspread","payload","uncletopia"],"game_id":440,"stv_port":27026,"stv_name":"Uncletopia | London | 2 | All Maps | STV","players":[{"user_id":220,"name":"Kumquat","steam_id":76561198200490386,"connected_time":2425000000000,"state":"active","ping":64},{"user_id":221,"name":"Zerfesh","steam_id":76561198117534358,"connected_time":2409000000000,"state":"active","ping":99},{"user_id":264,"name":"Kurage","steam_id":76561198021221288,"connected_time":88000000000,"state":"active","ping":70},{"user_id":240,"name":"gagalak","steam_id":76561198089979108,"connected_time":1436000000000,"state":"active","ping":102},{"user_id":254,"name":"least mentally insane hoshiyomi","steam_id":76561199476886074,"connected_time":606000000000,"state":"active","ping":106},{"user_id":255,"name":"piping hot","steam_id":76561198011692496,"connected_time":450000000000,"state":"active","ping":70},{"user_id":241,"name":"Pelveshka","steam_id":76561198084256293,"connected_time":1391000000000,"state":"active","ping":110},{"user_id":256,"name":"Gaming_alchemists","steam_id":76561198123216047,"connected_time":437000000000,"state":"active","ping":127},{"user_id":247,"name":"Vectillion","steam_id":76561198074292454,"connected_time":1151000000000,"state":"active","ping":68},{"user_id":259,"name":"Hyperek","steam_id":76561198130797464,"connected_time":402000000000,"state":"active","ping":89},{"user_id":226,"name":"Tekky","steam_id":76561197990987315,"connected_time":1921000000000,"state":"active","ping":35},{"user_id":232,"name":"daanvanliempt05","steam_id":76561198355398948,"connected_time":1706000000000,"state":"active","ping":51},{"user_id":265,"name":"Flare","steam_id":76561198039098320,"connected_time":81000000000,"state":"active","ping":49},{"user_id":260,"name":"spxcy","steam_id":76561198080296853,"connected_time":399000000000,"state":"active","ping":93},{"user_id":242,"name":"LemonLeCitron","steam_id":76561198215545267,"connected_time":1384000000000,"state":"active","ping":66},{"user_id":251,"name":"Jargo","steam_id":76561198064231790,"connected_time":870000000000,"state":"active","ping":89},{"user_id":261,"name":"pulsar","steam_id":76561198842123868,"connected_time":399000000000,"state":"active","ping":104},{"user_id":230,"name":"Anttech","steam_id":76561198065184022,"connected_time":1719000000000,"state":"active","ping":68},{"user_id":138,"name":"Chikapu_Xek","steam_id":76561198428023493,"connected_time":8736000000000,"state":"active","ping":64},{"user_id":262,"name":"kotorro","steam_id":76561198275080398,"connected_time":325000000000,"state":"active","ping":85},{"user_id":246,"name":"kojitori","steam_id":76561198838072150,"connected_time":1189000000000,"state":"active","ping":44}]},{"server_id":320,"name":"Uncletopia | London | 3 | All Maps","name_short":"lon-3","host":"lon-1.uk.uncletopia.com","port":27035,"enabled":true,"region":"eu","cc":"gb","latitude":51.509865,"longitude":-0.118092,"reserved":0,"last_update":"0001-01-01T00:00:00Z","name_a2s":"Uncletopia | London | 3 | All Maps","protocol":17,"map":"koth_viaduct","folder":"tf","game":"Team Fortress","app_id":440,"player_count":0,"max_players":24,"Bots":0,"server_type":"Dedicated","server_os":"Linux","password":true,"vac":true,"version":"7757534","steam_id":85568392924510192,"keywords":["cp","nocrits","nodmgspread","uncletopia"],"game_id":440,"stv_port":27036,"stv_name":"Uncletopia | London | 3 | All Maps | STV","players":null},{"server_id":321,"name":"Uncletopia | London | 4 | All Maps","name_short":"lon-4","host":"lon-1.uk.uncletopia.com","port":27045,"enabled":true,"region":"eu","cc":"gb","latitude":51.509865,"longitude":-0.118092,"reserved":0,"last_update":"0001-01-01T00:00:00Z","name_a2s":"Uncletopia | London | 4 | All Maps","protocol":17,"map":"pl_swiftwater_final1","folder":"tf","game":"Team Fortress","app_id":440,"player_count":0,"max_players":24,"Bots":0,"server_type":"Dedicated","server_os":"Linux","password":true,"vac":true,"version":"7757534","steam_id":85568392924510193,"keywords":["nocrits","nodmgspread","payload","uncletopia"],"game_id":440,"stv_port":27046,"stv_name":"Uncletopia | London | 4 | All Maps | STV","players":null},{"server_id":21,"name":"Uncletopia | London | 5 | All Maps","name_short":"lon-5","host":"lon-1.uk.uncletopia.com","port":27055,"enabled":true,"region":"eu","cc":"gb","latitude":51.509865,"longitude":-0.118092,"reserved":0,"last_update":"0001-01-01T00:00:00Z","name_a2s":"Uncletopia | London | 5 | All Maps","protocol":17,"map":"cp_altitude","folder":"tf","game":"Team Fortress","app_id":440,"player_count":0,"max_players":24,"Bots":0,"server_type":"Dedicated","server_os":"Linux","password":true,"vac":true,"version":"7757534","steam_id":85568392924742829,"keywords":["cp","nocrits","nodmgspread","uncletopia"],"game_id":440,"stv_port":27056,"stv_name":"Uncletopia | London | 5 | All Maps | STV","players":null},{"server_id":22,"name":"Uncletopia | London | 6 | All Maps","name_short":"lon-6","host":"lon-1.uk.uncletopia.com","port":27065,"enabled":true,"region":"eu","cc":"gb","latitude":51.509865,"longitude":-0.118092,"reserved":0,"last_update":"0001-01-01T00:00:00Z","name_a2s":"Uncletopia | London | 6 | All Maps","protocol":17,"map":"cp_process_final","folder":"tf","game":"Team Fortress","app_id":440,"player_count":0,"max_players":24,"Bots":0,"server_type":"Dedicated","server_os":"Linux","password":true,"vac":true,"version":"7757534","steam_id":85568392924742830,"keywords":["cp","nocrits","nodmgspread","uncletopia"],"game_id":440,"stv_port":27066,"stv_name":"Uncletopia | London | 6 | All Maps | STV","players":null},{"server_id":40,"name":"Uncletopia | London | 7 | No Payload","name_short":"lon-7","host":"lon-1.uk.uncletopia.com","port":27075,"enabled":true,"region":"eu","cc":"gb","latitude":51.509865,"longitude":-0.118092,"reserved":0,"last_update":"0001-01-01T00:00:00Z","name_a2s":"Uncletopia | London | 7 | No Payload","protocol":17,"map":"koth_lakeside_final","folder":"tf","game":"Team Fortress","app_id":440,"player_count":0,"max_players":24,"Bots":0,"server_type":"Dedicated","server_os":"Linux","password":true,"vac":true,"version":"7757534","steam_id":85568392924964314,"keywords":["cp","nocrits","nodmgspread","uncletopia"],"game_id":440,"stv_port":27076,"stv_name":"Uncletopia | London | 7 | No Payload | STV","players":null},{"server_id":41,"name":"Uncletopia | London | 8 | Community","name_short":"lon-8","host":"lon-1.uk.uncletopia.com","port":27085,"enabled":true,"region":"eu","cc":"gb","latitude":51.509865,"longitude":-0.118092,"reserved":0,"last_update":"0001-01-01T00:00:00Z","name_a2s":"Uncletopia | London | 8 | Community","protocol":17,"map":"workshop/cp_glassworks_rc6a.ugc454118349","folder":"tf","game":"Team Fortress","app_id":440,"player_count":0,"max_players":24,"Bots":0,"server_type":"Dedicated","server_os":"Linux","password":true,"vac":true,"version":"7757534","steam_id":85568392924964315,"keywords":["cp","nocrits","nodmgspread","uncletopia"],"game_id":440,"stv_port":27086,"stv_name":"Uncletopia | London | 8 | Community | STV","players":null},{"server_id":300,"name":"Uncletopia | Montréal | 1 | All Maps","name_short":"mtl-1","host":"mtl-1.ca.uncletopia.com","port":27015,"enabled":true,"region":"us-east","cc":"ca","latitude":45.50889,"longitude":-73.56167,"reserved":0,"last_update":"0001-01-01T00:00:00Z","name_a2s":"Uncletopia | Montréal | 1 | All Maps","protocol":17,"map":"cp_process_final","folder":"tf","game":"Team Fortress","app_id":440,"player_count":0,"max_players":24,"Bots":0,"server_type":"Dedicated","server_os":"Linux","password":true,"vac":true,"version":"7757534","steam_id":85568392924500087,"keywords":["cp","nocrits","nodmgspread","uncletopia"],"game_id":440,"stv_port":27016,"stv_name":"Uncletopia | Montréal | 1 | All Maps | STV","players":null},{"server_id":301,"name":"Uncletopia | Montréal | 2 | All Maps","name_short":"mtl-2","host":"mtl-1.ca.uncletopia.com","port":27025,"enabled":true,"region":"us-east","cc":"ca","latitude":45.50889,"longitude":-73.56167,"reserved":0,"last_update":"0001-01-01T00:00:00Z","name_a2s":"Uncletopia | Montréal | 2 | All Maps","protocol":17,"map":"pl_snowycoast","folder":"tf","game":"Team Fortress","app_id":440,"player_count":0,"max_players":24,"Bots":0,"server_type":"Dedicated","server_os":"Linux","password":true,"vac":true,"version":"7757534","steam_id":85568392924500088,"keywords":["nocrits","nodmgspread","payload","uncletopia"],"game_id":440,"stv_port":27026,"stv_name":"Uncletopia | Montréal | 2 | All Maps | STV","players":null},{"server_id":302,"name":"Uncletopia | Montréal | 3 | All Maps","name_short":"mtl-3","host":"mtl-1.ca.uncletopia.com","port":27035,"enabled":true,"region":"us-east","cc":"ca","latitude":45.50889,"longitude":-73.56167,"reserved":0,"last_update":"0001-01-01T00:00:00Z","name_a2s":"Uncletopia | Montréal | 3 | All Maps","protocol":17,"map":"pl_swiftwater_final1","folder":"tf","game":"Team Fortress","app_id":440,"player_count":0,"max_players":24,"Bots":0,"server_type":"Dedicated","server_os":"Linux","password":true,"vac":true,"version":"7757534","steam_id":85568392924500089,"keywords":["nocrits","nodmgspread","payload","uncletopia"],"game_id":440,"stv_port":27036,"stv_name":"Uncletopia | Montréal | 3 | All Maps | STV","players":null},{"server_id":303,"name":"Uncletopia | Montréal | 4 | No Payload","name_short":"mtl-4","host":"mtl-1.ca.uncletopia.com","port":27045,"enabled":true,"region":"us-east","cc":"ca","latitude":45.50889,"longitude":-73.56167,"reserved":0,"last_update":"0001-01-01T00:00:00Z","name_a2s":"Uncletopia | Montréal | 4 | No Payload","protocol":17,"map":"pl_pier","folder":"tf","game":"Team Fortress","app_id":440,"player_count":0,"max_players":24,"Bots":0,"server_type":"Dedicated","server_os":"Linux","password":true,"vac":true,"version":"7757534","steam_id":85568392924500090,"keywords":["nocrits","nodmgspread","payload","uncletopia"],"game_id":440,"stv_port":27046,"stv_name":"Uncletopia | Montréal | 4 | No Payload | STV","players":null},{"server_id":13,"name":"Uncletopia | New York City | 1 | All Maps","name_short":"nyc-1","host":"nyc-1.us.uncletopia.com","port":27015,"enabled":true,"region":"us-east","cc":"us","latitude":40.73061,"longitude":-73.93524,"reserved":0,"last_update":"0001-01-01T00:00:00Z","name_a2s":"Uncletopia | New York City | 1 | All Maps","protocol":17,"map":"koth_viaduct","folder":"tf","game":"Team Fortress","app_id":440,"player_count":1,"max_players":24,"Bots":0,"server_type":"Dedicated","server_os":"Linux","password":true,"vac":true,"version":"7757534","steam_id":85568392924469993,"keywords":["cp","nocrits","nodmgspread","uncletopia"],"game_id":440,"stv_port":27016,"stv_name":"Uncletopia | New York City | 1 | All Maps | STV","players":[{"user_id":4,"name":"Kirsk","steam_id":76561198084397649,"connected_time":62000000000,"state":"active","ping":67}]},{"server_id":14,"name":"Uncletopia | New York City | 2 | All Maps","name_short":"nyc-2","host":"nyc-1.us.uncletopia.com","port":27025,"enabled":true,"region":"us-east","cc":"us","latitude":40.73061,"longitude":-73.93524,"reserved":0,"last_update":"0001-01-01T00:00:00Z","name_a2s":"Uncletopia | New York City | 2 | All Maps","protocol":17,"map":"pl_upward","folder":"tf","game":"Team Fortress","app_id":440,"player_count":1,"max_players":24,"Bots":0,"server_type":"Dedicated","server_os":"Linux","password":true,"vac":true,"version":"7757534","steam_id":85568392924469994,"keywords":["nocrits","nodmgspread","payload","uncletopia"],"game_id":440,"stv_port":27026,"stv_name":"Uncletopia | New York City | 2 | All Maps | STV","players":[{"user_id":10,"name":"Sparky","steam_id":76561198086845464,"connected_time":139000000000,"state":"active","ping":60}]},{"server_id":15,"name":"Uncletopia | New York City | 3 | Stopwatch Beta","name_short":"nyc-3","host":"nyc-1.us.uncletopia.com","port":27035,"enabled":true,"region":"us-east","cc":"us","latitude":40.73061,"longitude":-73.93524,"reserved":0,"last_update":"0001-01-01T00:00:00Z","name_a2s":"Uncletopia | New York City | 3 | Stopwatch Beta","protocol":17,"map":"pl_upward","folder":"tf","game":"Team Fortress","app_id":440,"player_count":0,"max_players":24,"Bots":0,"server_type":"Dedicated","server_os":"Linux","password":true,"vac":true,"version":"7757534","steam_id":85568392924742820,"keywords":["nocrits","nodmgspread","payload","uncletopia"],"game_id":440,"stv_port":27036,"stv_name":"Uncletopia | New York City | 3 | Stopwatch Beta | STV","players":null},{"server_id":16,"name":"Uncletopia | New York City | 4 | Community","name_short":"nyc-4","host":"nyc-1.us.uncletopia.com","port":27045,"enabled":true,"region":"us-east","cc":"us","latitude":40.73061,"longitude":-73.93524,"reserved":0,"last_update":"0001-01-01T00:00:00Z","name_a2s":"Uncletopia | New York City | 4 | Community","protocol":17,"map":"pl_swiftwater_final1","folder":"tf","game":"Team Fortress","app_id":440,"player_count":0,"max_players":24,"Bots":0,"server_type":"Dedicated","server_os":"Linux","password":true,"vac":true,"version":"7757534","steam_id":85568392924742821,"keywords":["nocrits","nodmgspread","payload","uncletopia"],"game_id":440,"stv_port":27046,"stv_name":"Uncletopia | New York City | 4 | Community | STV","players":null},{"server_id":142,"name":"Uncletopia | São Paulo | 1 | All Maps","name_short":"sao-1","host":"sao-1.br.uncletopia.com","port":27015,"enabled":true,"region":"sa","cc":"br","latitude":-23.533773,"longitude":-46.62529,"reserved":0,"last_update":"0001-01-01T00:00:00Z","name_a2s":"Uncletopia | São Paulo | 1 | All Maps","protocol":17,"map":"koth_lakeside_final","folder":"tf","game":"Team Fortress","app_id":440,"player_count":0,"max_players":24,"Bots":0,"server_type":"Dedicated","server_os":"Linux","password":true,"vac":true,"version":"7757534","steam_id":85568392924469996,"keywords":["cp","nocrits","nodmgspread","uncletopia"],"game_id":440,"stv_port":27016,"stv_name":"Uncletopia | São Paulo | 1 | All Maps | STV","players":null},{"server_id":143,"name":"Uncletopia | São Paulo | 2 | All Maps","name_short":"sao-2","host":"sao-2.br.uncletopia.com","port":27015,"enabled":true,"region":"sa","cc":"br","latitude":-23.533773,"longitude":-46.62529,"reserved":0,"last_update":"0001-01-01T00:00:00Z","name_a2s":"Uncletopia | São Paulo | 2 | All Maps","protocol":17,"map":"cp_process_final","folder":"tf","game":"Team Fortress","app_id":440,"player_count":0,"max_players":24,"Bots":0,"server_type":"Dedicated","server_os":"Linux","password":true,"vac":true,"version":"7757534","steam_id":85568392924485349,"keywords":["cp","nocrits","nodmgspread","uncletopia"],"game_id":440,"stv_port":27016,"stv_name":"Uncletopia | São Paulo | 2 | All Maps | STV","players":null},{"server_id":7,"name":"Uncletopia | Seattle | 1 | All Maps","name_short":"sea-1","host":"sea-1.us.uncletopia.com","port":27015,"enabled":true,"region":"us-west","cc":"us","latitude":47.608013,"longitude":-122.33517,"reserved":0,"last_update":"0001-01-01T00:00:00Z","name_a2s":"Uncletopia | Seattle | 1 | All Maps","protocol":17,"map":"koth_lakeside_final","folder":"tf","game":"Team Fortress","app_id":440,"player_count":17,"max_players":24,"Bots":0,"server_type":"Dedicated","server_os":"Linux","password":true,"vac":true,"version":"7757534","steam_id":85568392924469997,"keywords":["cp","nocrits","nodmgspread","uncletopia"],"game_id":440,"stv_port":27016,"stv_name":"Uncletopia | Seattle | 1 | All Maps | STV","players":[{"user_id":3,"name":"El Duderino","steam_id":76561199427900685,"connected_time":890000000000,"state":"active","ping":89},{"user_id":23,"name":"SadFapping","steam_id":76561198076651049,"connected_time":656000000000,"state":"active","ping":41},{"user_id":20,"name":"Kaluka","steam_id":76561198036861445,"connected_time":731000000000,"state":"active","ping":108},{"user_id":8,"name":"Wacks","steam_id":76561198079476100,"connected_time":883000000000,"state":"active","ping":71},{"user_id":31,"name":"Agent_Mag","steam_id":76561199051793215,"connected_time":426000000000,"state":"active","ping":110},{"user_id":13,"name":"cheeto dealer","steam_id":76561199243489976,"connected_time":846000000000,"state":"active","ping":79},{"user_id":14,"name":"Diarrhea?","steam_id":76561198965079927,"connected_time":844000000000,"state":"active","ping":90},{"user_id":17,"name":"PyroToaster","steam_id":76561198053057346,"connected_time":825000000000,"state":"active","ping":118},{"user_id":18,"name":"Krieg From Borderlands 2","steam_id":76561198358757709,"connected_time":782000000000,"state":"active","ping":153},{"user_id":28,"name":"Riggamortis","steam_id":76561199237017378,"connected_time":502000000000,"state":"active","ping":139},{"user_id":32,"name":"Annie DW3","steam_id":76561198268990628,"connected_time":423000000000,"state":"active","ping":130},{"user_id":25,"name":"ビッグプー","steam_id":76561198425027856,"connected_time":619000000000,"state":"active","ping":61},{"user_id":26,"name":"Olhado","steam_id":76561198390880200,"connected_time":598000000000,"state":"active","ping":139},{"user_id":30,"name":"Klone","steam_id":76561198854485605,"connected_time":471000000000,"state":"active","ping":123},{"user_id":33,"name":"bark bark bark bark","steam_id":76561198329074551,"connected_time":401000000000,"state":"active","ping":99},{"user_id":34,"name":"secret island","steam_id":76561198286113033,"connected_time":398000000000,"state":"active","ping":120},{"user_id":35,"name":"Charles Stiles, Mystery Diners","steam_id":76561198158371872,"connected_time":373000000000,"state":"active","ping":94}]},{"server_id":119,"name":"Uncletopia | Seattle | 2 | All Maps","name_short":"sea-2","host":"sea-1.us.uncletopia.com","port":27025,"enabled":true,"region":"us-west","cc":"us","latitude":47.608013,"longitude":-122.33517,"reserved":0,"last_update":"0001-01-01T00:00:00Z","name_a2s":"Uncletopia | Seattle | 2 | All Maps","protocol":17,"map":"pl_badwater","folder":"tf","game":"Team Fortress","app_id":440,"player_count":0,"max_players":24,"Bots":0,"server_type":"Dedicated","server_os":"Linux","password":true,"vac":true,"version":"7757534","steam_id":85568392924469998,"keywords":["nocrits","nodmgspread","payload","uncletopia"],"game_id":440,"stv_port":27026,"stv_name":"Uncletopia | Seattle | 2 | All Maps | STV","players":null},{"server_id":406,"name":"Uncletopia | Seattle | 3 | Stopwatch Beta","name_short":"sea-3","host":"sea-1.us.uncletopia.com","port":27035,"enabled":true,"region":"us-west","cc":"us","latitude":47.608013,"longitude":-122.33517,"reserved":0,"last_update":"0001-01-01T00:00:00Z","name_a2s":"Uncletopia | Seattle | 3 | Stopwatch Beta","protocol":17,"map":"cp_dustbowl","folder":"tf","game":"Team Fortress","app_id":440,"player_count":0,"max_players":24,"Bots":0,"server_type":"Dedicated","server_os":"Linux","password":true,"vac":true,"version":"7757534","steam_id":85568392924515217,"keywords":["cp","nocrits","nodmgspread","uncletopia"],"game_id":440,"stv_port":27036,"stv_name":"Uncletopia | Seattle | 3 | Stopwatch Beta | STV","players":null},{"server_id":17,"name":"Uncletopia | San Francisco | 1 | All Maps","name_short":"sfo-1","host":"sfo-1.us.uncletopia.com","port":27015,"enabled":true,"region":"us-west","cc":"us","latitude":37.77397,"longitude":-122.4313,"reserved":0,"last_update":"0001-01-01T00:00:00Z","name_a2s":"Uncletopia | San Francisco | 1 | All Maps","protocol":17,"map":"cp_process_final","folder":"tf","game":"Team Fortress","app_id":440,"player_count":0,"max_players":24,"Bots":0,"server_type":"Dedicated","server_os":"Linux","password":true,"vac":true,"version":"7757534","steam_id":85568392924469999,"keywords":["cp","nocrits","nodmgspread","uncletopia"],"game_id":440,"stv_port":27016,"stv_name":"Uncletopia | San Francisco | 1 | All Maps | STV","players":null},{"server_id":18,"name":"Uncletopia | San Francisco | 2 | All Maps","name_short":"sfo-2","host":"sfo-1.us.uncletopia.com","port":27025,"enabled":true,"region":"us-west","cc":"us","latitude":37.77397,"longitude":-122.4313,"reserved":0,"last_update":"0001-01-01T00:00:00Z","name_a2s":"Uncletopia | San Francisco | 2 | All Maps","protocol":17,"map":"koth_highpass","folder":"tf","game":"Team Fortress","app_id":440,"player_count":0,"max_players":24,"Bots":0,"server_type":"Dedicated","server_os":"Linux","password":true,"vac":true,"version":"7757534","steam_id":85568392924470000,"keywords":["cp","nocrits","nodmgspread","uncletopia"],"game_id":440,"stv_port":27026,"stv_name":"Uncletopia | San Francisco | 2 | All Maps | STV","players":null},{"server_id":19,"name":"Uncletopia | San Francisco | 3 | Stopwatch Beta","name_short":"sfo-3","host":"sfo-1.us.uncletopia.com","port":27035,"enabled":true,"region":"us-west","cc":"us","latitude":37.77397,"longitude":-122.4313,"reserved":0,"last_update":"0001-01-01T00:00:00Z","name_a2s":"Uncletopia | San Francisco | 3 | Stopwatch Beta","protocol":17,"map":"koth_lakeside_final","folder":"tf","game":"Team Fortress","app_id":440,"player_count":0,"max_players":24,"Bots":0,"server_type":"Dedicated","server_os":"Linux","password":true,"vac":true,"version":"7757534","steam_id":85568392924742824,"keywords":["cp","nocrits","nodmgspread","uncletopia"],"game_id":440,"stv_port":27036,"stv_name":"Uncletopia | San Francisco | 3 | Stopwatch Beta | STV","players":null},{"server_id":20,"name":"Uncletopia | San Francisco | 4 | Community","name_short":"sfo-4","host":"sfo-1.us.uncletopia.com","port":27045,"enabled":true,"region":"us-west","cc":"us","latitude":37.77397,"longitude":-122.4313,"reserved":0,"last_update":"0001-01-01T00:00:00Z","name_a2s":"Uncletopia | San Francisco | 4 | Community","protocol":17,"map":"cp_altitude","folder":"tf","game":"Team Fortress","app_id":440,"player_count":0,"max_players":24,"Bots":0,"server_type":"Dedicated","server_os":"Linux","password":true,"vac":true,"version":"7757534","steam_id":85568392924742826,"keywords":["cp","nocrits","nodmgspread","uncletopia"],"game_id":440,"stv_port":27046,"stv_name":"Uncletopia | San Francisco | 4 | Community | STV","players":null},{"server_id":141,"name":"Uncletopia | Sydney | 1 | All Maps","name_short":"syd-1","host":"syd-1.au.uncletopia.com","port":27015,"enabled":true,"region":"au","cc":"au","latitude":-33.865143,"longitude":151.2099,"reserved":0,"last_update":"0001-01-01T00:00:00Z","name_a2s":"Uncletopia | Sydney | 1 | All Maps","protocol":17,"map":"pl_pier","folder":"tf","game":"Team Fortress","app_id":440,"player_count":0,"max_players":24,"Bots":0,"server_type":"Dedicated","server_os":"Linux","password":true,"vac":true,"version":"7757534","steam_id":85568392924470001,"keywords":["nocrits","nodmgspread","payload","uncletopia"],"game_id":440,"stv_port":27016,"stv_name":"Uncletopia | Sydney | 1 | All Maps | STV","players":null},{"server_id":123,"name":"Uncletopia | Sydney | 2 | All Maps","name_short":"syd-2","host":"syd-1.au.uncletopia.com","port":27025,"enabled":true,"region":"au","cc":"au","latitude":-33.865143,"longitude":151.2099,"reserved":0,"last_update":"0001-01-01T00:00:00Z","name_a2s":"Uncletopia | Sydney | 2 | All Maps","protocol":17,"map":"pl_barnblitz","folder":"tf","game":"Team Fortress","app_id":440,"player_count":17,"max_players":24,"Bots":0,"server_type":"Dedicated","server_os":"Linux","password":true,"vac":true,"version":"7757534","steam_id":85568392924470002,"keywords":["nocrits","nodmgspread","payload","uncletopia"],"game_id":440,"stv_port":27026,"stv_name":"Uncletopia | Sydney | 2 | All Maps | STV","players":[{"user_id":454,"name":"MR Martian","steam_id":76561198157854561,"connected_time":3674000000000,"state":"active","ping":90},{"user_id":452,"name":"Sneevil Gladiator (Level 2)","steam_id":76561198301282416,"connected_time":4402000000000,"state":"active","ping":47},{"user_id":453,"name":"modus","steam_id":76561198025099660,"connected_time":4009000000000,"state":"active","ping":34},{"user_id":490,"name":"tenten","steam_id":76561198402822072,"connected_time":15000000000,"state":"spawning","ping":86},{"user_id":457,"name":"Tantei Rotana","steam_id":76561198041204323,"connected_time":2687000000000,"state":"active","ping":60},{"user_id":458,"name":"Fleetfoot","steam_id":76561198072845816,"connected_time":2553000000000,"state":"active","ping":45},{"user_id":459,"name":"Lincoln2603","steam_id":76561198170236666,"connected_time":2293000000000,"state":"active","ping":45},{"user_id":488,"name":"VEXX","steam_id":76561198385201720,"connected_time":657000000000,"state":"active","ping":375},{"user_id":418,"name":"Mail Bomb Victim","steam_id":76561198284533039,"connected_time":7875000000000,"state":"active","ping":49},{"user_id":462,"name":"Chowdermonkey","steam_id":76561198990121068,"connected_time":2267000000000,"state":"active","ping":65},{"user_id":489,"name":"Ltn. What's-his-Nuts","steam_id":76561198133834262,"connected_time":646000000000,"state":"active","ping":304},{"user_id":466,"name":"Jad","steam_id":76561198453862581,"connected_time":2186000000000,"state":"active","ping":82},{"user_id":467,"name":"toblue","steam_id":76561198189137465,"connected_time":2183000000000,"state":"active","ping":78},{"user_id":468,"name":"garnish master","steam_id":76561197996551827,"connected_time":2165000000000,"state":"active","ping":55},{"user_id":400,"name":"Captain Canadia","steam_id":76561198167967735,"connected_time":10240000000000,"state":"active","ping":56},{"user_id":469,"name":"Probably Caffeinated","steam_id":76561198108179408,"connected_time":2120000000000,"state":"active","ping":89},{"user_id":486,"name":"Branko","steam_id":76561199262196710,"connected_time":921000000000,"state":"active","ping":36}]},{"server_id":395,"name":"Uncletopia | Sydney | 3 | All Maps","name_short":"syd-3","host":"syd-1.au.uncletopia.com","port":27035,"enabled":true,"region":"au","cc":"au","latitude":-33.865143,"longitude":151.2099,"reserved":0,"last_update":"0001-01-01T00:00:00Z","name_a2s":"Uncletopia | Sydney | 3 | All Maps","protocol":17,"map":"koth_badlands","folder":"tf","game":"Team Fortress","app_id":440,"player_count":0,"max_players":24,"Bots":0,"server_type":"Dedicated","server_os":"Linux","password":true,"vac":true,"version":"7757534","steam_id":85568392925194467,"keywords":["cp","nocrits","nodmgspread","uncletopia"],"game_id":440,"stv_port":27036,"stv_name":"Uncletopia | Sydney | 3 | All Maps | STV","players":null},{"server_id":396,"name":"Uncletopia | Sydney | 4 | All Maps","name_short":"syd-4","host":"syd-1.au.uncletopia.com","port":27045,"enabled":true,"region":"au","cc":"au","latitude":-33.865143,"longitude":151.2099,"reserved":0,"last_update":"0001-01-01T00:00:00Z","name_a2s":"Uncletopia | Sydney | 4 | All Maps","protocol":17,"map":"koth_highpass","folder":"tf","game":"Team Fortress","app_id":440,"player_count":0,"max_players":24,"Bots":0,"server_type":"Dedicated","server_os":"Linux","password":true,"vac":true,"version":"7757534","steam_id":85568392925397958,"keywords":["cp","nocrits","nodmgspread","uncletopia"],"game_id":440,"stv_port":27046,"stv_name":"Uncletopia | Sydney | 4 | All Maps | STV","players":null},{"server_id":58,"name":"Uncletopia | Sydney | 5 | Stopwatch Beta","name_short":"syd-5","host":"syd-1.au.uncletopia.com","port":27055,"enabled":true,"region":"au","cc":"au","latitude":-33.865143,"longitude":151.2099,"reserved":0,"last_update":"0001-01-01T00:00:00Z","name_a2s":"Uncletopia | Sydney | 5 | Stopwatch Beta","protocol":17,"map":"koth_cascade","folder":"tf","game":"Team Fortress","app_id":440,"player_count":0,"max_players":24,"Bots":0,"server_type":"Dedicated","server_os":"Linux","password":true,"vac":true,"version":"7757534","steam_id":85568392925397959,"keywords":["cp","nocrits","nodmgspread","uncletopia"],"game_id":440,"stv_port":27056,"stv_name":"Uncletopia | Sydney | 5 | Stopwatch Beta | STV","players":null},{"server_id":59,"name":"Uncletopia | Sydney | 6 | Community","name_short":"syd-6","host":"syd-1.au.uncletopia.com","port":27065,"enabled":true,"region":"au","cc":"au","latitude":-33.865143,"longitude":151.2099,"reserved":0,"last_update":"0001-01-01T00:00:00Z","name_a2s":"Uncletopia | Sydney | 6 | Community","protocol":17,"map":"workshop/pl_eruption_b9a.ugc2807898013","folder":"tf","game":"Team Fortress","app_id":440,"player_count":0,"max_players":24,"Bots":0,"server_type":"Dedicated","server_os":"Linux","password":true,"vac":true,"version":"7757534","steam_id":85568392925397960,"keywords":["nocrits","nodmgspread","payload","uncletopia"],"game_id":440,"stv_port":27066,"stv_name":"Uncletopia | Sydney | 6 | Community | STV","players":null},{"server_id":49,"name":"Uncletopia | Warsaw | 1 | All Maps","name_short":"waw-1","host":"waw-1.pl.uncletopia.com","port":27015,"enabled":true,"region":"eu","cc":"pl","latitude":52.2297,"longitude":21.017532,"reserved":0,"last_update":"0001-01-01T00:00:00Z","name_a2s":"","protocol":0,"map":"","folder":"","game":"","app_id":0,"player_count":0,"max_players":0,"Bots":0,"server_type":"","server_os":"","password":false,"vac":false,"version":"","steam_id":0,"keywords":null,"game_id":0,"stv_port":0,"stv_name":"","players":null},{"server_id":50,"name":"Uncletopia | Warsaw | 2 | All Maps","name_short":"waw-2","host":"waw-1.pl.uncletopia.com","port":27025,"enabled":true,"region":"eu","cc":"pl","latitude":52.2297,"longitude":21.017532,"reserved":0,"last_update":"0001-01-01T00:00:00Z","name_a2s":"Uncletopia | Warsaw | 2 | All Maps","protocol":17,"map":"koth_viaduct","folder":"tf","game":"Team Fortress","app_id":440,"player_count":0,"max_players":24,"Bots":0,"server_type":"Dedicated","server_os":"Linux","password":true,"vac":true,"version":"7757534","steam_id":85568392925397851,"keywords":["cp","nocrits","nodmgspread","uncletopia"],"game_id":440,"stv_port":27026,"stv_name":"Uncletopia | Warsaw | 2 | All Maps | STV","players":null},{"server_id":51,"name":"Uncletopia | Warsaw | 3 | All Maps","name_short":"waw-3","host":"waw-1.pl.uncletopia.com","port":27035,"enabled":true,"region":"eu","cc":"pl","latitude":52.2297,"longitude":21.017532,"reserved":0,"last_update":"0001-01-01T00:00:00Z","name_a2s":"Uncletopia | Warsaw | 3 | All Maps","protocol":17,"map":"cp_snakewater_final1","folder":"tf","game":"Team Fortress","app_id":440,"player_count":0,"max_players":24,"Bots":0,"server_type":"Dedicated","server_os":"Linux","password":true,"vac":true,"version":"7757534","steam_id":85568392925397852,"keywords":["cp","nocrits","nodmgspread","uncletopia"],"game_id":440,"stv_port":27036,"stv_name":"Uncletopia | Warsaw | 3 | All Maps | STV","players":null},{"server_id":52,"name":"Uncletopia | Warsaw | 4 | All Maps","name_short":"waw-4","host":"waw-1.pl.uncletopia.com","port":27045,"enabled":true,"region":"eu","cc":"pl","latitude":52.2297,"longitude":21.017532,"reserved":0,"last_update":"0001-01-01T00:00:00Z","name_a2s":"Uncletopia | Warsaw | 4 | All Maps","protocol":17,"map":"koth_lakeside_final","folder":"tf","game":"Team Fortress","app_id":440,"player_count":0,"max_players":24,"Bots":0,"server_type":"Dedicated","server_os":"Linux","password":true,"vac":true,"version":"7757534","steam_id":85568392925397853,"keywords":["cp","nocrits","nodmgspread","uncletopia"],"game_id":440,"stv_port":27046,"stv_name":"Uncletopia | Warsaw | 4 | All Maps | STV","players":null},{"server_id":53,"name":"Uncletopia | Warsaw | 5 | Stopwatch Beta","name_short":"waw-5","host":"waw-1.pl.uncletopia.com","port":27055,"enabled":true,"region":"eu","cc":"pl","latitude":52.2297,"longitude":21.017532,"reserved":0,"last_update":"0001-01-01T00:00:00Z","name_a2s":"Uncletopia | Warsaw | 5 | Stopwatch Beta","protocol":17,"map":"pl_borneo","folder":"tf","game":"Team Fortress","app_id":440,"player_count":0,"max_players":24,"Bots":0,"server_type":"Dedicated","server_os":"Linux","password":true,"vac":true,"version":"7757534","steam_id":85568392925397854,"keywords":["nocrits","nodmgspread","payload","uncletopia"],"game_id":440,"stv_port":27056,"stv_name":"Uncletopia | Warsaw | 5 | Stopwatch Beta | STV","players":null},{"server_id":54,"name":"Uncletopia | Warsaw | 6 | Community","name_short":"waw-6","host":"waw-1.pl.uncletopia.com","port":27065,"enabled":true,"region":"eu","cc":"pl","latitude":52.2297,"longitude":21.017532,"reserved":0,"last_update":"0001-01-01T00:00:00Z","name_a2s":"Uncletopia | Warsaw | 6 | Community","protocol":17,"map":"workshop/koth_kemptown_rc1.ugc767410655","folder":"tf","game":"Team Fortress","app_id":440,"player_count":0,"max_players":24,"Bots":0,"server_type":"Dedicated","server_os":"Linux","password":true,"vac":true,"version":"7757534","steam_id":85568392925397856,"keywords":["cp","nocrits","nodmgspread","uncletopia"],"game_id":440,"stv_port":27066,"stv_name":"Uncletopia | Warsaw | 6 | Community | STV","players":null}]}