{"status":true,"message":"","result":[{"server_id":9,"name":"Uncletopia | Atlanta | 1 | All Maps","name_short":"atl-1","host":"atl-1.us.uncletopia.com","port":27015,"enabled":true,"region":"us-east","cc":"us","latitude":33.753746,"longitude":-84.38633,"reserved":0,"last_update":"0001-01-01T00:00:00Z","name_a2s":"Uncletopia | Atlanta | 1 | All Maps","protocol":17,"map":"pl_snowycoast","folder":"tf","game":"Team Fortress","app_id":440,"player_count":24,"max_players":24,"Bots":0,"server_type":"Dedicated","server_os":"Linux","password":true,"vac":true,"version":"7723704","steam_id":85568392924469982,"keywords":["nocrits","nodmgspread","payload","uncletopia"],"game_id":440,"stv_port":27016,"stv_name":"Uncletopia | Atlanta | 1 | All Maps | STV","players":[{"user_id":610,"name":"PinkLemonade","steam_id":76561198799286228,"connected_time":2113000000000,"state":"active","ping":71},{"user_id":571,"name":"‚ô°Alyx‚ô°","steam_id":76561198024303978,"connected_time":6716000000000,"state":"active","ping":59},{"user_id":625,"name":"Omega Move","steam_id":76561198031577205,"connected_time":1301000000000,"state":"active","ping":75},{"user_id":628,"name":"sansa musa","steam_id":76561198163723555,"connected_time":1256000000000,"state":"active","ping":71},{"user_id":644,"name":"BOT Bot","steam_id":76561197995225620,"connected_time":53000000000,"state":"active","ping":70},{"user_id":622,"name":"Super Kame Guru","steam_id":76561198978260519,"connected_time":1688000000000,"state":"active","ping":74},{"user_id":630,"name":"BIG BIG CASHEW","steam_id":76561198066578761,"connected_time":993000000000,"state":"active","ping":74},{"user_id":645,"name":"loot","steam_id":76561198069954956,"connected_time":24000000000,"state":"active","ping":51},{"user_id":614,"name":"YoshaBoss","steam_id":76561198449656454,"connected_time":1888000000000,"state":"active","ping":78},{"user_id":615,"name":"The Beast Within","steam_id":76561198298416058,"connected_time":1871000000000,"state":"active","ping":82},{"user_id":608,"name":"Cherry Coke","steam_id":76561198178233006,"connected_time":2330000000000,"state":"active","ping":84},{"user_id":565,"name":"vid_","steam_id":76561198065159053,"connected_time":7538000000000,"state":"active","ping":48},{"user_id":604,"name":"jae are","steam_id":76561198027906463,"connected_time":2668000000000,"state":"active","ping":75},{"user_id":584,"name":"Chance","steam_id":76561198122256825,"connected_time":5437000000000,"state":"active","ping":66},{"user_id":521,"name":"Avo","steam_id":76561197993340494,"connected_time":10350000000000,"state":"active","ping":63},{"user_id":631,"name":"Drilly22","steam_id":76561198068838338,"connected_time":975000000000,"state":"active","ping":93},{"user_id":617,"name":"IzukuMidoYagiYT","steam_id":76561198931285646,"connected_time":1785000000000,"state":"active","ping":71},{"user_id":638,"name":"nomad","steam_id":76561197998740399,"connected_time":524000000000,"state":"active","ping":67},{"user_id":609,"name":"Serene Salamander","steam_id":76561198001094770,"connected_time":2244000000000,"state":"active","ping":105},{"user_id":619,"name":"Bee","steam_id":76561198835517383,"connected_time":1777000000000,"state":"active","ping":68},{"user_id":599,"name":"ATL1 | Psionic Present","steam_id":76561198151019322,"connected_time":3058000000000,"state":"active","ping":76},{"user_id":624,"name":"Whizzo the Clown","steam_id":76561197995910627,"connected_time":1505000000000,"state":"active","ping":80},{"user_id":633,"name":"ATL0 Dedi Le4n!!!","steam_id":76561198045522596,"connected_time":925000000000,"state":"active","ping":72},{"user_id":637,"name":"Cythrill","steam_id":76561198134220965,"connected_time":607000000000,"state":"active","ping":81}]},{"server_id":400,"name":"Uncletopia | Atlanta | 3 | Stopwatch Beta","name_short":"atl-3","host":"atl-1.us.uncletopia.com","port":27035,"enabled":true,"region":"us-east","cc":"us","latitude":33.753746,"longitude":-84.38633,"reserved":0,"last_update":"0001-01-01T00:00:00Z","name_a2s":"Uncletopia | Atlanta | 3 | Stopwatch Beta","protocol":17,"map":"koth_cascade","folder":"tf","game":"Team Fortress","app_id":440,"player_count":0,"max_players":24,"Bots":0,"server_type":"Dedicated","server_os":"Linux","password":true,"vac":true,"version":"7723704","steam_id":85568392924515187,"keywords":["cp","nocrits","nodmgspread","uncletopia"],"game_id":440,"stv_port":27036,"stv_name":"Uncletopia | Atlanta | 3 | Stopwatch Beta | STV","players":null},{"server_id":401,"name":"Uncletopia | Atlanta | 4 | No Payload","name_short":"atl-4","host":"atl-1.us.uncletopia.com","port":27045,"enabled":true,"region":"us-east","cc":"us","latitude":33.753746,"longitude":-84.38633,"reserved":0,"last_update":"0001-01-01T00:00:00Z","name_a2s":"Uncletopia | Atlanta | 4 | No Payload","protocol":17,"map":"koth_lazarus","folder":"tf","game":"Team Fortress","app_id":440,"player_count":0,"max_players":24,"Bots":0,"server_type":"Dedicated","server_os":"Linux","password":true,"vac":true,"version":"7723704","steam_id":85568392924515188,"keywords":["cp","nocrits","nodmgspread","uncletopia"],"game_id":440,"stv_port":27046,"stv_name":"Uncletopia | Atlanta | 4 | No Payload | STV","players":null},{"server_id":2,"name":"Uncletopia | Chicago | 1 | All Maps","name_short":"chi-1","host":"chi-1.us.uncletopia.com","port":27015,"enabled":true,"region":"us-central","cc":"us","latitude":41.881832,"longitude":-87.62318,"reserved":0,"last_update":"0001-01-01T00:00:00Z","name_a2s":"Uncletopia | Chicago | 1 | All Maps","protocol":17,"map":"pl_frontier_final","folder":"tf","game":"Team Fortress","app_id":440,"player_count":23,"max_players":24,"Bots":0,"server_type":"Dedicated","server_os":"Linux","password":true,"vac":true,"version":"7723704","steam_id":85568392924469984,"keywords":["nocrits","nodmgspread","payload","uncletopia"],"game_id":440,"stv_port":27016,"stv_name":"Uncletopia | Chicago | 1 | All Maps | STV","players":[{"user_id":419,"name":"dan","steam_id":76561198061589465,"connected_time":510000000000,"state":"active","ping":93},{"user_id":422,"name":"Liquid Oxycodone","steam_id":76561198154162664,"connected_time":116000000000,"state":"active","ping":72},{"user_id":427,"name":"Scut","steam_id":76561198973734291,"connected_time":18000000000,"state":"active","ping":97},{"user_id":407,"name":"Sera","steam_id":76561198986265728,"connected_time":1026000000000,"state":"active","ping":93},{"user_id":428,"name":"Teleporter  (Entrance, Level 3)","steam_id":76561198316927664,"connected_time":6000000000,"state":"spawning","ping":80},{"user_id":403,"name":"Rooster Miami Man","steam_id":76561199001393067,"connected_time":1235000000000,"state":"active","ping":109},{"user_id":366,"name":"Qball","steam_id":76561198179016466,"connected_time":3517000000000,"state":"active","ping":56},{"user_id":421,"name":"Zeora","steam_id":76561198799145251,"connected_time":338000000000,"state":"active","ping":70},{"user_id":412,"name":"lemon","steam_id":76561198329179651,"connected_time":776000000000,"state":"active","ping":106},{"user_id":424,"name":"vroop","steam_id":76561198211781375,"connected_time":107000000000,"state":"active","ping":84},{"user_id":425,"name":"Cousin Balki","steam_id":76561198070496395,"connected_time":101000000000,"state":"active","ping":58},{"user_id":426,"name":"ankast","steam_id":76561199446991509,"connected_time":97000000000,"state":"active","ping":79},{"user_id":417,"name":"The Doc K","steam_id":76561198035695029,"connected_time":650000000000,"state":"active","ping":81},{"user_id":322,"name":"[slug]","steam_id":76561197989592178,"connected_time":5697000000000,"state":"active","ping":61},{"user_id":360,"name":"Ras","steam_id":76561198123546775,"connected_time":3840000000000,"state":"active","ping":60},{"user_id":414,"name":"Lane","steam_id":76561197965828506,"connected_time":770000000000,"state":"active","ping":36},{"user_id":260,"name":"CAdaverOusPRophet","steam_id":76561198045304110,"connected_time":11693000000000,"state":"active","ping":47},{"user_id":404,"name":"gulab jamun (PBUH)","steam_id":76561198087533521,"connected_time":1234000000000,"state":"active","ping":110},{"user_id":416,"name":"thundermuffin","steam_id":76561198067770965,"connected_time":703000000000,"state":"active","ping":55},{"user_id":359,"name":"Vaporeon","steam_id":76561198107058140,"connected_time":4000000000000,"state":"active","ping":62},{"user_id":379,"name":"YourDom","steam_id":76561198451730653,"connected_time":2592000000000,"state":"active","ping":67},{"user_id":405,"name":"CampinCarl","steam_id":76561197997373624,"connected_time":1232000000000,"state":"active","ping":90},{"user_id":415,"name":"rlty","steam_id":76561198009395055,"connected_time":752000000000,"state":"active","ping":60}]},{"server_id":106,"name":"Uncletopia | Chicago | 2 | All Maps","name_short":"chi-2","host":"chi-1.us.uncletopia.com","port":27025,"enabled":true,"region":"us-central","cc":"us","latitude":41.881832,"longitude":-87.62318,"reserved":0,"last_update":"0001-01-01T00:00:00Z","name_a2s":"Uncletopia | Chicago | 2 | All Maps","protocol":17,"map":"pl_wutville_event","folder":"tf","game":"Team Fortress","app_id":440,"player_count":24,"max_players":24,"Bots":0,"server_type":"Dedicated","server_os":"Linux","password":true,"vac":true,"version":"7723704","steam_id":85568392924469985,"keywords":["nocrits","nodmgspread","payload","uncletopia"],"game_id":440,"stv_port":27026,"stv_name":"Uncletopia | Chicago | 2 | All Maps | STV","players":[{"user_id":295,"name":"EPICAlbert777","steam_id":76561198093718909,"connected_time":808000000000,"state":"active","ping":76},{"user_id":300,"name":"Toottoot","steam_id":76561197992404836,"connected_time":400000000000,"state":"active","ping":47},{"user_id":294,"name":"Joneatshorts","steam_id":76561199233449550,"connected_time":833000000000,"state":"active","ping":56},{"user_id":292,"name":"Atlas","steam_id":76561198127975050,"connected_time":900000000000,"state":"active","ping":53},{"user_id":160,"name":"WarpdriveEngineer","steam_id":76561198073530973,"connected_time":3788000000000,"state":"active","ping":55},{"user_id":303,"name":"imsomeotherguy","steam_id":76561199140899863,"connected_time":291000000000,"state":"active","ping":64},{"user_id":281,"name":"The Collective","steam_id":76561198170423483,"connected_time":1079000000000,"state":"active","ping":72},{"user_id":162,"name":"‚ô•Gothie‚ô•","steam_id":76561198166814648,"connected_time":3724000000000,"state":"active","ping":115},{"user_id":299,"name":"TiltEV","steam_id":76561198205239319,"connected_time":411000000000,"state":"active","ping":74},{"user_id":282,"name":"Mr. May","steam_id":76561198132112804,"connected_time":1069000000000,"state":"active","ping":86},{"user_id":280,"name":"‚òÖUNKNOWN‚òÖ","steam_id":76561198963074953,"connected_time":1083000000000,"state":"active","ping":98},{"user_id":166,"name":"rz-/Atomic Punch","steam_id":76561199195508541,"connected_time":3609000000000,"state":"active","ping":189},{"user_id":296,"name":"Am I Good At The Video Game?","steam_id":76561198046053281,"connected_time":807000000000,"state":"active","ping":75},{"user_id":277,"name":"Moz","steam_id":76561198027171160,"connected_time":1120000000000,"state":"active","ping":46},{"user_id":130,"name":"SRV","steam_id":76561198026589960,"connected_time":5404000000000,"state":"active","ping":48},{"user_id":304,"name":"Beggars' choices","steam_id":76561199013246048,"connected_time":214000000000,"state":"active","ping":67},{"user_id":176,"name":"Goldblock","steam_id":76561198405515937,"connected_time":3326000000000,"state":"active","ping":78},{"user_id":306,"name":"Intervent ig","steam_id":76561199079374651,"connected_time":152000000000,"state":"active","ping":102},{"user_id":298,"name":"Convict Police Officers","steam_id":76561197993527275,"connected_time":510000000000,"state":"active","ping":54},{"user_id":254,"name":"Kevin Y.","steam_id":76561198364331423,"connected_time":1275000000000,"state":"active","ping":80},{"user_id":102,"name":"A Puppy","steam_id":76561198828184456,"connected_time":8042000000000,"state":"active","ping":60},{"user_id":263,"name":"the rango","steam_id":76561199446762217,"connected_time":1214000000000,"state":"active","ping":67},{"user_id":274,"name":"Woshingo","steam_id":76561199164819248,"connected_time":1141000000000,"state":"active","ping":107},{"user_id":276,"name":"cosmik","steam_id":76561198071193180,"connected_time":1121000000000,"state":"active","ping":64}]},{"server_id":402,"name":"Uncletopia | Chicago | 3 | All Maps","name_short":"chi-3","host":"chi-1.us.uncletopia.com","port":27035,"enabled":true,"region":"us-central","cc":"us","latitude":41.881832,"longitude":-87.62318,"reserved":0,"last_update":"0001-01-01T00:00:00Z","name_a2s":"Uncletopia | Chicago | 3 | All Maps","protocol":17,"map":"pl_badwater","folder":"tf","game":"Team Fortress","app_id":440,"player_count":23,"max_players":24,"Bots":0,"server_type":"Dedicated","server_os":"Linux","password":true,"vac":true,"version":"7723704","steam_id":85568392924515191,"keywords":["nocrits","nodmgspread","payload","uncletopia"],"game_id":440,"stv_port":27036,"stv_name":"Uncletopia | Chicago | 3 | All Maps | STV","players":[{"user_id":147,"name":"Rebecon","steam_id":76561198175827007,"connected_time":70000000000,"state":"active","ping":76},{"user_id":91,"name":"weeb_whacker #Jenius","steam_id":76561198187098041,"connected_time":3224000000000,"state":"active","ping":51},{"user_id":130,"name":"leumas","steam_id":76561198240408540,"connected_time":379000000000,"state":"active","ping":72},{"user_id":111,"name":"Potato Cyph0n","steam_id":76561198031564577,"connected_time":1520000000000,"state":"active","ping":85},{"user_id":78,"name":"JEDIDIAH MAUS","steam_id":76561198405673920,"connected_time":4418000000000,"state":"active","ping":82},{"user_id":140,"name":"FruteBrute","steam_id":76561198803472441,"connected_time":179000000000,"state":"active","ping":60},{"user_id":146,"name":"Andy R.","steam_id":76561199041782986,"connected_time":132000000000,"state":"active","ping":59},{"user_id":123,"name":"hello","steam_id":76561198370633380,"connected_time":968000000000,"state":"active","ping":71},{"user_id":124,"name":"Nic0","steam_id":76561198305690218,"connected_time":830000000000,"state":"active","ping":61},{"user_id":104,"name":"Azula's #1 Fan","steam_id":76561198133111058,"connected_time":1949000000000,"state":"active","ping":72},{"user_id":134,"name":"hellohello","steam_id":76561198094058177,"connected_time":292000000000,"state":"active","ping":66},{"user_id":127,"name":"JettSettRF_TTV","steam_id":76561198035927799,"connected_time":454000000000,"state":"active","ping":50},{"user_id":148,"name":"Scramjet","steam_id":76561197963561836,"connected_time":68000000000,"state":"active","ping":57},{"user_id":135,"name":"jao","steam_id":76561198408082822,"connected_time":285000000000,"state":"active","ping":179},{"user_id":73,"name":"CaptainAwesome","steam_id":76561198030377233,"connected_time":4704000000000,"state":"active","ping":61},{"user_id":139,"name":"THRILLHO","steam_id":76561198371663047,"connected_time":230000000000,"state":"active","ping":64},{"user_id":125,"name":"kevingates25","steam_id":76561198059575962,"connected_time":803000000000,"state":"active","ping":52},{"user_id":141,"name":"BOUZENZEL","steam_id":76561198095000722,"connected_time":176000000000,"state":"active","ping":59},{"user_id":145,"name":"Fraglin","steam_id":76561198124964000,"connected_time":134000000000,"state":"active","ping":67},{"user_id":96,"name":"josh","steam_id":76561198111565081,"connected_time":2926000000000,"state":"active","ping":106},{"user_id":136,"name":"Smet19","steam_id":76561198118455606,"connected_time":276000000000,"state":"active","ping":57},{"user_id":137,"name":"Seru","steam_id":76561199219827214,"connected_time":259000000000,"state":"active","ping":94},{"user_id":143,"name":"The Depressed John","steam_id":76561198148193895,"connected_time":169000000000,"state":"active","ping":60}]},{"server_id":403,"name":"Uncletopia | Chicago | 4 | All Maps","name_short":"chi-4","host":"chi-1.us.uncletopia.com","port":27045,"enabled":true,"region":"us-central","cc":"us","latitude":41.881832,"longitude":-87.62318,"reserved":0,"last_update":"0001-01-01T00:00:00Z","name_a2s":"Uncletopia | Chicago | 4 | All Maps","protocol":17,"map":"cp_dustbowl","folder":"tf","game":"Team Fortress","app_id":440,"player_count":24,"max_players":24,"Bots":0,"server_type":"Dedicated","server_os":"Linux","password":true,"vac":true,"version":"7723704","steam_id":85568392924515193,"keywords":["cp","nocrits","nodmgspread","uncletopia"],"game_id":440,"stv_port":27046,"stv_name":"Uncletopia | Chicago | 4 | All Maps | STV","players":[{"user_id":209,"name":"poiuytrewqwqwqwqwqwqwqwqwqwqwqw","steam_id":76561199105253001,"connected_time":441000000000,"state":"active","ping":61},{"user_id":170,"name":"bimbo blow up doll! \u003c3","steam_id":76561198959541006,"connected_time":3628000000000,"state":"active","ping":63},{"user_id":190,"name":"Knuckles","steam_id":76561198000704259,"connected_time":2191000000000,"state":"active","ping":60},{"user_id":185,"name":"Now I'm a Little Motivated","steam_id":76561198069580305,"connected_time":2693000000000,"state":"active","ping":46},{"user_id":204,"name":"Kritzburgh","steam_id":76561198149466938,"connected_time":1141000000000,"state":"active","ping":63},{"user_id":208,"name":"thomasdee725","steam_id":76561199189526173,"connected_time":499000000000,"state":"active","ping":76},{"user_id":63,"name":"Curly-Haired Rogue","steam_id":76561198101915594,"connected_time":11352000000000,"state":"active","ping":64},{"user_id":210,"name":"ShadBad","steam_id":76561198248287390,"connected_time":37000000000,"state":"active","ping":97},{"user_id":189,"name":"Banana man811","steam_id":76561198293128978,"connected_time":2272000000000,"state":"active","ping":56},{"user_id":192,"name":"PorSurface","steam_id":76561198999584253,"connected_time":2156000000000,"state":"active","ping":47},{"user_id":196,"name":"Grandpappy","steam_id":76561198054660691,"connected_time":1768000000000,"state":"active","ping":51},{"user_id":194,"name":"Dr. Game and Watch","steam_id":76561197999615565,"connected_time":1968000000000,"state":"active","ping":65},{"user_id":205,"name":"TriM","steam_id":76561198048332533,"connected_time":957000000000,"state":"active","ping":58},{"user_id":197,"name":"Simply G","steam_id":76561199221934609,"connected_time":1717000000000,"state":"active","ping":111},{"user_id":206,"name":"‚ò§Medic Jesus‚Ä†","steam_id":76561197967470975,"connected_time":565000000000,"state":"active","ping":64},{"user_id":168,"name":"Happ","steam_id":76561198043741679,"connected_time":3786000000000,"state":"active","ping":54},{"user_id":198,"name":"FlakkerSaber","steam_id":76561198103503066,"connected_time":1696000000000,"state":"active","ping":96},{"user_id":176,"name":"Uncle Barts Car Parts","steam_id":76561198218771440,"connected_time":3399000000000,"state":"active","ping":92},{"user_id":199,"name":"ryce","steam_id":76561198114572309,"connected_time":1686000000000,"state":"active","ping":76},{"user_id":200,"name":"Harold","steam_id":76561198057317770,"connected_time":1649000000000,"state":"active","ping":105},{"user_id":201,"name":"carter","steam_id":76561198285295764,"connected_time":1618000000000,"state":"active","ping":76},{"user_id":202,"name":"The Eyeball Man","steam_id":76561198013534207,"connected_time":1588000000000,"state":"active","ping":70},{"user_id":160,"name":"The Power","steam_id":76561198060566884,"connected_time":4245000000000,"state":"active","ping":155},{"user_id":142,"name":"CreeperCatBengal","steam_id":76561198213193221,"connected_time":5390000000000,"state":"active","ping":71}]},{"server_id":36,"name":"Uncletopia | Chicago | 5 | All Maps","name_short":"chi-5","host":"chi-2.us.uncletopia.com","port":27015,"enabled":true,"region":"us-central","cc":"us","latitude":41.881832,"longitude":-87.62318,"reserved":0,"last_update":"0001-01-01T00:00:00Z","name_a2s":"Uncletopia | Chicago | 5 | All Maps","protocol":17,"map":"koth_cascade","folder":"tf","game":"Team Fortress","app_id":440,"player_count":0,"max_players":24,"Bots":0,"server_type":"Dedicated","server_os":"Linux","password":true,"vac":true,"version":"7723704","steam_id":85568392924866362,"keywords":["cp","nocrits","nodmgspread","uncletopia"],"game_id":440,"stv_port":27016,"stv_name":"Uncletopia | Chicago | 5 | All Maps | STV","players":null},{"server_id":37,"name":"Uncletopia | Chicago | 6 | All Maps","name_short":"chi-6","host":"chi-2.us.uncletopia.com","port":27025,"enabled":true,"region":"us-central","cc":"us","latitude":41.881832,"longitude":-87.62318,"reserved":0,"last_update":"0001-01-01T00:00:00Z","name_a2s":"Uncletopia | Chicago | 6 | All Maps","protocol":17,"map":"pl_swiftwater_final1","folder":"tf","game":"Team Fortress","app_id":440,"player_count":0,"max_players":24,"Bots":0,"server_type":"Dedicated","server_os":"Linux","password":true,"vac":true,"version":"7723704","steam_id":85568392924866363,"keywords":["nocrits","nodmgspread","payload","uncletopia"],"game_id":440,"stv_port":27026,"stv_name":"Uncletopia | Chicago | 6 | All Maps | STV","players":null},{"server_id":38,"name":"Uncletopia | Chicago | 7 | Stopwatch Beta","name_short":"chi-7","host":"chi-2.us.uncletopia.com","port":27035,"enabled":true,"region":"us-central","cc":"us","latitude":41.881832,"longitude":-87.62318,"reserved":0,"last_update":"0001-01-01T00:00:00Z","name_a2s":"Uncletopia | Chicago | 7 | Stopwatch Beta","protocol":17,"map":"workshop/koth_clearcut_b15.ugc2107050255","folder":"tf","game":"Team Fortress","app_id":440,"player_count":0,"max_players":24,"Bots":0,"server_type":"Dedicated","server_os":"Linux","password":true,"vac":true,"version":"7723704","steam_id":85568392924866364,"keywords":["cp","nocrits","nodmgspread","uncletopia"],"game_id":440,"stv_port":27036,"stv_name":"Uncletopia | Chicago | 7 | Stopwatch Beta | STV","players":null},{"server_id":39,"name":"Uncletopia | Chicago | 8 | Community","name_short":"chi-8","host":"chi-2.us.uncletopia.com","port":27045,"enabled":true,"region":"us-central","cc":"us","latitude":41.881832,"longitude":-87.62318,"reserved":0,"last_update":"0001-01-01T00:00:00Z","name_a2s":"Uncletopia | Chicago | 8 | Community","protocol":17,"map":"pl_frontier_final","folder":"tf","game":"Team Fortress","app_id":440,"player_count":0,"max_players":24,"Bots":0,"server_type":"Dedicated","server_os":"Linux","password":true,"vac":true,"version":"7723704","steam_id":85568392924866365,"keywords":["nocrits","nodmgspread","payload","uncletopia"],"game_id":440,"stv_port":27046,"stv_name":"Uncletopia | Chicago | 8 | Community | STV","players":null},{"server_id":8,"name":"Uncletopia | Dallas | 1 | All Maps","name_short":"dal-1","host":"dal-1.us.uncletopia.com","port":27015,"enabled":true,"region":"us-central","cc":"us","latitude":32.779167,"longitude":-96.80889,"reserved":0,"last_update":"0001-01-01T00:00:00Z","name_a2s":"Uncletopia | Dallas | 1 | All Maps","protocol":17,"map":"cp_dustbowl","folder":"tf","game":"Team Fortress","app_id":440,"player_count":25,"max_players":24,"Bots":0,"server_type":"Dedicated","server_os":"Linux","password":true,"vac":true,"version":"7723704","steam_id":85568392924469986,"keywords":["cp","nocrits","nodmgspread","uncletopia"],"game_id":440,"stv_port":27016,"stv_name":"Uncletopia | Dallas | 1 | All Maps | STV","players":[{"user_id":351,"name":"Spectre","steam_id":76561198025652246,"connected_time":249000000000,"state":"active","ping":60},{"user_id":270,"name":"Yoshimelon","steam_id":76561198253054325,"connected_time":4255000000000,"state":"active","ping":45},{"user_id":347,"name":"biggie!","steam_id":76561198067496197,"connected_time":353000000000,"state":"active","ping":75},{"user_id":318,"name":"Auggie","steam_id":76561199346300438,"connected_time":1243000000000,"state":"active","ping":76},{"user_id":340,"name":"Xx_UrineEnjoyer_xX","steam_id":76561198397991402,"connected_time":508000000000,"state":"active","ping":95},{"user_id":358,"name":"Berries","steam_id":76561198109312962,"connected_time":121000000000,"state":"active","ping":90},{"user_id":338,"name":"lauren/","steam_id":76561198048745798,"connected_time":610000000000,"state":"active","ping":68},{"user_id":305,"name":"hforce11","steam_id":76561198087647130,"connected_time":1916000000000,"state":"active","ping":61},{"user_id":350,"name":"ozymandias","steam_id":76561198983415087,"connected_time":307000000000,"state":"active","ping":47},{"user_id":267,"name":"Chaotic Rushu","steam_id":76561198170054407,"connected_time":4372000000000,"state":"active","ping":83},{"user_id":307,"name":"tf2s worst player","steam_id":76561199108820058,"connected_time":1718000000000,"state":"active","ping":84},{"user_id":228,"name":"ircycl","steam_id":76561198170693990,"connected_time":7123000000000,"state":"active","ping":77},{"user_id":348,"name":"Disciplinary Clarkson","steam_id":76561198042748864,"connected_time":351000000000,"state":"active","ping":74},{"user_id":362,"name":"The Assistant Regional Manager","steam_id":76561199221484936,"connected_time":27000000000,"state":"active","ping":85},{"user_id":352,"name":"Lemonaded","steam_id":76561198079961670,"connected_time":245000000000,"state":"active","ping":98},{"user_id":289,"name":"Skyler_Poof","steam_id":76561198172859985,"connected_time":3257000000000,"state":"active","ping":77},{"user_id":336,"name":"bigboimarven","steam_id":76561198844778810,"connected_time":635000000000,"state":"active","ping":67},{"user_id":364,"name":"lolosaur","steam_id":76561199186671167,"connected_time":7000000000,"state":"spawning","ping":237},{"user_id":310,"name":"Sprucelass","steam_id":76561197998391724,"connected_time":1579000000000,"state":"active","ping":75},{"user_id":349,"name":"Smeller","steam_id":76561198041767882,"connected_time":348000000000,"state":"active","ping":60},{"user_id":353,"name":"woman respecter","steam_id":76561198083225542,"connected_time":236000000000,"state":"active","ping":90},{"user_id":354,"name":"Barracuda","steam_id":76561198013022083,"connected_time":221000000000,"state":"active","ping":55},{"user_id":345,"name":"dylandraco844","steam_id":76561198886947936,"connected_time":376000000000,"state":"active","ping":66},{"user_id":357,"name":"energem beholder","steam_id":76561197998344127,"connected_time":142000000000,"state":"active","ping":88},{"user_id":324,"name":"|WS| Don't_Taze_Me_Bro","steam_id":76561198043289495,"connected_time":1038000000000,"state":"active","ping":80}]},{"server_id":108,"name":"Uncletopia | Dallas | 2 | All Maps","name_short":"dal-2","host":"dal-1.us.uncletopia.com","port":27025,"enabled":true,"region":"us-central","cc":"us","latitude":32.779167,"longitude":-96.80889,"reserved":0,"last_update":"0001-01-01T00:00:00Z","name_a2s":"Uncletopia | Dallas | 2 | All Maps","protocol":17,"map":"koth_harvest_final","folder":"tf","game":"Team Fortress","app_id":440,"player_count":24,"max_players":24,"Bots":0,"server_type":"Dedicated","server_os":"Linux","password":true,"vac":true,"version":"7723704","steam_id":85568392924469988,"keywords":["cp","nocrits","nodmgspread","uncletopia"],"game_id":440,"stv_port":27026,"stv_name":"Uncletopia | Dallas | 2 | All Maps | STV","players":[{"user_id":253,"name":"Micah","steam_id":76561198006837982,"connected_time":1961000000000,"state":"active","ping":71},{"user_id":242,"name":"Pegway","steam_id":76561198044303814,"connected_time":2780000000000,"state":"active","ping":75},{"user_id":251,"name":"Nillad","steam_id":76561198984334138,"connected_time":2334000000000,"state":"active","ping":115},{"user_id":268,"name":"Snail","steam_id":76561198153026006,"connected_time":1233000000000,"state":"active","ping":128},{"user_id":145,"name":"Course Brains","steam_id":76561198349105723,"connected_time":8273000000000,"state":"active","ping":97},{"user_id":271,"name":"Thatoneguy21","steam_id":76561199061998888,"connected_time":1121000000000,"state":"active","ping":69},{"user_id":284,"name":"MerlinTheWizard","steam_id":76561198171472393,"connected_time":144000000000,"state":"active","ping":63},{"user_id":269,"name":"cofferhead","steam_id":76561199191108449,"connected_time":1215000000000,"state":"active","ping":80},{"user_id":283,"name":"selvhat","steam_id":76561198114225509,"connected_time":485000000000,"state":"active","ping":75},{"user_id":262,"name":"Hobocop","steam_id":76561198076321907,"connected_time":1326000000000,"state":"active","ping":106},{"user_id":250,"name":"\u003c blank \u003e","steam_id":76561198057457717,"connected_time":2511000000000,"state":"active","ping":118},{"user_id":282,"name":"Tourmaline Lazuli","steam_id":76561198987049358,"connected_time":561000000000,"state":"active","ping":70},{"user_id":261,"name":"iHateDying","steam_id":76561198321790697,"connected_time":1371000000000,"state":"active","ping":51},{"user_id":270,"name":"aaalex","steam_id":76561198273231421,"connected_time":1168000000000,"state":"active","ping":60},{"user_id":281,"name":"steelborg","steam_id":76561198427292802,"connected_time":589000000000,"state":"active","ping":92},{"user_id":264,"name":"moe","steam_id":76561198929586245,"connected_time":1309000000000,"state":"active","ping":73},{"user_id":217,"name":"jordanddean2016","steam_id":76561198323772677,"connected_time":4218000000000,"state":"active","ping":104},{"user_id":273,"name":"[S]Mr. X [No Monitor]","steam_id":76561197963746035,"connected_time":1084000000000,"state":"active","ping":115},{"user_id":280,"name":"Milk","steam_id":76561198004362373,"connected_time":630000000000,"state":"active","ping":62},{"user_id":275,"name":"Wolverine Fingerblaster","steam_id":76561198095394582,"connected_time":1053000000000,"state":"active","ping":56},{"user_id":276,"name":"FG7","steam_id":76561198381197197,"connected_time":1052000000000,"state":"active","ping":138},{"user_id":236,"name":"dobby","steam_id":76561198012274834,"connected_time":3367000000000,"state":"active","ping":66},{"user_id":277,"name":"fragaria KILLS you (violently)","steam_id":76561198214823328,"connected_time":821000000000,"state":"active","ping":53},{"user_id":285,"name":"321RetroGamer","steam_id":76561198129043876,"connected_time":139000000000,"state":"active","ping":62}]},{"server_id":5,"name":"Uncletopia | Frankfurt | 1 | All Maps","name_short":"frk-1","host":"frk-1.de.uncletopia.com","port":27015,"enabled":true,"region":"eu","cc":"de","latitude":50.110924,"longitude":8.682127,"reserved":0,"last_update":"0001-01-01T00:00:00Z","name_a2s":"Uncletopia | Frankfurt | 1 | All Maps","protocol":17,"map":"koth_highpass","folder":"tf","game":"Team Fortress","app_id":440,"player_count":24,"max_players":24,"Bots":0,"server_type":"Dedicated","server_os":"Linux","password":true,"vac":true,"version":"7723704","steam_id":85568392924469989,"keywords":["cp","nocrits","nodmgspread","uncletopia"],"game_id":440,"stv_port":27016,"stv_name":"Uncletopia | Frankfurt | 1 | All Maps | STV","players":[{"user_id":537,"name":"DigyB","steam_id":76561198014442345,"connected_time":185000000000,"state":"active","ping":61},{"user_id":492,"name":"Random Main \u003c3","steam_id":76561198341428449,"connected_time":1977000000000,"state":"active","ping":57},{"user_id":461,"name":"Hellago","steam_id":76561198003736380,"connected_time":3693000000000,"state":"active","ping":64},{"user_id":538,"name":"hexerii","steam_id":76561198149967445,"connected_time":152000000000,"state":"active","ping":45},{"user_id":528,"name":"bocian2703","steam_id":76561198134203031,"connected_time":481000000000,"state":"active","ping":61},{"user_id":530,"name":"PK Blizzard","steam_id":76561198039836567,"connected_time":352000000000,"state":"active","ping":59},{"user_id":454,"name":"Djarlem","steam_id":76561198080968386,"connected_time":3814000000000,"state":"active","ping":53},{"user_id":531,"name":"‚ú¶Fish le Patriarche‚ú¶","steam_id":76561198131419301,"connected_time":350000000000,"state":"active","ping":91},{"user_id":532,"name":"FancyNight","steam_id":76561198120265953,"connected_time":329000000000,"state":"active","ping":50},{"user_id":539,"name":"MeBandae","steam_id":76561198910770432,"connected_time":144000000000,"state":"active","ping":76},{"user_id":513,"name":"Piteras","steam_id":76561198858532207,"connected_time":1699000000000,"state":"active","ping":67},{"user_id":533,"name":"Economic crisis","steam_id":76561198063562843,"connected_time":313000000000,"state":"active","ping":56},{"user_id":534,"name":"Shezza","steam_id":76561198903969123,"connected_time":282000000000,"state":"active","ping":68},{"user_id":535,"name":"Kn√∂sta","steam_id":76561198143422139,"connected_time":225000000000,"state":"active","ping":90},{"user_id":543,"name":"Fisteves","steam_id":76561198256796828,"connected_time":36000000000,"state":"active","ping":110},{"user_id":541,"name":"AAAAAAAAAAAAAAAAAAAAAAAAAAAAAAA","steam_id":76561199066802298,"connected_time":116000000000,"state":"active","ping":52},{"user_id":515,"name":"JugoTopia","steam_id":76561197996067209,"connected_time":1587000000000,"state":"active","ping":120},{"user_id":527,"name":"Miedzan","steam_id":76561198405250516,"connected_time":499000000000,"state":"active","ping":72},{"user_id":544,"name":"Nate","steam_id":76561198061379556,"connected_time":36000000000,"state":"spawning","ping":67},{"user_id":508,"name":"Babwin","steam_id":76561197985860528,"connected_time":1807000000000,"state":"active","ping":69},{"user_id":545,"name":"Aydin Channel","steam_id":76561198138031624,"connected_time":17000000000,"state":"spawning","ping":154},{"user_id":546,"name":"Aidan","steam_id":76561198090578404,"connected_time":4000000000,"state":"spawning","ping":66},{"user_id":519,"name":"Kevin","steam_id":76561198035625423,"connected_time":1476000000000,"state":"active","ping":73},{"user_id":521,"name":"Coldary","steam_id":76561198158968852,"connected_time":1291000000000,"state":"active","ping":59}]},{"server_id":110,"name":"Uncletopia | Frankfurt | 2 | All Maps","name_short":"frk-2","host":"frk-1.de.uncletopia.com","port":27025,"enabled":true,"region":"eu","cc":"de","latitude":50.110924,"longitude":8.682127,"reserved":0,"last_update":"0001-01-01T00:00:00Z","name_a2s":"Uncletopia | Frankfurt | 2 | All Maps","protocol":17,"map":"pl_upward","folder":"tf","game":"Team Fortress","app_id":440,"player_count":24,"max_players":24,"Bots":0,"server_type":"Dedicated","server_os":"Linux","password":true,"vac":true,"version":"7723704","steam_id":85568392924469990,"keywords":["nocrits","nodmgspread","payload","uncletopia"],"game_id":440,"stv_port":27026,"stv_name":"Uncletopia | Frankfurt | 2 | All Maps | STV","players":[{"user_id":436,"name":"Pudd of The Pompous Tophats","steam_id":76561198014468443,"connected_time":4838000000000,"state":"active","ping":69},{"user_id":492,"name":"Malte","steam_id":76561198326324739,"connected_time":579000000000,"state":"active","ping":60},{"user_id":458,"name":"EDriGO","steam_id":76561199442763731,"connected_time":3212000000000,"state":"active","ping":58},{"user_id":501,"name":"Pluto","steam_id":76561198142221715,"connected_time":145000000000,"state":"active","ping":52},{"user_id":482,"name":"rmz.ssj","steam_id":76561198329613930,"connected_time":1657000000000,"state":"active","ping":62},{"user_id":502,"name":"PotatoeChisps","steam_id":76561198142556383,"connected_time":79000000000,"state":"active","ping":214},{"user_id":461,"name":"UltimateAura","steam_id":76561198338361324,"connected_time":3077000000000,"state":"active","ping":47},{"user_id":448,"name":"Ducc","steam_id":76561198030677425,"connected_time":4273000000000,"state":"active","ping":55},{"user_id":497,"name":"akciq ‚Åß‚Åßrespect","steam_id":76561198390963456,"connected_time":441000000000,"state":"active","ping":77},{"user_id":498,"name":"matt","steam_id":76561198042907150,"connected_time":438000000000,"state":"active","ping":55},{"user_id":474,"name":"Gety0","steam_id":76561198044387185,"connected_time":1933000000000,"state":"active","ping":77},{"user_id":478,"name":"AWJ ÀÜ-ÀÜ","steam_id":76561198053628243,"connected_time":1740000000000,"state":"active","ping":57},{"user_id":493,"name":"Flostro","steam_id":76561198259793697,"connected_time":568000000000,"state":"active","ping":54},{"user_id":490,"name":"Finbot24","steam_id":76561198357985898,"connected_time":848000000000,"state":"active","ping":62},{"user_id":421,"name":"Dunboi","steam_id":76561198120949216,"connected_time":5824000000000,"state":"active","ping":61},{"user_id":483,"name":"Fortezza","steam_id":76561198972539903,"connected_time":1595000000000,"state":"active","ping":59},{"user_id":450,"name":"jeqer","steam_id":76561198256573643,"connected_time":4187000000000,"state":"active","ping":75},{"user_id":499,"name":"Shrek's left testicle","steam_id":76561198093229786,"connected_time":431000000000,"state":"active","ping":75},{"user_id":495,"name":"mp1mp2mp3","steam_id":76561198088967665,"connected_time":546000000000,"state":"active","ping":84},{"user_id":500,"name":"Cheeki","steam_id":76561198024375176,"connected_time":361000000000,"state":"active","ping":129},{"user_id":467,"name":"Scipionemiliano","steam_id":76561198027646559,"connected_time":2561000000000,"state":"active","ping":112},{"user_id":481,"name":"mario from super mario 64","steam_id":76561198202990635,"connected_time":1720000000000,"state":"active","ping":60},{"user_id":414,"name":"TheEmeraldElias","steam_id":76561199117460238,"connected_time":6559000000000,"state":"active","ping":155},{"user_id":491,"name":"Waffel","steam_id":76561198137729291,"connected_time":683000000000,"state":"active","ping":93}]},{"server_id":308,"name":"Uncletopia | Frankfurt | 3 | All Maps","name_short":"frk-3","host":"frk-1.de.uncletopia.com","port":27035,"enabled":true,"region":"eu","cc":"de","latitude":50.110924,"longitude":8.682127,"reserved":0,"last_update":"0001-01-01T00:00:00Z","name_a2s":"Uncletopia | Frankfurt | 3 | All Maps","protocol":17,"map":"pl_upward","folder":"tf","game":"Team Fortress","app_id":440,"player_count":24,"max_players":24,"Bots":0,"server_type":"Dedicated","server_os":"Linux","password":true,"vac":true,"version":"7723704","steam_id":85568392924504274,"keywords":["nocrits","nodmgspread","payload","uncletopia"],"game_id":440,"stv_port":27036,"stv_name":"Uncletopia | Frankfurt | 3 | All Maps | STV","players":[{"user_id":606,"name":"-rikeOo-","steam_id":76561198303995379,"connected_time":4075000000000,"state":"active","ping":66},{"user_id":653,"name":"Jingleboob's 1# Elf","steam_id":76561198067204908,"connected_time":2030000000000,"state":"active","ping":67},{"user_id":650,"name":"Frazzle","steam_id":76561198262577951,"connected_time":2243000000000,"state":"active","ping":81},{"user_id":673,"name":"mxxn","steam_id":76561198865170684,"connected_time":904000000000,"state":"active","ping":66},{"user_id":660,"name":"Fasj.","steam_id":76561198049975379,"connected_time":1944000000000,"state":"active","ping":53},{"user_id":665,"name":"Ged","steam_id":76561198079288943,"connected_time":1586000000000,"state":"active","ping":106},{"user_id":679,"name":"Miss Bari","steam_id":76561198365286092,"connected_time":647000000000,"state":"active","ping":54},{"user_id":677,"name":"B4R10N","steam_id":76561198047167954,"connected_time":782000000000,"state":"active","ping":56},{"user_id":656,"name":"Daddy Donovan","steam_id":76561198140938904,"connected_time":2009000000000,"state":"active","ping":75},{"user_id":657,"name":"[T]aKer","steam_id":76561198001778013,"connected_time":1994000000000,"state":"active","ping":50},{"user_id":681,"name":"Vince","steam_id":76561199103000131,"connected_time":445000000000,"state":"active","ping":60},{"user_id":642,"name":"Valfezant","steam_id":76561199063983797,"connected_time":2983000000000,"state":"active","ping":52},{"user_id":667,"name":"Smuggs","steam_id":76561197999456003,"connected_time":1538000000000,"state":"active","ping":54},{"user_id":659,"name":"Clover","steam_id":76561198315908102,"connected_time":1956000000000,"state":"active","ping":65},{"user_id":617,"name":"Gryoss","steam_id":76561197999837111,"connected_time":3695000000000,"state":"active","ping":100},{"user_id":682,"name":"chr","steam_id":76561198073016365,"connected_time":100000000000,"state":"active","ping":85},{"user_id":619,"name":"Relix18144","steam_id":76561199202454318,"connected_time":3691000000000,"state":"active","ping":87},{"user_id":620,"name":"Forgetful","steam_id":76561198147445965,"connected_time":3686000000000,"state":"active","ping":61},{"user_id":664,"name":"magnus","steam_id":76561198045570936,"connected_time":1695000000000,"state":"active","ping":86},{"user_id":672,"name":"uwu","steam_id":76561198859144593,"connected_time":957000000000,"state":"active","ping":81},{"user_id":637,"name":"Raxor","steam_id":76561198239927434,"connected_time":3075000000000,"state":"active","ping":89},{"user_id":651,"name":"Max Andrew","steam_id":76561198158955194,"connected_time":2184000000000,"state":"active","ping":67},{"user_id":662,"name":"Charles Darwin","steam_id":76561197973496139,"connected_time":1919000000000,"state":"active","ping":69},{"user_id":675,"name":"Mantis Toboggan, M.D","steam_id":76561197963562704,"connected_time":900000000000,"state":"active","ping":68}]},{"server_id":309,"name":"Uncletopia | Frankfurt | 4 | All Maps","name_short":"frk-4","host":"frk-1.de.uncletopia.com","port":27045,"enabled":true,"region":"eu","cc":"de","latitude":50.110924,"longitude":8.682127,"reserved":0,"last_update":"0001-01-01T00:00:00Z","name_a2s":"Uncletopia | Frankfurt | 4 | All Maps","protocol":17,"map":"pl_badwater","folder":"tf","game":"Team Fortress","app_id":440,"player_count":23,"max_players":24,"Bots":0,"server_type":"Dedicated","server_os":"Linux","password":true,"vac":true,"version":"7723704","steam_id":85568392924504275,"keywords":["nocrits","nodmgspread","payload","uncletopia"],"game_id":440,"stv_port":27046,"stv_name":"Uncletopia | Frankfurt | 4 | All Maps | STV","players":[{"user_id":479,"name":"casual zyzz praiser","steam_id":76561198022382969,"connected_time":842000000000,"state":"active","ping":75},{"user_id":484,"name":"linkinparkfan123","steam_id":76561199033782005,"connected_time":275000000000,"state":"active","ping":90},{"user_id":465,"name":"Egtu","steam_id":76561198013757235,"connected_time":1054000000000,"state":"active","ping":60},{"user_id":451,"name":"mimi","steam_id":76561198060648946,"connected_time":1226000000000,"state":"active","ping":57},{"user_id":482,"name":"frosty","steam_id":76561198094560834,"connected_time":299000000000,"state":"active","ping":61},{"user_id":461,"name":"pl_z≈Çawoda","steam_id":76561198040588109,"connected_time":1092000000000,"state":"active","ping":75},{"user_id":485,"name":"No, Why?","steam_id":76561198888755969,"connected_time":275000000000,"state":"active","ping":76},{"user_id":483,"name":"TidB","steam_id":76561198055342304,"connected_time":299000000000,"state":"active","ping":54},{"user_id":435,"name":"vince","steam_id":76561198144563055,"connected_time":2448000000000,"state":"active","ping":47},{"user_id":453,"name":"mzorno_","steam_id":76561198135722240,"connected_time":1203000000000,"state":"active","ping":43},{"user_id":474,"name":"etc","steam_id":76561197998394797,"connected_time":970000000000,"state":"active","ping":56},{"user_id":455,"name":"randompixel","steam_id":76561198003941207,"connected_time":1163000000000,"state":"active","ping":64},{"user_id":486,"name":"iBeKelsey","steam_id":76561198426604784,"connected_time":259000000000,"state":"active","ping":55},{"user_id":471,"name":"technologicalMayhem","steam_id":76561198077216014,"connected_time":1003000000000,"state":"active","ping":46},{"user_id":489,"name":"|SoW| IgI","steam_id":76561198001541383,"connected_time":60000000000,"state":"active","ping":64},{"user_id":476,"name":"rummy","steam_id":76561197997573379,"connected_time":917000000000,"state":"active","ping":60},{"user_id":464,"name":"pl_badwater","steam_id":76561198152184280,"connected_time":1075000000000,"state":"active","ping":68},{"user_id":466,"name":"etf2l cryptid","steam_id":76561198010239925,"connected_time":1053000000000,"state":"active","ping":60},{"user_id":468,"name":"Jason","steam_id":76561198131894488,"connected_time":1016000000000,"state":"active","ping":53},{"user_id":469,"name":"Rocadinis","steam_id":76561198095910616,"connected_time":1012000000000,"state":"active","ping":99},{"user_id":470,"name":"safeboot","steam_id":76561198331063591,"connected_time":1008000000000,"state":"active","ping":82},{"user_id":472,"name":"JujuBalu","steam_id":76561198207253071,"connected_time":995000000000,"state":"active","ping":55},{"user_id":488,"name":"PI (3.14)","steam_id":76561198129463258,"connected_time":200000000000,"state":"active","ping":167}]},{"server_id":310,"name":"Uncletopia | Frankfurt | 5 | All Maps","name_short":"frk-5","host":"frk-1.de.uncletopia.com","port":27055,"enabled":true,"region":"eu","cc":"de","latitude":50.110924,"longitude":8.682127,"reserved":0,"last_update":"0001-01-01T00:00:00Z","name_a2s":"Uncletopia | Frankfurt | 5 | All Maps","protocol":17,"map":"pl_upward","folder":"tf","game":"Team Fortress","app_id":440,"player_count":24,"max_players":24,"Bots":0,"server_type":"Dedicated","server_os":"Linux","password":true,"vac":true,"version":"7723704","steam_id":85568392924504277,"keywords":["nocrits","nodmgspread","payload","uncletopia"],"game_id":440,"stv_port":27056,"stv_name":"Uncletopia | Frankfurt | 5 | All Maps | STV","players":[{"user_id":528,"name":"Weenie Hut Jr's","steam_id":76561198050515739,"connected_time":1324000000000,"state":"active","ping":81},{"user_id":432,"name":"Tarixxiv","steam_id":76561198084365415,"connected_time":5242000000000,"state":"active","ping":88},{"user_id":453,"name":"soap lore","steam_id":76561198058879767,"connected_time":4507000000000,"state":"active","ping":61},{"user_id":433,"name":"Khasar419","steam_id":76561198261780353,"connected_time":5177000000000,"state":"active","ping":78},{"user_id":526,"name":"Final_MarioXD","steam_id":76561199184862419,"connected_time":1549000000000,"state":"active","ping":187},{"user_id":518,"name":"Grand Wizard","steam_id":76561199414716848,"connected_time":1694000000000,"state":"active","ping":72},{"user_id":545,"name":"Thors","steam_id":76561197968739075,"connected_time":92000000000,"state":"active","ping":45},{"user_id":529,"name":"Cuthbert","steam_id":76561198204649481,"connected_time":1310000000000,"state":"active","ping":94},{"user_id":538,"name":"The Fellow Feller","steam_id":76561198188864306,"connected_time":805000000000,"state":"active","ping":66},{"user_id":540,"name":"HUGO","steam_id":76561198317134996,"connected_time":476000000000,"state":"active","ping":78},{"user_id":503,"name":"Ruben Zo","steam_id":76561198063855616,"connected_time":1881000000000,"state":"active","ping":75},{"user_id":506,"name":"Saucy Jack","steam_id":76561198894525288,"connected_time":1849000000000,"state":"active","ping":60},{"user_id":532,"name":"ivanmixo","steam_id":76561198160213989,"connected_time":1249000000000,"state":"active","ping":70},{"user_id":507,"name":"Eck","steam_id":76561198170101474,"connected_time":1817000000000,"state":"active","ping":75},{"user_id":539,"name":"üúè Drepp","steam_id":76561197998867164,"connected_time":506000000000,"state":"active","ping":60},{"user_id":523,"name":"Tonne","steam_id":76561197970856766,"connected_time":1657000000000,"state":"active","ping":54},{"user_id":535,"name":"Bumblebee","steam_id":76561198033551105,"connected_time":874000000000,"state":"active","ping":55},{"user_id":531,"name":"Meh","steam_id":76561198148030229,"connected_time":1259000000000,"state":"active","ping":82},{"user_id":524,"name":"LemonLeCitron","steam_id":76561198215545267,"connected_time":1657000000000,"state":"active","ping":106},{"user_id":533,"name":"Milosz52","steam_id":76561199060940204,"connected_time":1248000000000,"state":"active","ping":78},{"user_id":543,"name":"Zateske","steam_id":76561198047446276,"connected_time":122000000000,"state":"active","ping":61},{"user_id":512,"name":"Uncle Owen","steam_id":76561198157999291,"connected_time":1766000000000,"state":"active","ping":86},{"user_id":478,"name":"KarlRanzeier","steam_id":76561198066281337,"connected_time":3270000000000,"state":"active","ping":57},{"user_id":511,"name":"Inventor of Sex","steam_id":76561198242286248,"connected_time":1771000000000,"state":"active","ping":90}]},{"server_id":311,"name":"Uncletopia | Frankfurt | 6 | All Maps","name_short":"frk-6","host":"frk-1.de.uncletopia.com","port":27065,"enabled":true,"region":"eu","cc":"de","latitude":50.110924,"longitude":8.682127,"reserved":0,"last_update":"0001-01-01T00:00:00Z","name_a2s":"Uncletopia | Frankfurt | 6 | All Maps","protocol":17,"map":"pl_barnblitz","folder":"tf","game":"Team Fortress","app_id":440,"player_count":0,"max_players":24,"Bots":0,"server_type":"Dedicated","server_os":"Linux","password":true,"vac":true,"version":"7723704","steam_id":85568392924504278,"keywords":["nocrits","nodmgspread","payload","uncletopia"],"game_id":440,"stv_port":27066,"stv_name":"Uncletopia | Frankfurt | 6 | All Maps | STV","players":null},{"server_id":23,"name":"Uncletopia | Frankfurt | 7 | Stopwatch Beta","name_short":"frk-7","host":"frk-1.de.uncletopia.com","port":27075,"enabled":true,"region":"eu","cc":"de","latitude":50.110924,"longitude":8.682127,"reserved":0,"last_update":"0001-01-01T00:00:00Z","name_a2s":"Uncletopia | Frankfurt | 7 | Stopwatch Beta","protocol":17,"map":"workshop/pl_barnblitz_pro7.ugc582280235","folder":"tf","game":"Team Fortress","app_id":440,"player_count":0,"max_players":24,"Bots":0,"server_type":"Dedicated","server_os":"Linux","password":true,"vac":true,"version":"7723704","steam_id":85568392924742827,"keywords":["nocrits","nodmgspread","payload","uncletopia"],"game_id":440,"stv_port":27076,"stv_name":"Uncletopia | Frankfurt | 7 | Stopwatch Beta | STV","players":null},{"server_id":24,"name":"Uncletopia | Frankfurt | 8 | Community","name_short":"frk-8","host":"frk-1.de.uncletopia.com","port":27085,"enabled":true,"region":"eu","cc":"de","latitude":50.110924,"longitude":8.682127,"reserved":0,"last_update":"0001-01-01T00:00:00Z","name_a2s":"Uncletopia | Frankfurt | 8 | Community","protocol":17,"map":"workshop/koth_synthetic_rc6a.ugc1549817316","folder":"tf","game":"Team Fortress","app_id":440,"player_count":0,"max_players":24,"Bots":0,"server_type":"Dedicated","server_os":"Linux","password":true,"vac":true,"version":"7723704","steam_id":85568392924742828,"keywords":["cp","nocrits","nodmgspread","uncletopia"],"game_id":440,"stv_port":27086,"stv_name":"Uncletopia | Frankfurt | 8 | Community | STV","players":null},{"server_id":202,"name":"Uncletopia | Hong Kong | 1 | All Maps","name_short":"hgk-1","host":"hgk-1.hk.uncletopia.com","port":27015,"enabled":true,"region":"asia","cc":"hk","latitude":22.302711,"longitude":114.177216,"reserved":0,"last_update":"0001-01-01T00:00:00Z","name_a2s":"Uncletopia | Hong Kong | 1 | All Maps","protocol":17,"map":"cp_dustbowl","folder":"tf","game":"Team Fortress","app_id":440,"player_count":0,"max_players":24,"Bots":0,"server_type":"Dedicated","server_os":"Linux","password":true,"vac":true,"version":"7723704","steam_id":85568392924494504,"keywords":["cp","nocrits","nodmgspread","uncletopia"],"game_id":440,"stv_port":27016,"stv_name":"Uncletopia | Hong Kong | 1 | All Maps | STV","players":null},{"server_id":1,"name":"Uncletopia | Los Angeles | 1 | All Maps","name_short":"lax-1","host":"lax-1.us.uncletopia.com","port":27015,"enabled":true,"region":"us-west","cc":"us","latitude":33.94279,"longitude":-118.41004,"reserved":0,"last_update":"0001-01-01T00:00:00Z","name_a2s":"Uncletopia | Los Angeles | 1 | All Maps","protocol":17,"map":"pl_swiftwater_final1","folder":"tf","game":"Team Fortress","app_id":440,"player_count":24,"max_players":24,"Bots":0,"server_type":"Dedicated","server_os":"Linux","password":true,"vac":true,"version":"7723704","steam_id":85568392924469991,"keywords":["nocrits","nodmgspread","payload","uncletopia"],"game_id":440,"stv_port":27016,"stv_name":"Uncletopia | Los Angeles | 1 | All Maps | STV","players":[{"user_id":79,"name":"jennco","steam_id":76561198212421513,"connected_time":1308000000000,"state":"active","ping":48},{"user_id":86,"name":"A Lost CAWs","steam_id":76561198127120212,"connected_time":1228000000000,"state":"active","ping":133},{"user_id":76,"name":"MarshallMellows","steam_id":76561198231561020,"connected_time":2095000000000,"state":"active","ping":65},{"user_id":80,"name":"Dark_Eagle","steam_id":76561198397908108,"connected_time":1288000000000,"state":"active","ping":80},{"user_id":81,"name":"SpheeKy","steam_id":76561198143214132,"connected_time":1288000000000,"state":"active","ping":64},{"user_id":83,"name":"deathcrawler555","steam_id":76561199223348716,"connected_time":1260000000000,"state":"active","ping":77},{"user_id":102,"name":"guy","steam_id":76561198196443262,"connected_time":186000000000,"state":"active","ping":74},{"user_id":61,"name":"eyeball","steam_id":76561198307697528,"connected_time":3356000000000,"state":"active","ping":46},{"user_id":85,"name":"S p a f f y","steam_id":76561198047892151,"connected_time":1244000000000,"state":"active","ping":51},{"user_id":87,"name":"Altruisticailuridae","steam_id":76561198335295596,"connected_time":1221000000000,"state":"active","ping":52},{"user_id":91,"name":"sfee","steam_id":76561198348104431,"connected_time":1177000000000,"state":"active","ping":70},{"user_id":89,"name":"Jack0Lantern","steam_id":76561198312419009,"connected_time":1211000000000,"state":"active","ping":67},{"user_id":56,"name":"oph","steam_id":76561198342480009,"connected_time":3614000000000,"state":"active","ping":54},{"user_id":100,"name":"Bubbamanme","steam_id":76561198119778504,"connected_time":889000000000,"state":"active","ping":75},{"user_id":101,"name":"super dood","steam_id":76561198449152933,"connected_time":307000000000,"state":"active","ping":83},{"user_id":93,"name":"Leader of the 7 inch gang","steam_id":76561198255481836,"connected_time":1174000000000,"state":"active","ping":63},{"user_id":94,"name":"Dat Boi","steam_id":76561198165068790,"connected_time":1169000000000,"state":"active","ping":73},{"user_id":95,"name":"charcoal","steam_id":76561198356860204,"connected_time":1154000000000,"state":"active","ping":79},{"user_id":96,"name":"Coolshroomish","steam_id":76561199109440924,"connected_time":1143000000000,"state":"active","ping":80},{"user_id":97,"name":"marypmpearingokscotland","steam_id":76561198357746641,"connected_time":1140000000000,"state":"active","ping":56},{"user_id":98,"name":"femcel larper","steam_id":76561198166827208,"connected_time":1133000000000,"state":"active","ping":77},{"user_id":65,"name":"Shew","steam_id":76561198054332468,"connected_time":3195000000000,"state":"active","ping":60},{"user_id":99,"name":"Mem","steam_id":76561198170391715,"connected_time":1129000000000,"state":"active","ping":96},{"user_id":103,"name":"Daveonimus","steam_id":76561198169240269,"connected_time":165000000000,"state":"active","ping":102}]},{"server_id":112,"name":"Uncletopia | Los Angeles | 2 | All Maps","name_short":"lax-2","host":"lax-1.us.uncletopia.com","port":27025,"enabled":true,"region":"us-west","cc":"us","latitude":33.94279,"longitude":-118.41004,"reserved":0,"last_update":"0001-01-01T00:00:00Z","name_a2s":"Uncletopia | Los Angeles | 2 | All Maps","protocol":17,"map":"koth_viaduct","folder":"tf","game":"Team Fortress","app_id":440,"player_count":0,"max_players":24,"Bots":0,"server_type":"Dedicated","server_os":"Linux","password":true,"vac":true,"version":"7723704","steam_id":85568392924469992,"keywords":["cp","nocrits","nodmgspread","uncletopia"],"game_id":440,"stv_port":27026,"stv_name":"Uncletopia | Los Angeles | 2 | All Maps | STV","players":null},{"server_id":324,"name":"Uncletopia | Los Angeles | 3 | All Maps","name_short":"lax-3","host":"lax-1.us.uncletopia.com","port":27035,"enabled":true,"region":"us-west","cc":"us","latitude":33.94279,"longitude":-118.41004,"reserved":0,"last_update":"0001-01-01T00:00:00Z","name_a2s":"Uncletopia | Los Angeles | 3 | All Maps","protocol":17,"map":"koth_viaduct","folder":"tf","game":"Team Fortress","app_id":440,"player_count":0,"max_players":24,"Bots":0,"server_type":"Dedicated","server_os":"Linux","password":true,"vac":true,"version":"7723704","steam_id":85568392924510198,"keywords":["cp","nocrits","nodmgspread","uncletopia"],"game_id":440,"stv_port":27036,"stv_name":"Uncletopia | Los Angeles | 3 | All Maps | STV","players":null},{"server_id":25,"name":"Uncletopia | Los Angeles | 4 | Stopwatch Beta","name_short":"lax-4","host":"lax-1.us.uncletopia.com","port":27045,"enabled":true,"region":"us-west","cc":"us","latitude":33.94279,"longitude":-118.41004,"reserved":0,"last_update":"0001-01-01T00:00:00Z","name_a2s":"Uncletopia | Los Angeles | 4 | Stopwatch Beta","protocol":17,"map":"cp_sunshine","folder":"tf","game":"Team Fortress","app_id":440,"player_count":2,"max_players":24,"Bots":0,"server_type":"Dedicated","server_os":"Linux","password":true,"vac":true,"version":"7723704","steam_id":85568392924510199,"keywords":["cp","nocrits","nodmgspread","uncletopia"],"game_id":440,"stv_port":27046,"stv_name":"Uncletopia | Los Angeles | 4 | Stopwatch Beta | STV","players":[{"user_id":6,"name":"Sputnix","steam_id":76561198236857310,"connected_time":59000000000,"state":"active","ping":90},{"user_id":7,"name":"22' x-max cratex","steam_id":76561198251054454,"connected_time":39000000000,"state":"active","ping":92}]},{"server_id":11,"name":"Uncletopia | London | 1 | All Maps","name_short":"lon-1","host":"lon-1.uk.uncletopia.com","port":27015,"enabled":true,"region":"eu","cc":"gb","latitude":51.509865,"longitude":-0.118092,"reserved":0,"last_update":"0001-01-01T00:00:00Z","name_a2s":"Uncletopia | London | 1 | All Maps","protocol":17,"map":"koth_harvest_final","folder":"tf","game":"Team Fortress","app_id":440,"player_count":24,"max_players":24,"Bots":0,"server_type":"Dedicated","server_os":"Linux","password":true,"vac":true,"version":"7723704","steam_id":85568392924367362,"keywords":["cp","nocrits","nodmgspread","uncletopia"],"game_id":440,"stv_port":27016,"stv_name":"Uncletopia | London | 1 | All Maps | STV","players":[{"user_id":668,"name":"gnarly business","steam_id":76561198832688767,"connected_time":4507000000000,"state":"active","ping":48},{"user_id":670,"name":"merry beebo","steam_id":76561199120277007,"connected_time":3662000000000,"state":"active","ping":46},{"user_id":647,"name":"chrissymas","steam_id":76561198096547662,"connected_time":7506000000000,"state":"active","ping":49},{"user_id":662,"name":"‚ô•‡∂ûlily‡∂û‚ô•merry mongus!\ufffd\ufffd","steam_id":76561198049840460,"connected_time":5597000000000,"state":"active","ping":52},{"user_id":655,"name":"Festdoktor","steam_id":76561198058159271,"connected_time":7160000000000,"state":"active","ping":69},{"user_id":638,"name":"KPhii","steam_id":76561198970587061,"connected_time":8791000000000,"state":"active","ping":59},{"user_id":656,"name":"Morno","steam_id":76561198028519110,"connected_time":6797000000000,"state":"active","ping":47},{"user_id":680,"name":"Rezkey","steam_id":76561198206079048,"connected_time":2828000000000,"state":"active","ping":58},{"user_id":669,"name":"Festive Yuletart","steam_id":76561198023918830,"connected_time":3687000000000,"state":"active","ping":44},{"user_id":696,"name":"Seku","steam_id":76561198084157393,"connected_time":740000000000,"state":"active","ping":58},{"user_id":698,"name":"kira","steam_id":76561198894722441,"connected_time":696000000000,"state":"active","ping":85},{"user_id":646,"name":"SOPHIIEE","steam_id":76561198443798981,"connected_time":7527000000000,"state":"active","ping":55},{"user_id":693,"name":"Yelowchy","steam_id":76561198199416121,"connected_time":1443000000000,"state":"active","ping":90},{"user_id":681,"name":"No Status","steam_id":76561198119526557,"connected_time":2774000000000,"state":"active","ping":40},{"user_id":682,"name":"ned01","steam_id":76561198351845599,"connected_time":2289000000000,"state":"active","ping":56},{"user_id":650,"name":"Bones","steam_id":76561198065081225,"connected_time":7257000000000,"state":"active","ping":46},{"user_id":562,"name":"Mango","steam_id":76561198139555709,"connected_time":16321000000000,"state":"active","ping":54},{"user_id":695,"name":".i.Fidel Castro","steam_id":76561198302303092,"connected_time":758000000000,"state":"active","ping":74},{"user_id":694,"name":"ghost","steam_id":76561198189940229,"connected_time":1377000000000,"state":"active","ping":50},{"user_id":685,"name":"girl that stinks good","steam_id":76561198049448473,"connected_time":1614000000000,"state":"active","ping":78},{"user_id":683,"name":"trans werewolf","steam_id":76561198107235989,"connected_time":2228000000000,"state":"active","ping":67},{"user_id":653,"name":"LarsInABox","steam_id":76561198028329262,"connected_time":7183000000000,"state":"active","ping":75},{"user_id":664,"name":"Merry Ketamine","steam_id":76561198073769916,"connected_time":4778000000000,"state":"active","ping":54},{"user_id":667,"name":"Chloemew | TFConnect 2022!","steam_id":76561198042071762,"connected_time":4531000000000,"state":"active","ping":45}]},{"server_id":114,"name":"Uncletopia | London | 2 | All Maps","name_short":"lon-2","host":"lon-1.uk.uncletopia.com","port":27025,"enabled":true,"region":"eu","cc":"gb","latitude":51.509865,"longitude":-0.118092,"reserved":0,"last_update":"0001-01-01T00:00:00Z","name_a2s":"Uncletopia | London | 2 | All Maps","protocol":17,"map":"pl_borneo","folder":"tf","game":"Team Fortress","app_id":440,"player_count":24,"max_players":24,"Bots":0,"server_type":"Dedicated","server_os":"Linux","password":true,"vac":true,"version":"7723704","steam_id":85568392924470941,"keywords":["nocrits","nodmgspread","payload","uncletopia"],"game_id":440,"stv_port":27026,"stv_name":"Uncletopia | London | 2 | All Maps | STV","players":[{"user_id":697,"name":"Chicanery","steam_id":76561198068213670,"connected_time":1392000000000,"state":"active","ping":59},{"user_id":660,"name":"giclure :;","steam_id":76561197986362828,"connected_time":2334000000000,"state":"active","ping":92},{"user_id":642,"name":"MAKENTAKEN","steam_id":76561199127359587,"connected_time":4585000000000,"state":"active","ping":91},{"user_id":683,"name":"HEAGO","steam_id":76561198082632365,"connected_time":1698000000000,"state":"active","ping":52},{"user_id":699,"name":"Dwevy","steam_id":76561198090379437,"connected_time":294000000000,"state":"active","ping":43},{"user_id":702,"name":"Hemorroid cream","steam_id":76561198064513206,"connected_time":52000000000,"state":"active","ping":55},{"user_id":690,"name":"Doughy","steam_id":76561198044084210,"connected_time":1485000000000,"state":"active","ping":63},{"user_id":663,"name":"redder","steam_id":76561198168231617,"connected_time":2194000000000,"state":"active","ping":44},{"user_id":680,"name":"TheGreenWolf","steam_id":76561198170607033,"connected_time":1748000000000,"state":"active","ping":68},{"user_id":688,"name":"UltimateSlayer","steam_id":76561198384109309,"connected_time":1545000000000,"state":"active","ping":59},{"user_id":677,"name":"Frazzles","steam_id":76561199228009586,"connected_time":1871000000000,"state":"active","ping":48},{"user_id":703,"name":"silves","steam_id":76561198106407598,"connected_time":51000000000,"state":"active","ping":60},{"user_id":645,"name":"gamer man","steam_id":76561198436817109,"connected_time":4007000000000,"state":"active","ping":50},{"user_id":621,"name":"Proto-arc","steam_id":76561198012776747,"connected_time":6994000000000,"state":"active","ping":52},{"user_id":704,"name":"w√∂rb","steam_id":76561198159517104,"connected_time":20000000000,"state":"spawning","ping":89},{"user_id":689,"name":"aph","steam_id":76561198057722639,"connected_time":1529000000000,"state":"active","ping":74},{"user_id":700,"name":"3st bl0ke","steam_id":76561198012526576,"connected_time":79000000000,"state":"active","ping":48},{"user_id":692,"name":"ciliorkun18","steam_id":76561198228942500,"connected_time":1471000000000,"state":"active","ping":90},{"user_id":701,"name":"Scarlet","steam_id":76561198075966579,"connected_time":78000000000,"state":"active","ping":45},{"user_id":674,"name":"KillerQueen (he/they/she)","steam_id":76561199019399725,"connected_time":1950000000000,"state":"active","ping":45},{"user_id":695,"name":"Ork Biotechnologist Z","steam_id":76561198259613731,"connected_time":1425000000000,"state":"active","ping":64},{"user_id":675,"name":"jankomit","steam_id":76561198043024857,"connected_time":1946000000000,"state":"active","ping":83},{"user_id":631,"name":"the scunge","steam_id":76561198089201193,"connected_time":6443000000000,"state":"active","ping":60},{"user_id":696,"name":"Dwergman","steam_id":76561199429553752,"connected_time":1415000000000,"state":"active","ping":52}]},{"server_id":320,"name":"Uncletopia | London | 3 | All Maps","name_short":"lon-3","host":"lon-1.uk.uncletopia.com","port":27035,"enabled":true,"region":"eu","cc":"gb","latitude":51.509865,"longitude":-0.118092,"reserved":0,"last_update":"0001-01-01T00:00:00Z","name_a2s":"Uncletopia | London | 3 | All Maps","protocol":17,"map":"koth_badlands","folder":"tf","game":"Team Fortress","app_id":440,"player_count":0,"max_players":24,"Bots":0,"server_type":"Dedicated","server_os":"Linux","password":true,"vac":true,"version":"7723704","steam_id":85568392924510192,"keywords":["cp","nocrits","nodmgspread","uncletopia"],"game_id":440,"stv_port":27036,"stv_name":"Uncletopia | London | 3 | All Maps | STV","players":null},{"server_id":321,"name":"Uncletopia | London | 4 | All Maps","name_short":"lon-4","host":"lon-1.uk.uncletopia.com","port":27045,"enabled":true,"region":"eu","cc":"gb","latitude":51.509865,"longitude":-0.118092,"reserved":0,"last_update":"0001-01-01T00:00:00Z","name_a2s":"Uncletopia | London | 4 | All Maps","protocol":17,"map":"pl_snowycoast","folder":"tf","game":"Team Fortress","app_id":440,"player_count":0,"max_players":24,"Bots":0,"server_type":"Dedicated","server_os":"Linux","password":true,"vac":true,"version":"7723704","steam_id":85568392924510193,"keywords":["nocrits","nodmgspread","payload","uncletopia"],"game_id":440,"stv_port":27046,"stv_name":"Uncletopia | London | 4 | All Maps | STV","players":null},{"server_id":21,"name":"Uncletopia | London | 5 | All Maps","name_short":"lon-5","host":"lon-1.uk.uncletopia.com","port":27055,"enabled":true,"region":"eu","cc":"gb","latitude":51.509865,"longitude":-0.118092,"reserved":0,"last_update":"0001-01-01T00:00:00Z","name_a2s":"Uncletopia | London | 5 | All Maps","protocol":17,"map":"pl_swiftwater_final1","folder":"tf","game":"Team Fortress","app_id":440,"player_count":0,"max_players":24,"Bots":0,"server_type":"Dedicated","server_os":"Linux","password":true,"vac":true,"version":"7723704","steam_id":85568392924742829,"keywords":["nocrits","nodmgspread","payload","uncletopia"],"game_id":440,"stv_port":27056,"stv_name":"Uncletopia | London | 5 | All Maps | STV","players":null},{"server_id":22,"name":"Uncletopia | London | 6 | All Maps","name_short":"lon-6","host":"lon-1.uk.uncletopia.com","port":27065,"enabled":true,"region":"eu","cc":"gb","latitude":51.509865,"longitude":-0.118092,"reserved":0,"last_update":"0001-01-01T00:00:00Z","name_a2s":"Uncletopia | London | 6 | All Maps","protocol":17,"map":"cp_steel","folder":"tf","game":"Team Fortress","app_id":440,"player_count":5,"max_players":24,"Bots":0,"server_type":"Dedicated","server_os":"Linux","password":true,"vac":true,"version":"7723704","steam_id":85568392924742830,"keywords":["cp","nocrits","nodmgspread","uncletopia"],"game_id":440,"stv_port":27066,"stv_name":"Uncletopia | London | 6 | All Maps | STV","players":[{"user_id":32,"name":"MG TF 2004!","steam_id":76561198042975907,"connected_time":1201000000000,"state":"active","ping":48},{"user_id":37,"name":"ratsnrats","steam_id":76561199187258021,"connected_time":801000000000,"state":"active","ping":38},{"user_id":34,"name":"random_player691","steam_id":76561199209946306,"connected_time":950000000000,"state":"active","ping":59},{"user_id":43,"name":"spud Johnson (fake)","steam_id":76561199380974466,"connected_time":222000000000,"state":"active","ping":86},{"user_id":39,"name":"Mike Ehrmantraut","steam_id":76561198082446459,"connected_time":691000000000,"state":"active","ping":65}]},{"server_id":40,"name":"Uncletopia | London | 7 | No Payload","name_short":"lon-7","host":"lon-1.uk.uncletopia.com","port":27075,"enabled":true,"region":"eu","cc":"gb","latitude":51.509865,"longitude":-0.118092,"reserved":0,"last_update":"0001-01-01T00:00:00Z","name_a2s":"Uncletopia | London | 7 | No Payload","protocol":17,"map":"koth_lazarus","folder":"tf","game":"Team Fortress","app_id":440,"player_count":0,"max_players":24,"Bots":0,"server_type":"Dedicated","server_os":"Linux","password":true,"vac":true,"version":"7723704","steam_id":85568392924964314,"keywords":["cp","nocrits","nodmgspread","uncletopia"],"game_id":440,"stv_port":27076,"stv_name":"Uncletopia | London | 7 | No Payload | STV","players":null},{"server_id":41,"name":"Uncletopia | London | 8 | Community","name_short":"lon-8","host":"lon-1.uk.uncletopia.com","port":27085,"enabled":true,"region":"eu","cc":"gb","latitude":51.509865,"longitude":-0.118092,"reserved":0,"last_update":"0001-01-01T00:00:00Z","name_a2s":"Uncletopia | London | 8 | Community","protocol":17,"map":"workshop/koth_bagel_rc5.ugc2514036946","folder":"tf","game":"Team Fortress","app_id":440,"player_count":0,"max_players":24,"Bots":0,"server_type":"Dedicated","server_os":"Linux","password":true,"vac":true,"version":"7723704","steam_id":85568392924964315,"keywords":["cp","nocrits","nodmgspread","uncletopia"],"game_id":440,"stv_port":27086,"stv_name":"Uncletopia | London | 8 | Community | STV","players":null},{"server_id":300,"name":"Uncletopia | Montr√©al | 1 | All Maps","name_short":"mtl-1","host":"mtl-1.ca.uncletopia.com","port":27015,"enabled":true,"region":"us-east","cc":"ca","latitude":45.50889,"longitude":-73.56167,"reserved":0,"last_update":"0001-01-01T00:00:00Z","name_a2s":"Uncletopia | Montr√©al | 1 | All Maps","protocol":17,"map":"pl_snowycoast","folder":"tf","game":"Team Fortress","app_id":440,"player_count":0,"max_players":24,"Bots":0,"server_type":"Dedicated","server_os":"Linux","password":true,"vac":true,"version":"7723704","steam_id":85568392924500087,"keywords":["nocrits","nodmgspread","payload","uncletopia"],"game_id":440,"stv_port":27016,"stv_name":"Uncletopia | Montr√©al | 1 | All Maps | STV","players":null},{"server_id":301,"name":"Uncletopia | Montr√©al | 2 | All Maps","name_short":"mtl-2","host":"mtl-1.ca.uncletopia.com","port":27025,"enabled":true,"region":"us-east","cc":"ca","latitude":45.50889,"longitude":-73.56167,"reserved":0,"last_update":"0001-01-01T00:00:00Z","name_a2s":"Uncletopia | Montr√©al | 2 | All Maps","protocol":17,"map":"pl_badwater","folder":"tf","game":"Team Fortress","app_id":440,"player_count":0,"max_players":24,"Bots":0,"server_type":"Dedicated","server_os":"Linux","password":true,"vac":true,"version":"7723704","steam_id":85568392924500088,"keywords":["nocrits","nodmgspread","payload","uncletopia"],"game_id":440,"stv_port":27026,"stv_name":"Uncletopia | Montr√©al | 2 | All Maps | STV","players":null},{"server_id":302,"name":"Uncletopia | Montr√©al | 3 | All Maps","name_short":"mtl-3","host":"mtl-1.ca.uncletopia.com","port":27035,"enabled":true,"region":"us-east","cc":"ca","latitude":45.50889,"longitude":-73.56167,"reserved":0,"last_update":"0001-01-01T00:00:00Z","name_a2s":"Uncletopia | Montr√©al | 3 | All Maps","protocol":17,"map":"pl_barnblitz","folder":"tf","game":"Team Fortress","app_id":440,"player_count":0,"max_players":24,"Bots":0,"server_type":"Dedicated","server_os":"Linux","password":true,"vac":true,"version":"7723704","steam_id":85568392924500089,"keywords":["nocrits","nodmgspread","payload","uncletopia"],"game_id":440,"stv_port":27036,"stv_name":"Uncletopia | Montr√©al | 3 | All Maps | STV","players":null},{"server_id":303,"name":"Uncletopia | Montr√©al | 4 | No Payload","name_short":"mtl-4","host":"mtl-1.ca.uncletopia.com","port":27045,"enabled":true,"region":"us-east","cc":"ca","latitude":45.50889,"longitude":-73.56167,"reserved":0,"last_update":"0001-01-01T00:00:00Z","name_a2s":"Uncletopia | Montr√©al | 4 | No Payload","protocol":17,"map":"koth_cascade","folder":"tf","game":"Team Fortress","app_id":440,"player_count":0,"max_players":24,"Bots":0,"server_type":"Dedicated","server_os":"Linux","password":true,"vac":true,"version":"7723704","steam_id":85568392924500090,"keywords":["cp","nocrits","nodmgspread","uncletopia"],"game_id":440,"stv_port":27046,"stv_name":"Uncletopia | Montr√©al | 4 | No Payload | STV","players":null},{"server_id":13,"name":"Uncletopia | New York City | 1 | All Maps","name_short":"nyc-1","host":"nyc-1.us.uncletopia.com","port":27015,"enabled":true,"region":"us-east","cc":"us","latitude":40.73061,"longitude":-73.93524,"reserved":0,"last_update":"0001-01-01T00:00:00Z","name_a2s":"Uncletopia | New York City | 1 | All Maps","protocol":17,"map":"pl_pier","folder":"tf","game":"Team Fortress","app_id":440,"player_count":5,"max_players":24,"Bots":0,"server_type":"Dedicated","server_os":"Linux","password":true,"vac":true,"version":"7723704","steam_id":85568392924469993,"keywords":["nocrits","nodmgspread","payload","uncletopia"],"game_id":440,"stv_port":27016,"stv_name":"Uncletopia | New York City | 1 | All Maps | STV","players":[{"user_id":40,"name":"Adolf Diddler","steam_id":76561198178714086,"connected_time":961000000000,"state":"active","ping":87},{"user_id":42,"name":"ShaqtusHD","steam_id":76561199138286233,"connected_time":161000000000,"state":"active","ping":51},{"user_id":43,"name":"Qwegg","steam_id":76561198205510383,"connected_time":33000000000,"state":"spawning","ping":50},{"user_id":44,"name":"ratio","steam_id":76561198122059018,"connected_time":22000000000,"state":"active","ping":66},{"user_id":45,"name":"L","steam_id":76561198067556825,"connected_time":10000000000,"state":"spawning","ping":91}]},{"server_id":14,"name":"Uncletopia | New York City | 2 | All Maps","name_short":"nyc-2","host":"nyc-1.us.uncletopia.com","port":27025,"enabled":true,"region":"us-east","cc":"us","latitude":40.73061,"longitude":-73.93524,"reserved":0,"last_update":"0001-01-01T00:00:00Z","name_a2s":"Uncletopia | New York City | 2 | All Maps","protocol":17,"map":"pl_pier","folder":"tf","game":"Team Fortress","app_id":440,"player_count":0,"max_players":24,"Bots":0,"server_type":"Dedicated","server_os":"Linux","password":true,"vac":true,"version":"7723704","steam_id":85568392924469994,"keywords":["nocrits","nodmgspread","payload","uncletopia"],"game_id":440,"stv_port":27026,"stv_name":"Uncletopia | New York City | 2 | All Maps | STV","players":null},{"server_id":15,"name":"Uncletopia | New York City | 3 | Stopwatch Beta","name_short":"nyc-3","host":"nyc-1.us.uncletopia.com","port":27035,"enabled":true,"region":"us-east","cc":"us","latitude":40.73061,"longitude":-73.93524,"reserved":0,"last_update":"0001-01-01T00:00:00Z","name_a2s":"Uncletopia | New York City | 3 | Stopwatch Beta","protocol":17,"map":"cp_sunshine","folder":"tf","game":"Team Fortress","app_id":440,"player_count":0,"max_players":24,"Bots":0,"server_type":"Dedicated","server_os":"Linux","password":true,"vac":true,"version":"7723704","steam_id":85568392924742820,"keywords":["cp","nocrits","nodmgspread","uncletopia"],"game_id":440,"stv_port":27036,"stv_name":"Uncletopia | New York City | 3 | Stopwatch Beta | STV","players":null},{"server_id":16,"name":"Uncletopia | New York City | 4 | Community","name_short":"nyc-4","host":"nyc-1.us.uncletopia.com","port":27045,"enabled":true,"region":"us-east","cc":"us","latitude":40.73061,"longitude":-73.93524,"reserved":0,"last_update":"0001-01-01T00:00:00Z","name_a2s":"Uncletopia | New York City | 4 | Community","protocol":17,"map":"workshop/cp_sulfur_rc2.ugc619869471","folder":"tf","game":"Team Fortress","app_id":440,"player_count":0,"max_players":24,"Bots":0,"server_type":"Dedicated","server_os":"Linux","password":true,"vac":true,"version":"7723704","steam_id":85568392924742821,"keywords":["cp","nocrits","nodmgspread","uncletopia"],"game_id":440,"stv_port":27046,"stv_name":"Uncletopia | New York City | 4 | Community | STV","players":null},{"server_id":142,"name":"Uncletopia | S√£o Paulo | 1 | All Maps","name_short":"sao-1","host":"sao-1.br.uncletopia.com","port":27015,"enabled":true,"region":"sa","cc":"br","latitude":-23.533773,"longitude":-46.62529,"reserved":0,"last_update":"0001-01-01T00:00:00Z","name_a2s":"Uncletopia | S√£o Paulo | 1 | All Maps","protocol":17,"map":"pl_upward","folder":"tf","game":"Team Fortress","app_id":440,"player_count":0,"max_players":24,"Bots":0,"server_type":"Dedicated","server_os":"Linux","password":true,"vac":true,"version":"7723704","steam_id":85568392924469996,"keywords":["nocrits","nodmgspread","payload","uncletopia"],"game_id":440,"stv_port":27016,"stv_name":"Uncletopia | S√£o Paulo | 1 | All Maps | STV","players":null},{"server_id":143,"name":"Uncletopia | S√£o Paulo | 2 | All Maps","name_short":"sao-2","host":"sao-2.br.uncletopia.com","port":27015,"enabled":true,"region":"sa","cc":"br","latitude":-23.533773,"longitude":-46.62529,"reserved":0,"last_update":"0001-01-01T00:00:00Z","name_a2s":"Uncletopia | S√£o Paulo | 2 | All Maps","protocol":17,"map":"koth_viaduct","folder":"tf","game":"Team Fortress","app_id":440,"player_count":2,"max_players":24,"Bots":0,"server_type":"Dedicated","server_os":"Linux","password":true,"vac":true,"version":"7723704","steam_id":85568392924485349,"keywords":["cp","nocrits","nodmgspread","uncletopia"],"game_id":440,"stv_port":27016,"stv_name":"Uncletopia | S√£o Paulo | 2 | All Maps | STV","players":[{"user_id":15,"name":"Queso Crema","steam_id":76561198842538871,"connected_time":90000000000,"state":"active","ping":62},{"user_id":17,"name":"dulce de leche","steam_id":76561199158907231,"connected_time":52000000000,"state":"active","ping":79}]},{"server_id":7,"name":"Uncletopia | Seattle | 1 | All Maps","name_short":"sea-1","host":"sea-1.us.uncletopia.com","port":27015,"enabled":true,"region":"us-west","cc":"us","latitude":47.608013,"longitude":-122.33517,"reserved":0,"last_update":"0001-01-01T00:00:00Z","name_a2s":"Uncletopia | Seattle | 1 | All Maps","protocol":17,"map":"pl_pier","folder":"tf","game":"Team Fortress","app_id":440,"player_count":25,"max_players":24,"Bots":0,"server_type":"Dedicated","server_os":"Linux","password":true,"vac":true,"version":"7723704","steam_id":85568392924469997,"keywords":["nocrits","nodmgspread","payload","uncletopia"],"game_id":440,"stv_port":27016,"stv_name":"Uncletopia | Seattle | 1 | All Maps | STV","players":[{"user_id":528,"name":"GasNarr","steam_id":76561198027807933,"connected_time":159000000000,"state":"active","ping":58},{"user_id":430,"name":"Disco Chewbacca","steam_id":76561198004324301,"connected_time":2486000000000,"state":"active","ping":46},{"user_id":427,"name":"tophawkyy","steam_id":76561199075934685,"connected_time":2539000000000,"state":"active","ping":81},{"user_id":400,"name":"RecklessRoadRage","steam_id":76561199089562026,"connected_time":4664000000000,"state":"active","ping":46},{"user_id":467,"name":"lil uzi vertical","steam_id":76561198170669082,"connected_time":1281000000000,"state":"active","ping":97},{"user_id":414,"name":"shane","steam_id":76561198060491451,"connected_time":3747000000000,"state":"active","ping":86},{"user_id":445,"name":"breadBREH","steam_id":76561199260475539,"connected_time":1758000000000,"state":"active","ping":40},{"user_id":394,"name":"eraser cat","steam_id":76561199045570463,"connected_time":5298000000000,"state":"active","ping":43},{"user_id":458,"name":"Greskrendtregk","steam_id":76561197969553142,"connected_time":1475000000000,"state":"active","ping":53},{"user_id":453,"name":"gnome","steam_id":76561198262275475,"connected_time":1510000000000,"state":"active","ping":124},{"user_id":356,"name":"a crazy hobo","steam_id":76561198289650060,"connected_time":7915000000000,"state":"active","ping":76},{"user_id":508,"name":"soup","steam_id":76561198043209046,"connected_time":618000000000,"state":"active","ping":73},{"user_id":443,"name":"CSharp","steam_id":76561199185191710,"connected_time":1828000000000,"state":"active","ping":135},{"user_id":471,"name":"Saint Laurent Don","steam_id":76561198116820706,"connected_time":1247000000000,"state":"active","ping":50},{"user_id":460,"name":"KellyKapoor","steam_id":76561198040828123,"connected_time":1445000000000,"state":"active","ping":52},{"user_id":419,"name":"resting neutral face","steam_id":76561197999259502,"connected_time":3654000000000,"state":"active","ping":60},{"user_id":438,"name":"C780","steam_id":76561198967713719,"connected_time":2014000000000,"state":"active","ping":80},{"user_id":463,"name":"Federico","steam_id":76561198411873065,"connected_time":1370000000000,"state":"active","ping":113},{"user_id":534,"name":"MidgetFeats","steam_id":76561198044248113,"connected_time":2000000000,"state":"spawning","ping":57},{"user_id":432,"name":"Raian","steam_id":76561199138048671,"connected_time":2464000000000,"state":"active","ping":71},{"user_id":456,"name":"sweaterfan","steam_id":76561199389567214,"connected_time":1493000000000,"state":"active","ping":111},{"user_id":465,"name":"Tot4L Gridlock","steam_id":76561197999816631,"connected_time":1346000000000,"state":"active","ping":60},{"user_id":439,"name":"mumbles","steam_id":76561197994528974,"connected_time":1985000000000,"state":"active","ping":81},{"user_id":417,"name":"TimTam Tom","steam_id":76561198045988062,"connected_time":3734000000000,"state":"active","ping":99},{"user_id":440,"name":"Cloud","steam_id":76561198272454184,"connected_time":1971000000000,"state":"active","ping":172}]},{"server_id":119,"name":"Uncletopia | Seattle | 2 | All Maps","name_short":"sea-2","host":"sea-1.us.uncletopia.com","port":27025,"enabled":true,"region":"us-west","cc":"us","latitude":47.608013,"longitude":-122.33517,"reserved":0,"last_update":"0001-01-01T00:00:00Z","name_a2s":"Uncletopia | Seattle | 2 | All Maps","protocol":17,"map":"cp_dustbowl","folder":"tf","game":"Team Fortress","app_id":440,"player_count":0,"max_players":24,"Bots":0,"server_type":"Dedicated","server_os":"Linux","password":true,"vac":true,"version":"7723704","steam_id":85568392924469998,"keywords":["cp","nocrits","nodmgspread","uncletopia"],"game_id":440,"stv_port":27026,"stv_name":"Uncletopia | Seattle | 2 | All Maps | STV","players":null},{"server_id":406,"name":"Uncletopia | Seattle | 3 | Stopwatch Beta","name_short":"sea-3","host":"sea-1.us.uncletopia.com","port":27035,"enabled":true,"region":"us-west","cc":"us","latitude":47.608013,"longitude":-122.33517,"reserved":0,"last_update":"0001-01-01T00:00:00Z","name_a2s":"Uncletopia | Seattle | 3 | Stopwatch Beta","protocol":17,"map":"cp_altitude","folder":"tf","game":"Team Fortress","app_id":440,"player_count":0,"max_players":24,"Bots":0,"server_type":"Dedicated","server_os":"Linux","password":true,"vac":false,"version":"7723704","steam_id":0,"keywords":["cp","nocrits","nodmgspread","uncletopia"],"game_id":440,"stv_port":27036,"stv_name":"Uncletopia | Seattle | 3 | Stopwatch Beta | STV","players":null},{"server_id":17,"name":"Uncletopia | San Francisco | 1 | All Maps","name_short":"sfo-1","host":"sfo-1.us.uncletopia.com","port":27015,"enabled":true,"region":"us-west","cc":"us","latitude":37.77397,"longitude":-122.4313,"reserved":0,"last_update":"0001-01-01T00:00:00Z","name_a2s":"Uncletopia | San Francisco | 1 | All Maps","protocol":17,"map":"pl_swiftwater_final1","folder":"tf","game":"Team Fortress","app_id":440,"player_count":24,"max_players":24,"Bots":0,"server_type":"Dedicated","server_os":"Linux","password":true,"vac":true,"version":"7723704","steam_id":85568392924469999,"keywords":["nocrits","nodmgspread","payload","uncletopia"],"game_id":440,"stv_port":27016,"stv_name":"Uncletopia | San Francisco | 1 | All Maps | STV","players":[{"user_id":6,"name":"a cat plushie","steam_id":76561198080046542,"connected_time":1132000000000,"state":"active","ping":61},{"user_id":7,"name":"toodles","steam_id":76561198025463883,"connected_time":1054000000000,"state":"active","ping":71},{"user_id":8,"name":"dolphs","steam_id":76561198831972272,"connected_time":929000000000,"state":"active","ping":83},{"user_id":9,"name":"Orange bench","steam_id":76561198191269339,"connected_time":894000000000,"state":"active","ping":83},{"user_id":10,"name":"ramm","steam_id":76561199192289015,"connected_time":884000000000,"state":"active","ping":75},{"user_id":11,"name":"Chackie Jan","steam_id":76561199099907475,"connected_time":845000000000,"state":"active","ping":94},{"user_id":34,"name":"Drive-By-Fish-Guy","steam_id":76561198105513652,"connected_time":363000000000,"state":"active","ping":61},{"user_id":13,"name":"Elemental","steam_id":76561198255331873,"connected_time":764000000000,"state":"active","ping":49},{"user_id":14,"name":"lili.winters","steam_id":76561199391478575,"connected_time":758000000000,"state":"active","ping":79},{"user_id":35,"name":"LeFunnyMan","steam_id":76561199081645289,"connected_time":342000000000,"state":"active","ping":87},{"user_id":16,"name":"Alpharius","steam_id":76561197996284353,"connected_time":710000000000,"state":"active","ping":93},{"user_id":26,"name":"ASCII | Dr.keinmann","steam_id":76561198360305514,"connected_time":525000000000,"state":"active","ping":66},{"user_id":19,"name":"MR. MODE","steam_id":76561198046775352,"connected_time":671000000000,"state":"active","ping":45},{"user_id":37,"name":"Pastor Nick","steam_id":76561198301074064,"connected_time":184000000000,"state":"active","ping":113},{"user_id":36,"name":"dave strider","steam_id":76561198065112186,"connected_time":312000000000,"state":"active","ping":60},{"user_id":22,"name":"CubyGamez","steam_id":76561198189511915,"connected_time":620000000000,"state":"active","ping":144},{"user_id":23,"name":"Chirp","steam_id":76561198240780230,"connected_time":573000000000,"state":"active","ping":61},{"user_id":24,"name":"lime#9007","steam_id":76561198060895220,"connected_time":572000000000,"state":"active","ping":90},{"user_id":38,"name":"MarcyGengar","steam_id":76561198315829482,"connected_time":183000000000,"state":"active","ping":63},{"user_id":33,"name":"catscatechu","steam_id":76561198192500633,"connected_time":428000000000,"state":"active","ping":71},{"user_id":30,"name":"Kzjytsugn","steam_id":76561198130241974,"connected_time":456000000000,"state":"active","ping":63},{"user_id":31,"name":"facedatfatchat","steam_id":76561198335285125,"connected_time":445000000000,"state":"active","ping":72},{"user_id":32,"name":"‚Ä∫ Panik the Cat","steam_id":76561198050301260,"connected_time":443000000000,"state":"active","ping":53},{"user_id":39,"name":"Colonel Cockbreath","steam_id":76561198050582941,"connected_time":155000000000,"state":"active","ping":115}]},{"server_id":18,"name":"Uncletopia | San Francisco | 2 | All Maps","name_short":"sfo-2","host":"sfo-1.us.uncletopia.com","port":27025,"enabled":true,"region":"us-west","cc":"us","latitude":37.77397,"longitude":-122.4313,"reserved":0,"last_update":"0001-01-01T00:00:00Z","name_a2s":"Uncletopia | San Francisco | 2 | All Maps","protocol":17,"map":"pl_snowycoast","folder":"tf","game":"Team Fortress","app_id":440,"player_count":0,"max_players":24,"Bots":0,"server_type":"Dedicated","server_os":"Linux","password":true,"vac":true,"version":"7723704","steam_id":85568392924470000,"keywords":["nocrits","nodmgspread","payload","uncletopia"],"game_id":440,"stv_port":27026,"stv_name":"Uncletopia | San Francisco | 2 | All Maps | STV","players":null},{"server_id":19,"name":"Uncletopia | San Francisco | 3 | Stopwatch Beta","name_short":"sfo-3","host":"sfo-1.us.uncletopia.com","port":27035,"enabled":true,"region":"us-west","cc":"us","latitude":37.77397,"longitude":-122.4313,"reserved":0,"last_update":"0001-01-01T00:00:00Z","name_a2s":"Uncletopia | San Francisco | 3 | Stopwatch Beta","protocol":17,"map":"pl_pier","folder":"tf","game":"Team Fortress","app_id":440,"player_count":0,"max_players":24,"Bots":0,"server_type":"Dedicated","server_os":"Linux","password":true,"vac":true,"version":"7723704","steam_id":85568392924742824,"keywords":["nocrits","nodmgspread","payload","uncletopia"],"game_id":440,"stv_port":27036,"stv_name":"Uncletopia | San Francisco | 3 | Stopwatch Beta | STV","players":null},{"server_id":20,"name":"Uncletopia | San Francisco | 4 | Community","name_short":"sfo-4","host":"sfo-1.us.uncletopia.com","port":27045,"enabled":true,"region":"us-west","cc":"us","latitude":37.77397,"longitude":-122.4313,"reserved":0,"last_update":"0001-01-01T00:00:00Z","name_a2s":"Uncletopia | San Francisco | 4 | Community","protocol":17,"map":"workshop/pl_vigil_rc9.ugc1266210012","folder":"tf","game":"Team Fortress","app_id":440,"player_count":1,"max_players":24,"Bots":0,"server_type":"Dedicated","server_os":"Linux","password":true,"vac":true,"version":"7723704","steam_id":85568392924742826,"keywords":["nocrits","nodmgspread","payload","uncletopia"],"game_id":440,"stv_port":27046,"stv_name":"Uncletopia | San Francisco | 4 | Community | STV","players":[{"user_id":21,"name":"koahosoi","steam_id":76561198841743485,"connected_time":24000000000,"state":"active","ping":79}]},{"server_id":141,"name":"Uncletopia | Sydney | 1 | All Maps","name_short":"syd-1","host":"syd-1.au.uncletopia.com","port":27015,"enabled":true,"region":"au","cc":"au","latitude":-33.865143,"longitude":151.2099,"reserved":0,"last_update":"0001-01-01T00:00:00Z","name_a2s":"Uncletopia | Sydney | 1 | All Maps","protocol":17,"map":"pl_snowycoast","folder":"tf","game":"Team Fortress","app_id":440,"player_count":0,"max_players":24,"Bots":0,"server_type":"Dedicated","server_os":"Linux","password":true,"vac":true,"version":"7723704","steam_id":85568392924470001,"keywords":["nocrits","nodmgspread","payload","uncletopia"],"game_id":440,"stv_port":27016,"stv_name":"Uncletopia | Sydney | 1 | All Maps | STV","players":null},{"server_id":123,"name":"Uncletopia | Sydney | 2 | All Maps","name_short":"syd-2","host":"syd-1.au.uncletopia.com","port":27025,"enabled":true,"region":"au","cc":"au","latitude":-33.865143,"longitude":151.2099,"reserved":0,"last_update":"0001-01-01T00:00:00Z","name_a2s":"Uncletopia | Sydney | 2 | All Maps","protocol":17,"map":"cp_snakewater_final1","folder":"tf","game":"Team Fortress","app_id":440,"player_count":0,"max_players":24,"Bots":0,"server_type":"Dedicated","server_os":"Linux","password":true,"vac":true,"version":"7723704","steam_id":85568392924470002,"keywords":["cp","nocrits","nodmgspread","uncletopia"],"game_id":440,"stv_port":27026,"stv_name":"Uncletopia | Sydney | 2 | All Maps | STV","players":null},{"server_id":395,"name":"Uncletopia | Sydney | 3 | All Maps","name_short":"syd-3","host":"syd-1.au.uncletopia.com","port":27035,"enabled":true,"region":"au","cc":"au","latitude":-33.865143,"longitude":151.2099,"reserved":0,"last_update":"0001-01-01T00:00:00Z","name_a2s":"Uncletopia | Sydney | 3 | All Maps","protocol":17,"map":"pl_borneo","folder":"tf","game":"Team Fortress","app_id":440,"player_count":0,"max_players":24,"Bots":0,"server_type":"Dedicated","server_os":"Linux","password":true,"vac":true,"version":"7723704","steam_id":85568392925194467,"keywords":["nocrits","nodmgspread","payload","uncletopia"],"game_id":440,"stv_port":27036,"stv_name":"Uncletopia | Sydney | 3 | All Maps | STV","players":null},{"server_id":396,"name":"Uncletopia | Sydney | 4 | All Maps","name_short":"syd-4","host":"syd-1.au.uncletopia.com","port":27045,"enabled":true,"region":"au","cc":"au","latitude":-33.865143,"longitude":151.2099,"reserved":0,"last_update":"0001-01-01T00:00:00Z","name_a2s":"Uncletopia | Sydney | 4 | All Maps","protocol":17,"map":"pl_pier","folder":"tf","game":"Team Fortress","app_id":440,"player_count":0,"max_players":24,"Bots":0,"server_type":"Dedicated","server_os":"Linux","password":true,"vac":true,"version":"7723704","steam_id":85568392925397958,"keywords":["nocrits","nodmgspread","payload","uncletopia"],"game_id":440,"stv_port":27046,"stv_name":"Uncletopia | Sydney | 4 | All Maps | STV","players":null},{"server_id":58,"name":"Uncletopia | Sydney | 5 | Stopwatch Beta","name_short":"syd-5","host":"syd-1.au.uncletopia.com","port":27055,"enabled":true,"region":"au","cc":"au","latitude":-33.865143,"longitude":151.2099,"reserved":0,"last_update":"0001-01-01T00:00:00Z","name_a2s":"Uncletopia | Sydney | 5 | Stopwatch Beta","protocol":17,"map":"cp_altitude","folder":"tf","game":"Team Fortress","app_id":440,"player_count":0,"max_players":24,"Bots":0,"server_type":"Dedicated","server_os":"Linux","password":true,"vac":true,"version":"7723704","steam_id":85568392925397959,"keywords":["cp","nocrits","nodmgspread","uncletopia"],"game_id":440,"stv_port":27056,"stv_name":"Uncletopia | Sydney | 5 | Stopwatch Beta | STV","players":null},{"server_id":59,"name":"Uncletopia | Sydney | 6 | Community","name_short":"syd-6","host":"syd-1.au.uncletopia.com","port":27065,"enabled":true,"region":"au","cc":"au","latitude":-33.865143,"longitude":151.2099,"reserved":0,"last_update":"0001-01-01T00:00:00Z","name_a2s":"Uncletopia | Sydney | 6 | Community","protocol":17,"map":"pl_frontier_final","folder":"tf","game":"Team Fortress","app_id":440,"player_count":0,"max_players":24,"Bots":0,"server_type":"Dedicated","server_os":"Linux","password":true,"vac":true,"version":"7723704","steam_id":85568392925397960,"keywords":["nocrits","nodmgspread","payload","uncletopia"],"game_id":440,"stv_port":27066,"stv_name":"Uncletopia | Sydney | 6 | Community | STV","players":null},{"server_id":49,"name":"Uncletopia | Warsaw | 1 | All Maps","name_short":"waw-1","host":"waw-1.pl.uncletopia.com","port":27015,"enabled":true,"region":"eu","cc":"pl","latitude":52.2297,"longitude":21.017532,"reserved":0,"last_update":"0001-01-01T00:00:00Z","name_a2s":"Uncletopia | Warsaw | 1 | All Maps","protocol":17,"map":"koth_cascade","folder":"tf","game":"Team Fortress","app_id":440,"player_count":0,"max_players":24,"Bots":0,"server_type":"Dedicated","server_os":"Linux","password":true,"vac":true,"version":"7723704","steam_id":85568392925397850,"keywords":["cp","nocrits","nodmgspread","uncletopia"],"game_id":440,"stv_port":27016,"stv_name":"Uncletopia | Warsaw | 1 | All Maps | STV","players":null},{"server_id":50,"name":"Uncletopia | Warsaw | 2 | All Maps","name_short":"waw-2","host":"waw-1.pl.uncletopia.com","port":27025,"enabled":true,"region":"eu","cc":"pl","latitude":52.2297,"longitude":21.017532,"reserved":0,"last_update":"0001-01-01T00:00:00Z","name_a2s":"Uncletopia | Warsaw | 2 | All Maps","protocol":17,"map":"koth_viaduct","folder":"tf","game":"Team Fortress","app_id":440,"player_count":0,"max_players":24,"Bots":0,"server_type":"Dedicated","server_os":"Linux","password":true,"vac":true,"version":"7723704","steam_id":85568392925397851,"keywords":["cp","nocrits","nodmgspread","uncletopia"],"game_id":440,"stv_port":27026,"stv_name":"Uncletopia | Warsaw | 2 | All Maps | STV","players":null},{"server_id":51,"name":"Uncletopia | Warsaw | 3 | All Maps","name_short":"waw-3","host":"waw-1.pl.uncletopia.com","port":27035,"enabled":true,"region":"eu","cc":"pl","latitude":52.2297,"longitude":21.017532,"reserved":0,"last_update":"0001-01-01T00:00:00Z","name_a2s":"Uncletopia | Warsaw | 3 | All Maps","protocol":17,"map":"koth_viaduct","folder":"tf","game":"Team Fortress","app_id":440,"player_count":0,"max_players":24,"Bots":0,"server_type":"Dedicated","server_os":"Linux","password":true,"vac":true,"version":"7723704","steam_id":85568392925397852,"keywords":["cp","nocrits","nodmgspread","uncletopia"],"game_id":440,"stv_port":27036,"stv_name":"Uncletopia | Warsaw | 3 | All Maps | STV","players":null},{"server_id":52,"name":"Uncletopia | Warsaw | 4 | All Maps","name_short":"waw-4","host":"waw-1.pl.uncletopia.com","port":27045,"enabled":true,"region":"eu","cc":"pl","latitude":52.2297,"longitude":21.017532,"reserved":0,"last_update":"0001-01-01T00:00:00Z","name_a2s":"Uncletopia | Warsaw | 4 | All Maps","protocol":17,"map":"koth_viaduct","folder":"tf","game":"Team Fortress","app_id":440,"player_count":0,"max_players":24,"Bots":0,"server_type":"Dedicated","server_os":"Linux","password":true,"vac":true,"version":"7723704","steam_id":85568392925397853,"keywords":["cp","nocrits","nodmgspread","uncletopia"],"game_id":440,"stv_port":27046,"stv_name":"Uncletopia | Warsaw | 4 | All Maps | STV","players":null},{"server_id":53,"name":"Uncletopia | Warsaw | 5 | Stopwatch Beta","name_short":"waw-5","host":"waw-1.pl.uncletopia.com","port":27055,"enabled":true,"region":"eu","cc":"pl","latitude":52.2297,"longitude":21.017532,"reserved":0,"last_update":"0001-01-01T00:00:00Z","name_a2s":"Uncletopia | Warsaw | 5 | Stopwatch Beta","protocol":17,"map":"cp_sunshine","folder":"tf","game":"Team Fortress","app_id":440,"player_count":0,"max_players":24,"Bots":0,"server_type":"Dedicated","server_os":"Linux","password":true,"vac":true,"version":"7723704","steam_id":85568392925397854,"keywords":["cp","nocrits","nodmgspread","uncletopia"],"game_id":440,"stv_port":27056,"stv_name":"Uncletopia | Warsaw | 5 | Stopwatch Beta | STV","players":null},{"server_id":54,"name":"Uncletopia | Warsaw | 6 | Community","name_short":"waw-6","host":"waw-1.pl.uncletopia.com","port":27065,"enabled":true,"region":"eu","cc":"pl","latitude":52.2297,"longitude":21.017532,"reserved":0,"last_update":"0001-01-01T00:00:00Z","name_a2s":"Uncletopia | Warsaw | 6 | Community","protocol":17,"map":"workshop/koth_slaughter_rc1.ugc1712845210","folder":"tf","game":"Team Fortress","app_id":440,"player_count":0,"max_players":24,"Bots":0,"server_type":"Dedicated","server_os":"Linux","password":true,"vac":true,"version":"7723704","steam_id":85568392925397856,"keywords":["cp","nocrits","nodmgspread","uncletopia"],"game_id":440,"stv_port":27066,"stv_name":"Uncletopia | Warsaw | 6 | Community | STV","players":null}]}