{"status":true,"message":"","result":[{"server_id":9,"name":"Uncletopia | Atlanta | 1 | All Maps","name_short":"atl-1","host":"atl-1.us.uncletopia.com","port":27015,"enabled":true,"region":"us-east","cc":"us","latitude":33.753746,"longitude":-84.38633,"reserved":0,"last_update":"0001-01-01T00:00:00Z","name_a2s":"Uncletopia | Atlanta | 1 | All Maps","protocol":17,"map":"pl_borneo","folder":"tf","game":"Team Fortress","app_id":440,"player_count":24,"max_players":24,"Bots":0,"server_type":"Dedicated","server_os":"Linux","password":true,"vac":true,"version":"7757534","steam_id":85568392924469982,"keywords":["nocrits","nodmgspread","payload","uncletopia"],"game_id":440,"stv_port":27016,"stv_name":"Uncletopia | Atlanta | 1 | All Maps | STV","players":[{"user_id":592,"name":"NeoN","steam_id":76561198117608366,"connected_time":4692000000000,"state":"active","ping":56},{"user_id":607,"name":"THE HAVER OF SEX","steam_id":76561198840484105,"connected_time":2641000000000,"state":"active","ping":53},{"user_id":612,"name":"BIG HOG","steam_id":76561198079923652,"connected_time":1540000000000,"state":"active","ping":71},{"user_id":572,"name":"Jin","steam_id":76561198119873148,"connected_time":6864000000000,"state":"active","ping":64},{"user_id":571,"name":"Mufalito","steam_id":76561198951889482,"connected_time":7771000000000,"state":"active","ping":127},{"user_id":575,"name":"wire-guided","steam_id":76561198055407168,"connected_time":6628000000000,"state":"active","ping":56},{"user_id":594,"name":"Username","steam_id":76561199033122306,"connected_time":4434000000000,"state":"active","ping":59},{"user_id":586,"name":"Mythical Lag","steam_id":76561198347031281,"connected_time":5588000000000,"state":"active","ping":78},{"user_id":617,"name":"turtle","steam_id":76561198112673874,"connected_time":215000000000,"state":"active","ping":111},{"user_id":616,"name":"Towns","steam_id":76561198984662863,"connected_time":524000000000,"state":"active","ping":59},{"user_id":605,"name":"Aniz","steam_id":76561199226665024,"connected_time":3064000000000,"state":"active","ping":176},{"user_id":597,"name":"Moonglass Kaiju","steam_id":76561198043431819,"connected_time":3392000000000,"state":"active","ping":70},{"user_id":569,"name":"zpalmtree","steam_id":76561198134307620,"connected_time":7856000000000,"state":"active","ping":81},{"user_id":609,"name":"golly gee willikers","steam_id":76561198069407799,"connected_time":1873000000000,"state":"active","ping":48},{"user_id":596,"name":"Mage","steam_id":76561198285026879,"connected_time":3396000000000,"state":"active","ping":81},{"user_id":618,"name":"Nash","steam_id":76561198044192734,"connected_time":213000000000,"state":"active","ping":41},{"user_id":522,"name":"Nox(She/They)","steam_id":76561198141950842,"connected_time":15169000000000,"state":"active","ping":50},{"user_id":619,"name":"JerlBays","steam_id":76561198096773292,"connected_time":213000000000,"state":"active","ping":49},{"user_id":568,"name":"ash","steam_id":76561198127890645,"connected_time":8394000000000,"state":"active","ping":61},{"user_id":598,"name":"Cecilian","steam_id":76561198092582478,"connected_time":3390000000000,"state":"active","ping":72},{"user_id":610,"name":"Mr.Phil","steam_id":76561198042801033,"connected_time":1873000000000,"state":"active","ping":69},{"user_id":611,"name":"Ganja Bandit","steam_id":76561198875131601,"connected_time":1827000000000,"state":"active","ping":76},{"user_id":591,"name":"\u003c3lil hog\u003c3","steam_id":76561199230929836,"connected_time":4735000000000,"state":"active","ping":74},{"user_id":599,"name":"façade","steam_id":76561199157009256,"connected_time":3387000000000,"state":"active","ping":102}]},{"server_id":104,"name":"Uncletopia | Atlanta | 2 | All Maps","name_short":"atl-2","host":"atl-1.us.uncletopia.com","port":27025,"enabled":true,"region":"us-east","cc":"us","latitude":33.753746,"longitude":-84.38633,"reserved":0,"last_update":"0001-01-01T00:00:00Z","name_a2s":"Uncletopia | Atlanta | 2 | All Maps","protocol":17,"map":"cp_dustbowl","folder":"tf","game":"Team Fortress","app_id":440,"player_count":8,"max_players":24,"Bots":0,"server_type":"Dedicated","server_os":"Linux","password":true,"vac":true,"version":"7757534","steam_id":85568392924469983,"keywords":["cp","nocrits","nodmgspread","uncletopia"],"game_id":440,"stv_port":27026,"stv_name":"Uncletopia | Atlanta | 2 | All Maps | STV","players":[{"user_id":932,"name":"PeterPumpkinEater69","steam_id":76561199240739163,"connected_time":658000000000,"state":"active","ping":93},{"user_id":933,"name":"Terror-Billy #SaveTF2","steam_id":76561198328141870,"connected_time":600000000000,"state":"active","ping":72},{"user_id":849,"name":"The Pencil Cunts","steam_id":76561198272606252,"connected_time":7666000000000,"state":"active","ping":48},{"user_id":934,"name":"Off Season Swallow","steam_id":76561198054647777,"connected_time":399000000000,"state":"active","ping":45},{"user_id":931,"name":"Babek","steam_id":76561198401494522,"connected_time":868000000000,"state":"active","ping":171},{"user_id":936,"name":"Burny Sanders","steam_id":76561197961879048,"connected_time":365000000000,"state":"active","ping":60},{"user_id":927,"name":"EJFV007","steam_id":76561199233174289,"connected_time":2008000000000,"state":"active","ping":106},{"user_id":930,"name":"Steve Burns","steam_id":76561198069968316,"connected_time":1021000000000,"state":"active","ping":96}]},{"server_id":400,"name":"Uncletopia | Atlanta | 3 | Community","name_short":"atl-3","host":"atl-1.us.uncletopia.com","port":27035,"enabled":true,"region":"us-east","cc":"us","latitude":33.753746,"longitude":-84.38633,"reserved":0,"last_update":"0001-01-01T00:00:00Z","name_a2s":"Uncletopia | Atlanta | 3 | Community","protocol":17,"map":"workshop/cp_glassworks_rc6a.ugc454118349","folder":"tf","game":"Team Fortress","app_id":440,"player_count":0,"max_players":24,"Bots":0,"server_type":"Dedicated","server_os":"Linux","password":true,"vac":true,"version":"7757534","steam_id":85568392924515187,"keywords":["cp","nocrits","nodmgspread","uncletopia"],"game_id":440,"stv_port":27036,"stv_name":"Uncletopia | Atlanta | 3 | Community | STV","players":null},{"server_id":401,"name":"Uncletopia | Atlanta | 4 | No Payload","name_short":"atl-4","host":"atl-1.us.uncletopia.com","port":27045,"enabled":true,"region":"us-east","cc":"us","latitude":33.753746,"longitude":-84.38633,"reserved":0,"last_update":"0001-01-01T00:00:00Z","name_a2s":"","protocol":0,"map":"","folder":"","game":"","app_id":0,"player_count":0,"max_players":0,"Bots":0,"server_type":"","server_os":"","password":false,"vac":false,"version":"","steam_id":0,"keywords":null,"game_id":0,"stv_port":0,"stv_name":"","players":null},{"server_id":2,"name":"Uncletopia | Chicago | 1 | All Maps","name_short":"chi-1","host":"chi-1.us.uncletopia.com","port":27015,"enabled":true,"region":"us-central","cc":"us","latitude":41.881832,"longitude":-87.62318,"reserved":0,"last_update":"0001-01-01T00:00:00Z","name_a2s":"Uncletopia | Chicago | 1 | All Maps","protocol":17,"map":"pl_thundermountain","folder":"tf","game":"Team Fortress","app_id":440,"player_count":24,"max_players":24,"Bots":0,"server_type":"Dedicated","server_os":"Linux","password":true,"vac":true,"version":"7757534","steam_id":85568392924469984,"keywords":["nocrits","nodmgspread","payload","uncletopia"],"game_id":440,"stv_port":27016,"stv_name":"Uncletopia | Chicago | 1 | All Maps | STV","players":[{"user_id":834,"name":"ihave80hp","steam_id":76561199251621911,"connected_time":725000000000,"state":"active","ping":85},{"user_id":844,"name":"Maxxycat","steam_id":76561198194062681,"connected_time":345000000000,"state":"active","ping":57},{"user_id":814,"name":"SG21","steam_id":76561199381171306,"connected_time":2891000000000,"state":"active","ping":112},{"user_id":836,"name":"juanjoesc","steam_id":76561198186368430,"connected_time":712000000000,"state":"active","ping":125},{"user_id":815,"name":"BambuBabyPackRunner","steam_id":76561198320866421,"connected_time":2869000000000,"state":"active","ping":69},{"user_id":829,"name":"Mitchu The Bidness Man","steam_id":76561198102494381,"connected_time":1292000000000,"state":"active","ping":60},{"user_id":816,"name":"scrotal recall","steam_id":76561198135945598,"connected_time":2808000000000,"state":"active","ping":66},{"user_id":840,"name":"MagicalBoyChan","steam_id":76561198024776873,"connected_time":548000000000,"state":"active","ping":103},{"user_id":835,"name":"qwerg","steam_id":76561198107191794,"connected_time":720000000000,"state":"active","ping":74},{"user_id":841,"name":"Spike","steam_id":76561198141356571,"connected_time":540000000000,"state":"active","ping":57},{"user_id":845,"name":"SirKnight5067","steam_id":76561198377306047,"connected_time":341000000000,"state":"active","ping":64},{"user_id":842,"name":"debin","steam_id":76561198070711217,"connected_time":515000000000,"state":"active","ping":52},{"user_id":827,"name":"raidlps","steam_id":76561199208003679,"connected_time":1725000000000,"state":"active","ping":78},{"user_id":818,"name":"Dead Space 2","steam_id":76561199062987914,"connected_time":2740000000000,"state":"active","ping":74},{"user_id":819,"name":"Lemon Drop","steam_id":76561198023684559,"connected_time":2739000000000,"state":"active","ping":91},{"user_id":843,"name":"♦♣Quadric♥♠","steam_id":76561198061003853,"connected_time":415000000000,"state":"active","ping":71},{"user_id":820,"name":"Lucki's Fat Belly","steam_id":76561198237789592,"connected_time":2736000000000,"state":"active","ping":82},{"user_id":804,"name":"Javaris Jamar Javarison-Lamar","steam_id":76561198146951387,"connected_time":3728000000000,"state":"active","ping":75},{"user_id":821,"name":"coxen","steam_id":76561198095125557,"connected_time":2734000000000,"state":"active","ping":63},{"user_id":828,"name":"Dot.","steam_id":76561198149463984,"connected_time":1725000000000,"state":"active","ping":49},{"user_id":825,"name":"Giggles™","steam_id":76561198058708019,"connected_time":2029000000000,"state":"active","ping":58},{"user_id":839,"name":"TomatoPotato","steam_id":76561198351725991,"connected_time":680000000000,"state":"active","ping":92},{"user_id":807,"name":"Buttfuck Armstrong","steam_id":76561198075547905,"connected_time":3717000000000,"state":"active","ping":66},{"user_id":831,"name":"SonicClubCool","steam_id":76561198079187808,"connected_time":1225000000000,"state":"active","ping":65}]},{"server_id":106,"name":"Uncletopia | Chicago | 2 | All Maps","name_short":"chi-2","host":"chi-1.us.uncletopia.com","port":27025,"enabled":true,"region":"us-central","cc":"us","latitude":41.881832,"longitude":-87.62318,"reserved":0,"last_update":"0001-01-01T00:00:00Z","name_a2s":"Uncletopia | Chicago | 2 | All Maps","protocol":17,"map":"pl_swiftwater_final1","folder":"tf","game":"Team Fortress","app_id":440,"player_count":24,"max_players":24,"Bots":0,"server_type":"Dedicated","server_os":"Linux","password":true,"vac":true,"version":"7757534","steam_id":85568392924469985,"keywords":["nocrits","nodmgspread","payload","uncletopia"],"game_id":440,"stv_port":27026,"stv_name":"Uncletopia | Chicago | 2 | All Maps | STV","players":[{"user_id":935,"name":"Mikidy","steam_id":76561197972958970,"connected_time":2062000000000,"state":"active","ping":65},{"user_id":963,"name":"Vortiger","steam_id":76561198275813176,"connected_time":258000000000,"state":"active","ping":103},{"user_id":960,"name":"Bearegard","steam_id":76561198061926542,"connected_time":715000000000,"state":"active","ping":61},{"user_id":937,"name":"ian","steam_id":76561198119616750,"connected_time":2008000000000,"state":"active","ping":100},{"user_id":962,"name":"Flaming O'Gaming","steam_id":76561198044185725,"connected_time":309000000000,"state":"active","ping":80},{"user_id":938,"name":"Gustavo Fring","steam_id":76561198132807405,"connected_time":1978000000000,"state":"active","ping":88},{"user_id":969,"name":"Kurg","steam_id":76561198143381218,"connected_time":63000000000,"state":"active","ping":45},{"user_id":965,"name":"Yuhh","steam_id":76561199112894955,"connected_time":199000000000,"state":"active","ping":76},{"user_id":966,"name":"The Color Cyan idk im blind","steam_id":76561198978548208,"connected_time":195000000000,"state":"active","ping":114},{"user_id":967,"name":"Regi","steam_id":76561198271508598,"connected_time":139000000000,"state":"active","ping":57},{"user_id":968,"name":"din afore","steam_id":76561198079892116,"connected_time":84000000000,"state":"active","ping":47},{"user_id":947,"name":"ArnoldGamingﾠٴ","steam_id":76561198040140247,"connected_time":1477000000000,"state":"active","ping":92},{"user_id":943,"name":"villainy","steam_id":76561199061380038,"connected_time":1869000000000,"state":"active","ping":73},{"user_id":902,"name":"great1photo","steam_id":76561198085481933,"connected_time":5775000000000,"state":"active","ping":69},{"user_id":955,"name":"NerdyEnforcement","steam_id":76561198437710820,"connected_time":1293000000000,"state":"active","ping":59},{"user_id":970,"name":"heimdall","steam_id":76561198069380992,"connected_time":47000000000,"state":"active","ping":86},{"user_id":890,"name":"TacticalFluke","steam_id":76561198403291862,"connected_time":7415000000000,"state":"active","ping":78},{"user_id":924,"name":"Mookie Burns","steam_id":76561199202153909,"connected_time":2993000000000,"state":"active","ping":85},{"user_id":971,"name":"Colonel Chikara","steam_id":76561198010021087,"connected_time":42000000000,"state":"active","ping":99},{"user_id":958,"name":"Steadman Slick","steam_id":76561198092633444,"connected_time":1038000000000,"state":"active","ping":43},{"user_id":961,"name":"Aunt May's House Fight","steam_id":76561198208294764,"connected_time":460000000000,"state":"active","ping":98},{"user_id":944,"name":"Rudy","steam_id":76561198013456828,"connected_time":1809000000000,"state":"active","ping":73},{"user_id":952,"name":"professional swag haver","steam_id":76561198143132686,"connected_time":1421000000000,"state":"active","ping":84},{"user_id":932,"name":"Otterman Empire","steam_id":76561198047758442,"connected_time":2377000000000,"state":"active","ping":91}]},{"server_id":402,"name":"Uncletopia | Chicago | 3 | All Maps","name_short":"chi-3","host":"chi-1.us.uncletopia.com","port":27035,"enabled":true,"region":"us-central","cc":"us","latitude":41.881832,"longitude":-87.62318,"reserved":0,"last_update":"0001-01-01T00:00:00Z","name_a2s":"Uncletopia | Chicago | 3 | All Maps","protocol":17,"map":"pl_upward","folder":"tf","game":"Team Fortress","app_id":440,"player_count":24,"max_players":24,"Bots":0,"server_type":"Dedicated","server_os":"Linux","password":true,"vac":true,"version":"7757534","steam_id":85568392924515191,"keywords":["nocrits","nodmgspread","payload","uncletopia"],"game_id":440,"stv_port":27036,"stv_name":"Uncletopia | Chicago | 3 | All Maps | STV","players":[{"user_id":754,"name":"dustbowl gaming","steam_id":76561198057374871,"connected_time":4116000000000,"state":"active","ping":61},{"user_id":845,"name":"booger","steam_id":76561198333832807,"connected_time":1530000000000,"state":"active","ping":120},{"user_id":853,"name":"RURU","steam_id":76561198039758987,"connected_time":1295000000000,"state":"active","ping":104},{"user_id":846,"name":"elchomperpizaa","steam_id":76561199244713003,"connected_time":1526000000000,"state":"active","ping":83},{"user_id":862,"name":"☂hito","steam_id":76561199074179331,"connected_time":958000000000,"state":"active","ping":103},{"user_id":713,"name":"stigma","steam_id":76561197960315263,"connected_time":7183000000000,"state":"active","ping":76},{"user_id":847,"name":"Lo-Pan","steam_id":76561198085670133,"connected_time":1505000000000,"state":"active","ping":85},{"user_id":849,"name":"SirBacon","steam_id":76561198070832540,"connected_time":1359000000000,"state":"active","ping":121},{"user_id":870,"name":"Dreamy Sweat from 2hu","steam_id":76561198094602446,"connected_time":375000000000,"state":"active","ping":66},{"user_id":799,"name":"MR MODE","steam_id":76561198046775352,"connected_time":3161000000000,"state":"active","ping":95},{"user_id":854,"name":"jeffus","steam_id":76561199347238848,"connected_time":1261000000000,"state":"active","ping":106},{"user_id":864,"name":"White Bill Clinton","steam_id":76561198307516731,"connected_time":713000000000,"state":"active","ping":80},{"user_id":815,"name":"Ta5K","steam_id":76561198939558155,"connected_time":2734000000000,"state":"active","ping":45},{"user_id":787,"name":"Yummy Kabobz","steam_id":76561198067661705,"connected_time":3481000000000,"state":"active","ping":65},{"user_id":855,"name":"pigswill","steam_id":76561197999081865,"connected_time":1226000000000,"state":"active","ping":90},{"user_id":869,"name":"Ricta","steam_id":76561198086475766,"connected_time":418000000000,"state":"active","ping":69},{"user_id":851,"name":"_","steam_id":76561198191199554,"connected_time":1340000000000,"state":"active","ping":64},{"user_id":830,"name":"Fluffypillow64","steam_id":76561198853272694,"connected_time":2396000000000,"state":"active","ping":73},{"user_id":826,"name":"dahperson","steam_id":76561198067207467,"connected_time":2456000000000,"state":"active","ping":51},{"user_id":802,"name":"homestuck","steam_id":76561198085042338,"connected_time":3024000000000,"state":"active","ping":112},{"user_id":858,"name":"boy from the rafters","steam_id":76561198042926224,"connected_time":1179000000000,"state":"active","ping":99},{"user_id":871,"name":"Tranq","steam_id":76561197967250757,"connected_time":46000000000,"state":"active","ping":57},{"user_id":859,"name":"soupy","steam_id":76561197974283797,"connected_time":1174000000000,"state":"active","ping":46},{"user_id":861,"name":"Satori Komeiji","steam_id":76561198158211423,"connected_time":1064000000000,"state":"active","ping":99}]},{"server_id":403,"name":"Uncletopia | Chicago | 4 | All Maps","name_short":"chi-4","host":"chi-1.us.uncletopia.com","port":27045,"enabled":true,"region":"us-central","cc":"us","latitude":41.881832,"longitude":-87.62318,"reserved":0,"last_update":"0001-01-01T00:00:00Z","name_a2s":"Uncletopia | Chicago | 4 | All Maps","protocol":17,"map":"pl_pier","folder":"tf","game":"Team Fortress","app_id":440,"player_count":24,"max_players":24,"Bots":0,"server_type":"Dedicated","server_os":"Linux","password":true,"vac":true,"version":"7757534","steam_id":85568392924515193,"keywords":["nocrits","nodmgspread","payload","uncletopia"],"game_id":440,"stv_port":27046,"stv_name":"Uncletopia | Chicago | 4 | All Maps | STV","players":[{"user_id":617,"name":"Fatass","steam_id":76561199209403512,"connected_time":812000000000,"state":"active","ping":52},{"user_id":624,"name":"dolphs","steam_id":76561198831972272,"connected_time":514000000000,"state":"active","ping":85},{"user_id":605,"name":"squids a Grandmaster","steam_id":76561199200296010,"connected_time":1810000000000,"state":"active","ping":80},{"user_id":616,"name":"enmgxcltayiqoacx","steam_id":76561197974965536,"connected_time":971000000000,"state":"active","ping":56},{"user_id":625,"name":"alpha1zer0ready","steam_id":76561199206731331,"connected_time":480000000000,"state":"active","ping":91},{"user_id":626,"name":"Marcy2231","steam_id":76561198202323656,"connected_time":452000000000,"state":"active","ping":74},{"user_id":597,"name":"Nahvee","steam_id":76561198119759695,"connected_time":2261000000000,"state":"active","ping":70},{"user_id":609,"name":"volta","steam_id":76561199214283884,"connected_time":1401000000000,"state":"active","ping":93},{"user_id":633,"name":"Firepig102","steam_id":76561198060248559,"connected_time":248000000000,"state":"active","ping":101},{"user_id":613,"name":"strawberry shortcock","steam_id":76561198032040831,"connected_time":1106000000000,"state":"active","ping":82},{"user_id":638,"name":"richard","steam_id":76561199013175414,"connected_time":9000000000,"state":"spawning","ping":52},{"user_id":627,"name":"Chiney","steam_id":76561199232892414,"connected_time":452000000000,"state":"active","ping":78},{"user_id":628,"name":"Chef Boyardee","steam_id":76561199450037040,"connected_time":438000000000,"state":"active","ping":70},{"user_id":585,"name":"nic","steam_id":76561198030654668,"connected_time":3838000000000,"state":"active","ping":76},{"user_id":620,"name":"The Local Toilet","steam_id":76561198908823271,"connected_time":743000000000,"state":"active","ping":71},{"user_id":629,"name":"Tech Deck","steam_id":76561199070437675,"connected_time":372000000000,"state":"active","ping":116},{"user_id":570,"name":"Resh420","steam_id":76561198066619792,"connected_time":5329000000000,"state":"active","ping":68},{"user_id":630,"name":"god doesnt here me","steam_id":76561198125328737,"connected_time":354000000000,"state":"active","ping":69},{"user_id":631,"name":"Andy","steam_id":76561198043115724,"connected_time":344000000000,"state":"active","ping":79},{"user_id":632,"name":"Gilgamesh","steam_id":76561198317113179,"connected_time":316000000000,"state":"active","ping":60},{"user_id":634,"name":"MedicalMuffin","steam_id":76561198448798866,"connected_time":207000000000,"state":"active","ping":48},{"user_id":635,"name":"astral","steam_id":76561198872396820,"connected_time":200000000000,"state":"active","ping":106},{"user_id":636,"name":"Dylan Pulido","steam_id":76561198272681544,"connected_time":176000000000,"state":"active","ping":91},{"user_id":637,"name":"Bullion Stew","steam_id":76561198370388459,"connected_time":175000000000,"state":"active","ping":138}]},{"server_id":36,"name":"Uncletopia | Chicago | 5 | All Maps","name_short":"chi-5","host":"chi-2.us.uncletopia.com","port":27015,"enabled":true,"region":"us-central","cc":"us","latitude":41.881832,"longitude":-87.62318,"reserved":0,"last_update":"0001-01-01T00:00:00Z","name_a2s":"Uncletopia | Chicago | 5 | All Maps","protocol":17,"map":"pl_snowycoast","folder":"tf","game":"Team Fortress","app_id":440,"player_count":0,"max_players":24,"Bots":0,"server_type":"Dedicated","server_os":"Linux","password":true,"vac":true,"version":"7757534","steam_id":85568392924866362,"keywords":["nocrits","nodmgspread","payload","uncletopia"],"game_id":440,"stv_port":27016,"stv_name":"Uncletopia | Chicago | 5 | All Maps | STV","players":null},{"server_id":37,"name":"Uncletopia | Chicago | 6 | All Maps","name_short":"chi-6","host":"chi-2.us.uncletopia.com","port":27025,"enabled":true,"region":"us-central","cc":"us","latitude":41.881832,"longitude":-87.62318,"reserved":0,"last_update":"0001-01-01T00:00:00Z","name_a2s":"Uncletopia | Chicago | 6 | All Maps","protocol":17,"map":"cp_snakewater_final1","folder":"tf","game":"Team Fortress","app_id":440,"player_count":2,"max_players":24,"Bots":0,"server_type":"Dedicated","server_os":"Linux","password":true,"vac":true,"version":"7757534","steam_id":85568392924866363,"keywords":["cp","nocrits","nodmgspread","uncletopia"],"game_id":440,"stv_port":27026,"stv_name":"Uncletopia | Chicago | 6 | All Maps | STV","players":[{"user_id":768,"name":"cookies_247","steam_id":76561199310150479,"connected_time":300000000000,"state":"active","ping":69},{"user_id":769,"name":"Satan","steam_id":76561199056514770,"connected_time":291000000000,"state":"active","ping":99}]},{"server_id":38,"name":"Uncletopia | Chicago | 7 | Stopwatch Beta","name_short":"chi-7","host":"chi-2.us.uncletopia.com","port":27035,"enabled":true,"region":"us-central","cc":"us","latitude":41.881832,"longitude":-87.62318,"reserved":0,"last_update":"0001-01-01T00:00:00Z","name_a2s":"Uncletopia | Chicago | 7 | Stopwatch Beta","protocol":17,"map":"workshop/pl_badwater_pro_v12.ugc2142942074","folder":"tf","game":"Team Fortress","app_id":440,"player_count":0,"max_players":24,"Bots":0,"server_type":"Dedicated","server_os":"Linux","password":true,"vac":true,"version":"7757534","steam_id":85568392924866364,"keywords":["nocrits","nodmgspread","payload","uncletopia"],"game_id":440,"stv_port":27036,"stv_name":"Uncletopia | Chicago | 7 | Stopwatch Beta | STV","players":null},{"server_id":39,"name":"Uncletopia | Chicago | 8 | Community","name_short":"chi-8","host":"chi-2.us.uncletopia.com","port":27045,"enabled":true,"region":"us-central","cc":"us","latitude":41.881832,"longitude":-87.62318,"reserved":0,"last_update":"0001-01-01T00:00:00Z","name_a2s":"Uncletopia | Chicago | 8 | Community","protocol":17,"map":"workshop/pl_barnblitz_pro7.ugc582280235","folder":"tf","game":"Team Fortress","app_id":440,"player_count":0,"max_players":24,"Bots":0,"server_type":"Dedicated","server_os":"Linux","password":true,"vac":true,"version":"7757534","steam_id":85568392924866365,"keywords":["nocrits","nodmgspread","payload","uncletopia"],"game_id":440,"stv_port":27046,"stv_name":"Uncletopia | Chicago | 8 | Community | STV","players":null},{"server_id":8,"name":"Uncletopia | Dallas | 1 | All Maps","name_short":"dal-1","host":"dal-1.us.uncletopia.com","port":27015,"enabled":true,"region":"us-central","cc":"us","latitude":32.779167,"longitude":-96.80889,"reserved":0,"last_update":"0001-01-01T00:00:00Z","name_a2s":"Uncletopia | Dallas | 1 | All Maps","protocol":17,"map":"pl_badwater","folder":"tf","game":"Team Fortress","app_id":440,"player_count":24,"max_players":24,"Bots":0,"server_type":"Dedicated","server_os":"Linux","password":true,"vac":true,"version":"7757534","steam_id":85568392924469986,"keywords":["nocrits","nodmgspread","payload","uncletopia"],"game_id":440,"stv_port":27016,"stv_name":"Uncletopia | Dallas | 1 | All Maps | STV","players":[{"user_id":696,"name":"[SODA] Eagan Gbao","steam_id":76561198846826090,"connected_time":2382000000000,"state":"active","ping":114},{"user_id":687,"name":"minty","steam_id":76561198062821894,"connected_time":3800000000000,"state":"active","ping":53},{"user_id":666,"name":"Burger","steam_id":76561198124642383,"connected_time":6834000000000,"state":"active","ping":89},{"user_id":733,"name":"tobrehto","steam_id":76561198097544038,"connected_time":70000000000,"state":"active","ping":70},{"user_id":698,"name":"SGT Disoriented","steam_id":76561198058177958,"connected_time":2348000000000,"state":"active","ping":61},{"user_id":726,"name":"Hog Leader","steam_id":76561198812197325,"connected_time":340000000000,"state":"active","ping":101},{"user_id":723,"name":"SneekiCheekiQbone","steam_id":76561198045077980,"connected_time":357000000000,"state":"active","ping":74},{"user_id":724,"name":"Laura More","steam_id":76561198155434598,"connected_time":355000000000,"state":"active","ping":109},{"user_id":734,"name":"Riff","steam_id":76561198066921423,"connected_time":54000000000,"state":"active","ping":71},{"user_id":701,"name":"NChan141","steam_id":76561199038987817,"connected_time":2281000000000,"state":"active","ping":114},{"user_id":682,"name":"Ms Chatmen","steam_id":76561198309567814,"connected_time":4191000000000,"state":"active","ping":42},{"user_id":725,"name":"King Zazarule","steam_id":76561198140929103,"connected_time":354000000000,"state":"active","ping":94},{"user_id":663,"name":"DannyM","steam_id":76561198351165570,"connected_time":7111000000000,"state":"active","ping":41},{"user_id":702,"name":"girl smell","steam_id":76561198118962168,"connected_time":2249000000000,"state":"active","ping":63},{"user_id":727,"name":"Fargo","steam_id":76561198044703931,"connected_time":340000000000,"state":"active","ping":60},{"user_id":614,"name":"Loki!","steam_id":76561198089201861,"connected_time":13510000000000,"state":"active","ping":62},{"user_id":728,"name":"Amadeus","steam_id":76561198160047173,"connected_time":335000000000,"state":"active","ping":91},{"user_id":729,"name":"gods drunkest driver","steam_id":76561198293857963,"connected_time":329000000000,"state":"active","ping":90},{"user_id":710,"name":"koompa_stomp","steam_id":76561198073081735,"connected_time":1606000000000,"state":"active","ping":81},{"user_id":705,"name":"Faust main","steam_id":76561198971799149,"connected_time":2104000000000,"state":"active","ping":75},{"user_id":716,"name":"Jarryl97","steam_id":76561198055451373,"connected_time":1140000000000,"state":"active","ping":67},{"user_id":730,"name":"[_Dr.Scythe_]","steam_id":76561198845245858,"connected_time":311000000000,"state":"active","ping":61},{"user_id":715,"name":"shwatyygotaabodddyieyeah","steam_id":76561198102681457,"connected_time":1248000000000,"state":"active","ping":75},{"user_id":731,"name":"SPREAD SPRING GROWTH AND WARMTH","steam_id":76561198800386026,"connected_time":307000000000,"state":"active","ping":101}]},{"server_id":108,"name":"Uncletopia | Dallas | 2 | All Maps","name_short":"dal-2","host":"dal-1.us.uncletopia.com","port":27025,"enabled":true,"region":"us-central","cc":"us","latitude":32.779167,"longitude":-96.80889,"reserved":0,"last_update":"0001-01-01T00:00:00Z","name_a2s":"Uncletopia | Dallas | 2 | All Maps","protocol":17,"map":"cp_sunshine","folder":"tf","game":"Team Fortress","app_id":440,"player_count":14,"max_players":24,"Bots":0,"server_type":"Dedicated","server_os":"Linux","password":true,"vac":true,"version":"7757534","steam_id":85568392924469988,"keywords":["cp","nocrits","nodmgspread","uncletopia"],"game_id":440,"stv_port":27026,"stv_name":"Uncletopia | Dallas | 2 | All Maps | STV","players":[{"user_id":688,"name":"Jazz2T","steam_id":76561198154418867,"connected_time":19000000000,"state":"active","ping":122},{"user_id":650,"name":"StrangerHYP","steam_id":76561198395336752,"connected_time":3204000000000,"state":"active","ping":86},{"user_id":673,"name":"Rock Collector","steam_id":76561198131467867,"connected_time":1908000000000,"state":"active","ping":60},{"user_id":677,"name":"jalapeno handjob","steam_id":76561198123298824,"connected_time":1416000000000,"state":"active","ping":46},{"user_id":676,"name":"Nat-Hat86","steam_id":76561198853762206,"connected_time":1445000000000,"state":"active","ping":101},{"user_id":649,"name":"Ben Ben","steam_id":76561198307247913,"connected_time":3237000000000,"state":"active","ping":75},{"user_id":666,"name":"SIGMA [BS]","steam_id":76561197962604879,"connected_time":2371000000000,"state":"active","ping":87},{"user_id":686,"name":"GHOST_023","steam_id":76561198436139643,"connected_time":921000000000,"state":"active","ping":76},{"user_id":674,"name":"HumanSentry","steam_id":76561198832231487,"connected_time":1470000000000,"state":"active","ping":45},{"user_id":668,"name":"jabroni Kris","steam_id":76561198048736247,"connected_time":2286000000000,"state":"active","ping":110},{"user_id":620,"name":"Roland_Actual","steam_id":76561198103212376,"connected_time":5048000000000,"state":"active","ping":81},{"user_id":655,"name":"Chad","steam_id":76561198222313772,"connected_time":3018000000000,"state":"active","ping":94},{"user_id":657,"name":"SpicyTacoMan","steam_id":76561198335699828,"connected_time":2986000000000,"state":"active","ping":101},{"user_id":669,"name":"e7","steam_id":76561198154265084,"connected_time":2268000000000,"state":"active","ping":60}]},{"server_id":5,"name":"Uncletopia | Frankfurt | 1 | All Maps","name_short":"frk-1","host":"frk-1.de.uncletopia.com","port":27015,"enabled":true,"region":"eu","cc":"de","latitude":50.110924,"longitude":8.682127,"reserved":0,"last_update":"0001-01-01T00:00:00Z","name_a2s":"Uncletopia | Frankfurt | 1 | All Maps","protocol":17,"map":"pl_snowycoast","folder":"tf","game":"Team Fortress","app_id":440,"player_count":0,"max_players":24,"Bots":0,"server_type":"Dedicated","server_os":"Linux","password":true,"vac":true,"version":"7757534","steam_id":85568392924469989,"keywords":["nocrits","nodmgspread","payload","uncletopia"],"game_id":440,"stv_port":27016,"stv_name":"Uncletopia | Frankfurt | 1 | All Maps | STV","players":null},{"server_id":110,"name":"Uncletopia | Frankfurt | 2 | All Maps","name_short":"frk-2","host":"frk-1.de.uncletopia.com","port":27025,"enabled":true,"region":"eu","cc":"de","latitude":50.110924,"longitude":8.682127,"reserved":0,"last_update":"0001-01-01T00:00:00Z","name_a2s":"Uncletopia | Frankfurt | 2 | All Maps","protocol":17,"map":"cp_snakewater_final1","folder":"tf","game":"Team Fortress","app_id":440,"player_count":0,"max_players":24,"Bots":0,"server_type":"Dedicated","server_os":"Linux","password":true,"vac":true,"version":"7757534","steam_id":85568392924469990,"keywords":["cp","nocrits","nodmgspread","uncletopia"],"game_id":440,"stv_port":27026,"stv_name":"Uncletopia | Frankfurt | 2 | All Maps | STV","players":null},{"server_id":308,"name":"Uncletopia | Frankfurt | 3 | All Maps","name_short":"frk-3","host":"frk-1.de.uncletopia.com","port":27035,"enabled":true,"region":"eu","cc":"de","latitude":50.110924,"longitude":8.682127,"reserved":0,"last_update":"0001-01-01T00:00:00Z","name_a2s":"Uncletopia | Frankfurt | 3 | All Maps","protocol":17,"map":"pl_swiftwater_final1","folder":"tf","game":"Team Fortress","app_id":440,"player_count":0,"max_players":24,"Bots":0,"server_type":"Dedicated","server_os":"Linux","password":true,"vac":true,"version":"7757534","steam_id":85568392924504274,"keywords":["nocrits","nodmgspread","payload","uncletopia"],"game_id":440,"stv_port":27036,"stv_name":"Uncletopia | Frankfurt | 3 | All Maps | STV","players":null},{"server_id":309,"name":"Uncletopia | Frankfurt | 4 | All Maps","name_short":"frk-4","host":"frk-1.de.uncletopia.com","port":27045,"enabled":true,"region":"eu","cc":"de","latitude":50.110924,"longitude":8.682127,"reserved":0,"last_update":"0001-01-01T00:00:00Z","name_a2s":"Uncletopia | Frankfurt | 4 | All Maps","protocol":17,"map":"koth_viaduct","folder":"tf","game":"Team Fortress","app_id":440,"player_count":0,"max_players":24,"Bots":0,"server_type":"Dedicated","server_os":"Linux","password":true,"vac":true,"version":"7757534","steam_id":85568392924504275,"keywords":["cp","nocrits","nodmgspread","uncletopia"],"game_id":440,"stv_port":27046,"stv_name":"Uncletopia | Frankfurt | 4 | All Maps | STV","players":null},{"server_id":310,"name":"Uncletopia | Frankfurt | 5 | All Maps","name_short":"frk-5","host":"frk-1.de.uncletopia.com","port":27055,"enabled":true,"region":"eu","cc":"de","latitude":50.110924,"longitude":8.682127,"reserved":0,"last_update":"0001-01-01T00:00:00Z","name_a2s":"Uncletopia | Frankfurt | 5 | All Maps","protocol":17,"map":"koth_lakeside_final","folder":"tf","game":"Team Fortress","app_id":440,"player_count":0,"max_players":24,"Bots":0,"server_type":"Dedicated","server_os":"Linux","password":true,"vac":true,"version":"7757534","steam_id":85568392924504277,"keywords":["cp","nocrits","nodmgspread","uncletopia"],"game_id":440,"stv_port":27056,"stv_name":"Uncletopia | Frankfurt | 5 | All Maps | STV","players":null},{"server_id":311,"name":"Uncletopia | Frankfurt | 6 | All Maps","name_short":"frk-6","host":"frk-1.de.uncletopia.com","port":27065,"enabled":true,"region":"eu","cc":"de","latitude":50.110924,"longitude":8.682127,"reserved":0,"last_update":"0001-01-01T00:00:00Z","name_a2s":"Uncletopia | Frankfurt | 6 | All Maps","protocol":17,"map":"pl_frontier_final","folder":"tf","game":"Team Fortress","app_id":440,"player_count":0,"max_players":24,"Bots":0,"server_type":"Dedicated","server_os":"Linux","password":true,"vac":true,"version":"7757534","steam_id":85568392924504278,"keywords":["nocrits","nodmgspread","payload","uncletopia"],"game_id":440,"stv_port":27066,"stv_name":"Uncletopia | Frankfurt | 6 | All Maps | STV","players":null},{"server_id":23,"name":"Uncletopia | Frankfurt | 7 | Stopwatch Beta","name_short":"frk-7","host":"frk-1.de.uncletopia.com","port":27075,"enabled":true,"region":"eu","cc":"de","latitude":50.110924,"longitude":8.682127,"reserved":0,"last_update":"0001-01-01T00:00:00Z","name_a2s":"Uncletopia | Frankfurt | 7 | Stopwatch Beta","protocol":17,"map":"cp_sunshine","folder":"tf","game":"Team Fortress","app_id":440,"player_count":0,"max_players":24,"Bots":0,"server_type":"Dedicated","server_os":"Linux","password":true,"vac":true,"version":"7757534","steam_id":85568392924742827,"keywords":["cp","nocrits","nodmgspread","uncletopia"],"game_id":440,"stv_port":27076,"stv_name":"Uncletopia | Frankfurt | 7 | Stopwatch Beta | STV","players":null},{"server_id":24,"name":"Uncletopia | Frankfurt | 8 | Community","name_short":"frk-8","host":"frk-1.de.uncletopia.com","port":27085,"enabled":true,"region":"eu","cc":"de","latitude":50.110924,"longitude":8.682127,"reserved":0,"last_update":"0001-01-01T00:00:00Z","name_a2s":"Uncletopia | Frankfurt | 8 | Community","protocol":17,"map":"koth_lakeside_final","folder":"tf","game":"Team Fortress","app_id":440,"player_count":0,"max_players":24,"Bots":0,"server_type":"Dedicated","server_os":"Linux","password":true,"vac":true,"version":"7757534","steam_id":85568392924742828,"keywords":["cp","nocrits","nodmgspread","uncletopia"],"game_id":440,"stv_port":27086,"stv_name":"Uncletopia | Frankfurt | 8 | Community | STV","players":null},{"server_id":202,"name":"Uncletopia | Hong Kong | 1 | All Maps","name_short":"hgk-1","host":"hgk-1.hk.uncletopia.com","port":27015,"enabled":true,"region":"asia","cc":"hk","latitude":22.302711,"longitude":114.177216,"reserved":0,"last_update":"0001-01-01T00:00:00Z","name_a2s":"Uncletopia | Hong Kong | 1 | All Maps","protocol":17,"map":"pl_swiftwater_final1","folder":"tf","game":"Team Fortress","app_id":440,"player_count":16,"max_players":24,"Bots":0,"server_type":"Dedicated","server_os":"Linux","password":true,"vac":true,"version":"7757534","steam_id":85568392924494504,"keywords":["nocrits","nodmgspread","payload","uncletopia"],"game_id":440,"stv_port":27016,"stv_name":"Uncletopia | Hong Kong | 1 | All Maps | STV","players":[{"user_id":39,"name":"Puppycorn","steam_id":76561198384164542,"connected_time":1241000000000,"state":"active","ping":116},{"user_id":46,"name":"Puddin","steam_id":76561198140052918,"connected_time":535000000000,"state":"active","ping":96},{"user_id":24,"name":"Shades on Goggles","steam_id":76561198406067629,"connected_time":2527000000000,"state":"active","ping":59},{"user_id":21,"name":"Is that a Subaru?","steam_id":76561198420018387,"connected_time":2570000000000,"state":"active","ping":40},{"user_id":38,"name":"smith johnson","steam_id":76561198889862851,"connected_time":1605000000000,"state":"active","ping":44},{"user_id":50,"name":"twitch.tv/tf2ferb","steam_id":76561198074413124,"connected_time":371000000000,"state":"active","ping":92},{"user_id":30,"name":"ironhelmet8","steam_id":76561198354900426,"connected_time":2322000000000,"state":"active","ping":102},{"user_id":28,"name":"Vortex Artemisio","steam_id":76561198833527091,"connected_time":2396000000000,"state":"active","ping":93},{"user_id":43,"name":"calebisjk","steam_id":76561198380010286,"connected_time":675000000000,"state":"active","ping":62},{"user_id":41,"name":"!!!","steam_id":76561199058258142,"connected_time":865000000000,"state":"active","ping":84},{"user_id":44,"name":"ZeniaPY (Playing on Wacom)","steam_id":76561198404352831,"connected_time":630000000000,"state":"active","ping":56},{"user_id":37,"name":"辣個9200Hours的男人","steam_id":76561198162424362,"connected_time":1668000000000,"state":"active","ping":72},{"user_id":45,"name":"iamthenoname","steam_id":76561198982785447,"connected_time":629000000000,"state":"active","ping":62},{"user_id":47,"name":"Markrap0vic","steam_id":76561198383599763,"connected_time":499000000000,"state":"active","ping":109},{"user_id":48,"name":"villy","steam_id":76561198169263597,"connected_time":464000000000,"state":"active","ping":38},{"user_id":52,"name":"Eugene the WISE","steam_id":76561198303608523,"connected_time":335000000000,"state":"active","ping":112}]},{"server_id":1,"name":"Uncletopia | Los Angeles | 1 | All Maps","name_short":"lax-1","host":"lax-1.us.uncletopia.com","port":27015,"enabled":true,"region":"us-west","cc":"us","latitude":33.94279,"longitude":-118.41004,"reserved":0,"last_update":"0001-01-01T00:00:00Z","name_a2s":"Uncletopia | Los Angeles | 1 | All Maps","protocol":17,"map":"cp_coldfront","folder":"tf","game":"Team Fortress","app_id":440,"player_count":24,"max_players":24,"Bots":0,"server_type":"Dedicated","server_os":"Linux","password":true,"vac":true,"version":"7757534","steam_id":85568392924469991,"keywords":["cp","nocrits","nodmgspread","uncletopia"],"game_id":440,"stv_port":27016,"stv_name":"Uncletopia | Los Angeles | 1 | All Maps | STV","players":[{"user_id":416,"name":"aqua","steam_id":76561199407709552,"connected_time":7061000000000,"state":"active","ping":94},{"user_id":492,"name":"Sirphantom","steam_id":76561198125415432,"connected_time":938000000000,"state":"active","ping":47},{"user_id":463,"name":"ScoutBox","steam_id":76561198111539895,"connected_time":2504000000000,"state":"active","ping":45},{"user_id":494,"name":"selvhat","steam_id":76561198114225509,"connected_time":911000000000,"state":"active","ping":64},{"user_id":470,"name":"XanderDragon","steam_id":76561198121029713,"connected_time":1984000000000,"state":"active","ping":62},{"user_id":480,"name":"Cuno Doesn't Care!","steam_id":76561198007372782,"connected_time":1382000000000,"state":"active","ping":59},{"user_id":467,"name":"AjiZu","steam_id":76561198143301039,"connected_time":2139000000000,"state":"active","ping":83},{"user_id":495,"name":"FCKGW-RHQQ2-YXRKT-8TG6W-2B7Q8","steam_id":76561197993138592,"connected_time":880000000000,"state":"active","ping":73},{"user_id":500,"name":"OrangeShoes","steam_id":76561197971249940,"connected_time":616000000000,"state":"active","ping":113},{"user_id":504,"name":"WorldCast","steam_id":76561198160120451,"connected_time":226000000000,"state":"active","ping":100},{"user_id":483,"name":"Mozz","steam_id":76561198132892873,"connected_time":1373000000000,"state":"active","ping":58},{"user_id":484,"name":"Chrysalis","steam_id":76561198028576126,"connected_time":1366000000000,"state":"active","ping":104},{"user_id":479,"name":"TeCon","steam_id":76561198049127236,"connected_time":1482000000000,"state":"active","ping":57},{"user_id":505,"name":"Thunder","steam_id":76561198097721532,"connected_time":140000000000,"state":"active","ping":46},{"user_id":502,"name":"MaDeuce","steam_id":76561198110732835,"connected_time":494000000000,"state":"active","ping":91},{"user_id":503,"name":"bengineer","steam_id":76561198171912174,"connected_time":466000000000,"state":"active","ping":76},{"user_id":491,"name":"nori_420","steam_id":76561199117134203,"connected_time":1038000000000,"state":"active","ping":54},{"user_id":488,"name":"cringepilled girlmoder","steam_id":76561198066241998,"connected_time":1169000000000,"state":"active","ping":63},{"user_id":411,"name":"Custard","steam_id":76561198069680083,"connected_time":7328000000000,"state":"active","ping":65},{"user_id":501,"name":"★SuperBurgerBoy★","steam_id":76561198856387197,"connected_time":614000000000,"state":"active","ping":46},{"user_id":493,"name":"An00bis","steam_id":76561198044084508,"connected_time":937000000000,"state":"active","ping":53},{"user_id":496,"name":"Chrisjongun","steam_id":76561198331685904,"connected_time":824000000000,"state":"active","ping":82},{"user_id":497,"name":"Assassin","steam_id":76561198321410235,"connected_time":823000000000,"state":"active","ping":37},{"user_id":498,"name":"Locksteel","steam_id":76561198050679036,"connected_time":789000000000,"state":"active","ping":57}]},{"server_id":112,"name":"Uncletopia | Los Angeles | 2 | All Maps","name_short":"lax-2","host":"lax-1.us.uncletopia.com","port":27025,"enabled":true,"region":"us-west","cc":"us","latitude":33.94279,"longitude":-118.41004,"reserved":0,"last_update":"0001-01-01T00:00:00Z","name_a2s":"Uncletopia | Los Angeles | 2 | All Maps","protocol":17,"map":"pl_badwater","folder":"tf","game":"Team Fortress","app_id":440,"player_count":24,"max_players":24,"Bots":0,"server_type":"Dedicated","server_os":"Linux","password":true,"vac":true,"version":"7757534","steam_id":85568392924469992,"keywords":["nocrits","nodmgspread","payload","uncletopia"],"game_id":440,"stv_port":27026,"stv_name":"Uncletopia | Los Angeles | 2 | All Maps | STV","players":[{"user_id":351,"name":"Frank Ugly","steam_id":76561198247002810,"connected_time":3633000000000,"state":"active","ping":67},{"user_id":363,"name":"Klitz Penischmidt","steam_id":76561198050582941,"connected_time":2457000000000,"state":"active","ping":116},{"user_id":374,"name":"eau:","steam_id":76561198110020262,"connected_time":2238000000000,"state":"active","ping":37},{"user_id":389,"name":"FUCK","steam_id":76561198334059206,"connected_time":144000000000,"state":"active","ping":59},{"user_id":356,"name":"봇치 더 아카이브","steam_id":76561198453203619,"connected_time":3165000000000,"state":"active","ping":42},{"user_id":378,"name":"ʀ.ʚɞ.","steam_id":76561198029580420,"connected_time":2150000000000,"state":"active","ping":152},{"user_id":394,"name":"MegaBron James","steam_id":76561198066091050,"connected_time":11000000000,"state":"active","ping":79},{"user_id":367,"name":"Whisper!","steam_id":76561198119609795,"connected_time":2390000000000,"state":"active","ping":48},{"user_id":381,"name":"Artic_Ryuu","steam_id":76561198182194918,"connected_time":1814000000000,"state":"active","ping":38},{"user_id":390,"name":"Cheff cook","steam_id":76561198451203268,"connected_time":133000000000,"state":"active","ping":55},{"user_id":346,"name":"Billy Yank","steam_id":76561199059733640,"connected_time":3948000000000,"state":"active","ping":59},{"user_id":370,"name":"fortzei","steam_id":76561198210920541,"connected_time":2357000000000,"state":"active","ping":68},{"user_id":334,"name":"gives you rabies","steam_id":76561198204169516,"connected_time":4964000000000,"state":"active","ping":78},{"user_id":322,"name":"Vintage TV","steam_id":76561198800334545,"connected_time":5463000000000,"state":"active","ping":40},{"user_id":376,"name":"lol","steam_id":76561198026491738,"connected_time":2200000000000,"state":"active","ping":59},{"user_id":391,"name":"Gucio [CSC]","steam_id":76561198797330806,"connected_time":110000000000,"state":"active","ping":223},{"user_id":385,"name":"portos bakery and cafe","steam_id":76561198319442494,"connected_time":853000000000,"state":"active","ping":62},{"user_id":393,"name":"jimmyfortnite2014","steam_id":76561198987713830,"connected_time":49000000000,"state":"active","ping":160},{"user_id":286,"name":"SanitysEdge","steam_id":76561198130732813,"connected_time":8245000000000,"state":"active","ping":49},{"user_id":382,"name":"Link_Starr","steam_id":76561198133884015,"connected_time":1427000000000,"state":"active","ping":59},{"user_id":327,"name":"cicada","steam_id":76561198069190432,"connected_time":5265000000000,"state":"active","ping":108},{"user_id":386,"name":"resh","steam_id":76561198239598834,"connected_time":850000000000,"state":"active","ping":106},{"user_id":392,"name":"souljaboytellem.com","steam_id":76561198095824426,"connected_time":102000000000,"state":"active","ping":94},{"user_id":345,"name":"The Assistant Regional Manager","steam_id":76561199221484936,"connected_time":4105000000000,"state":"active","ping":61}]},{"server_id":324,"name":"Uncletopia | Los Angeles | 3 | All Maps","name_short":"lax-3","host":"lax-1.us.uncletopia.com","port":27035,"enabled":true,"region":"us-west","cc":"us","latitude":33.94279,"longitude":-118.41004,"reserved":0,"last_update":"0001-01-01T00:00:00Z","name_a2s":"Uncletopia | Los Angeles | 3 | All Maps","protocol":17,"map":"koth_viaduct","folder":"tf","game":"Team Fortress","app_id":440,"player_count":24,"max_players":24,"Bots":0,"server_type":"Dedicated","server_os":"Linux","password":true,"vac":true,"version":"7757534","steam_id":85568392924510198,"keywords":["cp","nocrits","nodmgspread","uncletopia"],"game_id":440,"stv_port":27036,"stv_name":"Uncletopia | Los Angeles | 3 | All Maps | STV","players":[{"user_id":381,"name":"stinker","steam_id":76561198295640486,"connected_time":347000000000,"state":"active","ping":46},{"user_id":371,"name":"Shaggy","steam_id":76561198428767676,"connected_time":660000000000,"state":"active","ping":62},{"user_id":322,"name":"Gundam Guy","steam_id":76561198178453993,"connected_time":5110000000000,"state":"active","ping":69},{"user_id":359,"name":"Sir Galahad","steam_id":76561198195999859,"connected_time":1776000000000,"state":"active","ping":80},{"user_id":372,"name":"xX_BigPpGaymer_Xx","steam_id":76561199201257696,"connected_time":656000000000,"state":"active","ping":74},{"user_id":379,"name":"iphone 7 plus","steam_id":76561198335836405,"connected_time":439000000000,"state":"active","ping":101},{"user_id":373,"name":"crunchy obama","steam_id":76561198044485217,"connected_time":612000000000,"state":"active","ping":62},{"user_id":348,"name":"FurryPlague","steam_id":76561198824729615,"connected_time":2916000000000,"state":"active","ping":94},{"user_id":374,"name":"motherfucker 2.0","steam_id":76561198141189209,"connected_time":571000000000,"state":"active","ping":72},{"user_id":375,"name":"Popeyes Employee","steam_id":76561198157341489,"connected_time":542000000000,"state":"active","ping":135},{"user_id":339,"name":"Mystic man of potatoe","steam_id":76561198027267207,"connected_time":3850000000000,"state":"active","ping":59},{"user_id":349,"name":"Bong Water","steam_id":76561198320044243,"connected_time":2908000000000,"state":"active","ping":95},{"user_id":383,"name":"XxX420UwUMaster666XxX","steam_id":76561199351137762,"connected_time":166000000000,"state":"active","ping":79},{"user_id":367,"name":"North-West-","steam_id":76561198071295860,"connected_time":1150000000000,"state":"active","ping":91},{"user_id":362,"name":"CaptainBanana","steam_id":76561198142191959,"connected_time":1680000000000,"state":"active","ping":89},{"user_id":323,"name":"MonkeyNobody","steam_id":76561199451266605,"connected_time":5073000000000,"state":"active","ping":54},{"user_id":384,"name":"J O S H³²","steam_id":76561198122603779,"connected_time":39000000000,"state":"active","ping":117},{"user_id":369,"name":"kaede :3","steam_id":76561198345528370,"connected_time":887000000000,"state":"active","ping":53},{"user_id":360,"name":"Looking For Therapist","steam_id":76561198234965408,"connected_time":1737000000000,"state":"active","ping":110},{"user_id":366,"name":"The Regional Manager","steam_id":76561198825154890,"connected_time":1203000000000,"state":"active","ping":67},{"user_id":377,"name":"Shinji Chair PlayStation Logo","steam_id":76561198090857288,"connected_time":472000000000,"state":"active","ping":97},{"user_id":361,"name":"Camohno","steam_id":76561198283519918,"connected_time":1710000000000,"state":"active","ping":88},{"user_id":378,"name":"Shawty","steam_id":76561198214497459,"connected_time":472000000000,"state":"active","ping":113},{"user_id":363,"name":"saucy jack","steam_id":76561198307012859,"connected_time":1643000000000,"state":"active","ping":122}]},{"server_id":25,"name":"Uncletopia | Los Angeles | 4 | Stopwatch Beta","name_short":"lax-4","host":"lax-1.us.uncletopia.com","port":27045,"enabled":true,"region":"us-west","cc":"us","latitude":33.94279,"longitude":-118.41004,"reserved":0,"last_update":"0001-01-01T00:00:00Z","name_a2s":"Uncletopia | Los Angeles | 4 | Stopwatch Beta","protocol":17,"map":"pl_swiftwater_final1","folder":"tf","game":"Team Fortress","app_id":440,"player_count":0,"max_players":24,"Bots":0,"server_type":"Dedicated","server_os":"Linux","password":true,"vac":true,"version":"7757534","steam_id":85568392924510199,"keywords":["nocrits","nodmgspread","payload","uncletopia"],"game_id":440,"stv_port":27046,"stv_name":"Uncletopia | Los Angeles | 4 | Stopwatch Beta | STV","players":null},{"server_id":11,"name":"Uncletopia | London | 1 | All Maps","name_short":"lon-1","host":"lon-1.uk.uncletopia.com","port":27015,"enabled":true,"region":"eu","cc":"gb","latitude":51.509865,"longitude":-0.118092,"reserved":0,"last_update":"0001-01-01T00:00:00Z","name_a2s":"Uncletopia | London | 1 | All Maps","protocol":17,"map":"pl_upward","folder":"tf","game":"Team Fortress","app_id":440,"player_count":24,"max_players":24,"Bots":0,"server_type":"Dedicated","server_os":"Linux","password":true,"vac":true,"version":"7757534","steam_id":85568392924367362,"keywords":["nocrits","nodmgspread","payload","uncletopia"],"game_id":440,"stv_port":27016,"stv_name":"Uncletopia | London | 1 | All Maps | STV","players":[{"user_id":82,"name":"Mr.B","steam_id":76561199204478925,"connected_time":146000000000,"state":"active","ping":107},{"user_id":70,"name":"Flint","steam_id":76561197995920776,"connected_time":1174000000000,"state":"active","ping":49},{"user_id":69,"name":"FUKTARD2005","steam_id":76561198839121591,"connected_time":1226000000000,"state":"active","ping":60},{"user_id":46,"name":"sriracha..","steam_id":76561198005560221,"connected_time":3433000000000,"state":"active","ping":80},{"user_id":71,"name":"ja","steam_id":76561199228540618,"connected_time":1144000000000,"state":"active","ping":77},{"user_id":37,"name":"Rage spell","steam_id":76561198279952779,"connected_time":3809000000000,"state":"active","ping":143},{"user_id":51,"name":"Ezekiel","steam_id":76561199024034022,"connected_time":2643000000000,"state":"active","ping":79},{"user_id":83,"name":"moro","steam_id":76561198084174868,"connected_time":144000000000,"state":"active","ping":60},{"user_id":39,"name":"minn","steam_id":76561198099101232,"connected_time":3770000000000,"state":"active","ping":53},{"user_id":40,"name":"Shynii","steam_id":76561198194682105,"connected_time":3719000000000,"state":"active","ping":59},{"user_id":41,"name":"челкарь против ш\ufffd","steam_id":76561199149307190,"connected_time":3676000000000,"state":"active","ping":89},{"user_id":75,"name":"B.batt","steam_id":76561198998684199,"connected_time":639000000000,"state":"active","ping":132},{"user_id":42,"name":"Lyncurion","steam_id":76561199260022725,"connected_time":3649000000000,"state":"active","ping":86},{"user_id":55,"name":"Egor Pomidor","steam_id":76561199175688390,"connected_time":2274000000000,"state":"active","ping":85},{"user_id":72,"name":"Arti","steam_id":76561197983352845,"connected_time":1078000000000,"state":"active","ping":45},{"user_id":84,"name":"Mamut Rahal","steam_id":76561198157830174,"connected_time":121000000000,"state":"active","ping":125},{"user_id":56,"name":"Vitamin Weee","steam_id":76561199183937747,"connected_time":2264000000000,"state":"active","ping":92},{"user_id":74,"name":"None","steam_id":76561199388730984,"connected_time":843000000000,"state":"active","ping":139},{"user_id":80,"name":"Joseph Stalin","steam_id":76561198033199746,"connected_time":408000000000,"state":"active","ping":46},{"user_id":78,"name":"Cenni","steam_id":76561198236644024,"connected_time":562000000000,"state":"active","ping":68},{"user_id":79,"name":"RIFT","steam_id":76561198991622379,"connected_time":498000000000,"state":"active","ping":41},{"user_id":81,"name":"Dungeon Keeper","steam_id":76561199475507686,"connected_time":370000000000,"state":"active","ping":143},{"user_id":85,"name":"Oxer","steam_id":76561198055942412,"connected_time":32000000000,"state":"active","ping":89},{"user_id":86,"name":"kallerannar","steam_id":76561199095701143,"connected_time":27000000000,"state":"active","ping":90}]},{"server_id":114,"name":"Uncletopia | London | 2 | All Maps","name_short":"lon-2","host":"lon-1.uk.uncletopia.com","port":27025,"enabled":true,"region":"eu","cc":"gb","latitude":51.509865,"longitude":-0.118092,"reserved":0,"last_update":"0001-01-01T00:00:00Z","name_a2s":"Uncletopia | London | 2 | All Maps","protocol":17,"map":"koth_viaduct","folder":"tf","game":"Team Fortress","app_id":440,"player_count":0,"max_players":24,"Bots":0,"server_type":"Dedicated","server_os":"Linux","password":true,"vac":true,"version":"7757534","steam_id":85568392924470941,"keywords":["cp","nocrits","nodmgspread","uncletopia"],"game_id":440,"stv_port":27026,"stv_name":"Uncletopia | London | 2 | All Maps | STV","players":null},{"server_id":320,"name":"Uncletopia | London | 3 | All Maps","name_short":"lon-3","host":"lon-1.uk.uncletopia.com","port":27035,"enabled":true,"region":"eu","cc":"gb","latitude":51.509865,"longitude":-0.118092,"reserved":0,"last_update":"0001-01-01T00:00:00Z","name_a2s":"Uncletopia | London | 3 | All Maps","protocol":17,"map":"cp_dustbowl","folder":"tf","game":"Team Fortress","app_id":440,"player_count":0,"max_players":24,"Bots":0,"server_type":"Dedicated","server_os":"Linux","password":true,"vac":true,"version":"7757534","steam_id":85568392924510192,"keywords":["cp","nocrits","nodmgspread","uncletopia"],"game_id":440,"stv_port":27036,"stv_name":"Uncletopia | London | 3 | All Maps | STV","players":null},{"server_id":321,"name":"Uncletopia | London | 4 | All Maps","name_short":"lon-4","host":"lon-1.uk.uncletopia.com","port":27045,"enabled":true,"region":"eu","cc":"gb","latitude":51.509865,"longitude":-0.118092,"reserved":0,"last_update":"0001-01-01T00:00:00Z","name_a2s":"Uncletopia | London | 4 | All Maps","protocol":17,"map":"cp_dustbowl","folder":"tf","game":"Team Fortress","app_id":440,"player_count":0,"max_players":24,"Bots":0,"server_type":"Dedicated","server_os":"Linux","password":true,"vac":true,"version":"7757534","steam_id":85568392924510193,"keywords":["cp","nocrits","nodmgspread","uncletopia"],"game_id":440,"stv_port":27046,"stv_name":"Uncletopia | London | 4 | All Maps | STV","players":null},{"server_id":21,"name":"Uncletopia | London | 5 | All Maps","name_short":"lon-5","host":"lon-1.uk.uncletopia.com","port":27055,"enabled":true,"region":"eu","cc":"gb","latitude":51.509865,"longitude":-0.118092,"reserved":0,"last_update":"0001-01-01T00:00:00Z","name_a2s":"Uncletopia | London | 5 | All Maps","protocol":17,"map":"cp_altitude","folder":"tf","game":"Team Fortress","app_id":440,"player_count":0,"max_players":24,"Bots":0,"server_type":"Dedicated","server_os":"Linux","password":true,"vac":true,"version":"7757534","steam_id":85568392924742829,"keywords":["cp","nocrits","nodmgspread","uncletopia"],"game_id":440,"stv_port":27056,"stv_name":"Uncletopia | London | 5 | All Maps | STV","players":null},{"server_id":22,"name":"Uncletopia | London | 6 | All Maps","name_short":"lon-6","host":"lon-1.uk.uncletopia.com","port":27065,"enabled":true,"region":"eu","cc":"gb","latitude":51.509865,"longitude":-0.118092,"reserved":0,"last_update":"0001-01-01T00:00:00Z","name_a2s":"Uncletopia | London | 6 | All Maps","protocol":17,"map":"cp_mountainlab","folder":"tf","game":"Team Fortress","app_id":440,"player_count":0,"max_players":24,"Bots":0,"server_type":"Dedicated","server_os":"Linux","password":true,"vac":true,"version":"7757534","steam_id":85568392924742830,"keywords":["cp","nocrits","nodmgspread","uncletopia"],"game_id":440,"stv_port":27066,"stv_name":"Uncletopia | London | 6 | All Maps | STV","players":null},{"server_id":40,"name":"Uncletopia | London | 7 | No Payload","name_short":"lon-7","host":"lon-1.uk.uncletopia.com","port":27075,"enabled":true,"region":"eu","cc":"gb","latitude":51.509865,"longitude":-0.118092,"reserved":0,"last_update":"0001-01-01T00:00:00Z","name_a2s":"Uncletopia | London | 7 | No Payload","protocol":17,"map":"pl_badwater","folder":"tf","game":"Team Fortress","app_id":440,"player_count":0,"max_players":24,"Bots":0,"server_type":"Dedicated","server_os":"Linux","password":true,"vac":true,"version":"7757534","steam_id":85568392924964314,"keywords":["nocrits","nodmgspread","payload","uncletopia"],"game_id":440,"stv_port":27076,"stv_name":"Uncletopia | London | 7 | No Payload | STV","players":null},{"server_id":41,"name":"Uncletopia | London | 8 | Community","name_short":"lon-8","host":"lon-1.uk.uncletopia.com","port":27085,"enabled":true,"region":"eu","cc":"gb","latitude":51.509865,"longitude":-0.118092,"reserved":0,"last_update":"0001-01-01T00:00:00Z","name_a2s":"Uncletopia | London | 8 | Community","protocol":17,"map":"pl_barnblitz","folder":"tf","game":"Team Fortress","app_id":440,"player_count":0,"max_players":24,"Bots":0,"server_type":"Dedicated","server_os":"Linux","password":true,"vac":true,"version":"7757534","steam_id":85568392924964315,"keywords":["nocrits","nodmgspread","payload","uncletopia"],"game_id":440,"stv_port":27086,"stv_name":"Uncletopia | London | 8 | Community | STV","players":null},{"server_id":300,"name":"Uncletopia | Montréal | 1 | All Maps","name_short":"mtl-1","host":"mtl-1.ca.uncletopia.com","port":27015,"enabled":true,"region":"us-east","cc":"ca","latitude":45.50889,"longitude":-73.56167,"reserved":0,"last_update":"0001-01-01T00:00:00Z","name_a2s":"Uncletopia | Montréal | 1 | All Maps","protocol":17,"map":"koth_viaduct","folder":"tf","game":"Team Fortress","app_id":440,"player_count":0,"max_players":24,"Bots":0,"server_type":"Dedicated","server_os":"Linux","password":true,"vac":true,"version":"7757534","steam_id":85568392924500087,"keywords":["cp","nocrits","nodmgspread","uncletopia"],"game_id":440,"stv_port":27016,"stv_name":"Uncletopia | Montréal | 1 | All Maps | STV","players":null},{"server_id":301,"name":"Uncletopia | Montréal | 2 | All Maps","name_short":"mtl-2","host":"mtl-1.ca.uncletopia.com","port":27025,"enabled":true,"region":"us-east","cc":"ca","latitude":45.50889,"longitude":-73.56167,"reserved":0,"last_update":"0001-01-01T00:00:00Z","name_a2s":"Uncletopia | Montréal | 2 | All Maps","protocol":17,"map":"koth_lakeside_final","folder":"tf","game":"Team Fortress","app_id":440,"player_count":0,"max_players":24,"Bots":0,"server_type":"Dedicated","server_os":"Linux","password":true,"vac":true,"version":"7757534","steam_id":85568392924500088,"keywords":["cp","nocrits","nodmgspread","uncletopia"],"game_id":440,"stv_port":27026,"stv_name":"Uncletopia | Montréal | 2 | All Maps | STV","players":null},{"server_id":302,"name":"Uncletopia | Montréal | 3 | All Maps","name_short":"mtl-3","host":"mtl-1.ca.uncletopia.com","port":27035,"enabled":true,"region":"us-east","cc":"ca","latitude":45.50889,"longitude":-73.56167,"reserved":0,"last_update":"0001-01-01T00:00:00Z","name_a2s":"Uncletopia | Montréal | 3 | All Maps","protocol":17,"map":"cp_altitude","folder":"tf","game":"Team Fortress","app_id":440,"player_count":4,"max_players":24,"Bots":0,"server_type":"Dedicated","server_os":"Linux","password":true,"vac":true,"version":"7757534","steam_id":85568392924500089,"keywords":["cp","nocrits","nodmgspread","uncletopia"],"game_id":440,"stv_port":27036,"stv_name":"Uncletopia | Montréal | 3 | All Maps | STV","players":[{"user_id":61,"name":"Tuzakci","steam_id":76561198438587196,"connected_time":6447000000000,"state":"active","ping":80},{"user_id":62,"name":"thebigannoyance","steam_id":76561198851604387,"connected_time":6444000000000,"state":"active","ping":70},{"user_id":63,"name":"kriglar","steam_id":76561198346652267,"connected_time":6384000000000,"state":"active","ping":77},{"user_id":66,"name":"dtjauch","steam_id":76561198152364093,"connected_time":6149000000000,"state":"active","ping":64}]},{"server_id":303,"name":"Uncletopia | Montréal | 4 | No Payload","name_short":"mtl-4","host":"mtl-1.ca.uncletopia.com","port":27045,"enabled":true,"region":"us-east","cc":"ca","latitude":45.50889,"longitude":-73.56167,"reserved":0,"last_update":"0001-01-01T00:00:00Z","name_a2s":"Uncletopia | Montréal | 4 | No Payload","protocol":17,"map":"cp_mercenarypark","folder":"tf","game":"Team Fortress","app_id":440,"player_count":0,"max_players":24,"Bots":0,"server_type":"Dedicated","server_os":"Linux","password":true,"vac":true,"version":"7757534","steam_id":85568392924500090,"keywords":["cp","nocrits","nodmgspread","uncletopia"],"game_id":440,"stv_port":27046,"stv_name":"Uncletopia | Montréal | 4 | No Payload | STV","players":null},{"server_id":13,"name":"Uncletopia | New York City | 1 | All Maps","name_short":"nyc-1","host":"nyc-1.us.uncletopia.com","port":27015,"enabled":true,"region":"us-east","cc":"us","latitude":40.73061,"longitude":-73.93524,"reserved":0,"last_update":"0001-01-01T00:00:00Z","name_a2s":"Uncletopia | New York City | 1 | All Maps","protocol":17,"map":"cp_sunshine","folder":"tf","game":"Team Fortress","app_id":440,"player_count":0,"max_players":24,"Bots":0,"server_type":"Dedicated","server_os":"Linux","password":true,"vac":true,"version":"7757534","steam_id":85568392924469993,"keywords":["cp","nocrits","nodmgspread","uncletopia"],"game_id":440,"stv_port":27016,"stv_name":"Uncletopia | New York City | 1 | All Maps | STV","players":null},{"server_id":14,"name":"Uncletopia | New York City | 2 | All Maps","name_short":"nyc-2","host":"nyc-1.us.uncletopia.com","port":27025,"enabled":true,"region":"us-east","cc":"us","latitude":40.73061,"longitude":-73.93524,"reserved":0,"last_update":"0001-01-01T00:00:00Z","name_a2s":"Uncletopia | New York City | 2 | All Maps","protocol":17,"map":"cp_mercenarypark","folder":"tf","game":"Team Fortress","app_id":440,"player_count":10,"max_players":24,"Bots":0,"server_type":"Dedicated","server_os":"Linux","password":true,"vac":true,"version":"7757534","steam_id":85568392924469994,"keywords":["cp","nocrits","nodmgspread","uncletopia"],"game_id":440,"stv_port":27026,"stv_name":"Uncletopia | New York City | 2 | All Maps | STV","players":[{"user_id":1072,"name":"Dog Goggles","steam_id":76561197995233692,"connected_time":482000000000,"state":"active","ping":68},{"user_id":991,"name":"Inferno Shadowclaw","steam_id":76561198044505696,"connected_time":6923000000000,"state":"active","ping":127},{"user_id":1071,"name":"DufsterYT","steam_id":76561199122486848,"connected_time":585000000000,"state":"active","ping":50},{"user_id":1047,"name":"Braamklauw","steam_id":76561198283287697,"connected_time":2624000000000,"state":"active","ping":144},{"user_id":1073,"name":"Corrin","steam_id":76561199480535845,"connected_time":431000000000,"state":"active","ping":38},{"user_id":1074,"name":"Scooter O'Boyl","steam_id":76561197971687069,"connected_time":300000000000,"state":"active","ping":64},{"user_id":1058,"name":"kenoTetra","steam_id":76561197995247977,"connected_time":1793000000000,"state":"active","ping":111},{"user_id":989,"name":"Vapor","steam_id":76561198185606142,"connected_time":6987000000000,"state":"active","ping":52},{"user_id":1051,"name":"Pozyomka","steam_id":76561198086331015,"connected_time":2395000000000,"state":"active","ping":30},{"user_id":1054,"name":"Xpiredd","steam_id":76561198449525437,"connected_time":1990000000000,"state":"active","ping":53}]},{"server_id":15,"name":"Uncletopia | New York City | 3 | Stopwatch Beta","name_short":"nyc-3","host":"nyc-1.us.uncletopia.com","port":27035,"enabled":true,"region":"us-east","cc":"us","latitude":40.73061,"longitude":-73.93524,"reserved":0,"last_update":"0001-01-01T00:00:00Z","name_a2s":"Uncletopia | New York City | 3 | Stopwatch Beta","protocol":17,"map":"pl_upward","folder":"tf","game":"Team Fortress","app_id":440,"player_count":0,"max_players":24,"Bots":0,"server_type":"Dedicated","server_os":"Linux","password":true,"vac":true,"version":"7757534","steam_id":85568392924742820,"keywords":["nocrits","nodmgspread","payload","uncletopia"],"game_id":440,"stv_port":27036,"stv_name":"Uncletopia | New York City | 3 | Stopwatch Beta | STV","players":null},{"server_id":16,"name":"Uncletopia | New York City | 4 | Community","name_short":"nyc-4","host":"nyc-1.us.uncletopia.com","port":27045,"enabled":true,"region":"us-east","cc":"us","latitude":40.73061,"longitude":-73.93524,"reserved":0,"last_update":"0001-01-01T00:00:00Z","name_a2s":"Uncletopia | New York City | 4 | Community","protocol":17,"map":"workshop/cp_fulgur_rc2a.ugc2068252300","folder":"tf","game":"Team Fortress","app_id":440,"player_count":0,"max_players":24,"Bots":0,"server_type":"Dedicated","server_os":"Linux","password":true,"vac":true,"version":"7757534","steam_id":85568392924742821,"keywords":["cp","nocrits","nodmgspread","uncletopia"],"game_id":440,"stv_port":27046,"stv_name":"Uncletopia | New York City | 4 | Community | STV","players":null},{"server_id":142,"name":"Uncletopia | São Paulo | 1 | All Maps","name_short":"sao-1","host":"sao-1.br.uncletopia.com","port":27015,"enabled":true,"region":"sa","cc":"br","latitude":-23.533773,"longitude":-46.62529,"reserved":0,"last_update":"0001-01-01T00:00:00Z","name_a2s":"Uncletopia | São Paulo | 1 | All Maps","protocol":17,"map":"pl_borneo","folder":"tf","game":"Team Fortress","app_id":440,"player_count":0,"max_players":24,"Bots":0,"server_type":"Dedicated","server_os":"Linux","password":true,"vac":true,"version":"7757534","steam_id":85568392924469996,"keywords":["nocrits","nodmgspread","payload","uncletopia"],"game_id":440,"stv_port":27016,"stv_name":"Uncletopia | São Paulo | 1 | All Maps | STV","players":null},{"server_id":143,"name":"Uncletopia | São Paulo | 2 | All Maps","name_short":"sao-2","host":"sao-2.br.uncletopia.com","port":27015,"enabled":true,"region":"sa","cc":"br","latitude":-23.533773,"longitude":-46.62529,"reserved":0,"last_update":"0001-01-01T00:00:00Z","name_a2s":"Uncletopia | São Paulo | 2 | All Maps","protocol":17,"map":"koth_viaduct","folder":"tf","game":"Team Fortress","app_id":440,"player_count":0,"max_players":24,"Bots":0,"server_type":"Dedicated","server_os":"Linux","password":true,"vac":true,"version":"7757534","steam_id":85568392924485349,"keywords":["cp","nocrits","nodmgspread","uncletopia"],"game_id":440,"stv_port":27016,"stv_name":"Uncletopia | São Paulo | 2 | All Maps | STV","players":null},{"server_id":7,"name":"Uncletopia | Seattle | 1 | All Maps","name_short":"sea-1","host":"sea-1.us.uncletopia.com","port":27015,"enabled":true,"region":"us-west","cc":"us","latitude":47.608013,"longitude":-122.33517,"reserved":0,"last_update":"0001-01-01T00:00:00Z","name_a2s":"Uncletopia | Seattle | 1 | All Maps","protocol":17,"map":"cp_steel","folder":"tf","game":"Team Fortress","app_id":440,"player_count":24,"max_players":24,"Bots":0,"server_type":"Dedicated","server_os":"Linux","password":true,"vac":true,"version":"7757534","steam_id":85568392924469997,"keywords":["cp","nocrits","nodmgspread","uncletopia"],"game_id":440,"stv_port":27016,"stv_name":"Uncletopia | Seattle | 1 | All Maps | STV","players":[{"user_id":617,"name":"Jovo","steam_id":76561197993265970,"connected_time":1054000000000,"state":"active","ping":44},{"user_id":626,"name":"Octo","steam_id":76561198024056355,"connected_time":813000000000,"state":"active","ping":87},{"user_id":629,"name":"rivulet","steam_id":76561198165825391,"connected_time":666000000000,"state":"active","ping":128},{"user_id":639,"name":"JOE","steam_id":76561198027181660,"connected_time":250000000000,"state":"active","ping":139},{"user_id":515,"name":"lili ezili","steam_id":76561199391478575,"connected_time":9799000000000,"state":"active","ping":73},{"user_id":605,"name":"squats!","steam_id":76561198314221897,"connected_time":1390000000000,"state":"active","ping":61},{"user_id":598,"name":"Inflight","steam_id":76561198920049475,"connected_time":1813000000000,"state":"active","ping":112},{"user_id":613,"name":"Cam(era)","steam_id":76561198285054047,"connected_time":1144000000000,"state":"active","ping":84},{"user_id":631,"name":"PeptoBismol","steam_id":76561198082669076,"connected_time":593000000000,"state":"active","ping":80},{"user_id":627,"name":"Oneetama","steam_id":76561198052917390,"connected_time":771000000000,"state":"active","ping":139},{"user_id":609,"name":"green cupcake","steam_id":76561198114030795,"connected_time":1290000000000,"state":"active","ping":54},{"user_id":619,"name":"shrimp","steam_id":76561197981374406,"connected_time":984000000000,"state":"active","ping":65},{"user_id":635,"name":"Dealer","steam_id":76561198801450794,"connected_time":440000000000,"state":"active","ping":101},{"user_id":599,"name":"Closed.","steam_id":76561198212598967,"connected_time":1785000000000,"state":"active","ping":80},{"user_id":595,"name":"The Edumacator","steam_id":76561198347157125,"connected_time":2044000000000,"state":"active","ping":69},{"user_id":602,"name":"GKumo","steam_id":76561198023175868,"connected_time":1621000000000,"state":"active","ping":74},{"user_id":638,"name":"hart","steam_id":76561198046073848,"connected_time":297000000000,"state":"active","ping":46},{"user_id":624,"name":"SearingGustav #tG","steam_id":76561198040560786,"connected_time":862000000000,"state":"active","ping":64},{"user_id":586,"name":"doopsies","steam_id":76561198083000867,"connected_time":3183000000000,"state":"active","ping":52},{"user_id":640,"name":"Coinclever","steam_id":76561198099972692,"connected_time":213000000000,"state":"active","ping":102},{"user_id":625,"name":"nipplezits","steam_id":76561198138409507,"connected_time":858000000000,"state":"active","ping":104},{"user_id":603,"name":"gorlab","steam_id":76561198025089694,"connected_time":1579000000000,"state":"active","ping":64},{"user_id":641,"name":"Sentient Trash Can","steam_id":76561199438622491,"connected_time":202000000000,"state":"active","ping":54},{"user_id":580,"name":"alaska","steam_id":76561198017030029,"connected_time":3621000000000,"state":"active","ping":67}]},{"server_id":119,"name":"Uncletopia | Seattle | 2 | All Maps","name_short":"sea-2","host":"sea-1.us.uncletopia.com","port":27025,"enabled":true,"region":"us-west","cc":"us","latitude":47.608013,"longitude":-122.33517,"reserved":0,"last_update":"0001-01-01T00:00:00Z","name_a2s":"Uncletopia | Seattle | 2 | All Maps","protocol":17,"map":"pl_badwater","folder":"tf","game":"Team Fortress","app_id":440,"player_count":24,"max_players":24,"Bots":0,"server_type":"Dedicated","server_os":"Linux","password":true,"vac":true,"version":"7757534","steam_id":85568392924469998,"keywords":["nocrits","nodmgspread","payload","uncletopia"],"game_id":440,"stv_port":27026,"stv_name":"Uncletopia | Seattle | 2 | All Maps | STV","players":[{"user_id":841,"name":"Vagrant","steam_id":76561198242536886,"connected_time":304000000000,"state":"active","ping":82},{"user_id":827,"name":"tender mike","steam_id":76561198058821622,"connected_time":1195000000000,"state":"active","ping":96},{"user_id":823,"name":"Starpillow ♡","steam_id":76561198095034817,"connected_time":1291000000000,"state":"active","ping":54},{"user_id":838,"name":"Trans Anime Rizz Gaming","steam_id":76561198257541502,"connected_time":462000000000,"state":"active","ping":64},{"user_id":839,"name":"dlatgirp","steam_id":76561198417137724,"connected_time":459000000000,"state":"active","ping":65},{"user_id":821,"name":"Bread","steam_id":76561198320293423,"connected_time":1307000000000,"state":"active","ping":53},{"user_id":754,"name":"MisterManne","steam_id":76561198106598600,"connected_time":7554000000000,"state":"active","ping":56},{"user_id":784,"name":"Ghoulbreath","steam_id":76561198062517442,"connected_time":4373000000000,"state":"active","ping":90},{"user_id":819,"name":"Karl Wheezer","steam_id":76561198848722936,"connected_time":1651000000000,"state":"active","ping":51},{"user_id":837,"name":"KellyKapoor","steam_id":76561198040828123,"connected_time":482000000000,"state":"active","ping":49},{"user_id":804,"name":"forest","steam_id":76561198157960257,"connected_time":2632000000000,"state":"active","ping":45},{"user_id":798,"name":"HetchHetchy","steam_id":76561198128125728,"connected_time":3402000000000,"state":"active","ping":76},{"user_id":803,"name":"Maho","steam_id":76561199076491805,"connected_time":2636000000000,"state":"active","ping":92},{"user_id":824,"name":"311 fan","steam_id":76561198075128586,"connected_time":1286000000000,"state":"active","ping":58},{"user_id":830,"name":"Spaceman","steam_id":76561198349305249,"connected_time":1088000000000,"state":"active","ping":61},{"user_id":834,"name":"dubious little creature","steam_id":76561198113251746,"connected_time":831000000000,"state":"active","ping":60},{"user_id":790,"name":"Salmon","steam_id":76561198285883040,"connected_time":4062000000000,"state":"active","ping":61},{"user_id":820,"name":"exephur","steam_id":76561198135763234,"connected_time":1559000000000,"state":"active","ping":61},{"user_id":840,"name":"Grill Skills","steam_id":76561198053575147,"connected_time":457000000000,"state":"active","ping":78},{"user_id":836,"name":"DoubleTee","steam_id":76561198018980347,"connected_time":764000000000,"state":"active","ping":136},{"user_id":775,"name":"wmjledger","steam_id":76561198443046861,"connected_time":5306000000000,"state":"active","ping":63},{"user_id":808,"name":"Engie Buddy©","steam_id":76561199026911063,"connected_time":2491000000000,"state":"active","ping":60},{"user_id":831,"name":"0CD.nøbu","steam_id":76561198100614981,"connected_time":1048000000000,"state":"active","ping":53},{"user_id":826,"name":"InfernoFlower64","steam_id":76561198181097391,"connected_time":1238000000000,"state":"active","ping":124}]},{"server_id":406,"name":"Uncletopia | Seattle | 3 | Stopwatch Beta","name_short":"sea-3","host":"sea-1.us.uncletopia.com","port":27035,"enabled":true,"region":"us-west","cc":"us","latitude":47.608013,"longitude":-122.33517,"reserved":0,"last_update":"0001-01-01T00:00:00Z","name_a2s":"Uncletopia | Seattle | 3 | Stopwatch Beta","protocol":17,"map":"workshop/pl_summercoast_rc8e.ugc1761528829","folder":"tf","game":"Team Fortress","app_id":440,"player_count":1,"max_players":24,"Bots":0,"server_type":"Dedicated","server_os":"Linux","password":true,"vac":true,"version":"7757534","steam_id":85568392924515217,"keywords":["nocrits","nodmgspread","payload","uncletopia"],"game_id":440,"stv_port":27036,"stv_name":"Uncletopia | Seattle | 3 | Stopwatch Beta | STV","players":[{"user_id":238,"name":"Veg","steam_id":76561198374786138,"connected_time":7000000000,"state":"spawning","ping":65}]},{"server_id":17,"name":"Uncletopia | San Francisco | 1 | All Maps","name_short":"sfo-1","host":"sfo-1.us.uncletopia.com","port":27015,"enabled":true,"region":"us-west","cc":"us","latitude":37.77397,"longitude":-122.4313,"reserved":0,"last_update":"0001-01-01T00:00:00Z","name_a2s":"Uncletopia | San Francisco | 1 | All Maps","protocol":17,"map":"cp_dustbowl","folder":"tf","game":"Team Fortress","app_id":440,"player_count":24,"max_players":24,"Bots":0,"server_type":"Dedicated","server_os":"Linux","password":true,"vac":true,"version":"7757534","steam_id":85568392924469999,"keywords":["cp","nocrits","nodmgspread","uncletopia"],"game_id":440,"stv_port":27016,"stv_name":"Uncletopia | San Francisco | 1 | All Maps | STV","players":[{"user_id":618,"name":"ed","steam_id":76561198080475712,"connected_time":574000000000,"state":"active","ping":52},{"user_id":598,"name":"Ian","steam_id":76561198159334435,"connected_time":2817000000000,"state":"active","ping":171},{"user_id":611,"name":"Fuse","steam_id":76561198047018079,"connected_time":1076000000000,"state":"active","ping":124},{"user_id":546,"name":"squash","steam_id":76561198150281353,"connected_time":6276000000000,"state":"active","ping":74},{"user_id":621,"name":"rorywashere /ᐠ - ˕ -マ Ⳋ","steam_id":76561198065825165,"connected_time":78000000000,"state":"active","ping":122},{"user_id":609,"name":"Sweese","steam_id":76561198863456987,"connected_time":1326000000000,"state":"active","ping":69},{"user_id":567,"name":"Frank (#ripJimmyCarter)","steam_id":76561198126681511,"connected_time":4832000000000,"state":"active","ping":62},{"user_id":595,"name":"t","steam_id":76561198175988929,"connected_time":3177000000000,"state":"active","ping":71},{"user_id":568,"name":"the stallion","steam_id":76561198212242403,"connected_time":4826000000000,"state":"active","ping":49},{"user_id":576,"name":"Seal","steam_id":76561198043985619,"connected_time":4273000000000,"state":"active","ping":126},{"user_id":607,"name":"p9 delight","steam_id":76561197980280272,"connected_time":2316000000000,"state":"active","ping":60},{"user_id":579,"name":"Constipated Barry","steam_id":76561198004482269,"connected_time":4179000000000,"state":"active","ping":45},{"user_id":622,"name":"Sg Lily fan","steam_id":76561198169755734,"connected_time":59000000000,"state":"active","ping":45},{"user_id":586,"name":"Gay Loogi Gang","steam_id":76561198097031529,"connected_time":3489000000000,"state":"active","ping":79},{"user_id":570,"name":"bengy","steam_id":76561198264288798,"connected_time":4816000000000,"state":"active","ping":70},{"user_id":620,"name":"Can You Feel It Mr.Krabs","steam_id":76561198128302414,"connected_time":177000000000,"state":"active","ping":62},{"user_id":623,"name":"dodecadron","steam_id":76561198027397222,"connected_time":31000000000,"state":"active","ping":79},{"user_id":613,"name":"Tricky","steam_id":76561198287908105,"connected_time":1013000000000,"state":"active","ping":90},{"user_id":603,"name":"airbudenjoyer2012","steam_id":76561198150428763,"connected_time":2578000000000,"state":"active","ping":58},{"user_id":619,"name":"Pesky Bee","steam_id":76561198042679485,"connected_time":400000000000,"state":"active","ping":71},{"user_id":587,"name":"cheeeezball","steam_id":76561198086461519,"connected_time":3469000000000,"state":"active","ping":51},{"user_id":615,"name":"doge","steam_id":76561198100340558,"connected_time":971000000000,"state":"active","ping":114},{"user_id":624,"name":"Soozy420","steam_id":76561198809074422,"connected_time":30000000000,"state":"active","ping":58},{"user_id":590,"name":"p9 jorts","steam_id":76561199041179985,"connected_time":3438000000000,"state":"active","ping":85}]},{"server_id":18,"name":"Uncletopia | San Francisco | 2 | All Maps","name_short":"sfo-2","host":"sfo-1.us.uncletopia.com","port":27025,"enabled":true,"region":"us-west","cc":"us","latitude":37.77397,"longitude":-122.4313,"reserved":0,"last_update":"0001-01-01T00:00:00Z","name_a2s":"Uncletopia | San Francisco | 2 | All Maps","protocol":17,"map":"koth_highpass","folder":"tf","game":"Team Fortress","app_id":440,"player_count":3,"max_players":24,"Bots":0,"server_type":"Dedicated","server_os":"Linux","password":true,"vac":true,"version":"7757534","steam_id":85568392924470000,"keywords":["cp","nocrits","nodmgspread","uncletopia"],"game_id":440,"stv_port":27026,"stv_name":"Uncletopia | San Francisco | 2 | All Maps | STV","players":[{"user_id":587,"name":"Ediot","steam_id":76561199349494096,"connected_time":648000000000,"state":"active","ping":125},{"user_id":588,"name":"ChuChu","steam_id":76561199443647976,"connected_time":627000000000,"state":"active","ping":108},{"user_id":590,"name":"cofferhead","steam_id":76561199191108449,"connected_time":149000000000,"state":"active","ping":55}]},{"server_id":19,"name":"Uncletopia | San Francisco | 3 | Stopwatch Beta","name_short":"sfo-3","host":"sfo-1.us.uncletopia.com","port":27035,"enabled":true,"region":"us-west","cc":"us","latitude":37.77397,"longitude":-122.4313,"reserved":0,"last_update":"0001-01-01T00:00:00Z","name_a2s":"Uncletopia | San Francisco | 3 | Stopwatch Beta","protocol":17,"map":"koth_highpass","folder":"tf","game":"Team Fortress","app_id":440,"player_count":0,"max_players":24,"Bots":0,"server_type":"Dedicated","server_os":"Linux","password":true,"vac":true,"version":"7757534","steam_id":85568392924742824,"keywords":["cp","nocrits","nodmgspread","uncletopia"],"game_id":440,"stv_port":27036,"stv_name":"Uncletopia | San Francisco | 3 | Stopwatch Beta | STV","players":null},{"server_id":20,"name":"Uncletopia | San Francisco | 4 | Community","name_short":"sfo-4","host":"sfo-1.us.uncletopia.com","port":27045,"enabled":true,"region":"us-west","cc":"us","latitude":37.77397,"longitude":-122.4313,"reserved":0,"last_update":"0001-01-01T00:00:00Z","name_a2s":"Uncletopia | San Francisco | 4 | Community","protocol":17,"map":"workshop/koth_bagel_rc6.ugc2514036946","folder":"tf","game":"Team Fortress","app_id":440,"player_count":5,"max_players":24,"Bots":0,"server_type":"Dedicated","server_os":"Linux","password":true,"vac":true,"version":"7757534","steam_id":85568392924742826,"keywords":["cp","nocrits","nodmgspread","uncletopia"],"game_id":440,"stv_port":27046,"stv_name":"Uncletopia | San Francisco | 4 | Community | STV","players":[{"user_id":393,"name":"awning","steam_id":76561198202285760,"connected_time":727000000000,"state":"active","ping":64},{"user_id":394,"name":"tracy","steam_id":76561198319677284,"connected_time":656000000000,"state":"active","ping":46},{"user_id":370,"name":"knatspray","steam_id":76561198832507482,"connected_time":2755000000000,"state":"active","ping":65},{"user_id":380,"name":"Justtophat","steam_id":76561198308787175,"connected_time":1854000000000,"state":"active","ping":61},{"user_id":335,"name":"PinguEnjoyer6","steam_id":76561199186723516,"connected_time":5988000000000,"state":"active","ping":57}]},{"server_id":141,"name":"Uncletopia | Sydney | 1 | All Maps","name_short":"syd-1","host":"syd-1.au.uncletopia.com","port":27015,"enabled":true,"region":"au","cc":"au","latitude":-33.865143,"longitude":151.2099,"reserved":0,"last_update":"0001-01-01T00:00:00Z","name_a2s":"Uncletopia | Sydney | 1 | All Maps","protocol":17,"map":"pl_borneo","folder":"tf","game":"Team Fortress","app_id":440,"player_count":24,"max_players":24,"Bots":0,"server_type":"Dedicated","server_os":"Linux","password":true,"vac":true,"version":"7757534","steam_id":85568392924470001,"keywords":["nocrits","nodmgspread","payload","uncletopia"],"game_id":440,"stv_port":27016,"stv_name":"Uncletopia | Sydney | 1 | All Maps | STV","players":[{"user_id":78,"name":"Dimond_bird","steam_id":76561199129051643,"connected_time":1433000000000,"state":"active","ping":54},{"user_id":80,"name":"Zzep_","steam_id":76561198059402662,"connected_time":1381000000000,"state":"active","ping":60},{"user_id":61,"name":"SIRROM12 (SIRR)","steam_id":76561198116738329,"connected_time":2321000000000,"state":"active","ping":67},{"user_id":96,"name":"Shadow Puppeteer","steam_id":76561198151121997,"connected_time":705000000000,"state":"active","ping":76},{"user_id":101,"name":"Bigrichard","steam_id":76561198032092945,"connected_time":296000000000,"state":"active","ping":81},{"user_id":90,"name":"frog","steam_id":76561198300661780,"connected_time":1068000000000,"state":"active","ping":66},{"user_id":65,"name":"Worst Sniper","steam_id":76561198025733081,"connected_time":2036000000000,"state":"active","ping":77},{"user_id":66,"name":"Mr Mahal","steam_id":76561198123234137,"connected_time":1992000000000,"state":"active","ping":59},{"user_id":67,"name":"slow","steam_id":76561198163340833,"connected_time":1850000000000,"state":"active","ping":57},{"user_id":83,"name":"Glunky","steam_id":76561198277847223,"connected_time":1279000000000,"state":"active","ping":59},{"user_id":69,"name":"Phobia²","steam_id":76561198038833524,"connected_time":1796000000000,"state":"active","ping":56},{"user_id":94,"name":"thepixel","steam_id":76561198155396809,"connected_time":746000000000,"state":"active","ping":50},{"user_id":71,"name":"KeeperOfBalance","steam_id":76561198028070089,"connected_time":1738000000000,"state":"active","ping":88},{"user_id":91,"name":"MadmannsHat","steam_id":76561199063185304,"connected_time":1060000000000,"state":"active","ping":82},{"user_id":73,"name":"zero.bitches.1999","steam_id":76561198241303512,"connected_time":1631000000000,"state":"active","ping":57},{"user_id":76,"name":"tom :D","steam_id":76561198073393715,"connected_time":1541000000000,"state":"active","ping":122},{"user_id":103,"name":"TheTophatterOfTophats","steam_id":76561199142504761,"connected_time":130000000000,"state":"active","ping":32},{"user_id":95,"name":"amps","steam_id":76561198060894632,"connected_time":730000000000,"state":"active","ping":67},{"user_id":82,"name":"old chunk of coal","steam_id":76561197990537324,"connected_time":1332000000000,"state":"active","ping":105},{"user_id":84,"name":"søren","steam_id":76561199126710327,"connected_time":1243000000000,"state":"active","ping":50},{"user_id":85,"name":"james16","steam_id":76561198362678073,"connected_time":1239000000000,"state":"active","ping":35},{"user_id":100,"name":"yons","steam_id":76561198083920784,"connected_time":467000000000,"state":"active","ping":63},{"user_id":87,"name":"Don Cheezel","steam_id":76561198321407264,"connected_time":1167000000000,"state":"active","ping":60},{"user_id":104,"name":"Cup","steam_id":76561198038485845,"connected_time":130000000000,"state":"active","ping":30}]},{"server_id":123,"name":"Uncletopia | Sydney | 2 | All Maps","name_short":"syd-2","host":"syd-1.au.uncletopia.com","port":27025,"enabled":true,"region":"au","cc":"au","latitude":-33.865143,"longitude":151.2099,"reserved":0,"last_update":"0001-01-01T00:00:00Z","name_a2s":"Uncletopia | Sydney | 2 | All Maps","protocol":17,"map":"koth_cascade","folder":"tf","game":"Team Fortress","app_id":440,"player_count":5,"max_players":24,"Bots":0,"server_type":"Dedicated","server_os":"Linux","password":true,"vac":true,"version":"7757534","steam_id":85568392924470002,"keywords":["cp","nocrits","nodmgspread","uncletopia"],"game_id":440,"stv_port":27026,"stv_name":"Uncletopia | Sydney | 2 | All Maps | STV","players":[{"user_id":13,"name":"Nin","steam_id":76561198084813558,"connected_time":1412000000000,"state":"active","ping":245},{"user_id":14,"name":"Monkey","steam_id":76561198046311471,"connected_time":1384000000000,"state":"active","ping":54},{"user_id":18,"name":"TSTM","steam_id":76561198031870836,"connected_time":654000000000,"state":"active","ping":61},{"user_id":20,"name":"BadmanTing","steam_id":76561198011496098,"connected_time":367000000000,"state":"active","ping":55},{"user_id":21,"name":"Atner","steam_id":76561198442934454,"connected_time":278000000000,"state":"active","ping":85}]},{"server_id":395,"name":"Uncletopia | Sydney | 3 | All Maps","name_short":"syd-3","host":"syd-1.au.uncletopia.com","port":27035,"enabled":true,"region":"au","cc":"au","latitude":-33.865143,"longitude":151.2099,"reserved":0,"last_update":"0001-01-01T00:00:00Z","name_a2s":"Uncletopia | Sydney | 3 | All Maps","protocol":17,"map":"pl_swiftwater_final1","folder":"tf","game":"Team Fortress","app_id":440,"player_count":20,"max_players":24,"Bots":0,"server_type":"Dedicated","server_os":"Linux","password":true,"vac":true,"version":"7757534","steam_id":85568392925194467,"keywords":["nocrits","nodmgspread","payload","uncletopia"],"game_id":440,"stv_port":27036,"stv_name":"Uncletopia | Sydney | 3 | All Maps | STV","players":[{"user_id":156,"name":"Morgenstein","steam_id":76561198253080474,"connected_time":3126000000000,"state":"active","ping":68},{"user_id":186,"name":"Zoey","steam_id":76561198126153554,"connected_time":667000000000,"state":"active","ping":78},{"user_id":187,"name":"applepine","steam_id":76561198128399166,"connected_time":583000000000,"state":"active","ping":75},{"user_id":125,"name":"Rashid Of The Dank Memes","steam_id":76561198281398078,"connected_time":4369000000000,"state":"active","ping":65},{"user_id":185,"name":"no teles 4 u","steam_id":76561198018478297,"connected_time":917000000000,"state":"active","ping":73},{"user_id":164,"name":"Tyson919","steam_id":76561199154100346,"connected_time":2758000000000,"state":"active","ping":61},{"user_id":188,"name":"DeathEagle シ","steam_id":76561197997644542,"connected_time":579000000000,"state":"active","ping":55},{"user_id":138,"name":"HJGuard","steam_id":76561199275636067,"connected_time":3695000000000,"state":"active","ping":63},{"user_id":75,"name":"Jodelkönig Franzl Lang","steam_id":76561198007667830,"connected_time":8063000000000,"state":"active","ping":59},{"user_id":85,"name":"LightningBlock","steam_id":76561198289997742,"connected_time":7202000000000,"state":"active","ping":32},{"user_id":189,"name":"stamm","steam_id":76561198041993019,"connected_time":382000000000,"state":"active","ping":64},{"user_id":194,"name":"perturb","steam_id":76561198085124297,"connected_time":182000000000,"state":"active","ping":60},{"user_id":145,"name":"honkybus thruttlebop","steam_id":76561198063481761,"connected_time":3457000000000,"state":"active","ping":44},{"user_id":192,"name":"KiwiJiwi","steam_id":76561198262081410,"connected_time":372000000000,"state":"active","ping":69},{"user_id":174,"name":"the frail","steam_id":76561198025099660,"connected_time":1561000000000,"state":"active","ping":33},{"user_id":180,"name":"there was me, what is alex","steam_id":76561199057568663,"connected_time":1332000000000,"state":"active","ping":60},{"user_id":182,"name":"AmethystDragon10","steam_id":76561198412979983,"connected_time":1117000000000,"state":"active","ping":75},{"user_id":143,"name":"Rosemary","steam_id":76561198996803743,"connected_time":3592000000000,"state":"active","ping":69},{"user_id":161,"name":"you have been deemed, Gilbert","steam_id":76561198301282416,"connected_time":2993000000000,"state":"active","ping":63},{"user_id":152,"name":"Hydraulic Press Gaming","steam_id":76561199396024219,"connected_time":3299000000000,"state":"active","ping":58}]},{"server_id":396,"name":"Uncletopia | Sydney | 4 | All Maps","name_short":"syd-4","host":"syd-1.au.uncletopia.com","port":27045,"enabled":true,"region":"au","cc":"au","latitude":-33.865143,"longitude":151.2099,"reserved":0,"last_update":"0001-01-01T00:00:00Z","name_a2s":"Uncletopia | Sydney | 4 | All Maps","protocol":17,"map":"koth_highpass","folder":"tf","game":"Team Fortress","app_id":440,"player_count":0,"max_players":24,"Bots":0,"server_type":"Dedicated","server_os":"Linux","password":true,"vac":true,"version":"7757534","steam_id":85568392925397958,"keywords":["cp","nocrits","nodmgspread","uncletopia"],"game_id":440,"stv_port":27046,"stv_name":"Uncletopia | Sydney | 4 | All Maps | STV","players":null},{"server_id":58,"name":"Uncletopia | Sydney | 5 | Stopwatch Beta","name_short":"syd-5","host":"syd-1.au.uncletopia.com","port":27055,"enabled":true,"region":"au","cc":"au","latitude":-33.865143,"longitude":151.2099,"reserved":0,"last_update":"0001-01-01T00:00:00Z","name_a2s":"Uncletopia | Sydney | 5 | Stopwatch Beta","protocol":17,"map":"pl_upward","folder":"tf","game":"Team Fortress","app_id":440,"player_count":0,"max_players":24,"Bots":0,"server_type":"Dedicated","server_os":"Linux","password":true,"vac":true,"version":"7757534","steam_id":85568392925397959,"keywords":["nocrits","nodmgspread","payload","uncletopia"],"game_id":440,"stv_port":27056,"stv_name":"Uncletopia | Sydney | 5 | Stopwatch Beta | STV","players":null},{"server_id":59,"name":"Uncletopia | Sydney | 6 | Community","name_short":"syd-6","host":"syd-1.au.uncletopia.com","port":27065,"enabled":true,"region":"au","cc":"au","latitude":-33.865143,"longitude":151.2099,"reserved":0,"last_update":"0001-01-01T00:00:00Z","name_a2s":"Uncletopia | Sydney | 6 | Community","protocol":17,"map":"workshop/koth_ashville_final.ugc2130459942","folder":"tf","game":"Team Fortress","app_id":440,"player_count":0,"max_players":24,"Bots":0,"server_type":"Dedicated","server_os":"Linux","password":true,"vac":true,"version":"7757534","steam_id":85568392925397960,"keywords":["cp","nocrits","nodmgspread","uncletopia"],"game_id":440,"stv_port":27066,"stv_name":"Uncletopia | Sydney | 6 | Community | STV","players":null},{"server_id":49,"name":"Uncletopia | Warsaw | 1 | All Maps","name_short":"waw-1","host":"waw-1.pl.uncletopia.com","port":27015,"enabled":true,"region":"eu","cc":"pl","latitude":52.2297,"longitude":21.017532,"reserved":0,"last_update":"0001-01-01T00:00:00Z","name_a2s":"","protocol":0,"map":"","folder":"","game":"","app_id":0,"player_count":0,"max_players":0,"Bots":0,"server_type":"","server_os":"","password":false,"vac":false,"version":"","steam_id":0,"keywords":null,"game_id":0,"stv_port":0,"stv_name":"","players":null},{"server_id":50,"name":"Uncletopia | Warsaw | 2 | All Maps","name_short":"waw-2","host":"waw-1.pl.uncletopia.com","port":27025,"enabled":true,"region":"eu","cc":"pl","latitude":52.2297,"longitude":21.017532,"reserved":0,"last_update":"0001-01-01T00:00:00Z","name_a2s":"Uncletopia | Warsaw | 2 | All Maps","protocol":17,"map":"koth_viaduct","folder":"tf","game":"Team Fortress","app_id":440,"player_count":0,"max_players":24,"Bots":0,"server_type":"Dedicated","server_os":"Linux","password":true,"vac":true,"version":"7757534","steam_id":85568392925397851,"keywords":["cp","nocrits","nodmgspread","uncletopia"],"game_id":440,"stv_port":27026,"stv_name":"Uncletopia | Warsaw | 2 | All Maps | STV","players":null},{"server_id":51,"name":"Uncletopia | Warsaw | 3 | All Maps","name_short":"waw-3","host":"waw-1.pl.uncletopia.com","port":27035,"enabled":true,"region":"eu","cc":"pl","latitude":52.2297,"longitude":21.017532,"reserved":0,"last_update":"0001-01-01T00:00:00Z","name_a2s":"Uncletopia | Warsaw | 3 | All Maps","protocol":17,"map":"pl_badwater","folder":"tf","game":"Team Fortress","app_id":440,"player_count":0,"max_players":24,"Bots":0,"server_type":"Dedicated","server_os":"Linux","password":true,"vac":true,"version":"7757534","steam_id":85568392925397852,"keywords":["nocrits","nodmgspread","payload","uncletopia"],"game_id":440,"stv_port":27036,"stv_name":"Uncletopia | Warsaw | 3 | All Maps | STV","players":null},{"server_id":52,"name":"Uncletopia | Warsaw | 4 | All Maps","name_short":"waw-4","host":"waw-1.pl.uncletopia.com","port":27045,"enabled":true,"region":"eu","cc":"pl","latitude":52.2297,"longitude":21.017532,"reserved":0,"last_update":"0001-01-01T00:00:00Z","name_a2s":"Uncletopia | Warsaw | 4 | All Maps","protocol":17,"map":"koth_lakeside_final","folder":"tf","game":"Team Fortress","app_id":440,"player_count":0,"max_players":24,"Bots":0,"server_type":"Dedicated","server_os":"Linux","password":true,"vac":true,"version":"7757534","steam_id":85568392925397853,"keywords":["cp","nocrits","nodmgspread","uncletopia"],"game_id":440,"stv_port":27046,"stv_name":"Uncletopia | Warsaw | 4 | All Maps | STV","players":null},{"server_id":53,"name":"Uncletopia | Warsaw | 5 | Stopwatch Beta","name_short":"waw-5","host":"waw-1.pl.uncletopia.com","port":27055,"enabled":true,"region":"eu","cc":"pl","latitude":52.2297,"longitude":21.017532,"reserved":0,"last_update":"0001-01-01T00:00:00Z","name_a2s":"Uncletopia | Warsaw | 5 | Stopwatch Beta","protocol":17,"map":"pl_borneo","folder":"tf","game":"Team Fortress","app_id":440,"player_count":0,"max_players":24,"Bots":0,"server_type":"Dedicated","server_os":"Linux","password":true,"vac":true,"version":"7757534","steam_id":85568392925397854,"keywords":["nocrits","nodmgspread","payload","uncletopia"],"game_id":440,"stv_port":27056,"stv_name":"Uncletopia | Warsaw | 5 | Stopwatch Beta | STV","players":null},{"server_id":54,"name":"Uncletopia | Warsaw | 6 | Community","name_short":"waw-6","host":"waw-1.pl.uncletopia.com","port":27065,"enabled":true,"region":"eu","cc":"pl","latitude":52.2297,"longitude":21.017532,"reserved":0,"last_update":"0001-01-01T00:00:00Z","name_a2s":"Uncletopia | Warsaw | 6 | Community","protocol":17,"map":"koth_lakeside_final","folder":"tf","game":"Team Fortress","app_id":440,"player_count":0,"max_players":24,"Bots":0,"server_type":"Dedicated","server_os":"Linux","password":true,"vac":true,"version":"7757534","steam_id":85568392925397856,"keywords":["cp","nocrits","nodmgspread","uncletopia"],"game_id":440,"stv_port":27066,"stv_name":"Uncletopia | Warsaw | 6 | Community | STV","players":null}]}