{"status":true,"message":"","result":[{"server_id":9,"name":"Uncletopia | Atlanta | 1 | All Maps","name_short":"atl-1","host":"atl-1.us.uncletopia.com","port":27015,"enabled":true,"region":"us-east","cc":"us","latitude":33.753746,"longitude":-84.38633,"reserved":0,"last_update":"0001-01-01T00:00:00Z","name_a2s":"Uncletopia | Atlanta | 1 | All Maps","protocol":17,"map":"pl_pier","folder":"tf","game":"Team Fortress","app_id":440,"player_count":14,"max_players":24,"Bots":0,"server_type":"Dedicated","server_os":"Linux","password":true,"vac":true,"version":"7961495","steam_id":85568392924469982,"keywords":["nocrits","nodmgspread","payload","uncletopia"],"game_id":440,"stv_port":27016,"stv_name":"Uncletopia | Atlanta | 1 | All Maps | STV","players":[{"user_id":18,"name":"get scrongled, idiot","steam_id":76561198115874625,"connected_time":486000000000,"state":"active","ping":119},{"user_id":6,"name":"Kick Down Door 6:00AM TUCK‚òÉRO","steam_id":76561197976146738,"connected_time":1955000000000,"state":"active","ping":70},{"user_id":7,"name":"vebr","steam_id":76561199189391772,"connected_time":1674000000000,"state":"active","ping":80},{"user_id":16,"name":"Brown_Dream","steam_id":76561198975766145,"connected_time":661000000000,"state":"active","ping":63},{"user_id":10,"name":"Crazy Dave!","steam_id":76561198951414566,"connected_time":826000000000,"state":"active","ping":74},{"user_id":21,"name":"ice_fly","steam_id":76561198083790449,"connected_time":335000000000,"state":"active","ping":77},{"user_id":17,"name":"Jelly Head 98","steam_id":76561198342074188,"connected_time":602000000000,"state":"active","ping":116},{"user_id":19,"name":"barbecuesteve","steam_id":76561198048819671,"connected_time":481000000000,"state":"active","ping":44},{"user_id":20,"name":"jr_","steam_id":76561198313937899,"connected_time":469000000000,"state":"active","ping":163},{"user_id":22,"name":"Dr. Game and Watch","steam_id":76561197999615565,"connected_time":154000000000,"state":"active","ping":65},{"user_id":23,"name":"Pure","steam_id":76561198382134521,"connected_time":93000000000,"state":"active","ping":65},{"user_id":24,"name":"fco_munozp1092","steam_id":76561199208070655,"connected_time":93000000000,"state":"active","ping":98},{"user_id":26,"name":"general.b","steam_id":76561198162480519,"connected_time":51000000000,"state":"active","ping":71},{"user_id":27,"name":"Blaze","steam_id":76561198043797702,"connected_time":20000000000,"state":"spawning","ping":69}]},{"server_id":104,"name":"Uncletopia | Atlanta | 2 | All Maps","name_short":"atl-2","host":"atl-1.us.uncletopia.com","port":27025,"enabled":true,"region":"us-east","cc":"us","latitude":33.753746,"longitude":-84.38633,"reserved":0,"last_update":"0001-01-01T00:00:00Z","name_a2s":"Uncletopia | Atlanta | 2 | All Maps","protocol":17,"map":"cp_process_final","folder":"tf","game":"Team Fortress","app_id":440,"player_count":0,"max_players":24,"Bots":0,"server_type":"Dedicated","server_os":"Linux","password":true,"vac":true,"version":"7961495","steam_id":85568392924469983,"keywords":["cp","nocrits","nodmgspread","uncletopia"],"game_id":440,"stv_port":27026,"stv_name":"Uncletopia | Atlanta | 2 | All Maps | STV","players":null},{"server_id":400,"name":"Uncletopia | Atlanta | 3 | Stopwatch","name_short":"atl-3","host":"atl-1.us.uncletopia.com","port":27035,"enabled":true,"region":"us-east","cc":"us","latitude":33.753746,"longitude":-84.38633,"reserved":0,"last_update":"0001-01-01T00:00:00Z","name_a2s":"Uncletopia | Atlanta | 3 | Stopwatch","protocol":17,"map":"workshop/koth_product_final.ugc454272353","folder":"tf","game":"Team Fortress","app_id":440,"player_count":0,"max_players":24,"Bots":0,"server_type":"Dedicated","server_os":"Linux","password":true,"vac":true,"version":"7961495","steam_id":85568392924515187,"keywords":["cp","nocrits","nodmgspread","uncletopia"],"game_id":440,"stv_port":27036,"stv_name":"Uncletopia | Atlanta | 3 | Stopwatch | STV","players":null},{"server_id":401,"name":"Uncletopia | Atlanta | 4 | Community","name_short":"atl-4","host":"atl-1.us.uncletopia.com","port":27045,"enabled":true,"region":"us-east","cc":"us","latitude":33.753746,"longitude":-84.38633,"reserved":0,"last_update":"0001-01-01T00:00:00Z","name_a2s":"Uncletopia | Atlanta | 4 | Community","protocol":17,"map":"workshop/cp_glassworks_rc7a.ugc454118349","folder":"tf","game":"Team Fortress","app_id":440,"player_count":0,"max_players":24,"Bots":0,"server_type":"Dedicated","server_os":"Linux","password":true,"vac":true,"version":"7961495","steam_id":85568392924515188,"keywords":["cp","nocrits","nodmgspread","uncletopia"],"game_id":440,"stv_port":27046,"stv_name":"Uncletopia | Atlanta | 4 | Community | STV","players":null},{"server_id":2,"name":"Uncletopia | Chicago | 1 | All Maps","name_short":"chi-1","host":"chi-1.us.uncletopia.com","port":27015,"enabled":true,"region":"us-central","cc":"us","latitude":41.881832,"longitude":-87.62318,"reserved":0,"last_update":"0001-01-01T00:00:00Z","name_a2s":"Uncletopia | Chicago | 1 | All Maps","protocol":17,"map":"cp_sunshine","folder":"tf","game":"Team Fortress","app_id":440,"player_count":23,"max_players":24,"Bots":0,"server_type":"Dedicated","server_os":"Linux","password":true,"vac":true,"version":"7961495","steam_id":85568392924469984,"keywords":["cp","nocrits","nodmgspread","uncletopia"],"game_id":440,"stv_port":27016,"stv_name":"Uncletopia | Chicago | 1 | All Maps | STV","players":[{"user_id":59,"name":"TheSquidz_","steam_id":76561199496786652,"connected_time":2543000000000,"state":"active","ping":87},{"user_id":71,"name":"Kyle Krittenhouse","steam_id":76561199501497157,"connected_time":1456000000000,"state":"active","ping":87},{"user_id":57,"name":"Kindagoodplayer","steam_id":76561198814625843,"connected_time":2699000000000,"state":"active","ping":55},{"user_id":81,"name":"Decolour","steam_id":76561199045608372,"connected_time":398000000000,"state":"active","ping":60},{"user_id":60,"name":"Person","steam_id":76561198021731433,"connected_time":2538000000000,"state":"active","ping":71},{"user_id":56,"name":"Prescription","steam_id":76561197995620232,"connected_time":2730000000000,"state":"active","ping":50},{"user_id":58,"name":"orangutan smashing a keyboard","steam_id":76561198348334716,"connected_time":2698000000000,"state":"active","ping":56},{"user_id":79,"name":"Bubbly","steam_id":76561199014095959,"connected_time":421000000000,"state":"active","ping":86},{"user_id":82,"name":"a","steam_id":76561198131245396,"connected_time":396000000000,"state":"active","ping":55},{"user_id":75,"name":"YourFriendJessie *REAL*","steam_id":76561198176883097,"connected_time":790000000000,"state":"active","ping":55},{"user_id":62,"name":"Size 18 Zebra Midge","steam_id":76561198078886351,"connected_time":2303000000000,"state":"active","ping":69},{"user_id":34,"name":"Average Pinkerton Enjoyer","steam_id":76561199376462977,"connected_time":3349000000000,"state":"active","ping":98},{"user_id":51,"name":"Pango","steam_id":76561198069811545,"connected_time":2898000000000,"state":"active","ping":60},{"user_id":80,"name":"xylophone master","steam_id":76561198328109873,"connected_time":404000000000,"state":"active","ping":67},{"user_id":72,"name":"P.C. Baby","steam_id":76561198067011379,"connected_time":1439000000000,"state":"active","ping":100},{"user_id":43,"name":"worker","steam_id":76561198039608940,"connected_time":3202000000000,"state":"active","ping":102},{"user_id":54,"name":"JohnFMX","steam_id":76561198175608097,"connected_time":2861000000000,"state":"active","ping":68},{"user_id":40,"name":"human trafficking","steam_id":76561198309823950,"connected_time":3216000000000,"state":"active","ping":89},{"user_id":41,"name":"◊ì◊†◊ô◊ê◊ú","steam_id":76561198046278452,"connected_time":3210000000000,"state":"active","ping":100},{"user_id":66,"name":"Menace to Sobriety","steam_id":76561198245103000,"connected_time":2029000000000,"state":"active","ping":56},{"user_id":78,"name":"pea ttv/peabeanz","steam_id":76561198119551968,"connected_time":425000000000,"state":"active","ping":60},{"user_id":74,"name":"freesia","steam_id":76561198127525888,"connected_time":1427000000000,"state":"active","ping":75},{"user_id":76,"name":"Your Local Queer Librarian","steam_id":76561198013077080,"connected_time":790000000000,"state":"active","ping":45}]},{"server_id":106,"name":"Uncletopia | Chicago | 2 | All Maps","name_short":"chi-2","host":"chi-1.us.uncletopia.com","port":27025,"enabled":true,"region":"us-central","cc":"us","latitude":41.881832,"longitude":-87.62318,"reserved":0,"last_update":"0001-01-01T00:00:00Z","name_a2s":"Uncletopia | Chicago | 2 | All Maps","protocol":17,"map":"pl_frontier_final","folder":"tf","game":"Team Fortress","app_id":440,"player_count":0,"max_players":24,"Bots":0,"server_type":"Dedicated","server_os":"Linux","password":true,"vac":true,"version":"7961495","steam_id":85568392924469985,"keywords":["nocrits","nodmgspread","payload","uncletopia"],"game_id":440,"stv_port":27026,"stv_name":"Uncletopia | Chicago | 2 | All Maps | STV","players":null},{"server_id":402,"name":"Uncletopia | Chicago | 3 | All Maps","name_short":"chi-3","host":"chi-1.us.uncletopia.com","port":27035,"enabled":true,"region":"us-central","cc":"us","latitude":41.881832,"longitude":-87.62318,"reserved":0,"last_update":"0001-01-01T00:00:00Z","name_a2s":"Uncletopia | Chicago | 3 | All Maps","protocol":17,"map":"plr_pipeline","folder":"tf","game":"Team Fortress","app_id":440,"player_count":0,"max_players":24,"Bots":0,"server_type":"Dedicated","server_os":"Linux","password":true,"vac":true,"version":"7961495","steam_id":85568392924515191,"keywords":["nocrits","nodmgspread","payload","uncletopia"],"game_id":440,"stv_port":27036,"stv_name":"Uncletopia | Chicago | 3 | All Maps | STV","players":null},{"server_id":403,"name":"Uncletopia | Chicago | 4 | All Maps","name_short":"chi-4","host":"chi-1.us.uncletopia.com","port":27045,"enabled":true,"region":"us-central","cc":"us","latitude":41.881832,"longitude":-87.62318,"reserved":0,"last_update":"0001-01-01T00:00:00Z","name_a2s":"Uncletopia | Chicago | 4 | All Maps","protocol":17,"map":"pl_rumford_event","folder":"tf","game":"Team Fortress","app_id":440,"player_count":0,"max_players":24,"Bots":0,"server_type":"Dedicated","server_os":"Linux","password":true,"vac":true,"version":"7961495","steam_id":85568392924515193,"keywords":["nocrits","nodmgspread","payload","uncletopia"],"game_id":440,"stv_port":27046,"stv_name":"Uncletopia | Chicago | 4 | All Maps | STV","players":null},{"server_id":36,"name":"Uncletopia | Chicago | 5 | All Maps","name_short":"chi-5","host":"chi-2.us.uncletopia.com","port":27015,"enabled":true,"region":"us-central","cc":"us","latitude":41.881832,"longitude":-87.62318,"reserved":0,"last_update":"0001-01-01T00:00:00Z","name_a2s":"Uncletopia | Chicago | 5 | All Maps","protocol":17,"map":"koth_lakeside_final","folder":"tf","game":"Team Fortress","app_id":440,"player_count":20,"max_players":24,"Bots":0,"server_type":"Dedicated","server_os":"Linux","password":true,"vac":true,"version":"7961495","steam_id":85568392924866362,"keywords":["nocrits","nodmgspread","payload","uncletopia"],"game_id":440,"stv_port":27016,"stv_name":"Uncletopia | Chicago | 5 | All Maps | STV","players":[{"user_id":51,"name":"Hankel Tom (The Hankeler)","steam_id":76561199446367874,"connected_time":107000000000,"state":"connecting","ping":58},{"user_id":6,"name":"name 1 hyperpop artist","steam_id":76561199118569153,"connected_time":1941000000000,"state":"connecting","ping":75},{"user_id":52,"name":"Your Local Pybro","steam_id":76561198801472157,"connected_time":88000000000,"state":"connecting","ping":185},{"user_id":40,"name":"Giselle","steam_id":76561198162593640,"connected_time":790000000000,"state":"connecting","ping":136},{"user_id":24,"name":"Kay ‚ò≠","steam_id":76561198353432576,"connected_time":1174000000000,"state":"connecting","ping":94},{"user_id":11,"name":"I'm a Fungi","steam_id":76561198061507741,"connected_time":1713000000000,"state":"connecting","ping":63},{"user_id":26,"name":"Mig_Chungus","steam_id":76561198053410265,"connected_time":1141000000000,"state":"connecting","ping":198},{"user_id":53,"name":"The_smug_gamer","steam_id":76561198388526167,"connected_time":15000000000,"state":"connecting","ping":46},{"user_id":17,"name":"meow","steam_id":76561199027265733,"connected_time":1467000000000,"state":"connecting","ping":77},{"user_id":20,"name":"Luke4nier","steam_id":76561198090671431,"connected_time":1300000000000,"state":"connecting","ping":77},{"user_id":23,"name":"pittypier","steam_id":76561199447222783,"connected_time":1221000000000,"state":"connecting","ping":186},{"user_id":31,"name":"Poetic Pillager","steam_id":76561198964913885,"connected_time":1062000000000,"state":"connecting","ping":51},{"user_id":32,"name":"Chicken Nugget","steam_id":76561198082601232,"connected_time":1054000000000,"state":"connecting","ping":86},{"user_id":38,"name":"vectorman","steam_id":76561198274544005,"connected_time":944000000000,"state":"connecting","ping":115},{"user_id":44,"name":"The Electrivista","steam_id":76561198992357465,"connected_time":659000000000,"state":"connecting","ping":221},{"user_id":43,"name":"Daannnyyyy","steam_id":76561198354681920,"connected_time":673000000000,"state":"connecting","ping":82},{"user_id":47,"name":"B.","steam_id":76561198040445907,"connected_time":633000000000,"state":"connecting","ping":99}]},{"server_id":37,"name":"Uncletopia | Chicago | 6 | All Maps","name_short":"chi-6","host":"chi-2.us.uncletopia.com","port":27025,"enabled":true,"region":"us-central","cc":"us","latitude":41.881832,"longitude":-87.62318,"reserved":0,"last_update":"0001-01-01T00:00:00Z","name_a2s":"Uncletopia | Chicago | 6 | All Maps","protocol":17,"map":"koth_highpass","folder":"tf","game":"Team Fortress","app_id":440,"player_count":24,"max_players":24,"Bots":0,"server_type":"Dedicated","server_os":"Linux","password":true,"vac":true,"version":"7961495","steam_id":85568392924866363,"keywords":["cp","nocrits","nodmgspread","uncletopia"],"game_id":440,"stv_port":27026,"stv_name":"Uncletopia | Chicago | 6 | All Maps | STV","players":[{"user_id":144,"name":"JimGrimm","steam_id":76561198044573050,"connected_time":593000000000,"state":"active","ping":81},{"user_id":154,"name":"november","steam_id":76561198042748172,"connected_time":362000000000,"state":"active","ping":47},{"user_id":140,"name":"Joshy","steam_id":76561198061405421,"connected_time":829000000000,"state":"active","ping":89},{"user_id":148,"name":"Neat","steam_id":76561198065198207,"connected_time":469000000000,"state":"active","ping":92},{"user_id":76,"name":"roblox.god.2012","steam_id":76561198057553641,"connected_time":4310000000000,"state":"active","ping":54},{"user_id":126,"name":"moon","steam_id":76561198181153199,"connected_time":1673000000000,"state":"active","ping":85},{"user_id":141,"name":"allMAX","steam_id":76561198270980670,"connected_time":786000000000,"state":"active","ping":175},{"user_id":151,"name":"Hidden Phantom","steam_id":76561198115531799,"connected_time":416000000000,"state":"active","ping":72},{"user_id":81,"name":"mr.videogame","steam_id":76561198119558096,"connected_time":4129000000000,"state":"active","ping":57},{"user_id":145,"name":"LJBLJB‚Ñ¢","steam_id":76561198166782022,"connected_time":591000000000,"state":"active","ping":60},{"user_id":152,"name":"Terra Mater","steam_id":76561198069735882,"connected_time":398000000000,"state":"active","ping":75},{"user_id":155,"name":"GKumo","steam_id":76561198023175868,"connected_time":328000000000,"state":"active","ping":85},{"user_id":121,"name":"Phos","steam_id":76561198122339506,"connected_time":1770000000000,"state":"active","ping":75},{"user_id":143,"name":"‚ú∞Rainy Days‚ú∞","steam_id":76561198825412838,"connected_time":722000000000,"state":"active","ping":77},{"user_id":149,"name":"Sergeant Snowflake","steam_id":76561198041474489,"connected_time":461000000000,"state":"active","ping":46},{"user_id":156,"name":"real (real)","steam_id":76561199316368867,"connected_time":268000000000,"state":"active","ping":63},{"user_id":87,"name":"hazel (she/her)","steam_id":76561198879911815,"connected_time":4057000000000,"state":"active","ping":56},{"user_id":157,"name":"Burgoo_King","steam_id":76561198133572225,"connected_time":257000000000,"state":"active","ping":140},{"user_id":162,"name":"your moms car","steam_id":76561199389283507,"connected_time":63000000000,"state":"active","ping":60},{"user_id":114,"name":"Plasic74x","steam_id":76561199058981206,"connected_time":1864000000000,"state":"active","ping":84},{"user_id":147,"name":"ThatOneUser","steam_id":76561198126553111,"connected_time":489000000000,"state":"active","ping":69},{"user_id":159,"name":"binkov 3zl","steam_id":76561198198056590,"connected_time":219000000000,"state":"active","ping":135},{"user_id":161,"name":"Sylvain","steam_id":76561198113385271,"connected_time":124000000000,"state":"active","ping":78},{"user_id":123,"name":"Jackiese","steam_id":76561199445100850,"connected_time":1756000000000,"state":"active","ping":104}]},{"server_id":38,"name":"Uncletopia | Chicago | 7 | Stopwatch","name_short":"chi-7","host":"chi-2.us.uncletopia.com","port":27035,"enabled":true,"region":"us-central","cc":"us","latitude":41.881832,"longitude":-87.62318,"reserved":0,"last_update":"0001-01-01T00:00:00Z","name_a2s":"Uncletopia | Chicago | 7 | Stopwatch","protocol":17,"map":"cp_snakewater_final1","folder":"tf","game":"Team Fortress","app_id":440,"player_count":0,"max_players":24,"Bots":0,"server_type":"Dedicated","server_os":"Linux","password":true,"vac":true,"version":"7961495","steam_id":85568392924866364,"keywords":["cp","nocrits","nodmgspread","uncletopia"],"game_id":440,"stv_port":27036,"stv_name":"Uncletopia | Chicago | 7 | Stopwatch | STV","players":null},{"server_id":39,"name":"Uncletopia | Chicago | 8 | Community","name_short":"chi-8","host":"chi-2.us.uncletopia.com","port":27045,"enabled":true,"region":"us-central","cc":"us","latitude":41.881832,"longitude":-87.62318,"reserved":0,"last_update":"0001-01-01T00:00:00Z","name_a2s":"Uncletopia | Chicago | 8 | Community","protocol":17,"map":"workshop/koth_slaughter_rc1.ugc1712845210","folder":"tf","game":"Team Fortress","app_id":440,"player_count":0,"max_players":24,"Bots":0,"server_type":"Dedicated","server_os":"Linux","password":true,"vac":true,"version":"7961495","steam_id":85568392924866365,"keywords":["cp","nocrits","nodmgspread","uncletopia"],"game_id":440,"stv_port":27046,"stv_name":"Uncletopia | Chicago | 8 | Community | STV","players":null},{"server_id":8,"name":"Uncletopia | Dallas | 1 | All Maps","name_short":"dal-1","host":"dal-1.us.uncletopia.com","port":27015,"enabled":true,"region":"us-central","cc":"us","latitude":32.779167,"longitude":-96.80889,"reserved":0,"last_update":"0001-01-01T00:00:00Z","name_a2s":"Uncletopia | Dallas | 1 | All Maps","protocol":17,"map":"pl_thundermountain","folder":"tf","game":"Team Fortress","app_id":440,"player_count":0,"max_players":24,"Bots":0,"server_type":"Dedicated","server_os":"Linux","password":true,"vac":true,"version":"7961495","steam_id":85568392924469986,"keywords":["nocrits","nodmgspread","payload","uncletopia"],"game_id":440,"stv_port":27016,"stv_name":"Uncletopia | Dallas | 1 | All Maps | STV","players":null},{"server_id":108,"name":"Uncletopia | Dallas | 2 | All Maps","name_short":"dal-2","host":"dal-1.us.uncletopia.com","port":27025,"enabled":true,"region":"us-central","cc":"us","latitude":32.779167,"longitude":-96.80889,"reserved":0,"last_update":"0001-01-01T00:00:00Z","name_a2s":"Uncletopia | Dallas | 2 | All Maps","protocol":17,"map":"cp_mountainlab","folder":"tf","game":"Team Fortress","app_id":440,"player_count":0,"max_players":24,"Bots":0,"server_type":"Dedicated","server_os":"Linux","password":true,"vac":true,"version":"7961495","steam_id":85568392924469988,"keywords":["cp","nocrits","nodmgspread","uncletopia"],"game_id":440,"stv_port":27026,"stv_name":"Uncletopia | Dallas | 2 | All Maps | STV","players":null},{"server_id":404,"name":"Uncletopia | Dallas | 3 | All Maps","name_short":"dal-3","host":"dal-1.us.uncletopia.com","port":27035,"enabled":true,"region":"us-central","cc":"us","latitude":32.779167,"longitude":-96.80889,"reserved":0,"last_update":"0001-01-01T00:00:00Z","name_a2s":"Uncletopia | Dallas | 3 | All Maps","protocol":17,"map":"cp_coldfront","folder":"tf","game":"Team Fortress","app_id":440,"player_count":0,"max_players":24,"Bots":0,"server_type":"Dedicated","server_os":"Linux","password":true,"vac":true,"version":"7961495","steam_id":85568392924515219,"keywords":["cp","nocrits","nodmgspread","uncletopia"],"game_id":440,"stv_port":27036,"stv_name":"Uncletopia | Dallas | 3 | All Maps | STV","players":null},{"server_id":405,"name":"Uncletopia | Dallas | 4 | Community","name_short":"dal-4","host":"dal-1.us.uncletopia.com","port":27045,"enabled":true,"region":"us-central","cc":"us","latitude":32.779167,"longitude":-96.80889,"reserved":0,"last_update":"0001-01-01T00:00:00Z","name_a2s":"Uncletopia | Dallas | 4 | Community","protocol":17,"map":"workshop/koth_synthetic_rc6a.ugc1549817316","folder":"tf","game":"Team Fortress","app_id":440,"player_count":0,"max_players":24,"Bots":0,"server_type":"Dedicated","server_os":"Linux","password":true,"vac":true,"version":"7961495","steam_id":85568392924515220,"keywords":["cp","nocrits","nodmgspread","uncletopia"],"game_id":440,"stv_port":27046,"stv_name":"Uncletopia | Dallas | 4 | Community | STV","players":null},{"server_id":5,"name":"Uncletopia | Frankfurt | 1 | All Maps","name_short":"frk-1","host":"frk-1.de.uncletopia.com","port":27015,"enabled":true,"region":"eu","cc":"de","latitude":50.110924,"longitude":8.682127,"reserved":0,"last_update":"0001-01-01T00:00:00Z","name_a2s":"Uncletopia | Frankfurt | 1 | All Maps","protocol":17,"map":"pl_badwater","folder":"tf","game":"Team Fortress","app_id":440,"player_count":24,"max_players":24,"Bots":0,"server_type":"Dedicated","server_os":"Linux","password":true,"vac":true,"version":"7961495","steam_id":85568392924469989,"keywords":["nocrits","nodmgspread","payload","uncletopia"],"game_id":440,"stv_port":27016,"stv_name":"Uncletopia | Frankfurt | 1 | All Maps | STV","players":[{"user_id":322,"name":"medium rare chicken enjoyer","steam_id":76561198050214002,"connected_time":4100000000000,"state":"active","ping":53},{"user_id":376,"name":"K44N","steam_id":76561198349605952,"connected_time":165000000000,"state":"active","ping":106},{"user_id":379,"name":"Spy is Sapping my Sandwich","steam_id":76561198011840096,"connected_time":2000000000,"state":"spawning","ping":86},{"user_id":343,"name":"DreadAngel","steam_id":76561198049357836,"connected_time":2637000000000,"state":"active","ping":59},{"user_id":371,"name":"Rather Competent Gibus","steam_id":76561199008809107,"connected_time":464000000000,"state":"active","ping":93},{"user_id":356,"name":"Slowpoke64","steam_id":76561199087722921,"connected_time":1895000000000,"state":"active","ping":69},{"user_id":374,"name":"LOBZIK","steam_id":76561198114830120,"connected_time":293000000000,"state":"active","ping":75},{"user_id":373,"name":"guru{Hari}","steam_id":76561197997001681,"connected_time":427000000000,"state":"active","ping":66},{"user_id":366,"name":"bricküß±","steam_id":76561198410706584,"connected_time":791000000000,"state":"active","ping":58},{"user_id":346,"name":"pardner","steam_id":76561198451471161,"connected_time":2576000000000,"state":"active","ping":76},{"user_id":377,"name":"tim","steam_id":76561198801490317,"connected_time":87000000000,"state":"active","ping":106},{"user_id":339,"name":"6bIK_0CeMEHuTEJIb","steam_id":76561198992528373,"connected_time":3070000000000,"state":"active","ping":70},{"user_id":359,"name":"rainman","steam_id":76561198059761822,"connected_time":1386000000000,"state":"active","ping":53},{"user_id":344,"name":"Rbata","steam_id":76561198214079909,"connected_time":2618000000000,"state":"active","ping":76},{"user_id":364,"name":"kavun","steam_id":76561198023461869,"connected_time":1274000000000,"state":"active","ping":78},{"user_id":367,"name":"goku left nut","steam_id":76561198314919758,"connected_time":679000000000,"state":"active","ping":63},{"user_id":276,"name":"Pertti Paasonen","steam_id":76561198118416899,"connected_time":6086000000000,"state":"active","ping":96},{"user_id":301,"name":"Lauchboiz | Bannic","steam_id":76561198060362129,"connected_time":4839000000000,"state":"active","ping":54},{"user_id":304,"name":"Super medyk","steam_id":76561198170125887,"connected_time":4693000000000,"state":"active","ping":62},{"user_id":327,"name":"Beni ü¶ßüçå","steam_id":76561198011340227,"connected_time":3834000000000,"state":"active","ping":75},{"user_id":361,"name":"MrNetCode","steam_id":76561199104450692,"connected_time":1355000000000,"state":"active","ping":65},{"user_id":320,"name":"Saplings Incorporated","steam_id":76561198047660367,"connected_time":4141000000000,"state":"active","ping":59},{"user_id":349,"name":"mokau","steam_id":76561199150622722,"connected_time":2457000000000,"state":"active","ping":77},{"user_id":369,"name":"henmera","steam_id":76561197961142646,"connected_time":602000000000,"state":"active","ping":47}]},{"server_id":110,"name":"Uncletopia | Frankfurt | 2 | All Maps","name_short":"frk-2","host":"frk-1.de.uncletopia.com","port":27025,"enabled":true,"region":"eu","cc":"de","latitude":50.110924,"longitude":8.682127,"reserved":0,"last_update":"0001-01-01T00:00:00Z","name_a2s":"Uncletopia | Frankfurt | 2 | All Maps","protocol":17,"map":"pl_thundermountain","folder":"tf","game":"Team Fortress","app_id":440,"player_count":24,"max_players":24,"Bots":0,"server_type":"Dedicated","server_os":"Linux","password":true,"vac":true,"version":"7961495","steam_id":85568392924469990,"keywords":["nocrits","nodmgspread","payload","uncletopia"],"game_id":440,"stv_port":27026,"stv_name":"Uncletopia | Frankfurt | 2 | All Maps | STV","players":[{"user_id":279,"name":"mc1432","steam_id":76561198114920406,"connected_time":20000000000,"state":"spawning","ping":52},{"user_id":276,"name":"Kajo","steam_id":76561198306938764,"connected_time":144000000000,"state":"active","ping":116},{"user_id":257,"name":"YunikkoN","steam_id":76561198211962412,"connected_time":1493000000000,"state":"active","ping":85},{"user_id":273,"name":"Qatuk","steam_id":76561198857696199,"connected_time":436000000000,"state":"active","ping":51},{"user_id":261,"name":"Beauf de France","steam_id":76561198799097492,"connected_time":1387000000000,"state":"active","ping":48},{"user_id":206,"name":"valtava masennus","steam_id":76561199051961594,"connected_time":4390000000000,"state":"active","ping":64},{"user_id":243,"name":"Jemperor05","steam_id":76561198405120300,"connected_time":2344000000000,"state":"active","ping":51},{"user_id":235,"name":"Qwertuss","steam_id":76561198026305366,"connected_time":2764000000000,"state":"active","ping":45},{"user_id":254,"name":"EEEEEH","steam_id":76561198126717413,"connected_time":1592000000000,"state":"active","ping":72},{"user_id":208,"name":"OlleHugo","steam_id":76561198033564984,"connected_time":4385000000000,"state":"active","ping":60},{"user_id":244,"name":"cez","steam_id":76561198361380956,"connected_time":2254000000000,"state":"active","ping":55},{"user_id":272,"name":"Jangli","steam_id":76561198103923652,"connected_time":823000000000,"state":"active","ping":181},{"user_id":274,"name":"Waffel","steam_id":76561198113552009,"connected_time":335000000000,"state":"active","ping":94},{"user_id":267,"name":"kastanomata","steam_id":76561198271832763,"connected_time":1287000000000,"state":"active","ping":69},{"user_id":227,"name":"Toasty5050","steam_id":76561198073540881,"connected_time":3017000000000,"state":"active","ping":45},{"user_id":249,"name":"MCMB360","steam_id":76561198413915462,"connected_time":2047000000000,"state":"active","ping":49},{"user_id":262,"name":"sex havin'","steam_id":76561198169857427,"connected_time":1385000000000,"state":"active","ping":76},{"user_id":263,"name":"Flying skyhigh","steam_id":76561198372971096,"connected_time":1375000000000,"state":"active","ping":75},{"user_id":277,"name":"—ç—à –≥—Ä–µ–π","steam_id":76561199067973451,"connected_time":140000000000,"state":"active","ping":71},{"user_id":264,"name":"Dieselpomp","steam_id":76561197986717912,"connected_time":1344000000000,"state":"active","ping":57},{"user_id":269,"name":"hasansaeedifar","steam_id":76561198974563618,"connected_time":1129000000000,"state":"active","ping":144},{"user_id":280,"name":"gh0ulxhide","steam_id":76561199177897551,"connected_time":6000000000,"state":"spawning","ping":120},{"user_id":278,"name":"PsychicTrampoline","steam_id":76561199466414348,"connected_time":135000000000,"state":"active","ping":57},{"user_id":255,"name":"Flakodio","steam_id":76561198888088845,"connected_time":1558000000000,"state":"active","ping":54}]},{"server_id":308,"name":"Uncletopia | Frankfurt | 3 | All Maps","name_short":"frk-3","host":"frk-1.de.uncletopia.com","port":27035,"enabled":true,"region":"eu","cc":"de","latitude":50.110924,"longitude":8.682127,"reserved":0,"last_update":"0001-01-01T00:00:00Z","name_a2s":"Uncletopia | Frankfurt | 3 | All Maps","protocol":17,"map":"pl_swiftwater_final1","folder":"tf","game":"Team Fortress","app_id":440,"player_count":24,"max_players":24,"Bots":0,"server_type":"Dedicated","server_os":"Linux","password":true,"vac":true,"version":"7961495","steam_id":85568392924504274,"keywords":["nocrits","nodmgspread","payload","uncletopia"],"game_id":440,"stv_port":27036,"stv_name":"Uncletopia | Frankfurt | 3 | All Maps | STV","players":[{"user_id":32,"name":"Salad's Warband","steam_id":76561198214089583,"connected_time":1970000000000,"state":"active","ping":65},{"user_id":50,"name":"Java_Siege_","steam_id":76561199090000728,"connected_time":1667000000000,"state":"active","ping":151},{"user_id":62,"name":"moscow000","steam_id":76561198033332529,"connected_time":1348000000000,"state":"active","ping":75},{"user_id":76,"name":"Chopperson_","steam_id":76561198873728497,"connected_time":535000000000,"state":"active","ping":104},{"user_id":57,"name":"Kenny","steam_id":76561198994898206,"connected_time":1569000000000,"state":"active","ping":70},{"user_id":72,"name":"please do not the cat","steam_id":76561198089003514,"connected_time":1037000000000,"state":"active","ping":44},{"user_id":78,"name":"Edsuedi","steam_id":76561198074722832,"connected_time":447000000000,"state":"active","ping":52},{"user_id":34,"name":"Weeb exterminator","steam_id":76561198078964973,"connected_time":1942000000000,"state":"active","ping":58},{"user_id":35,"name":"Rejdory","steam_id":76561198416604100,"connected_time":1926000000000,"state":"active","ping":53},{"user_id":36,"name":"Mio","steam_id":76561198181025363,"connected_time":1920000000000,"state":"active","ping":56},{"user_id":66,"name":"Jarppa!","steam_id":76561197995834786,"connected_time":1313000000000,"state":"active","ping":76},{"user_id":38,"name":"Marukuso","steam_id":76561198154229845,"connected_time":1863000000000,"state":"active","ping":55},{"user_id":39,"name":"Sham!","steam_id":76561198050434275,"connected_time":1858000000000,"state":"active","ping":71},{"user_id":79,"name":"buzzlightyearhugecock","steam_id":76561198271037396,"connected_time":213000000000,"state":"active","ping":105},{"user_id":75,"name":"grylasverre","steam_id":76561199230434396,"connected_time":699000000000,"state":"active","ping":65},{"user_id":44,"name":"Family Guy Main Title","steam_id":76561198983900735,"connected_time":1805000000000,"state":"active","ping":59},{"user_id":45,"name":"alik","steam_id":76561198278359208,"connected_time":1761000000000,"state":"active","ping":128},{"user_id":60,"name":"good guy","steam_id":76561198816116281,"connected_time":1435000000000,"state":"active","ping":38},{"user_id":70,"name":"ssparky","steam_id":76561198246394496,"connected_time":1157000000000,"state":"active","ping":58},{"user_id":77,"name":"Dog Gaming","steam_id":76561199125027193,"connected_time":528000000000,"state":"active","ping":61},{"user_id":53,"name":"El_Kommadante","steam_id":76561198079551685,"connected_time":1639000000000,"state":"active","ping":77},{"user_id":54,"name":"monk10223","steam_id":76561199113508755,"connected_time":1630000000000,"state":"active","ping":63},{"user_id":69,"name":"[dopijus]","steam_id":76561198943009513,"connected_time":1259000000000,"state":"active","ping":87},{"user_id":71,"name":"Haha?","steam_id":76561198056882245,"connected_time":1090000000000,"state":"active","ping":55}]},{"server_id":309,"name":"Uncletopia | Frankfurt | 4 | All Maps","name_short":"frk-4","host":"frk-1.de.uncletopia.com","port":27045,"enabled":true,"region":"eu","cc":"de","latitude":50.110924,"longitude":8.682127,"reserved":0,"last_update":"0001-01-01T00:00:00Z","name_a2s":"Uncletopia | Frankfurt | 4 | All Maps","protocol":17,"map":"pl_upward","folder":"tf","game":"Team Fortress","app_id":440,"player_count":24,"max_players":24,"Bots":0,"server_type":"Dedicated","server_os":"Linux","password":true,"vac":true,"version":"7961495","steam_id":85568392924504275,"keywords":["nocrits","nodmgspread","payload","uncletopia"],"game_id":440,"stv_port":27046,"stv_name":"Uncletopia | Frankfurt | 4 | All Maps | STV","players":[{"user_id":203,"name":"glorpis","steam_id":76561199225333422,"connected_time":891000000000,"state":"active","ping":48},{"user_id":213,"name":"pfaff","steam_id":76561199502583278,"connected_time":330000000000,"state":"active","ping":58},{"user_id":211,"name":"virx","steam_id":76561199384196253,"connected_time":510000000000,"state":"active","ping":124},{"user_id":209,"name":"gagalak","steam_id":76561198089979108,"connected_time":634000000000,"state":"active","ping":89},{"user_id":168,"name":"KingPotatoChips","steam_id":76561198035156465,"connected_time":3238000000000,"state":"active","ping":50},{"user_id":199,"name":"[UM-monster","steam_id":76561198085098243,"connected_time":1138000000000,"state":"active","ping":96},{"user_id":210,"name":"–∫–µ–∫—Å","steam_id":76561199203525443,"connected_time":541000000000,"state":"active","ping":70},{"user_id":145,"name":"yeah dude","steam_id":76561198320391604,"connected_time":4516000000000,"state":"active","ping":46},{"user_id":109,"name":"JohnTraveltime","steam_id":76561199244281754,"connected_time":6658000000000,"state":"active","ping":53},{"user_id":179,"name":"kevinus","steam_id":76561198059722457,"connected_time":2143000000000,"state":"active","ping":44},{"user_id":200,"name":"Yimir","steam_id":76561198122584400,"connected_time":1084000000000,"state":"active","ping":41},{"user_id":190,"name":"Doctor Medic","steam_id":76561198100957443,"connected_time":1587000000000,"state":"active","ping":70},{"user_id":212,"name":"dakkafex","steam_id":76561198020254869,"connected_time":488000000000,"state":"active","ping":48},{"user_id":191,"name":"donatofina","steam_id":76561198353497885,"connected_time":1571000000000,"state":"active","ping":87},{"user_id":192,"name":"MrRoAndrei","steam_id":76561198205282000,"connected_time":1566000000000,"state":"active","ping":69},{"user_id":202,"name":"gio123wgio","steam_id":76561199114382953,"connected_time":997000000000,"state":"active","ping":101},{"user_id":193,"name":"General Grievous","steam_id":76561198087800030,"connected_time":1557000000000,"state":"active","ping":48},{"user_id":194,"name":"Greenmaker","steam_id":76561198060466591,"connected_time":1549000000000,"state":"active","ping":70},{"user_id":181,"name":"Froenzi","steam_id":76561198168841723,"connected_time":2056000000000,"state":"active","ping":75},{"user_id":142,"name":"bady_3","steam_id":76561199030975778,"connected_time":4629000000000,"state":"active","ping":138},{"user_id":196,"name":"bean","steam_id":76561198161013815,"connected_time":1405000000000,"state":"active","ping":63},{"user_id":207,"name":"CookD Bread","steam_id":76561199293209500,"connected_time":813000000000,"state":"active","ping":62},{"user_id":178,"name":"TommySleepyEyes","steam_id":76561198261007349,"connected_time":2412000000000,"state":"active","ping":53},{"user_id":185,"name":"RedLion","steam_id":76561198337545798,"connected_time":1704000000000,"state":"active","ping":73}]},{"server_id":310,"name":"Uncletopia | Frankfurt | 5 | All Maps","name_short":"frk-5","host":"frk-1.de.uncletopia.com","port":27055,"enabled":true,"region":"eu","cc":"de","latitude":50.110924,"longitude":8.682127,"reserved":0,"last_update":"0001-01-01T00:00:00Z","name_a2s":"Uncletopia | Frankfurt | 5 | All Maps","protocol":17,"map":"pl_swiftwater_final1","folder":"tf","game":"Team Fortress","app_id":440,"player_count":23,"max_players":24,"Bots":0,"server_type":"Dedicated","server_os":"Linux","password":true,"vac":true,"version":"7961495","steam_id":85568392924504277,"keywords":["nocrits","nodmgspread","payload","uncletopia"],"game_id":440,"stv_port":27056,"stv_name":"Uncletopia | Frankfurt | 5 | All Maps | STV","players":[{"user_id":180,"name":"xavier","steam_id":76561198076494034,"connected_time":1747000000000,"state":"active","ping":51},{"user_id":200,"name":"cockroach","steam_id":76561198841841656,"connected_time":298000000000,"state":"active","ping":53},{"user_id":181,"name":"Peter Pammpim","steam_id":76561199103785290,"connected_time":1724000000000,"state":"active","ping":73},{"user_id":138,"name":"Udinese Dion","steam_id":76561198067931573,"connected_time":5324000000000,"state":"active","ping":47},{"user_id":184,"name":"jawA","steam_id":76561198070341774,"connected_time":1537000000000,"state":"active","ping":75},{"user_id":189,"name":"yeL7owore","steam_id":76561198160173286,"connected_time":1049000000000,"state":"active","ping":90},{"user_id":154,"name":"Flight of the Blonde Giraffes","steam_id":76561198451585571,"connected_time":3994000000000,"state":"active","ping":69},{"user_id":173,"name":"Goldermor","steam_id":76561198334406934,"connected_time":2278000000000,"state":"active","ping":99},{"user_id":195,"name":"Frito","steam_id":76561198373177622,"connected_time":905000000000,"state":"active","ping":74},{"user_id":187,"name":"Áã¨„Çä„ÄÅ‰∏Ä‰∫∫„Å™„ÅÑ","steam_id":76561199077022985,"connected_time":1130000000000,"state":"active","ping":59},{"user_id":196,"name":"axl","steam_id":76561198991661832,"connected_time":863000000000,"state":"active","ping":80},{"user_id":190,"name":"Sakata Gintoki","steam_id":76561198339980449,"connected_time":1041000000000,"state":"active","ping":72},{"user_id":198,"name":"Lyell","steam_id":76561198350329389,"connected_time":411000000000,"state":"active","ping":87},{"user_id":199,"name":"not a nihilist","steam_id":76561198004340466,"connected_time":395000000000,"state":"active","ping":52},{"user_id":74,"name":"Fat Pigeon","steam_id":76561198817940142,"connected_time":10367000000000,"state":"active","ping":52},{"user_id":197,"name":"–•–ª–µ–±üçû","steam_id":76561199100232181,"connected_time":769000000000,"state":"active","ping":81},{"user_id":144,"name":"goop","steam_id":76561198190073005,"connected_time":4852000000000,"state":"active","ping":58},{"user_id":192,"name":"rts","steam_id":76561199090876980,"connected_time":1008000000000,"state":"active","ping":67},{"user_id":193,"name":"despikee","steam_id":76561198029805750,"connected_time":1008000000000,"state":"active","ping":69},{"user_id":183,"name":"Larry Penus","steam_id":76561198207546233,"connected_time":1682000000000,"state":"active","ping":54},{"user_id":167,"name":"_Alonso","steam_id":76561198041893314,"connected_time":3487000000000,"state":"active","ping":55},{"user_id":179,"name":"Hugh","steam_id":76561198976348754,"connected_time":1790000000000,"state":"active","ping":58},{"user_id":175,"name":"haydar198112","steam_id":76561198131197590,"connected_time":2265000000000,"state":"active","ping":134}]},{"server_id":311,"name":"Uncletopia | Frankfurt | 6 | All Maps","name_short":"frk-6","host":"frk-1.de.uncletopia.com","port":27065,"enabled":true,"region":"eu","cc":"de","latitude":50.110924,"longitude":8.682127,"reserved":0,"last_update":"0001-01-01T00:00:00Z","name_a2s":"Uncletopia | Frankfurt | 6 | All Maps","protocol":17,"map":"pl_upward","folder":"tf","game":"Team Fortress","app_id":440,"player_count":2,"max_players":24,"Bots":0,"server_type":"Dedicated","server_os":"Linux","password":true,"vac":true,"version":"7961495","steam_id":85568392924504278,"keywords":["nocrits","nodmgspread","payload","uncletopia"],"game_id":440,"stv_port":27066,"stv_name":"Uncletopia | Frankfurt | 6 | All Maps | STV","players":[{"user_id":29,"name":"stefanbejenari","steam_id":76561199466718294,"connected_time":375000000000,"state":"active","ping":57},{"user_id":30,"name":"Seondeok","steam_id":76561198253691098,"connected_time":372000000000,"state":"active","ping":84}]},{"server_id":23,"name":"Uncletopia | Frankfurt | 7 | Stopwatch","name_short":"frk-7","host":"frk-1.de.uncletopia.com","port":27075,"enabled":true,"region":"eu","cc":"de","latitude":50.110924,"longitude":8.682127,"reserved":0,"last_update":"0001-01-01T00:00:00Z","name_a2s":"Uncletopia | Frankfurt | 7 | Stopwatch","protocol":17,"map":"cp_sunshine","folder":"tf","game":"Team Fortress","app_id":440,"player_count":0,"max_players":24,"Bots":0,"server_type":"Dedicated","server_os":"Linux","password":true,"vac":true,"version":"7961495","steam_id":85568392924742827,"keywords":["cp","nocrits","nodmgspread","uncletopia"],"game_id":440,"stv_port":27076,"stv_name":"Uncletopia | Frankfurt | 7 | Stopwatch | STV","players":null},{"server_id":24,"name":"Uncletopia | Frankfurt | 8 | Community","name_short":"frk-8","host":"frk-1.de.uncletopia.com","port":27085,"enabled":true,"region":"eu","cc":"de","latitude":50.110924,"longitude":8.682127,"reserved":0,"last_update":"0001-01-01T00:00:00Z","name_a2s":"Uncletopia | Frankfurt | 8 | Community","protocol":17,"map":"workshop/cp_overgrown_rc8.ugc503939302","folder":"tf","game":"Team Fortress","app_id":440,"player_count":0,"max_players":24,"Bots":0,"server_type":"Dedicated","server_os":"Linux","password":true,"vac":true,"version":"7961495","steam_id":85568392924742828,"keywords":["cp","nocrits","nodmgspread","uncletopia"],"game_id":440,"stv_port":27086,"stv_name":"Uncletopia | Frankfurt | 8 | Community | STV","players":null},{"server_id":202,"name":"Uncletopia | Hong Kong | 1 | All Maps","name_short":"hgk-1","host":"hgk-1.hk.uncletopia.com","port":27015,"enabled":true,"region":"asia","cc":"hk","latitude":22.302711,"longitude":114.177216,"reserved":0,"last_update":"0001-01-01T00:00:00Z","name_a2s":"Uncletopia | Hong Kong | 1 | All Maps","protocol":17,"map":"cp_snakewater_final1","folder":"tf","game":"Team Fortress","app_id":440,"player_count":24,"max_players":24,"Bots":0,"server_type":"Dedicated","server_os":"Linux","password":true,"vac":true,"version":"7961495","steam_id":85568392924494504,"keywords":["cp","nocrits","nodmgspread","uncletopia"],"game_id":440,"stv_port":27016,"stv_name":"Uncletopia | Hong Kong | 1 | All Maps | STV","players":[{"user_id":314,"name":"TomCat","steam_id":76561198133744053,"connected_time":3923000000000,"state":"active","ping":107},{"user_id":381,"name":"leemo","steam_id":76561199508142075,"connected_time":1544000000000,"state":"active","ping":42},{"user_id":417,"name":"TonXD","steam_id":76561199024372559,"connected_time":612000000000,"state":"active","ping":101},{"user_id":426,"name":"kYaru","steam_id":76561198811789790,"connected_time":358000000000,"state":"active","ping":57},{"user_id":382,"name":"gokaisi","steam_id":76561198800477969,"connected_time":1522000000000,"state":"active","ping":83},{"user_id":419,"name":"LeiKa","steam_id":76561198884005131,"connected_time":535000000000,"state":"active","ping":143},{"user_id":324,"name":"Cazurey","steam_id":76561198005403459,"connected_time":3148000000000,"state":"active","ping":75},{"user_id":249,"name":"xPhid","steam_id":76561199080808930,"connected_time":10343000000000,"state":"active","ping":69},{"user_id":420,"name":"i just ate a shawarma","steam_id":76561199227541378,"connected_time":489000000000,"state":"active","ping":150},{"user_id":387,"name":"E","steam_id":76561199173781370,"connected_time":1326000000000,"state":"active","ping":93},{"user_id":388,"name":"Tort","steam_id":76561198219140887,"connected_time":1310000000000,"state":"active","ping":68},{"user_id":412,"name":"Á¥îÊ≠£ÁöÑËêåÊñ∞QWQ","steam_id":76561198333268163,"connected_time":681000000000,"state":"active","ping":81},{"user_id":428,"name":"coral","steam_id":76561198046580378,"connected_time":192000000000,"state":"active","ping":58},{"user_id":349,"name":"TW Grenade","steam_id":76561198027659491,"connected_time":2019000000000,"state":"active","ping":99},{"user_id":401,"name":"iamthenoname","steam_id":76561198982785447,"connected_time":873000000000,"state":"active","ping":66},{"user_id":425,"name":"Day","steam_id":76561198420018387,"connected_time":373000000000,"state":"active","ping":44},{"user_id":353,"name":"Sedna","steam_id":76561198120797504,"connected_time":1939000000000,"state":"active","ping":115},{"user_id":427,"name":"Ë†¢ËÑ∏È™ëÂ£´ËÑ∏‰∏çË†¢","steam_id":76561198422372840,"connected_time":342000000000,"state":"active","ping":53},{"user_id":326,"name":"no vc no c","steam_id":76561197989503095,"connected_time":3131000000000,"state":"active","ping":94},{"user_id":315,"name":"2746","steam_id":76561199390507975,"connected_time":3916000000000,"state":"active","ping":44},{"user_id":408,"name":"JE","steam_id":76561198264819554,"connected_time":776000000000,"state":"active","ping":45},{"user_id":360,"name":"[?]","steam_id":76561199214446461,"connected_time":1801000000000,"state":"active","ping":69},{"user_id":356,"name":"Pablo","steam_id":76561198321536130,"connected_time":1869000000000,"state":"active","ping":91},{"user_id":357,"name":"i am a F2P and my aim is shit","steam_id":76561199475974790,"connected_time":1865000000000,"state":"active","ping":79}]},{"server_id":1,"name":"Uncletopia | Los Angeles | 1 | All Maps","name_short":"lax-1","host":"lax-1.us.uncletopia.com","port":27015,"enabled":true,"region":"us-west","cc":"us","latitude":33.94279,"longitude":-118.41004,"reserved":0,"last_update":"0001-01-01T00:00:00Z","name_a2s":"Uncletopia | Los Angeles | 1 | All Maps","protocol":17,"map":"koth_lakeside_final","folder":"tf","game":"Team Fortress","app_id":440,"player_count":0,"max_players":24,"Bots":0,"server_type":"Dedicated","server_os":"Linux","password":true,"vac":true,"version":"7961495","steam_id":85568392924469991,"keywords":["cp","nocrits","nodmgspread","uncletopia"],"game_id":440,"stv_port":27016,"stv_name":"Uncletopia | Los Angeles | 1 | All Maps | STV","players":null},{"server_id":112,"name":"Uncletopia | Los Angeles | 2 | All Maps","name_short":"lax-2","host":"lax-1.us.uncletopia.com","port":27025,"enabled":true,"region":"us-west","cc":"us","latitude":33.94279,"longitude":-118.41004,"reserved":0,"last_update":"0001-01-01T00:00:00Z","name_a2s":"Uncletopia | Los Angeles | 2 | All Maps","protocol":17,"map":"koth_cascade","folder":"tf","game":"Team Fortress","app_id":440,"player_count":0,"max_players":24,"Bots":0,"server_type":"Dedicated","server_os":"Linux","password":true,"vac":true,"version":"7961495","steam_id":85568392924469992,"keywords":["cp","nocrits","nodmgspread","uncletopia"],"game_id":440,"stv_port":27026,"stv_name":"Uncletopia | Los Angeles | 2 | All Maps | STV","players":null},{"server_id":324,"name":"Uncletopia | Los Angeles | 3 | All Maps","name_short":"lax-3","host":"lax-1.us.uncletopia.com","port":27035,"enabled":true,"region":"us-west","cc":"us","latitude":33.94279,"longitude":-118.41004,"reserved":0,"last_update":"0001-01-01T00:00:00Z","name_a2s":"Uncletopia | Los Angeles | 3 | All Maps","protocol":17,"map":"pl_hoodoo_final","folder":"tf","game":"Team Fortress","app_id":440,"player_count":0,"max_players":24,"Bots":0,"server_type":"Dedicated","server_os":"Linux","password":true,"vac":true,"version":"7961495","steam_id":85568392924510198,"keywords":["nocrits","nodmgspread","payload","uncletopia"],"game_id":440,"stv_port":27036,"stv_name":"Uncletopia | Los Angeles | 3 | All Maps | STV","players":null},{"server_id":25,"name":"Uncletopia | Los Angeles | 4 | Stopwatch","name_short":"lax-4","host":"lax-1.us.uncletopia.com","port":27045,"enabled":true,"region":"us-west","cc":"us","latitude":33.94279,"longitude":-118.41004,"reserved":0,"last_update":"0001-01-01T00:00:00Z","name_a2s":"Uncletopia | Los Angeles | 4 | Stopwatch","protocol":17,"map":"pl_upward","folder":"tf","game":"Team Fortress","app_id":440,"player_count":0,"max_players":24,"Bots":0,"server_type":"Dedicated","server_os":"Linux","password":true,"vac":true,"version":"7961495","steam_id":85568392924510199,"keywords":["nocrits","nodmgspread","payload","uncletopia"],"game_id":440,"stv_port":27046,"stv_name":"Uncletopia | Los Angeles | 4 | Stopwatch | STV","players":null},{"server_id":11,"name":"Uncletopia | London | 1 | All Maps","name_short":"lon-1","host":"lon-1.uk.uncletopia.com","port":27015,"enabled":true,"region":"eu","cc":"gb","latitude":51.509865,"longitude":-0.118092,"reserved":0,"last_update":"0001-01-01T00:00:00Z","name_a2s":"Uncletopia | London | 1 | All Maps","protocol":17,"map":"pl_badwater","folder":"tf","game":"Team Fortress","app_id":440,"player_count":24,"max_players":24,"Bots":0,"server_type":"Dedicated","server_os":"Linux","password":true,"vac":true,"version":"7961495","steam_id":85568392924367362,"keywords":["nocrits","nodmgspread","payload","uncletopia"],"game_id":440,"stv_port":27016,"stv_name":"Uncletopia | London | 1 | All Maps | STV","players":[{"user_id":237,"name":"faccboi","steam_id":76561198137816642,"connected_time":1025000000000,"state":"active","ping":47},{"user_id":176,"name":"Anri Okita's Massive Milkers","steam_id":76561199186352720,"connected_time":5577000000000,"state":"active","ping":64},{"user_id":218,"name":"Lorenzo Lovers","steam_id":76561198073973581,"connected_time":2971000000000,"state":"active","ping":84},{"user_id":155,"name":"FROG Legs","steam_id":76561198045642325,"connected_time":8117000000000,"state":"active","ping":56},{"user_id":224,"name":"mrappledumb","steam_id":76561199133590774,"connected_time":2609000000000,"state":"active","ping":131},{"user_id":223,"name":"Mircoxi","steam_id":76561199407632710,"connected_time":2641000000000,"state":"active","ping":52},{"user_id":193,"name":"joachym","steam_id":76561198428579761,"connected_time":4124000000000,"state":"active","ping":58},{"user_id":226,"name":"The_voices","steam_id":76561199095701143,"connected_time":2277000000000,"state":"active","ping":60},{"user_id":209,"name":"Laru","steam_id":76561197998838438,"connected_time":3454000000000,"state":"active","ping":75},{"user_id":250,"name":"fischman","steam_id":76561199064142670,"connected_time":335000000000,"state":"active","ping":57},{"user_id":202,"name":"caramel‚ù§","steam_id":76561198819353867,"connected_time":3881000000000,"state":"active","ping":42},{"user_id":219,"name":"thia","steam_id":76561198186366599,"connected_time":2963000000000,"state":"active","ping":82},{"user_id":251,"name":"Lix","steam_id":76561198130779816,"connected_time":226000000000,"state":"active","ping":45},{"user_id":144,"name":"IndigoJones","steam_id":76561198050284262,"connected_time":8905000000000,"state":"active","ping":52},{"user_id":203,"name":"Lenupera**","steam_id":76561198172960435,"connected_time":3847000000000,"state":"active","ping":94},{"user_id":190,"name":"unconditional love","steam_id":76561199026097466,"connected_time":4266000000000,"state":"active","ping":74},{"user_id":247,"name":"GoblinGaming","steam_id":76561198360395476,"connected_time":542000000000,"state":"active","ping":33},{"user_id":236,"name":"Lemurian","steam_id":76561198324118507,"connected_time":1053000000000,"state":"active","ping":136},{"user_id":249,"name":"Laszlo","steam_id":76561198000940723,"connected_time":494000000000,"state":"active","ping":52},{"user_id":204,"name":"dirtmud","steam_id":76561199507018677,"connected_time":3835000000000,"state":"active","ping":91},{"user_id":240,"name":"Someone","steam_id":76561199030195879,"connected_time":737000000000,"state":"active","ping":43},{"user_id":216,"name":"magÃ∂pÃ∂iÃ∂e ‚úø","steam_id":76561198797266244,"connected_time":3132000000000,"state":"active","ping":80},{"user_id":149,"name":"Bubbahüêæ","steam_id":76561198061730609,"connected_time":8278000000000,"state":"active","ping":83},{"user_id":227,"name":"whimsy.","steam_id":76561198878171763,"connected_time":1981000000000,"state":"active","ping":52}]},{"server_id":114,"name":"Uncletopia | London | 2 | All Maps","name_short":"lon-2","host":"lon-1.uk.uncletopia.com","port":27025,"enabled":true,"region":"eu","cc":"gb","latitude":51.509865,"longitude":-0.118092,"reserved":0,"last_update":"0001-01-01T00:00:00Z","name_a2s":"Uncletopia | London | 2 | All Maps","protocol":17,"map":"pl_swiftwater_final1","folder":"tf","game":"Team Fortress","app_id":440,"player_count":25,"max_players":24,"Bots":0,"server_type":"Dedicated","server_os":"Linux","password":true,"vac":true,"version":"7961495","steam_id":85568392924470941,"keywords":["nocrits","nodmgspread","payload","uncletopia"],"game_id":440,"stv_port":27026,"stv_name":"Uncletopia | London | 2 | All Maps | STV","players":[{"user_id":172,"name":"Ozzie","steam_id":76561197992915315,"connected_time":2783000000000,"state":"active","ping":75},{"user_id":190,"name":"YuraGreek","steam_id":76561198050182252,"connected_time":1617000000000,"state":"active","ping":89},{"user_id":169,"name":"Saul Badman","steam_id":76561199013233409,"connected_time":3110000000000,"state":"active","ping":55},{"user_id":191,"name":"pyromaniac","steam_id":76561198292781255,"connected_time":1585000000000,"state":"active","ping":74},{"user_id":171,"name":"New_SteFano_","steam_id":76561198448642353,"connected_time":2908000000000,"state":"active","ping":70},{"user_id":192,"name":"Princess Mel","steam_id":76561198071804982,"connected_time":1573000000000,"state":"active","ping":55},{"user_id":175,"name":"Triploon","steam_id":76561198173304074,"connected_time":2727000000000,"state":"active","ping":52},{"user_id":212,"name":"Mel Gibson fan","steam_id":76561198380933244,"connected_time":179000000000,"state":"connecting","ping":0},{"user_id":140,"name":"Spajro","steam_id":76561198257383813,"connected_time":4467000000000,"state":"active","ping":58},{"user_id":208,"name":"moseley519","steam_id":76561198045485374,"connected_time":400000000000,"state":"active","ping":41},{"user_id":112,"name":"soil.dirt.earth","steam_id":76561198014377623,"connected_time":7120000000000,"state":"active","ping":30},{"user_id":207,"name":"cwas√≤n the croissant","steam_id":76561198317643652,"connected_time":480000000000,"state":"active","ping":44},{"user_id":211,"name":"Packet","steam_id":76561199173195875,"connected_time":277000000000,"state":"active","ping":81},{"user_id":164,"name":"cloud","steam_id":76561198179768931,"connected_time":3365000000000,"state":"active","ping":59},{"user_id":201,"name":"a rabbit with a keyboard","steam_id":76561198129051488,"connected_time":941000000000,"state":"active","ping":116},{"user_id":134,"name":"Wardruna96","steam_id":76561199057083828,"connected_time":4937000000000,"state":"active","ping":81},{"user_id":205,"name":"TheGibusWearer","steam_id":76561198043928185,"connected_time":719000000000,"state":"active","ping":32},{"user_id":165,"name":"NESS","steam_id":76561197995225318,"connected_time":3343000000000,"state":"active","ping":38},{"user_id":214,"name":"AlexLordFire","steam_id":76561198328609815,"connected_time":95000000000,"state":"active","ping":37},{"user_id":180,"name":"Sleepy Brady","steam_id":76561198867378129,"connected_time":2611000000000,"state":"active","ping":145},{"user_id":206,"name":"saywoo","steam_id":76561198904469197,"connected_time":588000000000,"state":"active","ping":45},{"user_id":209,"name":"matteedood","steam_id":76561198026446010,"connected_time":384000000000,"state":"active","ping":60},{"user_id":197,"name":"Janus","steam_id":76561198223603960,"connected_time":1455000000000,"state":"active","ping":45},{"user_id":204,"name":"Nonok","steam_id":76561199480685498,"connected_time":871000000000,"state":"active","ping":51},{"user_id":213,"name":"HappyMonkey","steam_id":76561199131602359,"connected_time":154000000000,"state":"active","ping":111}]},{"server_id":320,"name":"Uncletopia | London | 3 | All Maps","name_short":"lon-3","host":"lon-1.uk.uncletopia.com","port":27035,"enabled":true,"region":"eu","cc":"gb","latitude":51.509865,"longitude":-0.118092,"reserved":0,"last_update":"0001-01-01T00:00:00Z","name_a2s":"Uncletopia | London | 3 | All Maps","protocol":17,"map":"pl_barnblitz","folder":"tf","game":"Team Fortress","app_id":440,"player_count":24,"max_players":24,"Bots":0,"server_type":"Dedicated","server_os":"Linux","password":true,"vac":true,"version":"7961495","steam_id":85568392924510192,"keywords":["nocrits","nodmgspread","payload","uncletopia"],"game_id":440,"stv_port":27036,"stv_name":"Uncletopia | London | 3 | All Maps | STV","players":[{"user_id":213,"name":"Axis","steam_id":76561198042639946,"connected_time":260000000000,"state":"active","ping":45},{"user_id":169,"name":"disabled chimp","steam_id":76561198132062857,"connected_time":2918000000000,"state":"active","ping":74},{"user_id":137,"name":"Ôº≠ÔΩÅÔΩÉÔΩâÔΩéÔΩîÔΩèÔΩìÔΩà","steam_id":76561198074294565,"connected_time":4236000000000,"state":"active","ping":74},{"user_id":186,"name":"Femboy Thighs","steam_id":76561198115496457,"connected_time":2220000000000,"state":"active","ping":39},{"user_id":170,"name":"dopamine overdose","steam_id":76561199032511302,"connected_time":2915000000000,"state":"active","ping":104},{"user_id":191,"name":"tomydjoh","steam_id":76561198077421906,"connected_time":1878000000000,"state":"active","ping":50},{"user_id":130,"name":"F4","steam_id":76561198960173064,"connected_time":4766000000000,"state":"active","ping":71},{"user_id":199,"name":"Rocket.Blade","steam_id":76561198063104145,"connected_time":1200000000000,"state":"active","ping":50},{"user_id":214,"name":"|-|…ÖGBA–ØD¬¢E¬£1N","steam_id":76561198103977997,"connected_time":109000000000,"state":"active","ping":42},{"user_id":200,"name":"JulianND","steam_id":76561198074083306,"connected_time":1032000000000,"state":"active","ping":44},{"user_id":194,"name":"Michael","steam_id":76561198003146906,"connected_time":1740000000000,"state":"active","ping":42},{"user_id":210,"name":"hoizil","steam_id":76561198800688436,"connected_time":292000000000,"state":"active","ping":61},{"user_id":102,"name":"RoofRabbid","steam_id":76561198012821810,"connected_time":6137000000000,"state":"active","ping":72},{"user_id":203,"name":"Akuma's Balls","steam_id":76561198030612444,"connected_time":778000000000,"state":"active","ping":49},{"user_id":204,"name":"cribz.","steam_id":76561198042540731,"connected_time":750000000000,"state":"active","ping":52},{"user_id":212,"name":"Don Draper","steam_id":76561198148359093,"connected_time":272000000000,"state":"active","ping":39},{"user_id":182,"name":"john fortress","steam_id":76561198013237629,"connected_time":2416000000000,"state":"active","ping":96},{"user_id":211,"name":"steinar","steam_id":76561198441857153,"connected_time":287000000000,"state":"active","ping":77},{"user_id":163,"name":"2D gamer","steam_id":76561198970762992,"connected_time":3385000000000,"state":"active","ping":70},{"user_id":164,"name":"You slumber","steam_id":76561198344639692,"connected_time":3377000000000,"state":"active","ping":75},{"user_id":189,"name":"Thundercracker__","steam_id":76561199163505476,"connected_time":1964000000000,"state":"active","ping":60},{"user_id":177,"name":"tralalaOuiOui","steam_id":76561197963471507,"connected_time":2815000000000,"state":"active","ping":47},{"user_id":196,"name":"glyph","steam_id":76561197980736364,"connected_time":1661000000000,"state":"active","ping":80},{"user_id":180,"name":"Kapitan Polska","steam_id":76561197968069413,"connected_time":2542000000000,"state":"active","ping":70}]},{"server_id":321,"name":"Uncletopia | London | 4 | All Maps","name_short":"lon-4","host":"lon-1.uk.uncletopia.com","port":27045,"enabled":true,"region":"eu","cc":"gb","latitude":51.509865,"longitude":-0.118092,"reserved":0,"last_update":"0001-01-01T00:00:00Z","name_a2s":"Uncletopia | London | 4 | All Maps","protocol":17,"map":"pl_thundermountain","folder":"tf","game":"Team Fortress","app_id":440,"player_count":24,"max_players":24,"Bots":0,"server_type":"Dedicated","server_os":"Linux","password":true,"vac":true,"version":"7961495","steam_id":85568392924510193,"keywords":["nocrits","nodmgspread","payload","uncletopia"],"game_id":440,"stv_port":27046,"stv_name":"Uncletopia | London | 4 | All Maps | STV","players":[{"user_id":422,"name":"Ween :0","steam_id":76561198073607799,"connected_time":1195000000000,"state":"active","ping":57},{"user_id":401,"name":"PAX","steam_id":76561198046692146,"connected_time":2610000000000,"state":"active","ping":76},{"user_id":425,"name":"Eric Catman","steam_id":76561198802117294,"connected_time":937000000000,"state":"active","ping":50},{"user_id":375,"name":"The_Jaystone","steam_id":76561198126280691,"connected_time":3870000000000,"state":"active","ping":30},{"user_id":435,"name":"Stefman","steam_id":76561199025104038,"connected_time":38000000000,"state":"spawning","ping":45},{"user_id":428,"name":"birchy","steam_id":76561198166697295,"connected_time":864000000000,"state":"active","ping":44},{"user_id":424,"name":"JamesPepega","steam_id":76561198019156154,"connected_time":1083000000000,"state":"active","ping":72},{"user_id":420,"name":"You Don't Nomi.","steam_id":76561197969137836,"connected_time":1429000000000,"state":"active","ping":109},{"user_id":429,"name":"Trucker mic","steam_id":76561198117199068,"connected_time":821000000000,"state":"active","ping":76},{"user_id":397,"name":"GrosFumiste","steam_id":76561198850134909,"connected_time":3058000000000,"state":"active","ping":52},{"user_id":418,"name":"Spinya","steam_id":76561198086653667,"connected_time":1870000000000,"state":"active","ping":56},{"user_id":406,"name":"Liam","steam_id":76561198010346323,"connected_time":2534000000000,"state":"active","ping":46},{"user_id":407,"name":"lvl 99 bastard","steam_id":76561198044761617,"connected_time":2515000000000,"state":"active","ping":120},{"user_id":434,"name":"Wattoz","steam_id":76561198127779511,"connected_time":206000000000,"state":"active","ping":60},{"user_id":426,"name":"clunk","steam_id":76561198836460767,"connected_time":914000000000,"state":"active","ping":76},{"user_id":417,"name":"normalpigeons","steam_id":76561199064613782,"connected_time":2054000000000,"state":"active","ping":71},{"user_id":396,"name":"ThatTFguy","steam_id":76561198056794321,"connected_time":3148000000000,"state":"active","ping":58},{"user_id":394,"name":"Mr_Pulse_","steam_id":76561198095001602,"connected_time":3228000000000,"state":"active","ping":87},{"user_id":436,"name":"Tryrn","steam_id":76561198075487436,"connected_time":16000000000,"state":"active","ping":241},{"user_id":399,"name":"Moss","steam_id":76561198970737500,"connected_time":2810000000000,"state":"active","ping":76},{"user_id":419,"name":"DudeoftheRock","steam_id":76561198059401865,"connected_time":1867000000000,"state":"active","ping":59},{"user_id":432,"name":"snacks","steam_id":76561198184674173,"connected_time":580000000000,"state":"active","ping":90},{"user_id":431,"name":"IoN","steam_id":76561199405317937,"connected_time":802000000000,"state":"active","ping":47},{"user_id":414,"name":"fortniteGamer747","steam_id":76561197987878886,"connected_time":2236000000000,"state":"active","ping":100}]},{"server_id":21,"name":"Uncletopia | London | 5 | All Maps","name_short":"lon-5","host":"lon-1.uk.uncletopia.com","port":27055,"enabled":true,"region":"eu","cc":"gb","latitude":51.509865,"longitude":-0.118092,"reserved":0,"last_update":"0001-01-01T00:00:00Z","name_a2s":"Uncletopia | London | 5 | All Maps","protocol":17,"map":"koth_viaduct","folder":"tf","game":"Team Fortress","app_id":440,"player_count":0,"max_players":24,"Bots":0,"server_type":"Dedicated","server_os":"Linux","password":true,"vac":true,"version":"7961495","steam_id":85568392924742829,"keywords":["cp","nocrits","nodmgspread","uncletopia"],"game_id":440,"stv_port":27056,"stv_name":"Uncletopia | London | 5 | All Maps | STV","players":null},{"server_id":22,"name":"Uncletopia | London | 6 | All Maps","name_short":"lon-6","host":"lon-1.uk.uncletopia.com","port":27065,"enabled":true,"region":"eu","cc":"gb","latitude":51.509865,"longitude":-0.118092,"reserved":0,"last_update":"0001-01-01T00:00:00Z","name_a2s":"Uncletopia | London | 6 | All Maps","protocol":17,"map":"pl_upward","folder":"tf","game":"Team Fortress","app_id":440,"player_count":15,"max_players":24,"Bots":0,"server_type":"Dedicated","server_os":"Linux","password":true,"vac":true,"version":"7961495","steam_id":85568392924742830,"keywords":["nocrits","nodmgspread","payload","uncletopia"],"game_id":440,"stv_port":27066,"stv_name":"Uncletopia | London | 6 | All Maps | STV","players":[{"user_id":8,"name":"B‚àûp | ‚ù§Fasto‚ù§","steam_id":76561198118298527,"connected_time":519000000000,"state":"active","ping":50},{"user_id":9,"name":"woople","steam_id":76561198076625889,"connected_time":513000000000,"state":"active","ping":80},{"user_id":10,"name":"B‚àûp | ‚ù§Hina‚ù§","steam_id":76561198058465921,"connected_time":512000000000,"state":"active","ping":47},{"user_id":11,"name":"_Context_","steam_id":76561199163359312,"connected_time":501000000000,"state":"active","ping":49},{"user_id":12,"name":"Tankedup_","steam_id":76561198168659251,"connected_time":479000000000,"state":"active","ping":44},{"user_id":20,"name":"Tokany","steam_id":76561198918506251,"connected_time":52000000000,"state":"active","ping":76},{"user_id":18,"name":"mbx8_rt","steam_id":76561198025742526,"connected_time":86000000000,"state":"active","ping":37},{"user_id":15,"name":"Scrapton Hale","steam_id":76561198089457876,"connected_time":236000000000,"state":"active","ping":92},{"user_id":16,"name":"–∫–≤–æ—É–Ω","steam_id":76561198302890550,"connected_time":150000000000,"state":"active","ping":119},{"user_id":17,"name":"Busness_pig","steam_id":76561199244823990,"connected_time":123000000000,"state":"active","ping":134},{"user_id":19,"name":"Hoxton","steam_id":76561198129209505,"connected_time":82000000000,"state":"active","ping":74},{"user_id":21,"name":"Das K.","steam_id":76561198035461092,"connected_time":38000000000,"state":"active","ping":121},{"user_id":22,"name":"Spitfire","steam_id":76561197982562551,"connected_time":17000000000,"state":"active","ping":49},{"user_id":23,"name":"Gregor Samsa","steam_id":76561198973069177,"connected_time":15000000000,"state":"active","ping":60},{"user_id":24,"name":"Albon","steam_id":76561198060378881,"connected_time":8000000000,"state":"spawning","ping":83}]},{"server_id":40,"name":"Uncletopia | London | 7 | Stopwatch","name_short":"lon-7","host":"lon-1.uk.uncletopia.com","port":27075,"enabled":true,"region":"eu","cc":"gb","latitude":51.509865,"longitude":-0.118092,"reserved":0,"last_update":"0001-01-01T00:00:00Z","name_a2s":"Uncletopia | London | 7 | Stopwatch","protocol":17,"map":"cp_process_final","folder":"tf","game":"Team Fortress","app_id":440,"player_count":0,"max_players":24,"Bots":0,"server_type":"Dedicated","server_os":"Linux","password":true,"vac":true,"version":"7961495","steam_id":85568392924964314,"keywords":["cp","nocrits","nodmgspread","uncletopia"],"game_id":440,"stv_port":27076,"stv_name":"Uncletopia | London | 7 | Stopwatch | STV","players":null},{"server_id":41,"name":"Uncletopia | London | 8 | Community","name_short":"lon-8","host":"lon-1.uk.uncletopia.com","port":27085,"enabled":true,"region":"eu","cc":"gb","latitude":51.509865,"longitude":-0.118092,"reserved":0,"last_update":"0001-01-01T00:00:00Z","name_a2s":"Uncletopia | London | 8 | Community","protocol":17,"map":"workshop/cp_villa_b19.ugc2113052569","folder":"tf","game":"Team Fortress","app_id":440,"player_count":0,"max_players":24,"Bots":0,"server_type":"Dedicated","server_os":"Linux","password":true,"vac":true,"version":"7961495","steam_id":85568392924964315,"keywords":["cp","nocrits","nodmgspread","uncletopia"],"game_id":440,"stv_port":27086,"stv_name":"Uncletopia | London | 8 | Community | STV","players":null},{"server_id":300,"name":"Uncletopia | Montr√©al | 1 | One Thousand Uncles","name_short":"mtl-1","host":"mtl-1.ca.uncletopia.com","port":27015,"enabled":true,"region":"us-east","cc":"ca","latitude":45.50889,"longitude":-73.56167,"reserved":0,"last_update":"0001-01-01T00:00:00Z","name_a2s":"Uncletopia | Montr√©al | 1 | One Thousand Uncles","protocol":17,"map":"pl_swiftwater_final1","folder":"tf","game":"Team Fortress","app_id":440,"player_count":0,"max_players":32,"Bots":0,"server_type":"Dedicated","server_os":"Linux","password":true,"vac":true,"version":"7961495","steam_id":85568392924500087,"keywords":["alltalk","danepve","increased_maxplayers","norespawntime","payload","uncletopia"],"game_id":440,"stv_port":0,"stv_name":"","players":null},{"server_id":301,"name":"Uncletopia | Montr√©al | 2 | One Thousand Uncles","name_short":"mtl-2","host":"mtl-1.ca.uncletopia.com","port":27025,"enabled":true,"region":"us-east","cc":"ca","latitude":45.50889,"longitude":-73.56167,"reserved":0,"last_update":"0001-01-01T00:00:00Z","name_a2s":"Uncletopia | Montr√©al | 2 | One Thousand Uncles","protocol":17,"map":"pl_chilly","folder":"tf","game":"Team Fortress","app_id":440,"player_count":0,"max_players":32,"Bots":0,"server_type":"Dedicated","server_os":"Linux","password":true,"vac":true,"version":"7961495","steam_id":85568392924500088,"keywords":["alltalk","danepve","increased_maxplayers","norespawntime","payload","uncletopia"],"game_id":440,"stv_port":0,"stv_name":"","players":null},{"server_id":302,"name":"Uncletopia | Montr√©al | 3 | One Thousand Uncles","name_short":"mtl-3","host":"mtl-1.ca.uncletopia.com","port":27035,"enabled":true,"region":"us-east","cc":"ca","latitude":45.50889,"longitude":-73.56167,"reserved":0,"last_update":"0001-01-01T00:00:00Z","name_a2s":"Uncletopia | Montr√©al | 3 | One Thousand Uncles","protocol":17,"map":"pl_upward","folder":"tf","game":"Team Fortress","app_id":440,"player_count":0,"max_players":32,"Bots":0,"server_type":"Dedicated","server_os":"Linux","password":true,"vac":true,"version":"7961495","steam_id":85568392924500089,"keywords":["alltalk","danepve","increased_maxplayers","norespawntime","payload","uncletopia"],"game_id":440,"stv_port":0,"stv_name":"","players":null},{"server_id":13,"name":"Uncletopia | New York City | 1 | All Maps","name_short":"nyc-1","host":"nyc-1.us.uncletopia.com","port":27015,"enabled":true,"region":"us-east","cc":"us","latitude":40.73061,"longitude":-73.93524,"reserved":0,"last_update":"0001-01-01T00:00:00Z","name_a2s":"Uncletopia | New York City | 1 | All Maps","protocol":17,"map":"pl_pier","folder":"tf","game":"Team Fortress","app_id":440,"player_count":0,"max_players":24,"Bots":0,"server_type":"Dedicated","server_os":"Linux","password":true,"vac":true,"version":"7961495","steam_id":85568392924469993,"keywords":["nocrits","nodmgspread","payload","uncletopia"],"game_id":440,"stv_port":27016,"stv_name":"Uncletopia | New York City | 1 | All Maps | STV","players":null},{"server_id":14,"name":"Uncletopia | New York City | 2 | All Maps","name_short":"nyc-2","host":"nyc-1.us.uncletopia.com","port":27025,"enabled":true,"region":"us-east","cc":"us","latitude":40.73061,"longitude":-73.93524,"reserved":0,"last_update":"0001-01-01T00:00:00Z","name_a2s":"Uncletopia | New York City | 2 | All Maps","protocol":17,"map":"cp_gorge","folder":"tf","game":"Team Fortress","app_id":440,"player_count":2,"max_players":24,"Bots":0,"server_type":"Dedicated","server_os":"Linux","password":true,"vac":true,"version":"7961495","steam_id":85568392924469994,"keywords":["cp","nocrits","nodmgspread","uncletopia"],"game_id":440,"stv_port":27026,"stv_name":"Uncletopia | New York City | 2 | All Maps | STV","players":[{"user_id":7,"name":"Typh","steam_id":76561198315344079,"connected_time":271000000000,"state":"active","ping":62},{"user_id":8,"name":"Cosmoose","steam_id":76561198120336284,"connected_time":205000000000,"state":"active","ping":75}]},{"server_id":15,"name":"Uncletopia | New York City | 3 | Stopwatch","name_short":"nyc-3","host":"nyc-1.us.uncletopia.com","port":27035,"enabled":true,"region":"us-east","cc":"us","latitude":40.73061,"longitude":-73.93524,"reserved":0,"last_update":"0001-01-01T00:00:00Z","name_a2s":"Uncletopia | New York City | 3 | Stopwatch","protocol":17,"map":"workshop/cp_reckoner_rc6.ugc674719999","folder":"tf","game":"Team Fortress","app_id":440,"player_count":0,"max_players":24,"Bots":0,"server_type":"Dedicated","server_os":"Linux","password":true,"vac":true,"version":"7961495","steam_id":85568392924742820,"keywords":["cp","nocrits","nodmgspread","uncletopia"],"game_id":440,"stv_port":27036,"stv_name":"Uncletopia | New York City | 3 | Stopwatch | STV","players":null},{"server_id":16,"name":"Uncletopia | New York City | 4 | Community","name_short":"nyc-4","host":"nyc-1.us.uncletopia.com","port":27045,"enabled":true,"region":"us-east","cc":"us","latitude":40.73061,"longitude":-73.93524,"reserved":0,"last_update":"0001-01-01T00:00:00Z","name_a2s":"Uncletopia | New York City | 4 | Community","protocol":17,"map":"workshop/cp_propaganda_b18.ugc1603743849","folder":"tf","game":"Team Fortress","app_id":440,"player_count":0,"max_players":24,"Bots":0,"server_type":"Dedicated","server_os":"Linux","password":true,"vac":true,"version":"7961495","steam_id":85568392924742821,"keywords":["cp","nocrits","nodmgspread","uncletopia"],"game_id":440,"stv_port":27046,"stv_name":"Uncletopia | New York City | 4 | Community | STV","players":null},{"server_id":142,"name":"Uncletopia | S√£o Paulo | 1 | All Maps","name_short":"sao-1","host":"sao-1.br.uncletopia.com","port":27015,"enabled":true,"region":"sa","cc":"br","latitude":-23.533773,"longitude":-46.62529,"reserved":0,"last_update":"0001-01-01T00:00:00Z","name_a2s":"Uncletopia | S√£o Paulo | 1 | All Maps","protocol":17,"map":"cp_process_final","folder":"tf","game":"Team Fortress","app_id":440,"player_count":0,"max_players":24,"Bots":0,"server_type":"Dedicated","server_os":"Linux","password":true,"vac":true,"version":"7961495","steam_id":85568392924469996,"keywords":["cp","nocrits","nodmgspread","uncletopia"],"game_id":440,"stv_port":27016,"stv_name":"Uncletopia | S√£o Paulo | 1 | All Maps | STV","players":null},{"server_id":143,"name":"Uncletopia | S√£o Paulo | 2 | Community","name_short":"sao-2","host":"sao-2.br.uncletopia.com","port":27015,"enabled":true,"region":"sa","cc":"br","latitude":-23.533773,"longitude":-46.62529,"reserved":0,"last_update":"0001-01-01T00:00:00Z","name_a2s":"Uncletopia | S√£o Paulo | 2 | Community","protocol":17,"map":"workshop/cp_croissant_final.ugc458840209","folder":"tf","game":"Team Fortress","app_id":440,"player_count":0,"max_players":24,"Bots":0,"server_type":"Dedicated","server_os":"Linux","password":true,"vac":true,"version":"7961495","steam_id":85568392924485349,"keywords":["cp","nocrits","nodmgspread","uncletopia"],"game_id":440,"stv_port":27016,"stv_name":"Uncletopia | S√£o Paulo | 2 | Community | STV","players":null},{"server_id":7,"name":"Uncletopia | Seattle | 1 | All Maps","name_short":"sea-1","host":"sea-1.us.uncletopia.com","port":27015,"enabled":true,"region":"us-west","cc":"us","latitude":47.608013,"longitude":-122.33517,"reserved":0,"last_update":"0001-01-01T00:00:00Z","name_a2s":"Uncletopia | Seattle | 1 | All Maps","protocol":17,"map":"koth_suijin","folder":"tf","game":"Team Fortress","app_id":440,"player_count":0,"max_players":24,"Bots":0,"server_type":"Dedicated","server_os":"Linux","password":true,"vac":true,"version":"7961495","steam_id":85568392924469997,"keywords":["cp","nocrits","nodmgspread","uncletopia"],"game_id":440,"stv_port":27016,"stv_name":"Uncletopia | Seattle | 1 | All Maps | STV","players":null},{"server_id":119,"name":"Uncletopia | Seattle | 2 | All Maps","name_short":"sea-2","host":"sea-1.us.uncletopia.com","port":27025,"enabled":true,"region":"us-west","cc":"us","latitude":47.608013,"longitude":-122.33517,"reserved":0,"last_update":"0001-01-01T00:00:00Z","name_a2s":"Uncletopia | Seattle | 2 | All Maps","protocol":17,"map":"koth_lakeside_final","folder":"tf","game":"Team Fortress","app_id":440,"player_count":0,"max_players":24,"Bots":0,"server_type":"Dedicated","server_os":"Linux","password":true,"vac":true,"version":"7961495","steam_id":85568392924469998,"keywords":["cp","nocrits","nodmgspread","uncletopia"],"game_id":440,"stv_port":27026,"stv_name":"Uncletopia | Seattle | 2 | All Maps | STV","players":null},{"server_id":406,"name":"Uncletopia | Seattle | 3 | Stopwatch","name_short":"sea-3","host":"sea-1.us.uncletopia.com","port":27035,"enabled":true,"region":"us-west","cc":"us","latitude":47.608013,"longitude":-122.33517,"reserved":0,"last_update":"0001-01-01T00:00:00Z","name_a2s":"Uncletopia | Seattle | 3 | Stopwatch","protocol":17,"map":"cp_gullywash_final1","folder":"tf","game":"Team Fortress","app_id":440,"player_count":0,"max_players":24,"Bots":0,"server_type":"Dedicated","server_os":"Linux","password":true,"vac":true,"version":"7961495","steam_id":85568392924515217,"keywords":["cp","nocrits","nodmgspread","uncletopia"],"game_id":440,"stv_port":27036,"stv_name":"Uncletopia | Seattle | 3 | Stopwatch | STV","players":null},{"server_id":17,"name":"Uncletopia | San Francisco | 1 | All Maps","name_short":"sfo-1","host":"sfo-1.us.uncletopia.com","port":27015,"enabled":true,"region":"us-west","cc":"us","latitude":37.77397,"longitude":-122.4313,"reserved":0,"last_update":"0001-01-01T00:00:00Z","name_a2s":"Uncletopia | San Francisco | 1 | All Maps","protocol":17,"map":"koth_highpass","folder":"tf","game":"Team Fortress","app_id":440,"player_count":0,"max_players":24,"Bots":0,"server_type":"Dedicated","server_os":"Linux","password":true,"vac":true,"version":"7961495","steam_id":85568392924469999,"keywords":["cp","nocrits","nodmgspread","uncletopia"],"game_id":440,"stv_port":27016,"stv_name":"Uncletopia | San Francisco | 1 | All Maps | STV","players":null},{"server_id":18,"name":"Uncletopia | San Francisco | 2 | All Maps","name_short":"sfo-2","host":"sfo-1.us.uncletopia.com","port":27025,"enabled":true,"region":"us-west","cc":"us","latitude":37.77397,"longitude":-122.4313,"reserved":0,"last_update":"0001-01-01T00:00:00Z","name_a2s":"Uncletopia | San Francisco | 2 | All Maps","protocol":17,"map":"cp_freight_final1","folder":"tf","game":"Team Fortress","app_id":440,"player_count":0,"max_players":24,"Bots":0,"server_type":"Dedicated","server_os":"Linux","password":true,"vac":true,"version":"7961495","steam_id":85568392924470000,"keywords":["cp","nocrits","nodmgspread","uncletopia"],"game_id":440,"stv_port":27026,"stv_name":"Uncletopia | San Francisco | 2 | All Maps | STV","players":null},{"server_id":19,"name":"Uncletopia | San Francisco | 3 | Stopwatch","name_short":"sfo-3","host":"sfo-1.us.uncletopia.com","port":27035,"enabled":true,"region":"us-west","cc":"us","latitude":37.77397,"longitude":-122.4313,"reserved":0,"last_update":"0001-01-01T00:00:00Z","name_a2s":"Uncletopia | San Francisco | 3 | Stopwatch","protocol":17,"map":"workshop/koth_product_final.ugc454272353","folder":"tf","game":"Team Fortress","app_id":440,"player_count":0,"max_players":24,"Bots":0,"server_type":"Dedicated","server_os":"Linux","password":true,"vac":true,"version":"7961495","steam_id":85568392924742824,"keywords":["cp","nocrits","nodmgspread","uncletopia"],"game_id":440,"stv_port":27036,"stv_name":"Uncletopia | San Francisco | 3 | Stopwatch | STV","players":null},{"server_id":20,"name":"Uncletopia | San Francisco | 4 | Community","name_short":"sfo-4","host":"sfo-1.us.uncletopia.com","port":27045,"enabled":true,"region":"us-west","cc":"us","latitude":37.77397,"longitude":-122.4313,"reserved":0,"last_update":"0001-01-01T00:00:00Z","name_a2s":"Uncletopia | San Francisco | 4 | Community","protocol":17,"map":"workshop/pl_cactuscanyon_redux_final2.ugc2579644293","folder":"tf","game":"Team Fortress","app_id":440,"player_count":0,"max_players":24,"Bots":0,"server_type":"Dedicated","server_os":"Linux","password":true,"vac":true,"version":"7961495","steam_id":85568392924742826,"keywords":["nocrits","nodmgspread","payload","uncletopia"],"game_id":440,"stv_port":27046,"stv_name":"Uncletopia | San Francisco | 4 | Community | STV","players":null},{"server_id":141,"name":"Uncletopia | Sydney | 1 | All Maps","name_short":"syd-1","host":"syd-1.au.uncletopia.com","port":27015,"enabled":true,"region":"au","cc":"au","latitude":-33.865143,"longitude":151.2099,"reserved":0,"last_update":"0001-01-01T00:00:00Z","name_a2s":"Uncletopia | Sydney | 1 | All Maps","protocol":17,"map":"pl_borneo","folder":"tf","game":"Team Fortress","app_id":440,"player_count":0,"max_players":24,"Bots":0,"server_type":"Dedicated","server_os":"Linux","password":true,"vac":true,"version":"7961495","steam_id":85568392924470001,"keywords":["nocrits","nodmgspread","payload","uncletopia"],"game_id":440,"stv_port":27016,"stv_name":"Uncletopia | Sydney | 1 | All Maps | STV","players":null},{"server_id":123,"name":"Uncletopia | Sydney | 2 | All Maps","name_short":"syd-2","host":"syd-1.au.uncletopia.com","port":27025,"enabled":true,"region":"au","cc":"au","latitude":-33.865143,"longitude":151.2099,"reserved":0,"last_update":"0001-01-01T00:00:00Z","name_a2s":"Uncletopia | Sydney | 2 | All Maps","protocol":17,"map":"cp_gorge","folder":"tf","game":"Team Fortress","app_id":440,"player_count":22,"max_players":24,"Bots":0,"server_type":"Dedicated","server_os":"Linux","password":true,"vac":true,"version":"7961495","steam_id":85568392924470002,"keywords":["cp","nocrits","nodmgspread","uncletopia"],"game_id":440,"stv_port":27026,"stv_name":"Uncletopia | Sydney | 2 | All Maps | STV","players":[{"user_id":245,"name":"Soru","steam_id":76561198010844786,"connected_time":4087000000000,"state":"active","ping":59},{"user_id":197,"name":"DKC","steam_id":76561198313578155,"connected_time":7300000000000,"state":"active","ping":44},{"user_id":326,"name":"Wok Lee Snar","steam_id":76561198126141676,"connected_time":46000000000,"state":"spawning","ping":284},{"user_id":315,"name":"Sinister80s","steam_id":76561198343540472,"connected_time":379000000000,"state":"active","ping":76},{"user_id":276,"name":"soggybreadissad","steam_id":76561197995013301,"connected_time":2153000000000,"state":"active","ping":53},{"user_id":290,"name":"Crystal Bathtub Rub","steam_id":76561198011764631,"connected_time":1733000000000,"state":"active","ping":59},{"user_id":327,"name":"Hardcoded","steam_id":76561198268600898,"connected_time":28000000000,"state":"spawning","ping":47},{"user_id":297,"name":"ETHICAL CONSUMPTION","steam_id":76561198035066643,"connected_time":1147000000000,"state":"active","ping":82},{"user_id":316,"name":"Dead Heavy","steam_id":76561199009274890,"connected_time":349000000000,"state":"active","ping":85},{"user_id":319,"name":"Chowdermonkey","steam_id":76561198990121068,"connected_time":289000000000,"state":"active","ping":52},{"user_id":250,"name":"icey_dices","steam_id":76561199071251320,"connected_time":3852000000000,"state":"active","ping":63},{"user_id":317,"name":"nash","steam_id":76561198047549077,"connected_time":341000000000,"state":"active","ping":59},{"user_id":328,"name":"Raor","steam_id":76561198142994480,"connected_time":10000000000,"state":"spawning","ping":215},{"user_id":291,"name":"Toody","steam_id":76561198212656752,"connected_time":1730000000000,"state":"active","ping":46},{"user_id":296,"name":"h20","steam_id":76561198133490050,"connected_time":1302000000000,"state":"active","ping":83},{"user_id":322,"name":"deathracer","steam_id":76561198271690459,"connected_time":249000000000,"state":"active","ping":53},{"user_id":312,"name":"Legin","steam_id":76561198070479508,"connected_time":466000000000,"state":"active","ping":90},{"user_id":284,"name":"KiwiJiwi","steam_id":76561198262081410,"connected_time":1916000000000,"state":"active","ping":59},{"user_id":314,"name":"Steven Glanzberg","steam_id":76561198053318996,"connected_time":448000000000,"state":"active","ping":100},{"user_id":323,"name":"Help","steam_id":76561198102683832,"connected_time":238000000000,"state":"active","ping":69},{"user_id":257,"name":"Attling","steam_id":76561198087595494,"connected_time":3486000000000,"state":"active","ping":44},{"user_id":310,"name":"small scale skarloey","steam_id":76561198062814065,"connected_time":516000000000,"state":"active","ping":59}]},{"server_id":395,"name":"Uncletopia | Sydney | 3 | All Maps","name_short":"syd-3","host":"syd-1.au.uncletopia.com","port":27035,"enabled":true,"region":"au","cc":"au","latitude":-33.865143,"longitude":151.2099,"reserved":0,"last_update":"0001-01-01T00:00:00Z","name_a2s":"Uncletopia | Sydney | 3 | All Maps","protocol":17,"map":"pl_frontier_final","folder":"tf","game":"Team Fortress","app_id":440,"player_count":4,"max_players":24,"Bots":0,"server_type":"Dedicated","server_os":"Linux","password":true,"vac":true,"version":"7961495","steam_id":85568392925194467,"keywords":["nocrits","nodmgspread","payload","uncletopia"],"game_id":440,"stv_port":27036,"stv_name":"Uncletopia | Sydney | 3 | All Maps | STV","players":[{"user_id":196,"name":"Sinner","steam_id":76561198182652521,"connected_time":2021000000000,"state":"active","ping":60},{"user_id":198,"name":"Boglis","steam_id":76561198169030320,"connected_time":1760000000000,"state":"active","ping":31},{"user_id":192,"name":"Retard","steam_id":76561198166538497,"connected_time":2916000000000,"state":"active","ping":51},{"user_id":202,"name":"Grimcock","steam_id":76561198107422146,"connected_time":1165000000000,"state":"active","ping":88}]},{"server_id":396,"name":"Uncletopia | Sydney | 4 | All Maps","name_short":"syd-4","host":"syd-1.au.uncletopia.com","port":27045,"enabled":true,"region":"au","cc":"au","latitude":-33.865143,"longitude":151.2099,"reserved":0,"last_update":"0001-01-01T00:00:00Z","name_a2s":"Uncletopia | Sydney | 4 | All Maps","protocol":17,"map":"cp_sunshine","folder":"tf","game":"Team Fortress","app_id":440,"player_count":0,"max_players":24,"Bots":0,"server_type":"Dedicated","server_os":"Linux","password":true,"vac":true,"version":"7961495","steam_id":85568392925397958,"keywords":["cp","nocrits","nodmgspread","uncletopia"],"game_id":440,"stv_port":27046,"stv_name":"Uncletopia | Sydney | 4 | All Maps | STV","players":null},{"server_id":58,"name":"Uncletopia | Sydney | 5 | Stopwatch","name_short":"syd-5","host":"syd-1.au.uncletopia.com","port":27055,"enabled":true,"region":"au","cc":"au","latitude":-33.865143,"longitude":151.2099,"reserved":0,"last_update":"0001-01-01T00:00:00Z","name_a2s":"Uncletopia | Sydney | 5 | Stopwatch","protocol":17,"map":"pl_swiftwater_final1","folder":"tf","game":"Team Fortress","app_id":440,"player_count":0,"max_players":24,"Bots":0,"server_type":"Dedicated","server_os":"Linux","password":true,"vac":true,"version":"7961495","steam_id":85568392925397959,"keywords":["nocrits","nodmgspread","payload","uncletopia"],"game_id":440,"stv_port":27056,"stv_name":"Uncletopia | Sydney | 5 | Stopwatch | STV","players":null},{"server_id":59,"name":"Uncletopia | Sydney | 6 | Community","name_short":"syd-6","host":"syd-1.au.uncletopia.com","port":27065,"enabled":true,"region":"au","cc":"au","latitude":-33.865143,"longitude":151.2099,"reserved":0,"last_update":"0001-01-01T00:00:00Z","name_a2s":"Uncletopia | Sydney | 6 | Community","protocol":17,"map":"workshop/koth_trenchfoot_ab1.ugc731436616","folder":"tf","game":"Team Fortress","app_id":440,"player_count":0,"max_players":24,"Bots":0,"server_type":"Dedicated","server_os":"Linux","password":true,"vac":true,"version":"7961495","steam_id":85568392925397960,"keywords":["cp","nocrits","nodmgspread","uncletopia"],"game_id":440,"stv_port":27066,"stv_name":"Uncletopia | Sydney | 6 | Community | STV","players":null},{"server_id":49,"name":"Uncletopia | Warsaw | 1 | One Thousand Uncles","name_short":"waw-1","host":"waw-1.pl.uncletopia.com","port":27015,"enabled":true,"region":"eu","cc":"pl","latitude":52.2297,"longitude":21.017532,"reserved":0,"last_update":"0001-01-01T00:00:00Z","name_a2s":"Uncletopia | Warsaw | 1 | One Thousand Uncles","protocol":17,"map":"cp_dustbowl","folder":"tf","game":"Team Fortress","app_id":440,"player_count":29,"max_players":32,"Bots":16,"server_type":"Dedicated","server_os":"Linux","password":true,"vac":true,"version":"7961495","steam_id":85568392925397850,"keywords":["alltalk","bots","cp","danepve","increased_maxplayers","norespawntime","uncletopia"],"game_id":440,"stv_port":0,"stv_name":"","players":[{"user_id":334,"name":"Boris_Bober","steam_id":76561199176831467,"connected_time":2357000000000,"state":"active","ping":70},{"user_id":233,"name":"Gus Fring Man","steam_id":76561198321570748,"connected_time":7585000000000,"state":"active","ping":73},{"user_id":331,"name":"K√§√§rij√§","steam_id":76561199026027655,"connected_time":2757000000000,"state":"active","ping":94},{"user_id":376,"name":"charleskarol598","steam_id":76561199135093180,"connected_time":195000000000,"state":"active","ping":45},{"user_id":365,"name":"JayMaloney","steam_id":76561198050173547,"connected_time":523000000000,"state":"active","ping":74},{"user_id":312,"name":"mƒ±gos","steam_id":76561198219193327,"connected_time":4080000000000,"state":"active","ping":104},{"user_id":377,"name":"mark.pridalko","steam_id":76561199178348857,"connected_time":170000000000,"state":"active","ping":82},{"user_id":368,"name":"Fatmagic Mukbang ASMR","steam_id":76561198063492110,"connected_time":371000000000,"state":"active","ping":91},{"user_id":239,"name":"babijon","steam_id":76561199283633044,"connected_time":7213000000000,"state":"active","ping":147},{"user_id":328,"name":"Spxndrej","steam_id":76561199426583978,"connected_time":3015000000000,"state":"active","ping":46},{"user_id":370,"name":"MrDUB","steam_id":76561199131642284,"connected_time":358000000000,"state":"active","ping":76},{"user_id":372,"name":"Shelly1052","steam_id":76561199043551053,"connected_time":294000000000,"state":"active","ping":69},{"user_id":378,"name":"Cynthia","steam_id":76561198874418999,"connected_time":148000000000,"state":"active","ping":75}]},{"server_id":50,"name":"Uncletopia | Warsaw | 2 | One Thousand Uncles","name_short":"waw-2","host":"waw-1.pl.uncletopia.com","port":27025,"enabled":true,"region":"eu","cc":"pl","latitude":52.2297,"longitude":21.017532,"reserved":0,"last_update":"0001-01-01T00:00:00Z","name_a2s":"Uncletopia | Warsaw | 2 | One Thousand Uncles","protocol":17,"map":"pl_hoodoo_final","folder":"tf","game":"Team Fortress","app_id":440,"player_count":21,"max_players":32,"Bots":16,"server_type":"Dedicated","server_os":"Linux","password":true,"vac":true,"version":"7961495","steam_id":85568392925397851,"keywords":["alltalk","bots","danepve","increased_maxplayers","norespawntime","payload","uncletopia"],"game_id":440,"stv_port":0,"stv_name":"","players":[{"user_id":458,"name":"vexiot","steam_id":76561199019186878,"connected_time":182000000000,"state":"active","ping":38},{"user_id":457,"name":"nikolaspapadopoulos3","steam_id":76561198273936389,"connected_time":545000000000,"state":"active","ping":99},{"user_id":448,"name":"Tx_madmash","steam_id":76561198924656512,"connected_time":1255000000000,"state":"active","ping":95},{"user_id":440,"name":"Mango_Archimedes","steam_id":76561199096635508,"connected_time":2079000000000,"state":"active","ping":57},{"user_id":441,"name":"_D4VID","steam_id":76561198163317060,"connected_time":2062000000000,"state":"active","ping":44}]},{"server_id":51,"name":"Uncletopia | Warsaw | 3 | All Maps","name_short":"waw-3","host":"waw-1.pl.uncletopia.com","port":27035,"enabled":true,"region":"eu","cc":"pl","latitude":52.2297,"longitude":21.017532,"reserved":0,"last_update":"0001-01-01T00:00:00Z","name_a2s":"Uncletopia | Warsaw | 3 | All Maps","protocol":17,"map":"pl_pier","folder":"tf","game":"Team Fortress","app_id":440,"player_count":3,"max_players":24,"Bots":0,"server_type":"Dedicated","server_os":"Linux","password":true,"vac":true,"version":"7961495","steam_id":85568392925397852,"keywords":["nocrits","nodmgspread","payload","uncletopia"],"game_id":440,"stv_port":27036,"stv_name":"Uncletopia | Warsaw | 3 | All Maps | STV","players":[{"user_id":11,"name":"Wholesome","steam_id":76561198010329501,"connected_time":1317000000000,"state":"active","ping":78},{"user_id":12,"name":"Stan","steam_id":76561198209150708,"connected_time":579000000000,"state":"active","ping":174},{"user_id":14,"name":"F","steam_id":76561199149462792,"connected_time":444000000000,"state":"active","ping":62}]},{"server_id":52,"name":"Uncletopia | Warsaw | 4 | All Maps","name_short":"waw-4","host":"waw-1.pl.uncletopia.com","port":27045,"enabled":true,"region":"eu","cc":"pl","latitude":52.2297,"longitude":21.017532,"reserved":0,"last_update":"0001-01-01T00:00:00Z","name_a2s":"Uncletopia | Warsaw | 4 | All Maps","protocol":17,"map":"cp_powerhouse","folder":"tf","game":"Team Fortress","app_id":440,"player_count":24,"max_players":24,"Bots":0,"server_type":"Dedicated","server_os":"Linux","password":true,"vac":true,"version":"7961495","steam_id":85568392925397853,"keywords":["cp","nocrits","nodmgspread","uncletopia"],"game_id":440,"stv_port":27046,"stv_name":"Uncletopia | Warsaw | 4 | All Maps | STV","players":[{"user_id":92,"name":"A  cute cat who has a knife and","steam_id":76561199017719018,"connected_time":562000000000,"state":"active","ping":171},{"user_id":76,"name":"non_ai","steam_id":76561198270951938,"connected_time":1567000000000,"state":"active","ping":144},{"user_id":93,"name":"Dark","steam_id":76561198209594571,"connected_time":509000000000,"state":"active","ping":83},{"user_id":69,"name":"weed fairy","steam_id":76561197998843096,"connected_time":2012000000000,"state":"active","ping":54},{"user_id":98,"name":"Old Hat","steam_id":76561197994673297,"connected_time":176000000000,"state":"active","ping":57},{"user_id":45,"name":"[T]aKer","steam_id":76561198001778013,"connected_time":3609000000000,"state":"active","ping":68},{"user_id":83,"name":"This is bat country","steam_id":76561199067658590,"connected_time":1148000000000,"state":"active","ping":87},{"user_id":96,"name":"Neko","steam_id":76561198075690128,"connected_time":368000000000,"state":"active","ping":68},{"user_id":84,"name":"mike tyson","steam_id":76561198113672187,"connected_time":1121000000000,"state":"active","ping":147},{"user_id":22,"name":"Doogie","steam_id":76561198846924693,"connected_time":4694000000000,"state":"active","ping":76},{"user_id":86,"name":"peggy","steam_id":76561198136609791,"connected_time":840000000000,"state":"active","ping":62},{"user_id":24,"name":"Xoukz","steam_id":76561198356014540,"connected_time":4686000000000,"state":"active","ping":129},{"user_id":67,"name":"install gentoo","steam_id":76561198185257982,"connected_time":2213000000000,"state":"active","ping":98},{"user_id":29,"name":"I shitted my a$$","steam_id":76561198981017406,"connected_time":4315000000000,"state":"active","ping":50},{"user_id":32,"name":"Freshxy","steam_id":76561198250232194,"connected_time":4212000000000,"state":"active","ping":75},{"user_id":68,"name":"Rei Ayanami","steam_id":76561198405980575,"connected_time":2084000000000,"state":"active","ping":58},{"user_id":65,"name":"KassuK","steam_id":76561199148205635,"connected_time":2553000000000,"state":"active","ping":126},{"user_id":38,"name":"I Love Filtered Water","steam_id":76561198016042113,"connected_time":3774000000000,"state":"active","ping":47},{"user_id":99,"name":"üóøüóøüóø„ÉÑüóøüóø","steam_id":76561198977864769,"connected_time":66000000000,"state":"active","ping":59},{"user_id":70,"name":"Spicy Fiberglass","steam_id":76561198084447725,"connected_time":2000000000000,"state":"active","ping":61},{"user_id":56,"name":"MateuszRTS","steam_id":76561198014491925,"connected_time":2886000000000,"state":"active","ping":61},{"user_id":55,"name":"ùìπùì±ùì™ùì∑ùìΩùì∏ùì∂","steam_id":76561199095923041,"connected_time":2986000000000,"state":"active","ping":153},{"user_id":52,"name":"I-I","steam_id":76561198267969436,"connected_time":3431000000000,"state":"active","ping":69},{"user_id":91,"name":"Salmonb√ºrg, Aplaysos, USA.","steam_id":76561199228443503,"connected_time":615000000000,"state":"active","ping":76}]},{"server_id":53,"name":"Uncletopia | Warsaw | 5 | Stopwatch","name_short":"waw-5","host":"waw-1.pl.uncletopia.com","port":27055,"enabled":true,"region":"eu","cc":"pl","latitude":52.2297,"longitude":21.017532,"reserved":0,"last_update":"0001-01-01T00:00:00Z","name_a2s":"Uncletopia | Warsaw | 5 | Stopwatch","protocol":17,"map":"workshop/koth_clearcut_b15.ugc2107050255","folder":"tf","game":"Team Fortress","app_id":440,"player_count":0,"max_players":24,"Bots":0,"server_type":"Dedicated","server_os":"Linux","password":true,"vac":true,"version":"7961495","steam_id":85568392925397854,"keywords":["cp","nocrits","nodmgspread","uncletopia"],"game_id":440,"stv_port":27056,"stv_name":"Uncletopia | Warsaw | 5 | Stopwatch | STV","players":null},{"server_id":54,"name":"Uncletopia | Warsaw | 6 | Community","name_short":"waw-6","host":"waw-1.pl.uncletopia.com","port":27065,"enabled":true,"region":"eu","cc":"pl","latitude":52.2297,"longitude":21.017532,"reserved":0,"last_update":"0001-01-01T00:00:00Z","name_a2s":"Uncletopia | Warsaw | 6 | Community","protocol":17,"map":"workshop/cp_fulgur_rc2a.ugc2068252300","folder":"tf","game":"Team Fortress","app_id":440,"player_count":0,"max_players":24,"Bots":0,"server_type":"Dedicated","server_os":"Linux","password":true,"vac":true,"version":"7961495","steam_id":85568392925397856,"keywords":["cp","nocrits","nodmgspread","uncletopia"],"game_id":440,"stv_port":27066,"stv_name":"Uncletopia | Warsaw | 6 | Community | STV","players":null}]}