{"status":true,"message":"","result":[{"server_id":9,"name":"Uncletopia | Atlanta | 1 | All Maps","name_short":"atl-1","host":"atl-1.us.uncletopia.com","port":27015,"enabled":true,"region":"us-east","cc":"us","latitude":33.753746,"longitude":-84.38633,"reserved":0,"last_update":"0001-01-01T00:00:00Z","name_a2s":"Uncletopia | Atlanta | 1 | All Maps","protocol":17,"map":"pl_pier","folder":"tf","game":"Team Fortress","app_id":440,"player_count":22,"max_players":24,"Bots":0,"server_type":"Dedicated","server_os":"Linux","password":true,"vac":true,"version":"7961495","steam_id":85568392924469982,"keywords":["nocrits","nodmgspread","payload","uncletopia"],"game_id":440,"stv_port":27016,"stv_name":"Uncletopia | Atlanta | 1 | All Maps | STV","players":[{"user_id":771,"name":"Cooldog","steam_id":76561198080548713,"connected_time":1010000000000,"state":"active","ping":70},{"user_id":775,"name":"Stevelonk","steam_id":76561198088224665,"connected_time":405000000000,"state":"active","ping":60},{"user_id":774,"name":"Hyper","steam_id":76561199102864718,"connected_time":655000000000,"state":"active","ping":83},{"user_id":556,"name":"CoffeeZombee","steam_id":76561198172708053,"connected_time":16050000000000,"state":"active","ping":61},{"user_id":768,"name":"Intro Bonito","steam_id":76561198119478838,"connected_time":1425000000000,"state":"active","ping":49},{"user_id":776,"name":"Captain Chicken","steam_id":76561198047767530,"connected_time":303000000000,"state":"active","ping":90},{"user_id":540,"name":"FEBLUCAXZ","steam_id":76561198355845884,"connected_time":17215000000000,"state":"active","ping":100},{"user_id":759,"name":"plink","steam_id":76561198274112032,"connected_time":2196000000000,"state":"active","ping":89},{"user_id":758,"name":"collacot","steam_id":76561198243248798,"connected_time":2295000000000,"state":"active","ping":66},{"user_id":750,"name":"lalman","steam_id":76561198196605887,"connected_time":2848000000000,"state":"active","ping":62},{"user_id":777,"name":"Veridian","steam_id":76561198096334078,"connected_time":237000000000,"state":"active","ping":59},{"user_id":754,"name":"fluffythemessiah","steam_id":76561199013202758,"connected_time":2743000000000,"state":"active","ping":101},{"user_id":760,"name":"Scrux","steam_id":76561198129763115,"connected_time":2167000000000,"state":"active","ping":113},{"user_id":734,"name":"OMEN","steam_id":76561198996976374,"connected_time":3870000000000,"state":"active","ping":109},{"user_id":751,"name":"BananaMangoFestival2013","steam_id":76561198218558897,"connected_time":2837000000000,"state":"active","ping":135},{"user_id":723,"name":"confield","steam_id":76561198004322265,"connected_time":4293000000000,"state":"active","ping":55},{"user_id":773,"name":"Marchdot","steam_id":76561198089444244,"connected_time":877000000000,"state":"active","ping":128},{"user_id":778,"name":"JYNACCI #josiepilled","steam_id":76561198100942212,"connected_time":232000000000,"state":"active","ping":71},{"user_id":767,"name":"Tay1Qr","steam_id":76561198082809935,"connected_time":1685000000000,"state":"active","ping":61},{"user_id":780,"name":"MF BOOM","steam_id":76561198143781864,"connected_time":138000000000,"state":"active","ping":126},{"user_id":743,"name":"Squanchy","steam_id":76561198036319676,"connected_time":3416000000000,"state":"active","ping":45},{"user_id":781,"name":"Miyukipedia","steam_id":76561197972506158,"connected_time":122000000000,"state":"active","ping":106}]},{"server_id":104,"name":"Uncletopia | Atlanta | 2 | All Maps","name_short":"atl-2","host":"atl-1.us.uncletopia.com","port":27025,"enabled":true,"region":"us-east","cc":"us","latitude":33.753746,"longitude":-84.38633,"reserved":0,"last_update":"0001-01-01T00:00:00Z","name_a2s":"Uncletopia | Atlanta | 2 | All Maps","protocol":17,"map":"cp_dustbowl","folder":"tf","game":"Team Fortress","app_id":440,"player_count":17,"max_players":24,"Bots":0,"server_type":"Dedicated","server_os":"Linux","password":true,"vac":true,"version":"7961495","steam_id":85568392924469983,"keywords":["cp","nocrits","nodmgspread","uncletopia"],"game_id":440,"stv_port":27026,"stv_name":"Uncletopia | Atlanta | 2 | All Maps | STV","players":[{"user_id":875,"name":"b♥bb[Y!]","steam_id":76561198029549729,"connected_time":13000000000,"state":"active","ping":89},{"user_id":870,"name":"Shotgun Thug #1","steam_id":76561198035852743,"connected_time":390000000000,"state":"active","ping":94},{"user_id":866,"name":"flintstones gummy","steam_id":76561198203171349,"connected_time":499000000000,"state":"active","ping":60},{"user_id":814,"name":"Filthy Hobo","steam_id":76561198174373015,"connected_time":6375000000000,"state":"active","ping":112},{"user_id":845,"name":"Here Comes Beedog!","steam_id":76561198005369284,"connected_time":1874000000000,"state":"active","ping":117},{"user_id":865,"name":"Policial malvada.","steam_id":76561198374559114,"connected_time":619000000000,"state":"active","ping":171},{"user_id":802,"name":"retard man from retard land","steam_id":76561198984228021,"connected_time":7238000000000,"state":"active","ping":55},{"user_id":862,"name":"Team Fartpiss Poo","steam_id":76561199163591880,"connected_time":837000000000,"state":"active","ping":72},{"user_id":852,"name":"Greg (Real)","steam_id":76561198257241062,"connected_time":1654000000000,"state":"active","ping":117},{"user_id":857,"name":"Galactamarx","steam_id":76561198028065755,"connected_time":1451000000000,"state":"active","ping":94},{"user_id":871,"name":"Gunslinger","steam_id":76561198036601331,"connected_time":380000000000,"state":"active","ping":100},{"user_id":872,"name":"Windows XP Startup Sound","steam_id":76561198034178841,"connected_time":368000000000,"state":"active","ping":92},{"user_id":819,"name":"raccocooon","steam_id":76561199138602425,"connected_time":5751000000000,"state":"active","ping":70},{"user_id":844,"name":"bap","steam_id":76561198350329354,"connected_time":2022000000000,"state":"active","ping":73},{"user_id":873,"name":"Dread Pierat Squeaks","steam_id":76561198413602368,"connected_time":315000000000,"state":"active","ping":60},{"user_id":831,"name":"Niatrossan","steam_id":76561199058356548,"connected_time":4450000000000,"state":"active","ping":150},{"user_id":874,"name":"SlingShot","steam_id":76561198002971015,"connected_time":307000000000,"state":"active","ping":66}]},{"server_id":400,"name":"Uncletopia | Atlanta | 3 | Stopwatch","name_short":"atl-3","host":"atl-1.us.uncletopia.com","port":27035,"enabled":true,"region":"us-east","cc":"us","latitude":33.753746,"longitude":-84.38633,"reserved":0,"last_update":"0001-01-01T00:00:00Z","name_a2s":"Uncletopia | Atlanta | 3 | Stopwatch","protocol":17,"map":"cp_gullywash_final1","folder":"tf","game":"Team Fortress","app_id":440,"player_count":0,"max_players":24,"Bots":0,"server_type":"Dedicated","server_os":"Linux","password":true,"vac":true,"version":"7961495","steam_id":85568392924515187,"keywords":["cp","nocrits","nodmgspread","uncletopia"],"game_id":440,"stv_port":27036,"stv_name":"Uncletopia | Atlanta | 3 | Stopwatch | STV","players":null},{"server_id":401,"name":"Uncletopia | Atlanta | 4 | Community","name_short":"atl-4","host":"atl-1.us.uncletopia.com","port":27045,"enabled":true,"region":"us-east","cc":"us","latitude":33.753746,"longitude":-84.38633,"reserved":0,"last_update":"0001-01-01T00:00:00Z","name_a2s":"Uncletopia | Atlanta | 4 | Community","protocol":17,"map":"workshop/koth_slaughter_rc1.ugc1712845210","folder":"tf","game":"Team Fortress","app_id":440,"player_count":0,"max_players":24,"Bots":0,"server_type":"Dedicated","server_os":"Linux","password":true,"vac":true,"version":"7961495","steam_id":85568392924515188,"keywords":["cp","nocrits","nodmgspread","uncletopia"],"game_id":440,"stv_port":27046,"stv_name":"Uncletopia | Atlanta | 4 | Community | STV","players":null},{"server_id":2,"name":"Uncletopia | Chicago | 1 | All Maps","name_short":"chi-1","host":"chi-1.us.uncletopia.com","port":27015,"enabled":true,"region":"us-central","cc":"us","latitude":41.881832,"longitude":-87.62318,"reserved":0,"last_update":"0001-01-01T00:00:00Z","name_a2s":"Uncletopia | Chicago | 1 | All Maps","protocol":17,"map":"cp_altitude","folder":"tf","game":"Team Fortress","app_id":440,"player_count":24,"max_players":24,"Bots":0,"server_type":"Dedicated","server_os":"Linux","password":true,"vac":true,"version":"7961495","steam_id":85568392924469984,"keywords":["cp","nocrits","nodmgspread","uncletopia"],"game_id":440,"stv_port":27016,"stv_name":"Uncletopia | Chicago | 1 | All Maps | STV","players":[{"user_id":883,"name":"Filthy Acts at Reasonable Price","steam_id":76561198354615890,"connected_time":2065000000000,"state":"active","ping":92},{"user_id":890,"name":"milk then cereal","steam_id":76561198047168548,"connected_time":983000000000,"state":"active","ping":102},{"user_id":847,"name":"Dusken","steam_id":76561198020696265,"connected_time":4303000000000,"state":"active","ping":56},{"user_id":827,"name":"JRB","steam_id":76561198054629439,"connected_time":5164000000000,"state":"active","ping":54},{"user_id":900,"name":"TheSnipersHat","steam_id":76561198057684066,"connected_time":373000000000,"state":"active","ping":44},{"user_id":889,"name":"honked off the bobo","steam_id":76561198123287268,"connected_time":1002000000000,"state":"active","ping":45},{"user_id":868,"name":"chimpin","steam_id":76561198858089300,"connected_time":2973000000000,"state":"active","ping":73},{"user_id":886,"name":"Bullahorns","steam_id":76561197997138052,"connected_time":1388000000000,"state":"active","ping":59},{"user_id":897,"name":"Howard Hamlin","steam_id":76561198881039861,"connected_time":613000000000,"state":"active","ping":50},{"user_id":878,"name":"ms. capgras [troutsupply.net]","steam_id":76561199080209996,"connected_time":2345000000000,"state":"active","ping":49},{"user_id":842,"name":"Mysti","steam_id":76561198064214855,"connected_time":4707000000000,"state":"active","ping":63},{"user_id":891,"name":"VidzCMC","steam_id":76561198848142973,"connected_time":972000000000,"state":"active","ping":55},{"user_id":846,"name":"fine","steam_id":76561198054390505,"connected_time":4401000000000,"state":"active","ping":58},{"user_id":884,"name":"Tobo","steam_id":76561198085846393,"connected_time":2003000000000,"state":"active","ping":75},{"user_id":872,"name":"Chicago Shoplifter","steam_id":76561197986530028,"connected_time":2798000000000,"state":"active","ping":103},{"user_id":901,"name":"SoldMyKidneyForCollege","steam_id":76561198096329559,"connected_time":269000000000,"state":"active","ping":92},{"user_id":888,"name":"[FGCP]EasterEgg","steam_id":76561198074117998,"connected_time":1050000000000,"state":"active","ping":80},{"user_id":854,"name":"Lemon Soda","steam_id":76561198140208761,"connected_time":3780000000000,"state":"active","ping":70},{"user_id":851,"name":"Gram Tokers Count Doinkula","steam_id":76561198112811565,"connected_time":4073000000000,"state":"active","ping":74},{"user_id":898,"name":"Rambly Dambly","steam_id":76561198844496567,"connected_time":603000000000,"state":"active","ping":59},{"user_id":893,"name":"getting your weiner sucked craz","steam_id":76561198163238434,"connected_time":865000000000,"state":"active","ping":69},{"user_id":896,"name":"wetto makaveli","steam_id":76561198224811504,"connected_time":688000000000,"state":"active","ping":59},{"user_id":895,"name":"b etween d","steam_id":76561198802099686,"connected_time":759000000000,"state":"active","ping":161},{"user_id":856,"name":"Dinosaur","steam_id":76561199079626189,"connected_time":3775000000000,"state":"active","ping":70}]},{"server_id":106,"name":"Uncletopia | Chicago | 2 | All Maps","name_short":"chi-2","host":"chi-1.us.uncletopia.com","port":27025,"enabled":true,"region":"us-central","cc":"us","latitude":41.881832,"longitude":-87.62318,"reserved":0,"last_update":"0001-01-01T00:00:00Z","name_a2s":"Uncletopia | Chicago | 2 | All Maps","protocol":17,"map":"pl_frontier_final","folder":"tf","game":"Team Fortress","app_id":440,"player_count":13,"max_players":24,"Bots":0,"server_type":"Dedicated","server_os":"Linux","password":true,"vac":true,"version":"7961495","steam_id":85568392924469985,"keywords":["nocrits","nodmgspread","payload","uncletopia"],"game_id":440,"stv_port":27026,"stv_name":"Uncletopia | Chicago | 2 | All Maps | STV","players":[{"user_id":728,"name":"AzuriousAlex","steam_id":76561198158026405,"connected_time":1710000000000,"state":"active","ping":67},{"user_id":742,"name":"mu","steam_id":76561197997530228,"connected_time":1122000000000,"state":"active","ping":100},{"user_id":750,"name":"The lord of fools.","steam_id":76561198441732795,"connected_time":491000000000,"state":"active","ping":61},{"user_id":753,"name":"Raccoon Wizard","steam_id":76561198072562591,"connected_time":303000000000,"state":"active","ping":74},{"user_id":737,"name":"Queen Frau the Round","steam_id":76561197999942134,"connected_time":1423000000000,"state":"active","ping":42},{"user_id":739,"name":"zuchima","steam_id":76561198026152104,"connected_time":1289000000000,"state":"active","ping":60},{"user_id":714,"name":"Blobbyfish","steam_id":76561198822962650,"connected_time":2398000000000,"state":"active","ping":60},{"user_id":755,"name":"Tahm Kench","steam_id":76561198272374535,"connected_time":219000000000,"state":"active","ping":67},{"user_id":751,"name":"The local hobo","steam_id":76561198289650060,"connected_time":456000000000,"state":"active","ping":80},{"user_id":749,"name":"geroxe cruo","steam_id":76561199480942903,"connected_time":549000000000,"state":"active","ping":151},{"user_id":744,"name":"Mom","steam_id":76561198207936000,"connected_time":1094000000000,"state":"active","ping":87},{"user_id":746,"name":"gIBBY","steam_id":76561198080099598,"connected_time":1037000000000,"state":"active","ping":45},{"user_id":740,"name":"Glazed","steam_id":76561198043020404,"connected_time":1263000000000,"state":"active","ping":84}]},{"server_id":402,"name":"Uncletopia | Chicago | 3 | All Maps","name_short":"chi-3","host":"chi-1.us.uncletopia.com","port":27035,"enabled":true,"region":"us-central","cc":"us","latitude":41.881832,"longitude":-87.62318,"reserved":0,"last_update":"0001-01-01T00:00:00Z","name_a2s":"Uncletopia | Chicago | 3 | All Maps","protocol":17,"map":"pl_pier","folder":"tf","game":"Team Fortress","app_id":440,"player_count":19,"max_players":24,"Bots":0,"server_type":"Dedicated","server_os":"Linux","password":true,"vac":true,"version":"7961495","steam_id":85568392924515191,"keywords":["nocrits","nodmgspread","payload","uncletopia"],"game_id":440,"stv_port":27036,"stv_name":"Uncletopia | Chicago | 3 | All Maps | STV","players":[{"user_id":417,"name":"Fluffles","steam_id":76561198103183607,"connected_time":409000000000,"state":"active","ping":106},{"user_id":364,"name":"SiltyStar85","steam_id":76561198309175923,"connected_time":4756000000000,"state":"active","ping":88},{"user_id":403,"name":"Groovitude","steam_id":76561198269289716,"connected_time":1463000000000,"state":"active","ping":60},{"user_id":399,"name":"Jelqing Table","steam_id":76561198051373750,"connected_time":1729000000000,"state":"active","ping":70},{"user_id":423,"name":"FatSweatyBlackMan","steam_id":76561199020244051,"connected_time":220000000000,"state":"active","ping":94},{"user_id":395,"name":"Acuzik","steam_id":76561198045453400,"connected_time":2544000000000,"state":"active","ping":33},{"user_id":380,"name":"Lullaby","steam_id":76561198061103166,"connected_time":3475000000000,"state":"active","ping":60},{"user_id":365,"name":"RusticCarp42989","steam_id":76561198361151865,"connected_time":4750000000000,"state":"active","ping":123},{"user_id":396,"name":"Braingoo Hex","steam_id":76561198083094783,"connected_time":2540000000000,"state":"active","ping":102},{"user_id":418,"name":"Tlord","steam_id":76561198086967416,"connected_time":381000000000,"state":"active","ping":49},{"user_id":368,"name":"Luci★Fer","steam_id":76561199030343810,"connected_time":4494000000000,"state":"active","ping":50},{"user_id":420,"name":"9Bendy9","steam_id":76561198164023601,"connected_time":308000000000,"state":"active","ping":107},{"user_id":404,"name":"Mr. Sandman","steam_id":76561198065870487,"connected_time":1422000000000,"state":"active","ping":54},{"user_id":425,"name":"KaosInfinite","steam_id":76561198009126350,"connected_time":2000000000,"state":"spawning","ping":75},{"user_id":405,"name":"dashR","steam_id":76561198085674870,"connected_time":1392000000000,"state":"active","ping":71},{"user_id":379,"name":"nines","steam_id":76561198078992548,"connected_time":3486000000000,"state":"active","ping":75},{"user_id":421,"name":"net_fakelag 40","steam_id":76561198968058652,"connected_time":262000000000,"state":"active","ping":100},{"user_id":424,"name":"Aster","steam_id":76561198037920420,"connected_time":140000000000,"state":"active","ping":83},{"user_id":360,"name":"RollingCow","steam_id":76561198067114237,"connected_time":5207000000000,"state":"active","ping":88}]},{"server_id":403,"name":"Uncletopia | Chicago | 4 | All Maps","name_short":"chi-4","host":"chi-1.us.uncletopia.com","port":27045,"enabled":true,"region":"us-central","cc":"us","latitude":41.881832,"longitude":-87.62318,"reserved":0,"last_update":"0001-01-01T00:00:00Z","name_a2s":"Uncletopia | Chicago | 4 | All Maps","protocol":17,"map":"koth_lakeside_final","folder":"tf","game":"Team Fortress","app_id":440,"player_count":0,"max_players":24,"Bots":0,"server_type":"Dedicated","server_os":"Linux","password":true,"vac":true,"version":"7961495","steam_id":85568392924515193,"keywords":["cp","nocrits","nodmgspread","uncletopia"],"game_id":440,"stv_port":27046,"stv_name":"Uncletopia | Chicago | 4 | All Maps | STV","players":null},{"server_id":36,"name":"Uncletopia | Chicago | 5 | All Maps","name_short":"chi-5","host":"chi-2.us.uncletopia.com","port":27015,"enabled":true,"region":"us-central","cc":"us","latitude":41.881832,"longitude":-87.62318,"reserved":0,"last_update":"0001-01-01T00:00:00Z","name_a2s":"Uncletopia | Chicago | 5 | All Maps","protocol":17,"map":"koth_viaduct","folder":"tf","game":"Team Fortress","app_id":440,"player_count":5,"max_players":24,"Bots":0,"server_type":"Dedicated","server_os":"Linux","password":true,"vac":true,"version":"7961495","steam_id":85568392924866362,"keywords":["cp","nocrits","nodmgspread","uncletopia"],"game_id":440,"stv_port":27016,"stv_name":"Uncletopia | Chicago | 5 | All Maps | STV","players":[{"user_id":383,"name":"QuakAtack","steam_id":76561198870770157,"connected_time":603000000000,"state":"active","ping":71},{"user_id":347,"name":"C Papi","steam_id":76561198027779564,"connected_time":3111000000000,"state":"active","ping":60},{"user_id":348,"name":"Strange Festive Femboy","steam_id":76561198050385093,"connected_time":3083000000000,"state":"active","ping":72},{"user_id":379,"name":"Poptart From Mars","steam_id":76561197979930960,"connected_time":962000000000,"state":"active","ping":69},{"user_id":365,"name":"Adonut","steam_id":76561198805858184,"connected_time":2604000000000,"state":"active","ping":86}]},{"server_id":37,"name":"Uncletopia | Chicago | 6 | All Maps","name_short":"chi-6","host":"chi-2.us.uncletopia.com","port":27025,"enabled":true,"region":"us-central","cc":"us","latitude":41.881832,"longitude":-87.62318,"reserved":0,"last_update":"0001-01-01T00:00:00Z","name_a2s":"Uncletopia | Chicago | 6 | All Maps","protocol":17,"map":"koth_cascade","folder":"tf","game":"Team Fortress","app_id":440,"player_count":0,"max_players":24,"Bots":0,"server_type":"Dedicated","server_os":"Linux","password":true,"vac":true,"version":"7961495","steam_id":85568392924866363,"keywords":["cp","nocrits","nodmgspread","uncletopia"],"game_id":440,"stv_port":27026,"stv_name":"Uncletopia | Chicago | 6 | All Maps | STV","players":null},{"server_id":38,"name":"Uncletopia | Chicago | 7 | Stopwatch","name_short":"chi-7","host":"chi-2.us.uncletopia.com","port":27035,"enabled":true,"region":"us-central","cc":"us","latitude":41.881832,"longitude":-87.62318,"reserved":0,"last_update":"0001-01-01T00:00:00Z","name_a2s":"Uncletopia | Chicago | 7 | Stopwatch","protocol":17,"map":"cp_process_final","folder":"tf","game":"Team Fortress","app_id":440,"player_count":0,"max_players":24,"Bots":0,"server_type":"Dedicated","server_os":"Linux","password":true,"vac":true,"version":"7961495","steam_id":85568392924866364,"keywords":["cp","nocrits","nodmgspread","uncletopia"],"game_id":440,"stv_port":27036,"stv_name":"Uncletopia | Chicago | 7 | Stopwatch | STV","players":null},{"server_id":39,"name":"Uncletopia | Chicago | 8 | Community","name_short":"chi-8","host":"chi-2.us.uncletopia.com","port":27045,"enabled":true,"region":"us-central","cc":"us","latitude":41.881832,"longitude":-87.62318,"reserved":0,"last_update":"0001-01-01T00:00:00Z","name_a2s":"Uncletopia | Chicago | 8 | Community","protocol":17,"map":"workshop/koth_synthetic_rc6a.ugc1549817316","folder":"tf","game":"Team Fortress","app_id":440,"player_count":0,"max_players":24,"Bots":0,"server_type":"Dedicated","server_os":"Linux","password":true,"vac":true,"version":"7961495","steam_id":85568392924866365,"keywords":["cp","nocrits","nodmgspread","uncletopia"],"game_id":440,"stv_port":27046,"stv_name":"Uncletopia | Chicago | 8 | Community | STV","players":null},{"server_id":8,"name":"Uncletopia | Dallas | 1 | All Maps","name_short":"dal-1","host":"dal-1.us.uncletopia.com","port":27015,"enabled":true,"region":"us-central","cc":"us","latitude":32.779167,"longitude":-96.80889,"reserved":0,"last_update":"0001-01-01T00:00:00Z","name_a2s":"Uncletopia | Dallas | 1 | All Maps","protocol":17,"map":"pl_swiftwater_final1","folder":"tf","game":"Team Fortress","app_id":440,"player_count":24,"max_players":24,"Bots":0,"server_type":"Dedicated","server_os":"Linux","password":true,"vac":true,"version":"7961495","steam_id":85568392924469986,"keywords":["nocrits","nodmgspread","payload","uncletopia"],"game_id":440,"stv_port":27016,"stv_name":"Uncletopia | Dallas | 1 | All Maps | STV","players":[{"user_id":280,"name":"Jeff","steam_id":76561197997564762,"connected_time":2131000000000,"state":"active","ping":55},{"user_id":264,"name":"Valiance","steam_id":76561198089697703,"connected_time":2826000000000,"state":"active","ping":91},{"user_id":297,"name":"Elite_Friendly","steam_id":76561198819972127,"connected_time":683000000000,"state":"active","ping":89},{"user_id":265,"name":"Pancake Shark","steam_id":76561198007093966,"connected_time":2788000000000,"state":"active","ping":84},{"user_id":298,"name":"Wick","steam_id":76561198062996360,"connected_time":634000000000,"state":"active","ping":109},{"user_id":294,"name":"pete_the_cat_2014","steam_id":76561198199266047,"connected_time":1016000000000,"state":"active","ping":74},{"user_id":295,"name":"erm... krill yourself?","steam_id":76561198095121758,"connected_time":1015000000000,"state":"active","ping":85},{"user_id":301,"name":"TrashPanda (she/her)","steam_id":76561198447864095,"connected_time":504000000000,"state":"active","ping":67},{"user_id":269,"name":"digiorno","steam_id":76561198220073852,"connected_time":2600000000000,"state":"active","ping":61},{"user_id":302,"name":"Pamperchu himself","steam_id":76561198121468734,"connected_time":496000000000,"state":"active","ping":99},{"user_id":271,"name":"Zesty Zucchini Ziti","steam_id":76561198092494136,"connected_time":2548000000000,"state":"active","ping":50},{"user_id":290,"name":"bigchungusgaming(real)","steam_id":76561198273392037,"connected_time":1920000000000,"state":"active","ping":87},{"user_id":273,"name":"The_Pacific_gamer","steam_id":76561198089491446,"connected_time":2489000000000,"state":"active","ping":96},{"user_id":277,"name":"Tomato Sauce","steam_id":76561198815374376,"connected_time":2242000000000,"state":"active","ping":94},{"user_id":303,"name":"ShadowBolt","steam_id":76561198061610985,"connected_time":470000000000,"state":"active","ping":111},{"user_id":304,"name":"Boomstick","steam_id":76561198259419651,"connected_time":464000000000,"state":"active","ping":119},{"user_id":306,"name":"Wordly Eggplant","steam_id":76561198166704083,"connected_time":444000000000,"state":"active","ping":68},{"user_id":227,"name":"Look a Bird","steam_id":76561198016294724,"connected_time":6918000000000,"state":"active","ping":83},{"user_id":291,"name":"errant","steam_id":76561197961758410,"connected_time":1872000000000,"state":"active","ping":45},{"user_id":308,"name":"Five","steam_id":76561198026640473,"connected_time":225000000000,"state":"active","ping":72},{"user_id":293,"name":"Da Walrus","steam_id":76561198045190191,"connected_time":1130000000000,"state":"active","ping":102},{"user_id":309,"name":"Popcorn","steam_id":76561198062438923,"connected_time":218000000000,"state":"active","ping":70},{"user_id":288,"name":"WillieMakit","steam_id":76561197985391684,"connected_time":2022000000000,"state":"active","ping":93},{"user_id":310,"name":"A mild inconvenience","steam_id":76561198033455618,"connected_time":211000000000,"state":"active","ping":63}]},{"server_id":108,"name":"Uncletopia | Dallas | 2 | All Maps","name_short":"dal-2","host":"dal-1.us.uncletopia.com","port":27025,"enabled":true,"region":"us-central","cc":"us","latitude":32.779167,"longitude":-96.80889,"reserved":0,"last_update":"0001-01-01T00:00:00Z","name_a2s":"Uncletopia | Dallas | 2 | All Maps","protocol":17,"map":"pl_badwater","folder":"tf","game":"Team Fortress","app_id":440,"player_count":18,"max_players":24,"Bots":0,"server_type":"Dedicated","server_os":"Linux","password":true,"vac":true,"version":"7961495","steam_id":85568392924469988,"keywords":["nocrits","nodmgspread","payload","uncletopia"],"game_id":440,"stv_port":27026,"stv_name":"Uncletopia | Dallas | 2 | All Maps | STV","players":[{"user_id":485,"name":"Endrew","steam_id":76561198031619045,"connected_time":1425000000000,"state":"active","ping":85},{"user_id":504,"name":"Gurk","steam_id":76561198103631840,"connected_time":264000000000,"state":"active","ping":75},{"user_id":505,"name":"sheeesh","steam_id":76561198038080028,"connected_time":234000000000,"state":"active","ping":75},{"user_id":489,"name":"Cliffigriff","steam_id":76561198121924499,"connected_time":1292000000000,"state":"active","ping":48},{"user_id":455,"name":"Randle of John","steam_id":76561198328210524,"connected_time":4084000000000,"state":"active","ping":89},{"user_id":506,"name":"37 septillion tapeworms","steam_id":76561198186128723,"connected_time":137000000000,"state":"active","ping":48},{"user_id":496,"name":"Rafl","steam_id":76561198055222756,"connected_time":984000000000,"state":"active","ping":44},{"user_id":483,"name":"allahsdroptop (Bag/Chaser)","steam_id":76561198133195238,"connected_time":1541000000000,"state":"active","ping":128},{"user_id":502,"name":"MerkyWaters","steam_id":76561197998853063,"connected_time":473000000000,"state":"active","ping":74},{"user_id":474,"name":"crunch","steam_id":76561198058209703,"connected_time":2259000000000,"state":"active","ping":72},{"user_id":458,"name":"fluey","steam_id":76561198070040382,"connected_time":4057000000000,"state":"active","ping":67},{"user_id":494,"name":"JimmyDribblerJibblerGribbler","steam_id":76561198274536607,"connected_time":1159000000000,"state":"active","ping":85},{"user_id":447,"name":"Kirby","steam_id":76561199161858008,"connected_time":5091000000000,"state":"active","ping":78},{"user_id":495,"name":"Goodboi989","steam_id":76561199012797025,"connected_time":1073000000000,"state":"active","ping":78},{"user_id":477,"name":"Bolbi","steam_id":76561198051811597,"connected_time":2146000000000,"state":"active","ping":94},{"user_id":319,"name":"Luffliet.","steam_id":76561198186593707,"connected_time":9274000000000,"state":"active","ping":52},{"user_id":499,"name":"Makowako","steam_id":76561199016565502,"connected_time":754000000000,"state":"active","ping":87},{"user_id":501,"name":"_Miniature_","steam_id":76561199075378102,"connected_time":573000000000,"state":"active","ping":69}]},{"server_id":404,"name":"Uncletopia | Dallas | 3 | All Maps","name_short":"dal-3","host":"dal-1.us.uncletopia.com","port":27035,"enabled":true,"region":"us-central","cc":"us","latitude":32.779167,"longitude":-96.80889,"reserved":0,"last_update":"0001-01-01T00:00:00Z","name_a2s":"Uncletopia | Dallas | 3 | All Maps","protocol":17,"map":"koth_cascade","folder":"tf","game":"Team Fortress","app_id":440,"player_count":0,"max_players":24,"Bots":0,"server_type":"Dedicated","server_os":"Linux","password":true,"vac":true,"version":"7961495","steam_id":85568392924515219,"keywords":["cp","nocrits","nodmgspread","uncletopia"],"game_id":440,"stv_port":27036,"stv_name":"Uncletopia | Dallas | 3 | All Maps | STV","players":null},{"server_id":405,"name":"Uncletopia | Dallas | 4 | Community","name_short":"dal-4","host":"dal-1.us.uncletopia.com","port":27045,"enabled":true,"region":"us-central","cc":"us","latitude":32.779167,"longitude":-96.80889,"reserved":0,"last_update":"0001-01-01T00:00:00Z","name_a2s":"Uncletopia | Dallas | 4 | Community","protocol":17,"map":"workshop/pl_fifthcurve_rc1.ugc648227046","folder":"tf","game":"Team Fortress","app_id":440,"player_count":0,"max_players":24,"Bots":0,"server_type":"Dedicated","server_os":"Linux","password":true,"vac":true,"version":"7961495","steam_id":85568392924515220,"keywords":["nocrits","nodmgspread","payload","uncletopia"],"game_id":440,"stv_port":27046,"stv_name":"Uncletopia | Dallas | 4 | Community | STV","players":null},{"server_id":5,"name":"Uncletopia | Frankfurt | 1 | All Maps","name_short":"frk-1","host":"frk-1.de.uncletopia.com","port":27015,"enabled":true,"region":"eu","cc":"de","latitude":50.110924,"longitude":8.682127,"reserved":0,"last_update":"0001-01-01T00:00:00Z","name_a2s":"Uncletopia | Frankfurt | 1 | All Maps","protocol":17,"map":"koth_highpass","folder":"tf","game":"Team Fortress","app_id":440,"player_count":0,"max_players":24,"Bots":0,"server_type":"Dedicated","server_os":"Linux","password":true,"vac":true,"version":"7961495","steam_id":85568392924469989,"keywords":["cp","nocrits","nodmgspread","uncletopia"],"game_id":440,"stv_port":27016,"stv_name":"Uncletopia | Frankfurt | 1 | All Maps | STV","players":null},{"server_id":110,"name":"Uncletopia | Frankfurt | 2 | All Maps","name_short":"frk-2","host":"frk-1.de.uncletopia.com","port":27025,"enabled":true,"region":"eu","cc":"de","latitude":50.110924,"longitude":8.682127,"reserved":0,"last_update":"0001-01-01T00:00:00Z","name_a2s":"Uncletopia | Frankfurt | 2 | All Maps","protocol":17,"map":"cp_dustbowl","folder":"tf","game":"Team Fortress","app_id":440,"player_count":0,"max_players":24,"Bots":0,"server_type":"Dedicated","server_os":"Linux","password":true,"vac":true,"version":"7961495","steam_id":85568392924469990,"keywords":["cp","nocrits","nodmgspread","uncletopia"],"game_id":440,"stv_port":27026,"stv_name":"Uncletopia | Frankfurt | 2 | All Maps | STV","players":null},{"server_id":308,"name":"Uncletopia | Frankfurt | 3 | All Maps","name_short":"frk-3","host":"frk-1.de.uncletopia.com","port":27035,"enabled":true,"region":"eu","cc":"de","latitude":50.110924,"longitude":8.682127,"reserved":0,"last_update":"0001-01-01T00:00:00Z","name_a2s":"Uncletopia | Frankfurt | 3 | All Maps","protocol":17,"map":"pl_barnblitz","folder":"tf","game":"Team Fortress","app_id":440,"player_count":0,"max_players":24,"Bots":0,"server_type":"Dedicated","server_os":"Linux","password":true,"vac":true,"version":"7961495","steam_id":85568392924504274,"keywords":["nocrits","nodmgspread","payload","uncletopia"],"game_id":440,"stv_port":27036,"stv_name":"Uncletopia | Frankfurt | 3 | All Maps | STV","players":null},{"server_id":309,"name":"Uncletopia | Frankfurt | 4 | All Maps","name_short":"frk-4","host":"frk-1.de.uncletopia.com","port":27045,"enabled":true,"region":"eu","cc":"de","latitude":50.110924,"longitude":8.682127,"reserved":0,"last_update":"0001-01-01T00:00:00Z","name_a2s":"Uncletopia | Frankfurt | 4 | All Maps","protocol":17,"map":"koth_highpass","folder":"tf","game":"Team Fortress","app_id":440,"player_count":0,"max_players":24,"Bots":0,"server_type":"Dedicated","server_os":"Linux","password":true,"vac":true,"version":"7961495","steam_id":85568392924504275,"keywords":["cp","nocrits","nodmgspread","uncletopia"],"game_id":440,"stv_port":27046,"stv_name":"Uncletopia | Frankfurt | 4 | All Maps | STV","players":null},{"server_id":310,"name":"Uncletopia | Frankfurt | 5 | All Maps","name_short":"frk-5","host":"frk-1.de.uncletopia.com","port":27055,"enabled":true,"region":"eu","cc":"de","latitude":50.110924,"longitude":8.682127,"reserved":0,"last_update":"0001-01-01T00:00:00Z","name_a2s":"Uncletopia | Frankfurt | 5 | All Maps","protocol":17,"map":"pl_badwater","folder":"tf","game":"Team Fortress","app_id":440,"player_count":0,"max_players":24,"Bots":0,"server_type":"Dedicated","server_os":"Linux","password":true,"vac":true,"version":"7961495","steam_id":85568392924504277,"keywords":["nocrits","nodmgspread","payload","uncletopia"],"game_id":440,"stv_port":27056,"stv_name":"Uncletopia | Frankfurt | 5 | All Maps | STV","players":null},{"server_id":311,"name":"Uncletopia | Frankfurt | 6 | All Maps","name_short":"frk-6","host":"frk-1.de.uncletopia.com","port":27065,"enabled":true,"region":"eu","cc":"de","latitude":50.110924,"longitude":8.682127,"reserved":0,"last_update":"0001-01-01T00:00:00Z","name_a2s":"Uncletopia | Frankfurt | 6 | All Maps","protocol":17,"map":"cp_altitude","folder":"tf","game":"Team Fortress","app_id":440,"player_count":0,"max_players":24,"Bots":0,"server_type":"Dedicated","server_os":"Linux","password":true,"vac":true,"version":"7961495","steam_id":85568392924504278,"keywords":["cp","nocrits","nodmgspread","uncletopia"],"game_id":440,"stv_port":27066,"stv_name":"Uncletopia | Frankfurt | 6 | All Maps | STV","players":null},{"server_id":23,"name":"Uncletopia | Frankfurt | 7 | Stopwatch","name_short":"frk-7","host":"frk-1.de.uncletopia.com","port":27075,"enabled":true,"region":"eu","cc":"de","latitude":50.110924,"longitude":8.682127,"reserved":0,"last_update":"0001-01-01T00:00:00Z","name_a2s":"Uncletopia | Frankfurt | 7 | Stopwatch","protocol":17,"map":"pl_frontier_final","folder":"tf","game":"Team Fortress","app_id":440,"player_count":0,"max_players":24,"Bots":0,"server_type":"Dedicated","server_os":"Linux","password":true,"vac":true,"version":"7961495","steam_id":85568392924742827,"keywords":["nocrits","nodmgspread","payload","uncletopia"],"game_id":440,"stv_port":27076,"stv_name":"Uncletopia | Frankfurt | 7 | Stopwatch | STV","players":null},{"server_id":24,"name":"Uncletopia | Frankfurt | 8 | Community","name_short":"frk-8","host":"frk-1.de.uncletopia.com","port":27085,"enabled":true,"region":"eu","cc":"de","latitude":50.110924,"longitude":8.682127,"reserved":0,"last_update":"0001-01-01T00:00:00Z","name_a2s":"Uncletopia | Frankfurt | 8 | Community","protocol":17,"map":"workshop/pl_badwater_pro_v12.ugc2142942074","folder":"tf","game":"Team Fortress","app_id":440,"player_count":0,"max_players":24,"Bots":0,"server_type":"Dedicated","server_os":"Linux","password":true,"vac":true,"version":"7961495","steam_id":85568392924742828,"keywords":["nocrits","nodmgspread","payload","uncletopia"],"game_id":440,"stv_port":27086,"stv_name":"Uncletopia | Frankfurt | 8 | Community | STV","players":null},{"server_id":202,"name":"Uncletopia | Hong Kong | 1 | All Maps","name_short":"hgk-1","host":"hgk-1.hk.uncletopia.com","port":27015,"enabled":true,"region":"asia","cc":"hk","latitude":22.302711,"longitude":114.177216,"reserved":0,"last_update":"0001-01-01T00:00:00Z","name_a2s":"Uncletopia | Hong Kong | 1 | All Maps","protocol":17,"map":"pl_snowycoast","folder":"tf","game":"Team Fortress","app_id":440,"player_count":8,"max_players":24,"Bots":0,"server_type":"Dedicated","server_os":"Linux","password":true,"vac":true,"version":"7961495","steam_id":85568392924494504,"keywords":["nocrits","nodmgspread","payload","uncletopia"],"game_id":440,"stv_port":27016,"stv_name":"Uncletopia | Hong Kong | 1 | All Maps | STV","players":[{"user_id":18,"name":"zedch","steam_id":76561199440634335,"connected_time":1865000000000,"state":"active","ping":70},{"user_id":27,"name":"marisaloses","steam_id":76561199033032870,"connected_time":701000000000,"state":"active","ping":61},{"user_id":29,"name":"i am a F2P and my aim is shit","steam_id":76561199475974790,"connected_time":487000000000,"state":"active","ping":82},{"user_id":26,"name":"⬞","steam_id":76561199373637717,"connected_time":722000000000,"state":"active","ping":166},{"user_id":22,"name":"Piezapan","steam_id":76561198877700372,"connected_time":1314000000000,"state":"active","ping":126},{"user_id":24,"name":"coakDeLera","steam_id":76561199262817512,"connected_time":906000000000,"state":"active","ping":75},{"user_id":28,"name":"nxuanduc","steam_id":76561199255996640,"connected_time":674000000000,"state":"active","ping":70},{"user_id":32,"name":"corpse_cadaver","steam_id":76561199225360457,"connected_time":91000000000,"state":"spawning","ping":53}]},{"server_id":1,"name":"Uncletopia | Los Angeles | 1 | All Maps","name_short":"lax-1","host":"lax-1.us.uncletopia.com","port":27015,"enabled":true,"region":"us-west","cc":"us","latitude":33.94279,"longitude":-118.41004,"reserved":0,"last_update":"0001-01-01T00:00:00Z","name_a2s":"Uncletopia | Los Angeles | 1 | All Maps","protocol":17,"map":"cp_dustbowl","folder":"tf","game":"Team Fortress","app_id":440,"player_count":24,"max_players":24,"Bots":0,"server_type":"Dedicated","server_os":"Linux","password":true,"vac":true,"version":"7961495","steam_id":85568392924469991,"keywords":["cp","nocrits","nodmgspread","uncletopia"],"game_id":440,"stv_port":27016,"stv_name":"Uncletopia | Los Angeles | 1 | All Maps | STV","players":[{"user_id":767,"name":"Sak","steam_id":76561198307655707,"connected_time":1083000000000,"state":"active","ping":44},{"user_id":561,"name":"meph","steam_id":76561198149683030,"connected_time":7927000000000,"state":"active","ping":73},{"user_id":741,"name":"!warn No RDM allowed","steam_id":76561198408159536,"connected_time":2031000000000,"state":"active","ping":104},{"user_id":715,"name":"c0wmanglr","steam_id":76561198025342064,"connected_time":2406000000000,"state":"active","ping":48},{"user_id":758,"name":"Pandaroo","steam_id":76561198176766127,"connected_time":1440000000000,"state":"active","ping":80},{"user_id":754,"name":"Trouser Snivy","steam_id":76561198073788829,"connected_time":1541000000000,"state":"active","ping":102},{"user_id":768,"name":"Phillip Jeffries","steam_id":76561198064052174,"connected_time":1048000000000,"state":"active","ping":116},{"user_id":765,"name":"Pilot Boy","steam_id":76561198090857288,"connected_time":1091000000000,"state":"active","ping":101},{"user_id":622,"name":"Shabooyaroll-call","steam_id":76561198112306237,"connected_time":3732000000000,"state":"active","ping":62},{"user_id":717,"name":"Cave Dweller","steam_id":76561198374825685,"connected_time":2398000000000,"state":"active","ping":68},{"user_id":759,"name":"s9","steam_id":76561198065339248,"connected_time":1416000000000,"state":"active","ping":50},{"user_id":766,"name":"5oc","steam_id":76561199196300397,"connected_time":1090000000000,"state":"active","ping":65},{"user_id":753,"name":"Sir Severus","steam_id":76561198061295188,"connected_time":1555000000000,"state":"active","ping":86},{"user_id":769,"name":"U ω U","steam_id":76561198118802562,"connected_time":1048000000000,"state":"active","ping":64},{"user_id":725,"name":"radtap","steam_id":76561198054060391,"connected_time":2334000000000,"state":"active","ping":68},{"user_id":770,"name":"armdouz","steam_id":76561199170540341,"connected_time":1003000000000,"state":"active","ping":61},{"user_id":755,"name":"nivek","steam_id":76561198056288107,"connected_time":1490000000000,"state":"active","ping":78},{"user_id":772,"name":"Irony is pretty cringy","steam_id":76561198120391460,"connected_time":765000000000,"state":"active","ping":45},{"user_id":771,"name":"Toastered","steam_id":76561198178459042,"connected_time":962000000000,"state":"active","ping":69},{"user_id":762,"name":"monkey squirts","steam_id":76561197983101644,"connected_time":1247000000000,"state":"active","ping":49},{"user_id":773,"name":"CanoeGangster","steam_id":76561198848851248,"connected_time":689000000000,"state":"active","ping":113},{"user_id":558,"name":"lol","steam_id":76561198026491738,"connected_time":8091000000000,"state":"active","ping":72},{"user_id":580,"name":"MONKEY | videogamer1002","steam_id":76561198157110599,"connected_time":6950000000000,"state":"active","ping":78},{"user_id":737,"name":"TüCold","steam_id":76561198111278197,"connected_time":2066000000000,"state":"active","ping":65}]},{"server_id":112,"name":"Uncletopia | Los Angeles | 2 | All Maps","name_short":"lax-2","host":"lax-1.us.uncletopia.com","port":27025,"enabled":true,"region":"us-west","cc":"us","latitude":33.94279,"longitude":-118.41004,"reserved":0,"last_update":"0001-01-01T00:00:00Z","name_a2s":"Uncletopia | Los Angeles | 2 | All Maps","protocol":17,"map":"pl_swiftwater_final1","folder":"tf","game":"Team Fortress","app_id":440,"player_count":20,"max_players":24,"Bots":0,"server_type":"Dedicated","server_os":"Linux","password":true,"vac":true,"version":"7961495","steam_id":85568392924469992,"keywords":["nocrits","nodmgspread","payload","uncletopia"],"game_id":440,"stv_port":27026,"stv_name":"Uncletopia | Los Angeles | 2 | All Maps | STV","players":[{"user_id":291,"name":"moneymobile","steam_id":76561198066730780,"connected_time":68000000000,"state":"active","ping":51},{"user_id":273,"name":"Austin The Brimstone","steam_id":76561198119811606,"connected_time":1711000000000,"state":"active","ping":55},{"user_id":288,"name":"Surin","steam_id":76561198008953177,"connected_time":548000000000,"state":"active","ping":100},{"user_id":292,"name":"mossyDoomhead","steam_id":76561198237954578,"connected_time":18000000000,"state":"active","ping":60},{"user_id":264,"name":"PeptoBismol","steam_id":76561198082669076,"connected_time":2835000000000,"state":"active","ping":56},{"user_id":283,"name":"LuckyTF2","steam_id":76561199108883530,"connected_time":952000000000,"state":"active","ping":61},{"user_id":293,"name":"Roxy","steam_id":76561198255575892,"connected_time":12000000000,"state":"spawning","ping":59},{"user_id":284,"name":"Oops","steam_id":76561198015032646,"connected_time":877000000000,"state":"active","ping":50},{"user_id":260,"name":"❤ Ashley ❤","steam_id":76561198056428303,"connected_time":3083000000000,"state":"active","ping":45},{"user_id":236,"name":"supcupman","steam_id":76561198051513866,"connected_time":5093000000000,"state":"active","ping":67},{"user_id":261,"name":"High quality products87345","steam_id":76561198206506481,"connected_time":2898000000000,"state":"active","ping":52},{"user_id":285,"name":"SneekiCheekiQbone","steam_id":76561198045077980,"connected_time":862000000000,"state":"active","ping":43},{"user_id":213,"name":"Jimmy","steam_id":76561198857959855,"connected_time":6949000000000,"state":"active","ping":51},{"user_id":290,"name":"psi","steam_id":76561198061497429,"connected_time":257000000000,"state":"active","ping":86},{"user_id":276,"name":"FlyingCircus","steam_id":76561198242580912,"connected_time":1684000000000,"state":"active","ping":67},{"user_id":278,"name":"Lane","steam_id":76561197965828506,"connected_time":1544000000000,"state":"active","ping":80},{"user_id":129,"name":"Pheonix Fel Dragon","steam_id":76561198164974227,"connected_time":12803000000000,"state":"active","ping":66},{"user_id":173,"name":"self sufficient kitten","steam_id":76561197960592612,"connected_time":9802000000000,"state":"active","ping":75},{"user_id":287,"name":"2 Point Tom","steam_id":76561198087617008,"connected_time":809000000000,"state":"active","ping":70},{"user_id":188,"name":"HopeTheNeko","steam_id":76561199159285465,"connected_time":8839000000000,"state":"active","ping":60}]},{"server_id":324,"name":"Uncletopia | Los Angeles | 3 | All Maps","name_short":"lax-3","host":"lax-1.us.uncletopia.com","port":27035,"enabled":true,"region":"us-west","cc":"us","latitude":33.94279,"longitude":-118.41004,"reserved":0,"last_update":"0001-01-01T00:00:00Z","name_a2s":"Uncletopia | Los Angeles | 3 | All Maps","protocol":17,"map":"koth_lakeside_final","folder":"tf","game":"Team Fortress","app_id":440,"player_count":0,"max_players":24,"Bots":0,"server_type":"Dedicated","server_os":"Linux","password":true,"vac":true,"version":"7961495","steam_id":85568392924510198,"keywords":["cp","nocrits","nodmgspread","uncletopia"],"game_id":440,"stv_port":27036,"stv_name":"Uncletopia | Los Angeles | 3 | All Maps | STV","players":null},{"server_id":25,"name":"Uncletopia | Los Angeles | 4 | Stopwatch","name_short":"lax-4","host":"lax-1.us.uncletopia.com","port":27045,"enabled":true,"region":"us-west","cc":"us","latitude":33.94279,"longitude":-118.41004,"reserved":0,"last_update":"0001-01-01T00:00:00Z","name_a2s":"Uncletopia | Los Angeles | 4 | Stopwatch","protocol":17,"map":"koth_lakeside_final","folder":"tf","game":"Team Fortress","app_id":440,"player_count":0,"max_players":24,"Bots":0,"server_type":"Dedicated","server_os":"Linux","password":true,"vac":true,"version":"7961495","steam_id":85568392924510199,"keywords":["cp","nocrits","nodmgspread","uncletopia"],"game_id":440,"stv_port":27046,"stv_name":"Uncletopia | Los Angeles | 4 | Stopwatch | STV","players":null},{"server_id":11,"name":"Uncletopia | London | 1 | All Maps","name_short":"lon-1","host":"lon-1.uk.uncletopia.com","port":27015,"enabled":true,"region":"eu","cc":"gb","latitude":51.509865,"longitude":-0.118092,"reserved":0,"last_update":"0001-01-01T00:00:00Z","name_a2s":"Uncletopia | London | 1 | All Maps","protocol":17,"map":"koth_highpass","folder":"tf","game":"Team Fortress","app_id":440,"player_count":0,"max_players":24,"Bots":0,"server_type":"Dedicated","server_os":"Linux","password":true,"vac":true,"version":"7961495","steam_id":85568392924367362,"keywords":["cp","nocrits","nodmgspread","uncletopia"],"game_id":440,"stv_port":27016,"stv_name":"Uncletopia | London | 1 | All Maps | STV","players":null},{"server_id":114,"name":"Uncletopia | London | 2 | All Maps","name_short":"lon-2","host":"lon-1.uk.uncletopia.com","port":27025,"enabled":true,"region":"eu","cc":"gb","latitude":51.509865,"longitude":-0.118092,"reserved":0,"last_update":"0001-01-01T00:00:00Z","name_a2s":"Uncletopia | London | 2 | All Maps","protocol":17,"map":"koth_lakeside_final","folder":"tf","game":"Team Fortress","app_id":440,"player_count":0,"max_players":24,"Bots":0,"server_type":"Dedicated","server_os":"Linux","password":true,"vac":true,"version":"7961495","steam_id":85568392924470941,"keywords":["cp","nocrits","nodmgspread","uncletopia"],"game_id":440,"stv_port":27026,"stv_name":"Uncletopia | London | 2 | All Maps | STV","players":null},{"server_id":320,"name":"Uncletopia | London | 3 | All Maps","name_short":"lon-3","host":"lon-1.uk.uncletopia.com","port":27035,"enabled":true,"region":"eu","cc":"gb","latitude":51.509865,"longitude":-0.118092,"reserved":0,"last_update":"0001-01-01T00:00:00Z","name_a2s":"Uncletopia | London | 3 | All Maps","protocol":17,"map":"koth_lakeside_final","folder":"tf","game":"Team Fortress","app_id":440,"player_count":0,"max_players":24,"Bots":0,"server_type":"Dedicated","server_os":"Linux","password":true,"vac":true,"version":"7961495","steam_id":85568392924510192,"keywords":["cp","nocrits","nodmgspread","uncletopia"],"game_id":440,"stv_port":27036,"stv_name":"Uncletopia | London | 3 | All Maps | STV","players":null},{"server_id":321,"name":"Uncletopia | London | 4 | All Maps","name_short":"lon-4","host":"lon-1.uk.uncletopia.com","port":27045,"enabled":true,"region":"eu","cc":"gb","latitude":51.509865,"longitude":-0.118092,"reserved":0,"last_update":"0001-01-01T00:00:00Z","name_a2s":"Uncletopia | London | 4 | All Maps","protocol":17,"map":"koth_cascade","folder":"tf","game":"Team Fortress","app_id":440,"player_count":0,"max_players":24,"Bots":0,"server_type":"Dedicated","server_os":"Linux","password":true,"vac":true,"version":"7961495","steam_id":85568392924510193,"keywords":["cp","nocrits","nodmgspread","uncletopia"],"game_id":440,"stv_port":27046,"stv_name":"Uncletopia | London | 4 | All Maps | STV","players":null},{"server_id":21,"name":"Uncletopia | London | 5 | All Maps","name_short":"lon-5","host":"lon-1.uk.uncletopia.com","port":27055,"enabled":true,"region":"eu","cc":"gb","latitude":51.509865,"longitude":-0.118092,"reserved":0,"last_update":"0001-01-01T00:00:00Z","name_a2s":"Uncletopia | London | 5 | All Maps","protocol":17,"map":"koth_lakeside_final","folder":"tf","game":"Team Fortress","app_id":440,"player_count":0,"max_players":24,"Bots":0,"server_type":"Dedicated","server_os":"Linux","password":true,"vac":true,"version":"7961495","steam_id":85568392924742829,"keywords":["cp","nocrits","nodmgspread","uncletopia"],"game_id":440,"stv_port":27056,"stv_name":"Uncletopia | London | 5 | All Maps | STV","players":null},{"server_id":22,"name":"Uncletopia | London | 6 | All Maps","name_short":"lon-6","host":"lon-1.uk.uncletopia.com","port":27065,"enabled":true,"region":"eu","cc":"gb","latitude":51.509865,"longitude":-0.118092,"reserved":0,"last_update":"0001-01-01T00:00:00Z","name_a2s":"Uncletopia | London | 6 | All Maps","protocol":17,"map":"cp_dustbowl","folder":"tf","game":"Team Fortress","app_id":440,"player_count":0,"max_players":24,"Bots":0,"server_type":"Dedicated","server_os":"Linux","password":true,"vac":true,"version":"7961495","steam_id":85568392924742830,"keywords":["cp","nocrits","nodmgspread","uncletopia"],"game_id":440,"stv_port":27066,"stv_name":"Uncletopia | London | 6 | All Maps | STV","players":null},{"server_id":40,"name":"Uncletopia | London | 7 | Stopwatch","name_short":"lon-7","host":"lon-1.uk.uncletopia.com","port":27075,"enabled":true,"region":"eu","cc":"gb","latitude":51.509865,"longitude":-0.118092,"reserved":0,"last_update":"0001-01-01T00:00:00Z","name_a2s":"Uncletopia | London | 7 | Stopwatch","protocol":17,"map":"koth_lakeside_final","folder":"tf","game":"Team Fortress","app_id":440,"player_count":0,"max_players":24,"Bots":0,"server_type":"Dedicated","server_os":"Linux","password":true,"vac":true,"version":"7961495","steam_id":85568392924964314,"keywords":["cp","nocrits","nodmgspread","uncletopia"],"game_id":440,"stv_port":27076,"stv_name":"Uncletopia | London | 7 | Stopwatch | STV","players":null},{"server_id":41,"name":"Uncletopia | London | 8 | Community","name_short":"lon-8","host":"lon-1.uk.uncletopia.com","port":27085,"enabled":true,"region":"eu","cc":"gb","latitude":51.509865,"longitude":-0.118092,"reserved":0,"last_update":"0001-01-01T00:00:00Z","name_a2s":"Uncletopia | London | 8 | Community","protocol":17,"map":"workshop/cp_croissant_final.ugc458840209","folder":"tf","game":"Team Fortress","app_id":440,"player_count":0,"max_players":24,"Bots":0,"server_type":"Dedicated","server_os":"Linux","password":true,"vac":true,"version":"7961495","steam_id":85568392924964315,"keywords":["cp","nocrits","nodmgspread","uncletopia"],"game_id":440,"stv_port":27086,"stv_name":"Uncletopia | London | 8 | Community | STV","players":null},{"server_id":300,"name":"Uncletopia | Montréal | 1 | One Thousand Uncles","name_short":"mtl-1","host":"mtl-1.ca.uncletopia.com","port":27015,"enabled":true,"region":"us-east","cc":"ca","latitude":45.50889,"longitude":-73.56167,"reserved":0,"last_update":"0001-01-01T00:00:00Z","name_a2s":"","protocol":0,"map":"","folder":"","game":"","app_id":0,"player_count":0,"max_players":0,"Bots":0,"server_type":"","server_os":"","password":false,"vac":false,"version":"","steam_id":0,"keywords":null,"game_id":0,"stv_port":0,"stv_name":"","players":null},{"server_id":301,"name":"Uncletopia | Montréal | 2 | One Thousand Uncles","name_short":"mtl-2","host":"mtl-1.ca.uncletopia.com","port":27025,"enabled":true,"region":"us-east","cc":"ca","latitude":45.50889,"longitude":-73.56167,"reserved":0,"last_update":"0001-01-01T00:00:00Z","name_a2s":"","protocol":0,"map":"","folder":"","game":"","app_id":0,"player_count":0,"max_players":0,"Bots":0,"server_type":"","server_os":"","password":false,"vac":false,"version":"","steam_id":0,"keywords":null,"game_id":0,"stv_port":0,"stv_name":"","players":null},{"server_id":302,"name":"Uncletopia | Montréal | 3 | One Thousand Uncles","name_short":"mtl-3","host":"mtl-1.ca.uncletopia.com","port":27035,"enabled":true,"region":"us-east","cc":"ca","latitude":45.50889,"longitude":-73.56167,"reserved":0,"last_update":"0001-01-01T00:00:00Z","name_a2s":"","protocol":0,"map":"","folder":"","game":"","app_id":0,"player_count":0,"max_players":0,"Bots":0,"server_type":"","server_os":"","password":false,"vac":false,"version":"","steam_id":0,"keywords":null,"game_id":0,"stv_port":0,"stv_name":"","players":null},{"server_id":13,"name":"Uncletopia | New York City | 1 | All Maps","name_short":"nyc-1","host":"nyc-1.us.uncletopia.com","port":27015,"enabled":true,"region":"us-east","cc":"us","latitude":40.73061,"longitude":-73.93524,"reserved":0,"last_update":"0001-01-01T00:00:00Z","name_a2s":"Uncletopia | New York City | 1 | All Maps","protocol":17,"map":"pl_barnblitz","folder":"tf","game":"Team Fortress","app_id":440,"player_count":0,"max_players":24,"Bots":0,"server_type":"Dedicated","server_os":"Linux","password":true,"vac":true,"version":"7961495","steam_id":85568392924469993,"keywords":["nocrits","nodmgspread","payload","uncletopia"],"game_id":440,"stv_port":27016,"stv_name":"Uncletopia | New York City | 1 | All Maps | STV","players":null},{"server_id":14,"name":"Uncletopia | New York City | 2 | All Maps","name_short":"nyc-2","host":"nyc-1.us.uncletopia.com","port":27025,"enabled":true,"region":"us-east","cc":"us","latitude":40.73061,"longitude":-73.93524,"reserved":0,"last_update":"0001-01-01T00:00:00Z","name_a2s":"Uncletopia | New York City | 2 | All Maps","protocol":17,"map":"koth_lakeside_final","folder":"tf","game":"Team Fortress","app_id":440,"player_count":21,"max_players":24,"Bots":0,"server_type":"Dedicated","server_os":"Linux","password":true,"vac":true,"version":"7961495","steam_id":85568392924469994,"keywords":["cp","nocrits","nodmgspread","uncletopia"],"game_id":440,"stv_port":27026,"stv_name":"Uncletopia | New York City | 2 | All Maps | STV","players":[{"user_id":475,"name":"Tarot Warden","steam_id":76561198284383023,"connected_time":1558000000000,"state":"active","ping":79},{"user_id":490,"name":"GoGo is a Drunk Slut","steam_id":76561198023080645,"connected_time":108000000000,"state":"active","ping":66},{"user_id":491,"name":"Pharthus","steam_id":76561198093866050,"connected_time":35000000000,"state":"active","ping":102},{"user_id":434,"name":"Mattie43","steam_id":76561198012053433,"connected_time":4625000000000,"state":"active","ping":30},{"user_id":404,"name":"Shmeapalicious7","steam_id":76561198425865340,"connected_time":6153000000000,"state":"active","ping":57},{"user_id":405,"name":"Nanraku","steam_id":76561198079664213,"connected_time":6111000000000,"state":"active","ping":169},{"user_id":466,"name":"Ludcmorais","steam_id":76561198359217809,"connected_time":1988000000000,"state":"active","ping":172},{"user_id":473,"name":"on that zaza?","steam_id":76561198038713198,"connected_time":1714000000000,"state":"active","ping":53},{"user_id":474,"name":"tack","steam_id":76561198408477421,"connected_time":1710000000000,"state":"active","ping":97},{"user_id":411,"name":"Khorne Flakes","steam_id":76561198058699167,"connected_time":5912000000000,"state":"active","ping":82},{"user_id":460,"name":"Dax","steam_id":76561198045549713,"connected_time":2882000000000,"state":"active","ping":88},{"user_id":477,"name":"ronaldo","steam_id":76561199496914878,"connected_time":1456000000000,"state":"active","ping":132},{"user_id":481,"name":"Captain Zyrin","steam_id":76561197983121824,"connected_time":1234000000000,"state":"active","ping":90},{"user_id":470,"name":"☑Juanaco is dead","steam_id":76561198029895630,"connected_time":1795000000000,"state":"active","ping":90},{"user_id":415,"name":"ᗜˬᗜ","steam_id":76561198049076233,"connected_time":5795000000000,"state":"active","ping":43},{"user_id":483,"name":"J.R Prime","steam_id":76561198967753173,"connected_time":941000000000,"state":"active","ping":68},{"user_id":486,"name":"juanjoesc","steam_id":76561198186368430,"connected_time":503000000000,"state":"active","ping":121},{"user_id":482,"name":"Jeefberky","steam_id":76561198931101637,"connected_time":1225000000000,"state":"active","ping":99},{"user_id":468,"name":"★TC2","steam_id":76561198026985346,"connected_time":1920000000000,"state":"active","ping":39},{"user_id":488,"name":"Bee","steam_id":76561198074681324,"connected_time":327000000000,"state":"active","ping":40},{"user_id":249,"name":"the action gamemaster","steam_id":76561198007494744,"connected_time":18508000000000,"state":"active","ping":116}]},{"server_id":15,"name":"Uncletopia | New York City | 3 | Stopwatch","name_short":"nyc-3","host":"nyc-1.us.uncletopia.com","port":27035,"enabled":true,"region":"us-east","cc":"us","latitude":40.73061,"longitude":-73.93524,"reserved":0,"last_update":"0001-01-01T00:00:00Z","name_a2s":"Uncletopia | New York City | 3 | Stopwatch","protocol":17,"map":"pl_snowycoast","folder":"tf","game":"Team Fortress","app_id":440,"player_count":0,"max_players":24,"Bots":0,"server_type":"Dedicated","server_os":"Linux","password":true,"vac":true,"version":"7961495","steam_id":85568392924742820,"keywords":["nocrits","nodmgspread","payload","uncletopia"],"game_id":440,"stv_port":27036,"stv_name":"Uncletopia | New York City | 3 | Stopwatch | STV","players":null},{"server_id":16,"name":"Uncletopia | New York City | 4 | Community","name_short":"nyc-4","host":"nyc-1.us.uncletopia.com","port":27045,"enabled":true,"region":"us-east","cc":"us","latitude":40.73061,"longitude":-73.93524,"reserved":0,"last_update":"0001-01-01T00:00:00Z","name_a2s":"Uncletopia | New York City | 4 | Community","protocol":17,"map":"workshop/koth_slaughter_rc1.ugc1712845210","folder":"tf","game":"Team Fortress","app_id":440,"player_count":0,"max_players":24,"Bots":0,"server_type":"Dedicated","server_os":"Linux","password":true,"vac":true,"version":"7961495","steam_id":85568392924742821,"keywords":["cp","nocrits","nodmgspread","uncletopia"],"game_id":440,"stv_port":27046,"stv_name":"Uncletopia | New York City | 4 | Community | STV","players":null},{"server_id":142,"name":"Uncletopia | São Paulo | 1 | All Maps","name_short":"sao-1","host":"sao-1.br.uncletopia.com","port":27015,"enabled":true,"region":"sa","cc":"br","latitude":-23.533773,"longitude":-46.62529,"reserved":0,"last_update":"0001-01-01T00:00:00Z","name_a2s":"Uncletopia | São Paulo | 1 | All Maps","protocol":17,"map":"koth_highpass","folder":"tf","game":"Team Fortress","app_id":440,"player_count":0,"max_players":24,"Bots":0,"server_type":"Dedicated","server_os":"Linux","password":true,"vac":true,"version":"7961495","steam_id":85568392924469996,"keywords":["cp","nocrits","nodmgspread","uncletopia"],"game_id":440,"stv_port":27016,"stv_name":"Uncletopia | São Paulo | 1 | All Maps | STV","players":null},{"server_id":143,"name":"Uncletopia | São Paulo | 2 | Community","name_short":"sao-2","host":"sao-2.br.uncletopia.com","port":27015,"enabled":true,"region":"sa","cc":"br","latitude":-23.533773,"longitude":-46.62529,"reserved":0,"last_update":"0001-01-01T00:00:00Z","name_a2s":"Uncletopia | São Paulo | 2 | Community","protocol":17,"map":"workshop/pl_highwood_b13.ugc1769496557","folder":"tf","game":"Team Fortress","app_id":440,"player_count":0,"max_players":24,"Bots":0,"server_type":"Dedicated","server_os":"Linux","password":true,"vac":true,"version":"7961495","steam_id":85568392924485349,"keywords":["nocrits","nodmgspread","payload","uncletopia"],"game_id":440,"stv_port":27016,"stv_name":"Uncletopia | São Paulo | 2 | Community | STV","players":null},{"server_id":7,"name":"Uncletopia | Seattle | 1 | All Maps","name_short":"sea-1","host":"sea-1.us.uncletopia.com","port":27015,"enabled":true,"region":"us-west","cc":"us","latitude":47.608013,"longitude":-122.33517,"reserved":0,"last_update":"0001-01-01T00:00:00Z","name_a2s":"Uncletopia | Seattle | 1 | All Maps","protocol":17,"map":"pl_upward","folder":"tf","game":"Team Fortress","app_id":440,"player_count":24,"max_players":24,"Bots":0,"server_type":"Dedicated","server_os":"Linux","password":true,"vac":true,"version":"7961495","steam_id":85568392924469997,"keywords":["nocrits","nodmgspread","payload","uncletopia"],"game_id":440,"stv_port":27016,"stv_name":"Uncletopia | Seattle | 1 | All Maps | STV","players":[{"user_id":502,"name":"PROFILE NAME","steam_id":76561199438851854,"connected_time":426000000000,"state":"active","ping":47},{"user_id":511,"name":"Attrition","steam_id":76561197969881916,"connected_time":124000000000,"state":"active","ping":57},{"user_id":490,"name":"Mitchell","steam_id":76561197972922328,"connected_time":2167000000000,"state":"active","ping":55},{"user_id":512,"name":"cerious","steam_id":76561197994365894,"connected_time":62000000000,"state":"active","ping":39},{"user_id":513,"name":"kill me","steam_id":76561198032625036,"connected_time":38000000000,"state":"active","ping":53},{"user_id":496,"name":"Keamy","steam_id":76561199471434875,"connected_time":1317000000000,"state":"active","ping":40},{"user_id":507,"name":"zee","steam_id":76561198148876424,"connected_time":310000000000,"state":"active","ping":50},{"user_id":505,"name":"doopsies","steam_id":76561198083000867,"connected_time":318000000000,"state":"active","ping":51},{"user_id":358,"name":"rat gets the cheese","steam_id":76561198031234032,"connected_time":15181000000000,"state":"active","ping":98},{"user_id":486,"name":"Purple","steam_id":76561198270938249,"connected_time":2193000000000,"state":"active","ping":75},{"user_id":488,"name":"Shah","steam_id":76561198047508851,"connected_time":2186000000000,"state":"active","ping":49},{"user_id":487,"name":"Anon","steam_id":76561198109740776,"connected_time":2190000000000,"state":"active","ping":75},{"user_id":506,"name":"UnReLinked","steam_id":76561199366044663,"connected_time":316000000000,"state":"active","ping":45},{"user_id":497,"name":"a","steam_id":76561198074209737,"connected_time":1210000000000,"state":"active","ping":94},{"user_id":501,"name":"DubiousDodo","steam_id":76561198828172686,"connected_time":725000000000,"state":"active","ping":76},{"user_id":492,"name":"Turban Grease","steam_id":76561198072052434,"connected_time":2161000000000,"state":"active","ping":52},{"user_id":481,"name":"NEBULA","steam_id":76561198086878595,"connected_time":2996000000000,"state":"active","ping":79},{"user_id":483,"name":"Whimsy!","steam_id":76561197989578836,"connected_time":2989000000000,"state":"active","ping":71},{"user_id":508,"name":"jorts (add to rgl HL pugs)","steam_id":76561199041179985,"connected_time":307000000000,"state":"active","ping":52},{"user_id":503,"name":"WaffleWithNoToppings","steam_id":76561199088280111,"connected_time":426000000000,"state":"active","ping":46},{"user_id":509,"name":"Bardarian","steam_id":76561198133170128,"connected_time":293000000000,"state":"active","ping":123},{"user_id":510,"name":"Mocha Josie","steam_id":76561198066452726,"connected_time":291000000000,"state":"active","ping":66},{"user_id":475,"name":"trackpad gaming | f2p","steam_id":76561198840414371,"connected_time":3718000000000,"state":"active","ping":53},{"user_id":469,"name":"Peppy","steam_id":76561198866629645,"connected_time":3980000000000,"state":"active","ping":60}]},{"server_id":119,"name":"Uncletopia | Seattle | 2 | All Maps","name_short":"sea-2","host":"sea-1.us.uncletopia.com","port":27025,"enabled":true,"region":"us-west","cc":"us","latitude":47.608013,"longitude":-122.33517,"reserved":0,"last_update":"0001-01-01T00:00:00Z","name_a2s":"Uncletopia | Seattle | 2 | All Maps","protocol":17,"map":"cp_steel","folder":"tf","game":"Team Fortress","app_id":440,"player_count":20,"max_players":24,"Bots":0,"server_type":"Dedicated","server_os":"Linux","password":true,"vac":true,"version":"7961495","steam_id":85568392924469998,"keywords":["cp","nocrits","nodmgspread","uncletopia"],"game_id":440,"stv_port":27026,"stv_name":"Uncletopia | Seattle | 2 | All Maps | STV","players":[{"user_id":130,"name":"\u003c blank \u003e","steam_id":76561198057457717,"connected_time":3902000000000,"state":"active","ping":65},{"user_id":160,"name":"dANZYYG","steam_id":76561197968179862,"connected_time":1048000000000,"state":"active","ping":78},{"user_id":169,"name":"Templar Senpai","steam_id":76561198105659850,"connected_time":356000000000,"state":"active","ping":46},{"user_id":175,"name":"Bruh Bubble","steam_id":76561199072479189,"connected_time":0,"state":"spawning","ping":38},{"user_id":165,"name":"OMFG_clown","steam_id":76561198045263625,"connected_time":593000000000,"state":"active","ping":50},{"user_id":156,"name":"Mr8bittripper","steam_id":76561198133894229,"connected_time":1276000000000,"state":"active","ping":41},{"user_id":142,"name":"Obersteuermann","steam_id":76561198044468707,"connected_time":2423000000000,"state":"active","ping":50},{"user_id":170,"name":"Megatron G","steam_id":76561198168864083,"connected_time":317000000000,"state":"active","ping":42},{"user_id":154,"name":"Meatball Obsessed Demoman","steam_id":76561198253325844,"connected_time":1643000000000,"state":"active","ping":54},{"user_id":171,"name":"Reflector","steam_id":76561198078999855,"connected_time":264000000000,"state":"active","ping":116},{"user_id":173,"name":"purple germ","steam_id":76561198859275463,"connected_time":171000000000,"state":"active","ping":82},{"user_id":167,"name":"banjobun","steam_id":76561198116814525,"connected_time":439000000000,"state":"active","ping":50},{"user_id":136,"name":"squart guy","steam_id":76561199411560141,"connected_time":3364000000000,"state":"active","ping":49},{"user_id":141,"name":"lauvr","steam_id":76561198106079456,"connected_time":2868000000000,"state":"active","ping":93},{"user_id":174,"name":"The Population of Sweden","steam_id":76561198202201644,"connected_time":128000000000,"state":"active","ping":42},{"user_id":150,"name":"one dollar house","steam_id":76561197961263312,"connected_time":2122000000000,"state":"active","ping":111},{"user_id":48,"name":"mub","steam_id":76561197961943948,"connected_time":9116000000000,"state":"active","ping":46},{"user_id":159,"name":"Shazzy","steam_id":76561198145460523,"connected_time":1079000000000,"state":"active","ping":38},{"user_id":129,"name":"Nillad","steam_id":76561198984334138,"connected_time":3986000000000,"state":"active","ping":77},{"user_id":152,"name":"Gojira19","steam_id":76561198206384351,"connected_time":2099000000000,"state":"active","ping":88}]},{"server_id":406,"name":"Uncletopia | Seattle | 3 | Stopwatch","name_short":"sea-3","host":"sea-1.us.uncletopia.com","port":27035,"enabled":true,"region":"us-west","cc":"us","latitude":47.608013,"longitude":-122.33517,"reserved":0,"last_update":"0001-01-01T00:00:00Z","name_a2s":"Uncletopia | Seattle | 3 | Stopwatch","protocol":17,"map":"workshop/koth_ramjam_rc1.ugc459778887","folder":"tf","game":"Team Fortress","app_id":440,"player_count":0,"max_players":24,"Bots":0,"server_type":"Dedicated","server_os":"Linux","password":true,"vac":true,"version":"7961495","steam_id":85568392924515217,"keywords":["cp","nocrits","nodmgspread","uncletopia"],"game_id":440,"stv_port":27036,"stv_name":"Uncletopia | Seattle | 3 | Stopwatch | STV","players":null},{"server_id":17,"name":"Uncletopia | San Francisco | 1 | All Maps","name_short":"sfo-1","host":"sfo-1.us.uncletopia.com","port":27015,"enabled":true,"region":"us-west","cc":"us","latitude":37.77397,"longitude":-122.4313,"reserved":0,"last_update":"0001-01-01T00:00:00Z","name_a2s":"Uncletopia | San Francisco | 1 | All Maps","protocol":17,"map":"pl_upward","folder":"tf","game":"Team Fortress","app_id":440,"player_count":24,"max_players":24,"Bots":0,"server_type":"Dedicated","server_os":"Linux","password":true,"vac":true,"version":"7961495","steam_id":85568392924469999,"keywords":["nocrits","nodmgspread","payload","uncletopia"],"game_id":440,"stv_port":27016,"stv_name":"Uncletopia | San Francisco | 1 | All Maps | STV","players":[{"user_id":260,"name":"Mongol-wave","steam_id":76561198121052800,"connected_time":1950000000000,"state":"active","ping":43},{"user_id":270,"name":"MusicalRenard","steam_id":76561198028505926,"connected_time":1127000000000,"state":"active","ping":45},{"user_id":264,"name":"laughs bigman","steam_id":76561198067714032,"connected_time":1630000000000,"state":"active","ping":55},{"user_id":262,"name":"rmbl","steam_id":76561198150137369,"connected_time":1825000000000,"state":"active","ping":58},{"user_id":282,"name":"reverie","steam_id":76561198168158637,"connected_time":436000000000,"state":"active","ping":65},{"user_id":286,"name":"Jest","steam_id":76561198170173062,"connected_time":255000000000,"state":"active","ping":51},{"user_id":287,"name":"Etoi aiudando","steam_id":76561198043853636,"connected_time":83000000000,"state":"active","ping":105},{"user_id":284,"name":"Poppet","steam_id":76561198012301951,"connected_time":306000000000,"state":"active","ping":119},{"user_id":281,"name":"Scorpianswag","steam_id":76561198260651036,"connected_time":507000000000,"state":"active","ping":45},{"user_id":252,"name":"MythicalP7","steam_id":76561198224785716,"connected_time":2472000000000,"state":"active","ping":59},{"user_id":272,"name":"Cats pretend they're smart","steam_id":76561197987182097,"connected_time":874000000000,"state":"active","ping":48},{"user_id":279,"name":"GENOCIDE","steam_id":76561198190587246,"connected_time":669000000000,"state":"active","ping":114},{"user_id":238,"name":"no vc no c","steam_id":76561197989503095,"connected_time":3560000000000,"state":"active","ping":150},{"user_id":223,"name":"Optimore","steam_id":76561198047662990,"connected_time":5015000000000,"state":"active","ping":50},{"user_id":255,"name":"slepeboi","steam_id":76561198168297206,"connected_time":2364000000000,"state":"active","ping":59},{"user_id":249,"name":"Livin' Like Larry","steam_id":76561198313360974,"connected_time":3034000000000,"state":"active","ping":42},{"user_id":280,"name":"nat","steam_id":76561198179923093,"connected_time":648000000000,"state":"active","ping":64},{"user_id":288,"name":"type \"bad med\" to kick","steam_id":76561198076402476,"connected_time":6000000000,"state":"spawning","ping":59},{"user_id":246,"name":"bad spy player","steam_id":76561198873699671,"connected_time":3209000000000,"state":"active","ping":71},{"user_id":242,"name":"Buckethead","steam_id":76561198210181296,"connected_time":3296000000000,"state":"active","ping":81},{"user_id":283,"name":"AlphaBoi","steam_id":76561198995017977,"connected_time":419000000000,"state":"active","ping":75},{"user_id":268,"name":"Maid 'n' China","steam_id":76561198423392976,"connected_time":1353000000000,"state":"active","ping":54},{"user_id":251,"name":"Igrium","steam_id":76561198119549811,"connected_time":2850000000000,"state":"active","ping":57},{"user_id":259,"name":"callie","steam_id":76561198131833567,"connected_time":2196000000000,"state":"active","ping":75}]},{"server_id":18,"name":"Uncletopia | San Francisco | 2 | All Maps","name_short":"sfo-2","host":"sfo-1.us.uncletopia.com","port":27025,"enabled":true,"region":"us-west","cc":"us","latitude":37.77397,"longitude":-122.4313,"reserved":0,"last_update":"0001-01-01T00:00:00Z","name_a2s":"Uncletopia | San Francisco | 2 | All Maps","protocol":17,"map":"cp_yukon_final","folder":"tf","game":"Team Fortress","app_id":440,"player_count":0,"max_players":24,"Bots":0,"server_type":"Dedicated","server_os":"Linux","password":true,"vac":true,"version":"7961495","steam_id":85568392924470000,"keywords":["cp","nocrits","nodmgspread","uncletopia"],"game_id":440,"stv_port":27026,"stv_name":"Uncletopia | San Francisco | 2 | All Maps | STV","players":null},{"server_id":19,"name":"Uncletopia | San Francisco | 3 | Stopwatch","name_short":"sfo-3","host":"sfo-1.us.uncletopia.com","port":27035,"enabled":true,"region":"us-west","cc":"us","latitude":37.77397,"longitude":-122.4313,"reserved":0,"last_update":"0001-01-01T00:00:00Z","name_a2s":"Uncletopia | San Francisco | 3 | Stopwatch","protocol":17,"map":"cp_sunshine","folder":"tf","game":"Team Fortress","app_id":440,"player_count":0,"max_players":24,"Bots":0,"server_type":"Dedicated","server_os":"Linux","password":true,"vac":true,"version":"7961495","steam_id":85568392924742824,"keywords":["cp","nocrits","nodmgspread","uncletopia"],"game_id":440,"stv_port":27036,"stv_name":"Uncletopia | San Francisco | 3 | Stopwatch | STV","players":null},{"server_id":20,"name":"Uncletopia | San Francisco | 4 | Community","name_short":"sfo-4","host":"sfo-1.us.uncletopia.com","port":27045,"enabled":true,"region":"us-west","cc":"us","latitude":37.77397,"longitude":-122.4313,"reserved":0,"last_update":"0001-01-01T00:00:00Z","name_a2s":"Uncletopia | San Francisco | 4 | Community","protocol":17,"map":"workshop/koth_synthetic_rc6a.ugc1549817316","folder":"tf","game":"Team Fortress","app_id":440,"player_count":0,"max_players":24,"Bots":0,"server_type":"Dedicated","server_os":"Linux","password":true,"vac":true,"version":"7961495","steam_id":85568392924742826,"keywords":["cp","nocrits","nodmgspread","uncletopia"],"game_id":440,"stv_port":27046,"stv_name":"Uncletopia | San Francisco | 4 | Community | STV","players":null},{"server_id":141,"name":"Uncletopia | Sydney | 1 | All Maps","name_short":"syd-1","host":"syd-1.au.uncletopia.com","port":27015,"enabled":true,"region":"au","cc":"au","latitude":-33.865143,"longitude":151.2099,"reserved":0,"last_update":"0001-01-01T00:00:00Z","name_a2s":"Uncletopia | Sydney | 1 | All Maps","protocol":17,"map":"pl_frontier_final","folder":"tf","game":"Team Fortress","app_id":440,"player_count":8,"max_players":24,"Bots":0,"server_type":"Dedicated","server_os":"Linux","password":true,"vac":true,"version":"7961495","steam_id":85568392924470001,"keywords":["nocrits","nodmgspread","payload","uncletopia"],"game_id":440,"stv_port":27016,"stv_name":"Uncletopia | Sydney | 1 | All Maps | STV","players":[{"user_id":13,"name":"uhe insurance","steam_id":76561198064112935,"connected_time":84000000000,"state":"active","ping":63},{"user_id":6,"name":"miyamoto is daddy","steam_id":76561199483818230,"connected_time":683000000000,"state":"active","ping":81},{"user_id":7,"name":"HJGuard","steam_id":76561199275636067,"connected_time":667000000000,"state":"active","ping":65},{"user_id":8,"name":"Raccoon Rabies","steam_id":76561199396024219,"connected_time":658000000000,"state":"active","ping":68},{"user_id":11,"name":"soup","steam_id":76561198094520079,"connected_time":403000000000,"state":"active","ping":80},{"user_id":12,"name":"ChocoMilk","steam_id":76561198167049794,"connected_time":264000000000,"state":"active","ping":74},{"user_id":14,"name":"JP","steam_id":76561198026221737,"connected_time":81000000000,"state":"active","ping":59},{"user_id":15,"name":"FascismSalad","steam_id":76561198262410973,"connected_time":43000000000,"state":"active","ping":54}]},{"server_id":123,"name":"Uncletopia | Sydney | 2 | All Maps","name_short":"syd-2","host":"syd-1.au.uncletopia.com","port":27025,"enabled":true,"region":"au","cc":"au","latitude":-33.865143,"longitude":151.2099,"reserved":0,"last_update":"0001-01-01T00:00:00Z","name_a2s":"Uncletopia | Sydney | 2 | All Maps","protocol":17,"map":"ctf_2fort","folder":"tf","game":"Team Fortress","app_id":440,"player_count":0,"max_players":24,"Bots":0,"server_type":"Dedicated","server_os":"Linux","password":true,"vac":true,"version":"7961495","steam_id":85568392924470002,"keywords":["ctf","nocrits","nodmgspread","uncletopia"],"game_id":440,"stv_port":27026,"stv_name":"Uncletopia | Sydney | 2 | All Maps | STV","players":null},{"server_id":395,"name":"Uncletopia | Sydney | 3 | All Maps","name_short":"syd-3","host":"syd-1.au.uncletopia.com","port":27035,"enabled":true,"region":"au","cc":"au","latitude":-33.865143,"longitude":151.2099,"reserved":0,"last_update":"0001-01-01T00:00:00Z","name_a2s":"Uncletopia | Sydney | 3 | All Maps","protocol":17,"map":"ctf_2fort","folder":"tf","game":"Team Fortress","app_id":440,"player_count":0,"max_players":24,"Bots":0,"server_type":"Dedicated","server_os":"Linux","password":true,"vac":true,"version":"7961495","steam_id":85568392925194467,"keywords":["ctf","nocrits","nodmgspread","uncletopia"],"game_id":440,"stv_port":27036,"stv_name":"Uncletopia | Sydney | 3 | All Maps | STV","players":null},{"server_id":396,"name":"Uncletopia | Sydney | 4 | All Maps","name_short":"syd-4","host":"syd-1.au.uncletopia.com","port":27045,"enabled":true,"region":"au","cc":"au","latitude":-33.865143,"longitude":151.2099,"reserved":0,"last_update":"0001-01-01T00:00:00Z","name_a2s":"Uncletopia | Sydney | 4 | All Maps","protocol":17,"map":"pl_frontier_final","folder":"tf","game":"Team Fortress","app_id":440,"player_count":0,"max_players":24,"Bots":0,"server_type":"Dedicated","server_os":"Linux","password":true,"vac":true,"version":"7961495","steam_id":85568392925397958,"keywords":["nocrits","nodmgspread","payload","uncletopia"],"game_id":440,"stv_port":27046,"stv_name":"Uncletopia | Sydney | 4 | All Maps | STV","players":null},{"server_id":58,"name":"Uncletopia | Sydney | 5 | Stopwatch","name_short":"syd-5","host":"syd-1.au.uncletopia.com","port":27055,"enabled":true,"region":"au","cc":"au","latitude":-33.865143,"longitude":151.2099,"reserved":0,"last_update":"0001-01-01T00:00:00Z","name_a2s":"Uncletopia | Sydney | 5 | Stopwatch","protocol":17,"map":"workshop/pl_badwater_pro_v12.ugc2142942074","folder":"tf","game":"Team Fortress","app_id":440,"player_count":9,"max_players":24,"Bots":0,"server_type":"Dedicated","server_os":"Linux","password":true,"vac":true,"version":"7961495","steam_id":85568392925397959,"keywords":["nocrits","nodmgspread","payload","uncletopia"],"game_id":440,"stv_port":27056,"stv_name":"Uncletopia | Sydney | 5 | Stopwatch | STV","players":[{"user_id":4,"name":"you can lead a Horace to water","steam_id":76561198301282416,"connected_time":1365000000000,"state":"active","ping":46},{"user_id":5,"name":"level 127 death wizard","steam_id":76561198048064049,"connected_time":1337000000000,"state":"active","ping":74},{"user_id":14,"name":"darklord","steam_id":76561198240923172,"connected_time":393000000000,"state":"active","ping":30},{"user_id":7,"name":"webbadon, the horrid ᘛ⁐̤\ufffd\ufffd","steam_id":76561198061998379,"connected_time":1219000000000,"state":"active","ping":47},{"user_id":8,"name":"uhhhh huhuhhuhuhuhhuh","steam_id":76561198025099660,"connected_time":1170000000000,"state":"active","ping":45},{"user_id":9,"name":"Matt","steam_id":76561198009757360,"connected_time":1112000000000,"state":"active","ping":67},{"user_id":15,"name":"I suspect... worms","steam_id":76561198060024585,"connected_time":339000000000,"state":"active","ping":42},{"user_id":16,"name":"Slimboy17","steam_id":76561198072015725,"connected_time":148000000000,"state":"active","ping":68},{"user_id":17,"name":"Crucial","steam_id":76561198992582454,"connected_time":46000000000,"state":"spawning","ping":71}]},{"server_id":59,"name":"Uncletopia | Sydney | 6 | Community","name_short":"syd-6","host":"syd-1.au.uncletopia.com","port":27065,"enabled":true,"region":"au","cc":"au","latitude":-33.865143,"longitude":151.2099,"reserved":0,"last_update":"0001-01-01T00:00:00Z","name_a2s":"Uncletopia | Sydney | 6 | Community","protocol":17,"map":"cp_sunshine","folder":"tf","game":"Team Fortress","app_id":440,"player_count":0,"max_players":24,"Bots":0,"server_type":"Dedicated","server_os":"Linux","password":true,"vac":true,"version":"7961495","steam_id":85568392925397960,"keywords":["cp","nocrits","nodmgspread","uncletopia"],"game_id":440,"stv_port":27066,"stv_name":"Uncletopia | Sydney | 6 | Community | STV","players":null},{"server_id":49,"name":"Uncletopia | Warsaw | 1 | One Thousand Uncles","name_short":"waw-1","host":"waw-1.pl.uncletopia.com","port":27015,"enabled":true,"region":"eu","cc":"pl","latitude":52.2297,"longitude":21.017532,"reserved":0,"last_update":"0001-01-01T00:00:00Z","name_a2s":"Uncletopia | Warsaw | 1 | One Thousand Uncles","protocol":17,"map":"koth_highpass","folder":"tf","game":"Team Fortress","app_id":440,"player_count":0,"max_players":32,"Bots":0,"server_type":"Dedicated","server_os":"Linux","password":true,"vac":true,"version":"7961495","steam_id":85568392925397850,"keywords":["alltalk","cp","danepve","increased_maxplayers","nocrits","norespawntime","uncletopia"],"game_id":440,"stv_port":0,"stv_name":"","players":null},{"server_id":50,"name":"Uncletopia | Warsaw | 2 | One Thousand Uncles","name_short":"waw-2","host":"waw-1.pl.uncletopia.com","port":27025,"enabled":true,"region":"eu","cc":"pl","latitude":52.2297,"longitude":21.017532,"reserved":0,"last_update":"0001-01-01T00:00:00Z","name_a2s":"Uncletopia | Warsaw | 2 | One Thousand Uncles","protocol":17,"map":"pl_goldrush","folder":"tf","game":"Team Fortress","app_id":440,"player_count":0,"max_players":32,"Bots":0,"server_type":"Dedicated","server_os":"Linux","password":true,"vac":true,"version":"7961495","steam_id":85568392925397851,"keywords":["alltalk","danepve","increased_maxplayers","nocrits","norespawntime","payload","uncletopia"],"game_id":440,"stv_port":0,"stv_name":"","players":null},{"server_id":51,"name":"Uncletopia | Warsaw | 3 | All Maps","name_short":"waw-3","host":"waw-1.pl.uncletopia.com","port":27035,"enabled":true,"region":"eu","cc":"pl","latitude":52.2297,"longitude":21.017532,"reserved":0,"last_update":"0001-01-01T00:00:00Z","name_a2s":"Uncletopia | Warsaw | 3 | All Maps","protocol":17,"map":"plr_pipeline","folder":"tf","game":"Team Fortress","app_id":440,"player_count":0,"max_players":24,"Bots":0,"server_type":"Dedicated","server_os":"Linux","password":true,"vac":true,"version":"7961495","steam_id":85568392925397852,"keywords":["nocrits","nodmgspread","payload","uncletopia"],"game_id":440,"stv_port":27036,"stv_name":"Uncletopia | Warsaw | 3 | All Maps | STV","players":null},{"server_id":52,"name":"Uncletopia | Warsaw | 4 | All Maps","name_short":"waw-4","host":"waw-1.pl.uncletopia.com","port":27045,"enabled":true,"region":"eu","cc":"pl","latitude":52.2297,"longitude":21.017532,"reserved":0,"last_update":"0001-01-01T00:00:00Z","name_a2s":"Uncletopia | Warsaw | 4 | All Maps","protocol":17,"map":"pl_swiftwater_final1","folder":"tf","game":"Team Fortress","app_id":440,"player_count":0,"max_players":24,"Bots":0,"server_type":"Dedicated","server_os":"Linux","password":true,"vac":true,"version":"7961495","steam_id":85568392925397853,"keywords":["nocrits","nodmgspread","payload","uncletopia"],"game_id":440,"stv_port":27046,"stv_name":"Uncletopia | Warsaw | 4 | All Maps | STV","players":null},{"server_id":53,"name":"Uncletopia | Warsaw | 5 | Stopwatch","name_short":"waw-5","host":"waw-1.pl.uncletopia.com","port":27055,"enabled":true,"region":"eu","cc":"pl","latitude":52.2297,"longitude":21.017532,"reserved":0,"last_update":"0001-01-01T00:00:00Z","name_a2s":"Uncletopia | Warsaw | 5 | Stopwatch","protocol":17,"map":"workshop/koth_bagel_rc6.ugc2514036946","folder":"tf","game":"Team Fortress","app_id":440,"player_count":0,"max_players":24,"Bots":0,"server_type":"Dedicated","server_os":"Linux","password":true,"vac":true,"version":"7961495","steam_id":85568392925397854,"keywords":["cp","nocrits","nodmgspread","uncletopia"],"game_id":440,"stv_port":27056,"stv_name":"Uncletopia | Warsaw | 5 | Stopwatch | STV","players":null},{"server_id":54,"name":"Uncletopia | Warsaw | 6 | Community","name_short":"waw-6","host":"waw-1.pl.uncletopia.com","port":27065,"enabled":true,"region":"eu","cc":"pl","latitude":52.2297,"longitude":21.017532,"reserved":0,"last_update":"0001-01-01T00:00:00Z","name_a2s":"Uncletopia | Warsaw | 6 | Community","protocol":17,"map":"workshop/pl_badwater_pro_v12.ugc2142942074","folder":"tf","game":"Team Fortress","app_id":440,"player_count":0,"max_players":24,"Bots":0,"server_type":"Dedicated","server_os":"Linux","password":true,"vac":true,"version":"7961495","steam_id":85568392925397856,"keywords":["nocrits","nodmgspread","payload","uncletopia"],"game_id":440,"stv_port":27066,"stv_name":"Uncletopia | Warsaw | 6 | Community | STV","players":null}]}