{"status":true,"message":"","result":[{"server_id":9,"name":"Uncletopia | Atlanta | 1 | All Maps","name_short":"atl-1","host":"atl-1.us.uncletopia.com","port":27015,"enabled":true,"region":"us-east","cc":"us","latitude":33.753746,"longitude":-84.38633,"reserved":0,"last_update":"0001-01-01T00:00:00Z","name_a2s":"Uncletopia | Atlanta | 1 | All Maps","protocol":17,"map":"koth_lakeside_final","folder":"tf","game":"Team Fortress","app_id":440,"player_count":0,"max_players":24,"Bots":0,"server_type":"Dedicated","server_os":"Linux","password":true,"vac":true,"version":"7757534","steam_id":85568392924469982,"keywords":["cp","nocrits","nodmgspread","uncletopia"],"game_id":440,"stv_port":27016,"stv_name":"Uncletopia | Atlanta | 1 | All Maps | STV","players":null},{"server_id":400,"name":"Uncletopia | Atlanta | 3 | Community","name_short":"atl-3","host":"atl-1.us.uncletopia.com","port":27035,"enabled":true,"region":"us-east","cc":"us","latitude":33.753746,"longitude":-84.38633,"reserved":0,"last_update":"0001-01-01T00:00:00Z","name_a2s":"Uncletopia | Atlanta | 3 | Community","protocol":17,"map":"workshop/pl_cashworks_final1.ugc2904065412","folder":"tf","game":"Team Fortress","app_id":440,"player_count":24,"max_players":24,"Bots":0,"server_type":"Dedicated","server_os":"Linux","password":true,"vac":true,"version":"7757534","steam_id":85568392924515187,"keywords":["nocrits","nodmgspread","payload","uncletopia"],"game_id":440,"stv_port":27036,"stv_name":"Uncletopia | Atlanta | 3 | Community | STV","players":[{"user_id":171,"name":"Nightfall","steam_id":76561198169718867,"connected_time":6089000000000,"state":"active","ping":98},{"user_id":223,"name":"Medic","steam_id":76561198023443251,"connected_time":1848000000000,"state":"active","ping":90},{"user_id":213,"name":"bee","steam_id":76561198025553902,"connected_time":3404000000000,"state":"active","ping":60},{"user_id":236,"name":"Lego Man","steam_id":76561198110822595,"connected_time":661000000000,"state":"active","ping":184},{"user_id":163,"name":"Medkit Junkie","steam_id":76561198146239453,"connected_time":6458000000000,"state":"active","ping":81},{"user_id":8,"name":"how do i girl???","steam_id":76561198050290565,"connected_time":20707000000000,"state":"active","ping":88},{"user_id":234,"name":"Transbian mommy GF","steam_id":76561198153233822,"connected_time":825000000000,"state":"active","ping":79},{"user_id":229,"name":"kametro4","steam_id":76561198835430429,"connected_time":1434000000000,"state":"active","ping":96},{"user_id":165,"name":"the grungler!","steam_id":76561198058485742,"connected_time":6445000000000,"state":"active","ping":41},{"user_id":177,"name":"I'm Cloaked","steam_id":76561198039763676,"connected_time":5482000000000,"state":"active","ping":54},{"user_id":224,"name":"uberheights","steam_id":76561198236008378,"connected_time":1749000000000,"state":"active","ping":69},{"user_id":201,"name":"[]{}#^*+=","steam_id":76561198127039453,"connected_time":4404000000000,"state":"active","ping":85},{"user_id":218,"name":"indi","steam_id":76561198045917538,"connected_time":2743000000000,"state":"active","ping":63},{"user_id":82,"name":"Lucy","steam_id":76561198032590343,"connected_time":13914000000000,"state":"active","ping":71},{"user_id":214,"name":"Walmart Employee","steam_id":76561198840373909,"connected_time":2900000000000,"state":"active","ping":78},{"user_id":238,"name":"♥Bunny♥Slut♥","steam_id":76561198206376851,"connected_time":150000000000,"state":"active","ping":234},{"user_id":235,"name":"squish","steam_id":76561198097657352,"connected_time":710000000000,"state":"active","ping":101},{"user_id":92,"name":"layabout","steam_id":76561198130892117,"connected_time":12427000000000,"state":"active","ping":68},{"user_id":183,"name":"Tasteepizzapie!!!","steam_id":76561198076074855,"connected_time":5207000000000,"state":"active","ping":75},{"user_id":232,"name":"darkHeart :3","steam_id":76561198184071579,"connected_time":1142000000000,"state":"active","ping":70},{"user_id":233,"name":"Golem","steam_id":76561199015772917,"connected_time":910000000000,"state":"active","ping":102},{"user_id":227,"name":"FUNKY TOWN SLAYER","steam_id":76561198119489292,"connected_time":1511000000000,"state":"active","ping":103},{"user_id":216,"name":"Meurik","steam_id":76561198078032795,"connected_time":2814000000000,"state":"active","ping":166},{"user_id":230,"name":"lu","steam_id":76561198080731872,"connected_time":1433000000000,"state":"active","ping":62}]},{"server_id":401,"name":"Uncletopia | Atlanta | 4 | No Payload","name_short":"atl-4","host":"atl-1.us.uncletopia.com","port":27045,"enabled":true,"region":"us-east","cc":"us","latitude":33.753746,"longitude":-84.38633,"reserved":0,"last_update":"0001-01-01T00:00:00Z","name_a2s":"","protocol":0,"map":"","folder":"","game":"","app_id":0,"player_count":0,"max_players":0,"Bots":0,"server_type":"","server_os":"","password":false,"vac":false,"version":"","steam_id":0,"keywords":null,"game_id":0,"stv_port":0,"stv_name":"","players":null},{"server_id":2,"name":"Uncletopia | Chicago | 1 | All Maps","name_short":"chi-1","host":"chi-1.us.uncletopia.com","port":27015,"enabled":true,"region":"us-central","cc":"us","latitude":41.881832,"longitude":-87.62318,"reserved":0,"last_update":"0001-01-01T00:00:00Z","name_a2s":"Uncletopia | Chicago | 1 | All Maps","protocol":17,"map":"pl_badwater","folder":"tf","game":"Team Fortress","app_id":440,"player_count":24,"max_players":24,"Bots":0,"server_type":"Dedicated","server_os":"Linux","password":true,"vac":true,"version":"7757534","steam_id":85568392924469984,"keywords":["nocrits","nodmgspread","payload","uncletopia"],"game_id":440,"stv_port":27016,"stv_name":"Uncletopia | Chicago | 1 | All Maps | STV","players":[{"user_id":242,"name":"Glory","steam_id":76561198013975080,"connected_time":2136000000000,"state":"active","ping":67},{"user_id":269,"name":"ṽ⧉  hank","steam_id":76561197977182378,"connected_time":236000000000,"state":"active","ping":52},{"user_id":249,"name":"Raniel Dicciardo","steam_id":76561198053859538,"connected_time":1446000000000,"state":"active","ping":72},{"user_id":206,"name":"World's #43rd Malkuth Enjoyer","steam_id":76561198087449121,"connected_time":4223000000000,"state":"active","ping":71},{"user_id":214,"name":"Томислав","steam_id":76561197987331046,"connected_time":3667000000000,"state":"active","ping":176},{"user_id":235,"name":"bocchi the rock","steam_id":76561198249206656,"connected_time":2604000000000,"state":"active","ping":61},{"user_id":254,"name":"Smoker Lung","steam_id":76561198077167395,"connected_time":845000000000,"state":"active","ping":57},{"user_id":263,"name":"Regi","steam_id":76561198271508598,"connected_time":535000000000,"state":"active","ping":51},{"user_id":176,"name":"Volkolol","steam_id":76561198109227343,"connected_time":6599000000000,"state":"active","ping":88},{"user_id":251,"name":"Macko","steam_id":76561198452005461,"connected_time":1265000000000,"state":"active","ping":82},{"user_id":260,"name":"☼ paraplegic orphan","steam_id":76561198074180953,"connected_time":620000000000,"state":"active","ping":69},{"user_id":186,"name":"ПОЗОВИ МЕНЯ С СОБ","steam_id":76561198280092657,"connected_time":6168000000000,"state":"active","ping":172},{"user_id":215,"name":"[slug]","steam_id":76561197989592178,"connected_time":3621000000000,"state":"active","ping":60},{"user_id":267,"name":"7thhelden","steam_id":76561198297428761,"connected_time":475000000000,"state":"active","ping":65},{"user_id":264,"name":"the scientist","steam_id":76561198215559840,"connected_time":531000000000,"state":"active","ping":60},{"user_id":252,"name":"keffers","steam_id":76561198202338796,"connected_time":1223000000000,"state":"active","ping":69},{"user_id":223,"name":"The Great Eagle Scourge of 1822","steam_id":76561198325086209,"connected_time":3240000000000,"state":"active","ping":114},{"user_id":262,"name":"mcdoubble","steam_id":76561198089126832,"connected_time":558000000000,"state":"active","ping":85},{"user_id":207,"name":"Nic0","steam_id":76561198305690218,"connected_time":4219000000000,"state":"active","ping":67},{"user_id":259,"name":"Chaotic Rushu","steam_id":76561198170054407,"connected_time":641000000000,"state":"active","ping":83},{"user_id":265,"name":"Mr. Hankey","steam_id":76561198872852200,"connected_time":531000000000,"state":"active","ping":144},{"user_id":202,"name":"dangergirl99","steam_id":76561198121651564,"connected_time":5057000000000,"state":"active","ping":58},{"user_id":253,"name":"eThaNos","steam_id":76561198035403279,"connected_time":949000000000,"state":"active","ping":82},{"user_id":256,"name":"nut","steam_id":76561198395577807,"connected_time":717000000000,"state":"active","ping":48}]},{"server_id":106,"name":"Uncletopia | Chicago | 2 | All Maps","name_short":"chi-2","host":"chi-1.us.uncletopia.com","port":27025,"enabled":true,"region":"us-central","cc":"us","latitude":41.881832,"longitude":-87.62318,"reserved":0,"last_update":"0001-01-01T00:00:00Z","name_a2s":"Uncletopia | Chicago | 2 | All Maps","protocol":17,"map":"koth_viaduct","folder":"tf","game":"Team Fortress","app_id":440,"player_count":0,"max_players":24,"Bots":0,"server_type":"Dedicated","server_os":"Linux","password":true,"vac":true,"version":"7757534","steam_id":85568392924469985,"keywords":["cp","nocrits","nodmgspread","uncletopia"],"game_id":440,"stv_port":27026,"stv_name":"Uncletopia | Chicago | 2 | All Maps | STV","players":null},{"server_id":402,"name":"Uncletopia | Chicago | 3 | All Maps","name_short":"chi-3","host":"chi-1.us.uncletopia.com","port":27035,"enabled":true,"region":"us-central","cc":"us","latitude":41.881832,"longitude":-87.62318,"reserved":0,"last_update":"0001-01-01T00:00:00Z","name_a2s":"Uncletopia | Chicago | 3 | All Maps","protocol":17,"map":"koth_lakeside_final","folder":"tf","game":"Team Fortress","app_id":440,"player_count":0,"max_players":24,"Bots":0,"server_type":"Dedicated","server_os":"Linux","password":true,"vac":true,"version":"7757534","steam_id":85568392924515191,"keywords":["cp","nocrits","nodmgspread","uncletopia"],"game_id":440,"stv_port":27036,"stv_name":"Uncletopia | Chicago | 3 | All Maps | STV","players":null},{"server_id":403,"name":"Uncletopia | Chicago | 4 | All Maps","name_short":"chi-4","host":"chi-1.us.uncletopia.com","port":27045,"enabled":true,"region":"us-central","cc":"us","latitude":41.881832,"longitude":-87.62318,"reserved":0,"last_update":"0001-01-01T00:00:00Z","name_a2s":"Uncletopia | Chicago | 4 | All Maps","protocol":17,"map":"pl_badwater","folder":"tf","game":"Team Fortress","app_id":440,"player_count":0,"max_players":24,"Bots":0,"server_type":"Dedicated","server_os":"Linux","password":true,"vac":true,"version":"7757534","steam_id":85568392924515193,"keywords":["nocrits","nodmgspread","payload","uncletopia"],"game_id":440,"stv_port":27046,"stv_name":"Uncletopia | Chicago | 4 | All Maps | STV","players":null},{"server_id":36,"name":"Uncletopia | Chicago | 5 | All Maps","name_short":"chi-5","host":"chi-2.us.uncletopia.com","port":27015,"enabled":true,"region":"us-central","cc":"us","latitude":41.881832,"longitude":-87.62318,"reserved":0,"last_update":"0001-01-01T00:00:00Z","name_a2s":"Uncletopia | Chicago | 5 | All Maps","protocol":17,"map":"koth_lakeside_final","folder":"tf","game":"Team Fortress","app_id":440,"player_count":23,"max_players":24,"Bots":0,"server_type":"Dedicated","server_os":"Linux","password":true,"vac":true,"version":"7757534","steam_id":85568392924866362,"keywords":["cp","nocrits","nodmgspread","uncletopia"],"game_id":440,"stv_port":27016,"stv_name":"Uncletopia | Chicago | 5 | All Maps | STV","players":[{"user_id":25,"name":"Yatso Bagelmenson","steam_id":76561198004329919,"connected_time":980000000000,"state":"active","ping":88},{"user_id":50,"name":"PrinceGrotle","steam_id":76561198206131603,"connected_time":182000000000,"state":"active","ping":79},{"user_id":26,"name":"Delila","steam_id":76561198120700979,"connected_time":960000000000,"state":"active","ping":71},{"user_id":45,"name":"Shmebulock","steam_id":76561198046941925,"connected_time":269000000000,"state":"active","ping":58},{"user_id":10,"name":"Josh Diddily","steam_id":76561198286957487,"connected_time":1951000000000,"state":"active","ping":111},{"user_id":20,"name":"Guacodile","steam_id":76561198153626419,"connected_time":1397000000000,"state":"active","ping":80},{"user_id":42,"name":"snake","steam_id":76561198094637461,"connected_time":337000000000,"state":"active","ping":67},{"user_id":16,"name":"Pugnemus","steam_id":76561199056407997,"connected_time":1532000000000,"state":"active","ping":59},{"user_id":22,"name":"aimboat","steam_id":76561198218131923,"connected_time":1338000000000,"state":"active","ping":67},{"user_id":51,"name":"Ejaculation Zach","steam_id":76561198203765200,"connected_time":151000000000,"state":"active","ping":63},{"user_id":30,"name":"Johnny Esports","steam_id":76561198115812405,"connected_time":708000000000,"state":"active","ping":83},{"user_id":39,"name":"appul","steam_id":76561198102900956,"connected_time":371000000000,"state":"active","ping":100},{"user_id":35,"name":"juicebox","steam_id":76561198440352528,"connected_time":449000000000,"state":"active","ping":66},{"user_id":36,"name":"Peter Griffin Skinwalker","steam_id":76561198968917827,"connected_time":444000000000,"state":"active","ping":85},{"user_id":43,"name":"Bush.exe","steam_id":76561198124385307,"connected_time":312000000000,"state":"active","ping":72},{"user_id":38,"name":"spagette","steam_id":76561198088369480,"connected_time":419000000000,"state":"active","ping":70},{"user_id":41,"name":"ez$ airballer","steam_id":76561198165899125,"connected_time":358000000000,"state":"active","ping":73},{"user_id":52,"name":"sc67","steam_id":76561199302471485,"connected_time":110000000000,"state":"active","ping":44},{"user_id":46,"name":"I’m Sleepy","steam_id":76561198879929343,"connected_time":246000000000,"state":"active","ping":65},{"user_id":47,"name":"Sunvaar","steam_id":76561198852679851,"connected_time":223000000000,"state":"active","ping":64},{"user_id":48,"name":"Errrmmett","steam_id":76561198041314051,"connected_time":214000000000,"state":"active","ping":56},{"user_id":49,"name":"Dispenser (Twan)","steam_id":76561197991064908,"connected_time":200000000000,"state":"active","ping":61},{"user_id":53,"name":"snolop","steam_id":76561198169902357,"connected_time":108000000000,"state":"active","ping":58}]},{"server_id":37,"name":"Uncletopia | Chicago | 6 | All Maps","name_short":"chi-6","host":"chi-2.us.uncletopia.com","port":27025,"enabled":true,"region":"us-central","cc":"us","latitude":41.881832,"longitude":-87.62318,"reserved":0,"last_update":"0001-01-01T00:00:00Z","name_a2s":"Uncletopia | Chicago | 6 | All Maps","protocol":17,"map":"koth_cascade","folder":"tf","game":"Team Fortress","app_id":440,"player_count":0,"max_players":24,"Bots":0,"server_type":"Dedicated","server_os":"Linux","password":true,"vac":true,"version":"7757534","steam_id":85568392924866363,"keywords":["cp","nocrits","nodmgspread","uncletopia"],"game_id":440,"stv_port":27026,"stv_name":"Uncletopia | Chicago | 6 | All Maps | STV","players":null},{"server_id":38,"name":"Uncletopia | Chicago | 7 | Stopwatch Beta","name_short":"chi-7","host":"chi-2.us.uncletopia.com","port":27035,"enabled":true,"region":"us-central","cc":"us","latitude":41.881832,"longitude":-87.62318,"reserved":0,"last_update":"0001-01-01T00:00:00Z","name_a2s":"Uncletopia | Chicago | 7 | Stopwatch Beta","protocol":17,"map":"pl_upward","folder":"tf","game":"Team Fortress","app_id":440,"player_count":0,"max_players":24,"Bots":0,"server_type":"Dedicated","server_os":"Linux","password":true,"vac":true,"version":"7757534","steam_id":85568392924866364,"keywords":["nocrits","nodmgspread","payload","uncletopia"],"game_id":440,"stv_port":27036,"stv_name":"Uncletopia | Chicago | 7 | Stopwatch Beta | STV","players":null},{"server_id":39,"name":"Uncletopia | Chicago | 8 | Community","name_short":"chi-8","host":"chi-2.us.uncletopia.com","port":27045,"enabled":true,"region":"us-central","cc":"us","latitude":41.881832,"longitude":-87.62318,"reserved":0,"last_update":"0001-01-01T00:00:00Z","name_a2s":"Uncletopia | Chicago | 8 | Community","protocol":17,"map":"pl_barnblitz","folder":"tf","game":"Team Fortress","app_id":440,"player_count":0,"max_players":24,"Bots":0,"server_type":"Dedicated","server_os":"Linux","password":true,"vac":true,"version":"7757534","steam_id":85568392924866365,"keywords":["nocrits","nodmgspread","payload","uncletopia"],"game_id":440,"stv_port":27046,"stv_name":"Uncletopia | Chicago | 8 | Community | STV","players":null},{"server_id":8,"name":"Uncletopia | Dallas | 1 | All Maps","name_short":"dal-1","host":"dal-1.us.uncletopia.com","port":27015,"enabled":true,"region":"us-central","cc":"us","latitude":32.779167,"longitude":-96.80889,"reserved":0,"last_update":"0001-01-01T00:00:00Z","name_a2s":"Uncletopia | Dallas | 1 | All Maps","protocol":17,"map":"pl_pier","folder":"tf","game":"Team Fortress","app_id":440,"player_count":24,"max_players":24,"Bots":0,"server_type":"Dedicated","server_os":"Linux","password":true,"vac":true,"version":"7757534","steam_id":85568392924469986,"keywords":["nocrits","nodmgspread","payload","uncletopia"],"game_id":440,"stv_port":27016,"stv_name":"Uncletopia | Dallas | 1 | All Maps | STV","players":[{"user_id":48,"name":"Doctor Bear ʕ •ᴥ•ʔ","steam_id":76561197968103161,"connected_time":4537000000000,"state":"active","ping":77},{"user_id":103,"name":"Jujitsu82","steam_id":76561198445522556,"connected_time":1214000000000,"state":"active","ping":87},{"user_id":91,"name":"ap","steam_id":76561198202273263,"connected_time":1622000000000,"state":"active","ping":73},{"user_id":76,"name":"Paco","steam_id":76561198023504958,"connected_time":2791000000000,"state":"active","ping":74},{"user_id":112,"name":"Coup de Grass","steam_id":76561198011643226,"connected_time":873000000000,"state":"active","ping":75},{"user_id":127,"name":"Bergmann MP18","steam_id":76561198218417512,"connected_time":113000000000,"state":"active","ping":77},{"user_id":113,"name":"rustyorion","steam_id":76561198439186347,"connected_time":837000000000,"state":"active","ping":105},{"user_id":61,"name":"board certified monkey","steam_id":76561198310502474,"connected_time":3455000000000,"state":"active","ping":72},{"user_id":120,"name":"--_Cook_--","steam_id":76561198080855748,"connected_time":551000000000,"state":"active","ping":48},{"user_id":125,"name":"Psychosis","steam_id":76561198078659070,"connected_time":361000000000,"state":"active","ping":88},{"user_id":101,"name":"SquirrelAway™","steam_id":76561197998828619,"connected_time":1276000000000,"state":"active","ping":74},{"user_id":63,"name":"merge without looking","steam_id":76561198056702628,"connected_time":3413000000000,"state":"active","ping":36},{"user_id":40,"name":"todd","steam_id":76561198140689842,"connected_time":5169000000000,"state":"active","ping":58},{"user_id":118,"name":"Ass Blaster, Disaster Master","steam_id":76561197997774469,"connected_time":672000000000,"state":"active","ping":60},{"user_id":121,"name":"Jon Snuh","steam_id":76561198075298635,"connected_time":546000000000,"state":"active","ping":77},{"user_id":117,"name":"mobe","steam_id":76561198121633820,"connected_time":735000000000,"state":"active","ping":91},{"user_id":27,"name":"Barn.Jones1992","steam_id":76561198197981309,"connected_time":5505000000000,"state":"active","ping":68},{"user_id":88,"name":"ׂ","steam_id":76561198167302164,"connected_time":1949000000000,"state":"active","ping":30},{"user_id":123,"name":"Borgir","steam_id":76561198325390265,"connected_time":454000000000,"state":"active","ping":73},{"user_id":124,"name":"The Horselords and Animal Gods","steam_id":76561197975094050,"connected_time":423000000000,"state":"active","ping":86},{"user_id":119,"name":"Demoman With One Joke","steam_id":76561197993467034,"connected_time":626000000000,"state":"active","ping":60},{"user_id":102,"name":"Deborp","steam_id":76561198118868430,"connected_time":1262000000000,"state":"active","ping":103},{"user_id":105,"name":"Kleine","steam_id":76561198042556857,"connected_time":1187000000000,"state":"active","ping":76},{"user_id":107,"name":"go big or go gnome","steam_id":76561199075099223,"connected_time":1156000000000,"state":"active","ping":102}]},{"server_id":108,"name":"Uncletopia | Dallas | 2 | All Maps","name_short":"dal-2","host":"dal-1.us.uncletopia.com","port":27025,"enabled":true,"region":"us-central","cc":"us","latitude":32.779167,"longitude":-96.80889,"reserved":0,"last_update":"0001-01-01T00:00:00Z","name_a2s":"Uncletopia | Dallas | 2 | All Maps","protocol":17,"map":"pl_pier","folder":"tf","game":"Team Fortress","app_id":440,"player_count":6,"max_players":24,"Bots":0,"server_type":"Dedicated","server_os":"Linux","password":true,"vac":true,"version":"7757534","steam_id":85568392924469988,"keywords":["nocrits","nodmgspread","payload","uncletopia"],"game_id":440,"stv_port":27026,"stv_name":"Uncletopia | Dallas | 2 | All Maps | STV","players":[{"user_id":9,"name":"TheMilkMan","steam_id":76561199068930228,"connected_time":704000000000,"state":"active","ping":62},{"user_id":10,"name":"gulch","steam_id":76561199227946025,"connected_time":366000000000,"state":"active","ping":65},{"user_id":11,"name":"katzdani","steam_id":76561198843351132,"connected_time":236000000000,"state":"active","ping":165},{"user_id":12,"name":"CrackedSanity","steam_id":76561198279841251,"connected_time":198000000000,"state":"active","ping":64},{"user_id":13,"name":"schizo","steam_id":76561198128742436,"connected_time":51000000000,"state":"active","ping":74},{"user_id":14,"name":"whool","steam_id":76561198332704108,"connected_time":5000000000,"state":"spawning","ping":72}]},{"server_id":5,"name":"Uncletopia | Frankfurt | 1 | All Maps","name_short":"frk-1","host":"frk-1.de.uncletopia.com","port":27015,"enabled":true,"region":"eu","cc":"de","latitude":50.110924,"longitude":8.682127,"reserved":0,"last_update":"0001-01-01T00:00:00Z","name_a2s":"Uncletopia | Frankfurt | 1 | All Maps","protocol":17,"map":"pl_snowycoast","folder":"tf","game":"Team Fortress","app_id":440,"player_count":22,"max_players":24,"Bots":0,"server_type":"Dedicated","server_os":"Linux","password":true,"vac":true,"version":"7757534","steam_id":85568392924469989,"keywords":["nocrits","nodmgspread","payload","uncletopia"],"game_id":440,"stv_port":27016,"stv_name":"Uncletopia | Frankfurt | 1 | All Maps | STV","players":[{"user_id":256,"name":"zwbl","steam_id":76561198360811196,"connected_time":2360000000000,"state":"active","ping":80},{"user_id":198,"name":"daanvanliempt05","steam_id":76561198355398948,"connected_time":4073000000000,"state":"active","ping":48},{"user_id":220,"name":"playing while wearing crocs.","steam_id":76561198139404261,"connected_time":3149000000000,"state":"active","ping":60},{"user_id":254,"name":"luma","steam_id":76561198081649669,"connected_time":2371000000000,"state":"active","ping":62},{"user_id":208,"name":"Slav-matros","steam_id":76561198251977912,"connected_time":3664000000000,"state":"active","ping":56},{"user_id":205,"name":"Optimist 50","steam_id":76561198039631442,"connected_time":3722000000000,"state":"active","ping":80},{"user_id":286,"name":"Deacon Dracul","steam_id":76561198046880663,"connected_time":674000000000,"state":"active","ping":104},{"user_id":277,"name":"fector","steam_id":76561199204249586,"connected_time":1378000000000,"state":"active","ping":130},{"user_id":193,"name":"Realist 40","steam_id":76561198052476979,"connected_time":4258000000000,"state":"active","ping":81},{"user_id":279,"name":"Unvid","steam_id":76561198031588080,"connected_time":1295000000000,"state":"active","ping":50},{"user_id":293,"name":"Carrot","steam_id":76561198119340863,"connected_time":21000000000,"state":"active","ping":47},{"user_id":221,"name":"XPullaHiiri","steam_id":76561198031652375,"connected_time":3110000000000,"state":"active","ping":84},{"user_id":290,"name":"Suetolog","steam_id":76561199053090212,"connected_time":481000000000,"state":"active","ping":56},{"user_id":287,"name":"Dolcelatte","steam_id":76561198038501770,"connected_time":674000000000,"state":"active","ping":48},{"user_id":288,"name":"Penis Contortionist","steam_id":76561198073663784,"connected_time":672000000000,"state":"active","ping":48},{"user_id":281,"name":"Chambersite","steam_id":76561198197022399,"connected_time":1162000000000,"state":"active","ping":60},{"user_id":92,"name":"꧁༒Xenon༒꧂","steam_id":76561198120502313,"connected_time":9450000000000,"state":"active","ping":73},{"user_id":276,"name":"naleksi","steam_id":76561198018391055,"connected_time":1481000000000,"state":"active","ping":104},{"user_id":280,"name":"AviK","steam_id":76561198310822598,"connected_time":1266000000000,"state":"active","ping":177},{"user_id":186,"name":"kiki","steam_id":76561198838277022,"connected_time":4344000000000,"state":"active","ping":65},{"user_id":203,"name":"TheShadowScribe","steam_id":76561199037525945,"connected_time":3938000000000,"state":"active","ping":85},{"user_id":283,"name":"Gordon Birdman","steam_id":76561198013382324,"connected_time":972000000000,"state":"active","ping":75}]},{"server_id":110,"name":"Uncletopia | Frankfurt | 2 | All Maps","name_short":"frk-2","host":"frk-1.de.uncletopia.com","port":27025,"enabled":true,"region":"eu","cc":"de","latitude":50.110924,"longitude":8.682127,"reserved":0,"last_update":"0001-01-01T00:00:00Z","name_a2s":"Uncletopia | Frankfurt | 2 | All Maps","protocol":17,"map":"koth_highpass","folder":"tf","game":"Team Fortress","app_id":440,"player_count":0,"max_players":24,"Bots":0,"server_type":"Dedicated","server_os":"Linux","password":true,"vac":true,"version":"7757534","steam_id":85568392924469990,"keywords":["cp","nocrits","nodmgspread","uncletopia"],"game_id":440,"stv_port":27026,"stv_name":"Uncletopia | Frankfurt | 2 | All Maps | STV","players":null},{"server_id":308,"name":"Uncletopia | Frankfurt | 3 | All Maps","name_short":"frk-3","host":"frk-1.de.uncletopia.com","port":27035,"enabled":true,"region":"eu","cc":"de","latitude":50.110924,"longitude":8.682127,"reserved":0,"last_update":"0001-01-01T00:00:00Z","name_a2s":"Uncletopia | Frankfurt | 3 | All Maps","protocol":17,"map":"cp_foundry","folder":"tf","game":"Team Fortress","app_id":440,"player_count":24,"max_players":24,"Bots":0,"server_type":"Dedicated","server_os":"Linux","password":true,"vac":true,"version":"7757534","steam_id":85568392924504274,"keywords":["cp","nocrits","nodmgspread","uncletopia"],"game_id":440,"stv_port":27036,"stv_name":"Uncletopia | Frankfurt | 3 | All Maps | STV","players":[{"user_id":184,"name":"illiterate sword user","steam_id":76561198189686075,"connected_time":16396000000000,"state":"active","ping":58},{"user_id":408,"name":"Green Banana","steam_id":76561198055480280,"connected_time":444000000000,"state":"active","ping":94},{"user_id":395,"name":"JeffDrive34","steam_id":76561199044310849,"connected_time":951000000000,"state":"active","ping":83},{"user_id":405,"name":"4 Grand For a Bannah","steam_id":76561198213166447,"connected_time":574000000000,"state":"active","ping":184},{"user_id":396,"name":"Von Leining","steam_id":76561198859983504,"connected_time":876000000000,"state":"active","ping":66},{"user_id":310,"name":"Biggest Boss [Knockout]","steam_id":76561198044387120,"connected_time":6953000000000,"state":"active","ping":85},{"user_id":399,"name":"In the flesh","steam_id":76561198061248547,"connected_time":811000000000,"state":"active","ping":48},{"user_id":390,"name":"Pain in a Box","steam_id":76561197990777173,"connected_time":1372000000000,"state":"active","ping":73},{"user_id":362,"name":"NotOriginalNickname","steam_id":76561198406973970,"connected_time":3278000000000,"state":"active","ping":72},{"user_id":398,"name":"Hexagon","steam_id":76561198151205758,"connected_time":828000000000,"state":"active","ping":58},{"user_id":391,"name":"Nobaddy","steam_id":76561198037871007,"connected_time":1272000000000,"state":"active","ping":88},{"user_id":400,"name":"donal rump","steam_id":76561198136239861,"connected_time":790000000000,"state":"active","ping":62},{"user_id":374,"name":"citronous","steam_id":76561198093290934,"connected_time":2763000000000,"state":"active","ping":55},{"user_id":414,"name":"angel","steam_id":76561198121408313,"connected_time":126000000000,"state":"active","ping":69},{"user_id":375,"name":"★poyo★","steam_id":76561198150078959,"connected_time":2746000000000,"state":"active","ping":63},{"user_id":344,"name":"vehicular manslaughter","steam_id":76561199042470246,"connected_time":4770000000000,"state":"active","ping":51},{"user_id":415,"name":"MiFrylek","steam_id":76561198864381510,"connected_time":91000000000,"state":"active","ping":48},{"user_id":403,"name":"bad at tf2 episode 2","steam_id":76561198002451113,"connected_time":770000000000,"state":"active","ping":90},{"user_id":407,"name":"Princess Fuzz","steam_id":76561198025783000,"connected_time":468000000000,"state":"active","ping":51},{"user_id":409,"name":"ILoveMyMom420Blaze","steam_id":76561198981016492,"connected_time":443000000000,"state":"active","ping":62},{"user_id":411,"name":"Cippo95","steam_id":76561198255311582,"connected_time":413000000000,"state":"active","ping":67},{"user_id":393,"name":"Nile","steam_id":76561198100274540,"connected_time":1052000000000,"state":"active","ping":109},{"user_id":345,"name":"Seeker","steam_id":76561198873052772,"connected_time":4696000000000,"state":"active","ping":63},{"user_id":412,"name":"TheFox.tf","steam_id":76561197996851702,"connected_time":402000000000,"state":"active","ping":72}]},{"server_id":309,"name":"Uncletopia | Frankfurt | 4 | All Maps","name_short":"frk-4","host":"frk-1.de.uncletopia.com","port":27045,"enabled":true,"region":"eu","cc":"de","latitude":50.110924,"longitude":8.682127,"reserved":0,"last_update":"0001-01-01T00:00:00Z","name_a2s":"Uncletopia | Frankfurt | 4 | All Maps","protocol":17,"map":"koth_lakeside_final","folder":"tf","game":"Team Fortress","app_id":440,"player_count":0,"max_players":24,"Bots":0,"server_type":"Dedicated","server_os":"Linux","password":true,"vac":true,"version":"7757534","steam_id":85568392924504275,"keywords":["cp","nocrits","nodmgspread","uncletopia"],"game_id":440,"stv_port":27046,"stv_name":"Uncletopia | Frankfurt | 4 | All Maps | STV","players":null},{"server_id":310,"name":"Uncletopia | Frankfurt | 5 | All Maps","name_short":"frk-5","host":"frk-1.de.uncletopia.com","port":27055,"enabled":true,"region":"eu","cc":"de","latitude":50.110924,"longitude":8.682127,"reserved":0,"last_update":"0001-01-01T00:00:00Z","name_a2s":"Uncletopia | Frankfurt | 5 | All Maps","protocol":17,"map":"pl_swiftwater_final1","folder":"tf","game":"Team Fortress","app_id":440,"player_count":5,"max_players":24,"Bots":0,"server_type":"Dedicated","server_os":"Linux","password":true,"vac":true,"version":"7757534","steam_id":85568392924504277,"keywords":["nocrits","nodmgspread","payload","uncletopia"],"game_id":440,"stv_port":27056,"stv_name":"Uncletopia | Frankfurt | 5 | All Maps | STV","players":[{"user_id":81,"name":"TJ1212","steam_id":76561199013575313,"connected_time":149000000000,"state":"active","ping":66},{"user_id":82,"name":"SUUTEI TSAI","steam_id":76561198846610729,"connected_time":137000000000,"state":"active","ping":156},{"user_id":79,"name":"ThighPicDealer","steam_id":76561199261767155,"connected_time":231000000000,"state":"active","ping":91},{"user_id":80,"name":"AwZooom","steam_id":76561198154061149,"connected_time":207000000000,"state":"active","ping":37},{"user_id":83,"name":"epic party rat","steam_id":76561199100632053,"connected_time":50000000000,"state":"active","ping":72}]},{"server_id":311,"name":"Uncletopia | Frankfurt | 6 | All Maps","name_short":"frk-6","host":"frk-1.de.uncletopia.com","port":27065,"enabled":true,"region":"eu","cc":"de","latitude":50.110924,"longitude":8.682127,"reserved":0,"last_update":"0001-01-01T00:00:00Z","name_a2s":"Uncletopia | Frankfurt | 6 | All Maps","protocol":17,"map":"pl_upward","folder":"tf","game":"Team Fortress","app_id":440,"player_count":24,"max_players":24,"Bots":0,"server_type":"Dedicated","server_os":"Linux","password":true,"vac":true,"version":"7757534","steam_id":85568392924504278,"keywords":["nocrits","nodmgspread","payload","uncletopia"],"game_id":440,"stv_port":27066,"stv_name":"Uncletopia | Frankfurt | 6 | All Maps | STV","players":[{"user_id":40,"name":"AleXandriX","steam_id":76561198035203950,"connected_time":1023000000000,"state":"active","ping":60},{"user_id":60,"name":"SIR MEPHEDRONE","steam_id":76561198302623594,"connected_time":198000000000,"state":"active","ping":90},{"user_id":54,"name":"BenJantr_","steam_id":76561198882922635,"connected_time":716000000000,"state":"active","ping":81},{"user_id":37,"name":"tqla","steam_id":76561198073092585,"connected_time":1123000000000,"state":"active","ping":85},{"user_id":63,"name":"Giovine Killjoy","steam_id":76561198059375315,"connected_time":98000000000,"state":"active","ping":71},{"user_id":38,"name":"Fizzing Fool","steam_id":76561198425415033,"connected_time":1121000000000,"state":"active","ping":89},{"user_id":33,"name":"Stragnov☆","steam_id":76561198074702465,"connected_time":1401000000000,"state":"active","ping":48},{"user_id":65,"name":"Bè.éS","steam_id":76561198045752247,"connected_time":88000000000,"state":"active","ping":45},{"user_id":62,"name":"marsel","steam_id":76561198116168271,"connected_time":142000000000,"state":"active","ping":73},{"user_id":48,"name":"Kizerain","steam_id":76561198058400427,"connected_time":923000000000,"state":"active","ping":57},{"user_id":64,"name":"wei wei wei wei","steam_id":76561198418538887,"connected_time":97000000000,"state":"active","ping":91},{"user_id":57,"name":"Alarmed Felix","steam_id":76561198167208311,"connected_time":409000000000,"state":"active","ping":60},{"user_id":39,"name":"Mozzaza","steam_id":76561198156316111,"connected_time":1113000000000,"state":"active","ping":144},{"user_id":41,"name":"DribSitoop","steam_id":76561198020597104,"connected_time":1023000000000,"state":"active","ping":69},{"user_id":42,"name":"bob","steam_id":76561198309295580,"connected_time":1018000000000,"state":"active","ping":50},{"user_id":67,"name":"Koleisus","steam_id":76561198045374646,"connected_time":30000000000,"state":"spawning","ping":90},{"user_id":43,"name":"Chicker","steam_id":76561198809697283,"connected_time":1017000000000,"state":"active","ping":55},{"user_id":52,"name":"Fishpower5","steam_id":76561198194742647,"connected_time":901000000000,"state":"active","ping":66},{"user_id":66,"name":"MKaan98","steam_id":76561198088085550,"connected_time":56000000000,"state":"active","ping":90},{"user_id":49,"name":"Menendez","steam_id":76561198280839136,"connected_time":916000000000,"state":"active","ping":128},{"user_id":55,"name":"sin","steam_id":76561198193416785,"connected_time":674000000000,"state":"active","ping":57},{"user_id":51,"name":"nurbtw","steam_id":76561198353731430,"connected_time":912000000000,"state":"active","ping":115},{"user_id":53,"name":"Bat in a thousand","steam_id":76561198320506848,"connected_time":900000000000,"state":"active","ping":56},{"user_id":59,"name":"Spraxinator","steam_id":76561199083563607,"connected_time":345000000000,"state":"active","ping":186}]},{"server_id":23,"name":"Uncletopia | Frankfurt | 7 | Stopwatch Beta","name_short":"frk-7","host":"frk-1.de.uncletopia.com","port":27075,"enabled":true,"region":"eu","cc":"de","latitude":50.110924,"longitude":8.682127,"reserved":0,"last_update":"0001-01-01T00:00:00Z","name_a2s":"Uncletopia | Frankfurt | 7 | Stopwatch Beta","protocol":17,"map":"pl_frontier_final","folder":"tf","game":"Team Fortress","app_id":440,"player_count":0,"max_players":24,"Bots":0,"server_type":"Dedicated","server_os":"Linux","password":true,"vac":true,"version":"7757534","steam_id":85568392924742827,"keywords":["nocrits","nodmgspread","payload","uncletopia"],"game_id":440,"stv_port":27076,"stv_name":"Uncletopia | Frankfurt | 7 | Stopwatch Beta | STV","players":null},{"server_id":24,"name":"Uncletopia | Frankfurt | 8 | Community","name_short":"frk-8","host":"frk-1.de.uncletopia.com","port":27085,"enabled":true,"region":"eu","cc":"de","latitude":50.110924,"longitude":8.682127,"reserved":0,"last_update":"0001-01-01T00:00:00Z","name_a2s":"Uncletopia | Frankfurt | 8 | Community","protocol":17,"map":"workshop/pl_eruption_b9a.ugc2807898013","folder":"tf","game":"Team Fortress","app_id":440,"player_count":0,"max_players":24,"Bots":0,"server_type":"Dedicated","server_os":"Linux","password":true,"vac":true,"version":"7757534","steam_id":85568392924742828,"keywords":["nocrits","nodmgspread","payload","uncletopia"],"game_id":440,"stv_port":27086,"stv_name":"Uncletopia | Frankfurt | 8 | Community | STV","players":null},{"server_id":202,"name":"Uncletopia | Hong Kong | 1 | All Maps","name_short":"hgk-1","host":"hgk-1.hk.uncletopia.com","port":27015,"enabled":true,"region":"asia","cc":"hk","latitude":22.302711,"longitude":114.177216,"reserved":0,"last_update":"0001-01-01T00:00:00Z","name_a2s":"Uncletopia | Hong Kong | 1 | All Maps","protocol":17,"map":"koth_cascade","folder":"tf","game":"Team Fortress","app_id":440,"player_count":0,"max_players":24,"Bots":0,"server_type":"Dedicated","server_os":"Linux","password":true,"vac":true,"version":"7757534","steam_id":85568392924494504,"keywords":["cp","nocrits","nodmgspread","uncletopia"],"game_id":440,"stv_port":27016,"stv_name":"Uncletopia | Hong Kong | 1 | All Maps | STV","players":null},{"server_id":1,"name":"Uncletopia | Los Angeles | 1 | All Maps","name_short":"lax-1","host":"lax-1.us.uncletopia.com","port":27015,"enabled":true,"region":"us-west","cc":"us","latitude":33.94279,"longitude":-118.41004,"reserved":0,"last_update":"0001-01-01T00:00:00Z","name_a2s":"Uncletopia | Los Angeles | 1 | All Maps","protocol":17,"map":"pl_borneo","folder":"tf","game":"Team Fortress","app_id":440,"player_count":0,"max_players":24,"Bots":0,"server_type":"Dedicated","server_os":"Linux","password":true,"vac":true,"version":"7757534","steam_id":85568392924469991,"keywords":["nocrits","nodmgspread","payload","uncletopia"],"game_id":440,"stv_port":27016,"stv_name":"Uncletopia | Los Angeles | 1 | All Maps | STV","players":null},{"server_id":112,"name":"Uncletopia | Los Angeles | 2 | All Maps","name_short":"lax-2","host":"lax-1.us.uncletopia.com","port":27025,"enabled":true,"region":"us-west","cc":"us","latitude":33.94279,"longitude":-118.41004,"reserved":0,"last_update":"0001-01-01T00:00:00Z","name_a2s":"Uncletopia | Los Angeles | 2 | All Maps","protocol":17,"map":"koth_cascade","folder":"tf","game":"Team Fortress","app_id":440,"player_count":0,"max_players":24,"Bots":0,"server_type":"Dedicated","server_os":"Linux","password":true,"vac":true,"version":"7757534","steam_id":85568392924469992,"keywords":["cp","nocrits","nodmgspread","uncletopia"],"game_id":440,"stv_port":27026,"stv_name":"Uncletopia | Los Angeles | 2 | All Maps | STV","players":null},{"server_id":324,"name":"Uncletopia | Los Angeles | 3 | All Maps","name_short":"lax-3","host":"lax-1.us.uncletopia.com","port":27035,"enabled":true,"region":"us-west","cc":"us","latitude":33.94279,"longitude":-118.41004,"reserved":0,"last_update":"0001-01-01T00:00:00Z","name_a2s":"Uncletopia | Los Angeles | 3 | All Maps","protocol":17,"map":"pl_pier","folder":"tf","game":"Team Fortress","app_id":440,"player_count":0,"max_players":24,"Bots":0,"server_type":"Dedicated","server_os":"Linux","password":true,"vac":true,"version":"7757534","steam_id":85568392924510198,"keywords":["nocrits","nodmgspread","payload","uncletopia"],"game_id":440,"stv_port":27036,"stv_name":"Uncletopia | Los Angeles | 3 | All Maps | STV","players":null},{"server_id":25,"name":"Uncletopia | Los Angeles | 4 | Stopwatch Beta","name_short":"lax-4","host":"lax-1.us.uncletopia.com","port":27045,"enabled":true,"region":"us-west","cc":"us","latitude":33.94279,"longitude":-118.41004,"reserved":0,"last_update":"0001-01-01T00:00:00Z","name_a2s":"Uncletopia | Los Angeles | 4 | Stopwatch Beta","protocol":17,"map":"pl_frontier_final","folder":"tf","game":"Team Fortress","app_id":440,"player_count":0,"max_players":24,"Bots":0,"server_type":"Dedicated","server_os":"Linux","password":true,"vac":true,"version":"7757534","steam_id":85568392924510199,"keywords":["nocrits","nodmgspread","payload","uncletopia"],"game_id":440,"stv_port":27046,"stv_name":"Uncletopia | Los Angeles | 4 | Stopwatch Beta | STV","players":null},{"server_id":11,"name":"Uncletopia | London | 1 | All Maps","name_short":"lon-1","host":"lon-1.uk.uncletopia.com","port":27015,"enabled":true,"region":"eu","cc":"gb","latitude":51.509865,"longitude":-0.118092,"reserved":0,"last_update":"0001-01-01T00:00:00Z","name_a2s":"Uncletopia | London | 1 | All Maps","protocol":17,"map":"pl_barnblitz","folder":"tf","game":"Team Fortress","app_id":440,"player_count":24,"max_players":24,"Bots":0,"server_type":"Dedicated","server_os":"Linux","password":true,"vac":true,"version":"7757534","steam_id":85568392924367362,"keywords":["nocrits","nodmgspread","payload","uncletopia"],"game_id":440,"stv_port":27016,"stv_name":"Uncletopia | London | 1 | All Maps | STV","players":[{"user_id":253,"name":"cockwater","steam_id":76561198209101861,"connected_time":249000000000,"state":"active","ping":75},{"user_id":228,"name":"Minimi","steam_id":76561198873850443,"connected_time":1682000000000,"state":"active","ping":41},{"user_id":193,"name":"Numroth","steam_id":76561198001100167,"connected_time":3213000000000,"state":"active","ping":78},{"user_id":146,"name":"tm","steam_id":76561198256619964,"connected_time":7167000000000,"state":"active","ping":88},{"user_id":240,"name":"Yatsuzume","steam_id":76561198059762108,"connected_time":1212000000000,"state":"active","ping":45},{"user_id":189,"name":"clunk","steam_id":76561198836460767,"connected_time":3801000000000,"state":"active","ping":62},{"user_id":241,"name":"BX","steam_id":76561197962889211,"connected_time":1151000000000,"state":"active","ping":57},{"user_id":245,"name":"Soobur \u003e Selling Page 1 on BP","steam_id":76561199215326192,"connected_time":850000000000,"state":"active","ping":44},{"user_id":254,"name":"EGirlGang","steam_id":76561198257435792,"connected_time":97000000000,"state":"active","ping":74},{"user_id":214,"name":"Various Foods And Events","steam_id":76561198163244605,"connected_time":2029000000000,"state":"active","ping":80},{"user_id":182,"name":"night.s","steam_id":76561198326287823,"connected_time":4074000000000,"state":"active","ping":77},{"user_id":255,"name":"Lychee","steam_id":76561198816888764,"connected_time":15000000000,"state":"active","ping":64},{"user_id":248,"name":"adam","steam_id":76561199024816404,"connected_time":395000000000,"state":"active","ping":89},{"user_id":114,"name":"john fortress","steam_id":76561198013237629,"connected_time":10241000000000,"state":"active","ping":89},{"user_id":196,"name":"ciliorkun18","steam_id":76561198228942500,"connected_time":3067000000000,"state":"active","ping":96},{"user_id":249,"name":"obscure","steam_id":76561198119532381,"connected_time":389000000000,"state":"active","ping":69},{"user_id":234,"name":"Dominus.","steam_id":76561199065917088,"connected_time":1487000000000,"state":"active","ping":63},{"user_id":153,"name":"SIUUUUUUUUUUUUUUUUUUUUUUUUUUU","steam_id":76561198023211417,"connected_time":6497000000000,"state":"active","ping":51},{"user_id":211,"name":"Wc Biere","steam_id":76561198200886539,"connected_time":2080000000000,"state":"active","ping":118},{"user_id":250,"name":"Raulca25","steam_id":76561199068256964,"connected_time":384000000000,"state":"active","ping":80},{"user_id":244,"name":"HimpoX","steam_id":76561198043946778,"connected_time":1003000000000,"state":"active","ping":95},{"user_id":243,"name":"hello kitty","steam_id":76561198723244199,"connected_time":1086000000000,"state":"active","ping":86},{"user_id":256,"name":"Chikapu Xek #savetf2","steam_id":76561198428023493,"connected_time":12000000000,"state":"spawning","ping":58},{"user_id":230,"name":"Bumpin'Scrunts","steam_id":76561198069641252,"connected_time":1599000000000,"state":"active","ping":48}]},{"server_id":114,"name":"Uncletopia | London | 2 | All Maps","name_short":"lon-2","host":"lon-1.uk.uncletopia.com","port":27025,"enabled":true,"region":"eu","cc":"gb","latitude":51.509865,"longitude":-0.118092,"reserved":0,"last_update":"0001-01-01T00:00:00Z","name_a2s":"Uncletopia | London | 2 | All Maps","protocol":17,"map":"pl_badwater","folder":"tf","game":"Team Fortress","app_id":440,"player_count":24,"max_players":24,"Bots":0,"server_type":"Dedicated","server_os":"Linux","password":true,"vac":true,"version":"7757534","steam_id":85568392924470941,"keywords":["nocrits","nodmgspread","payload","uncletopia"],"game_id":440,"stv_port":27026,"stv_name":"Uncletopia | London | 2 | All Maps | STV","players":[{"user_id":248,"name":"not drunk","steam_id":76561199184873889,"connected_time":1056000000000,"state":"active","ping":62},{"user_id":196,"name":"Igames","steam_id":76561198414062544,"connected_time":5147000000000,"state":"active","ping":49},{"user_id":249,"name":"FinalFir137","steam_id":76561198267659635,"connected_time":127000000000,"state":"active","ping":61},{"user_id":234,"name":"HERISSON","steam_id":76561199062194778,"connected_time":1911000000000,"state":"active","ping":77},{"user_id":235,"name":"The Proclaimers","steam_id":76561198934886665,"connected_time":1890000000000,"state":"active","ping":102},{"user_id":236,"name":"Antimation","steam_id":76561198125649544,"connected_time":1889000000000,"state":"active","ping":45},{"user_id":232,"name":"DDO1","steam_id":76561198348234399,"connected_time":2002000000000,"state":"active","ping":56},{"user_id":221,"name":"Almann","steam_id":76561198112965513,"connected_time":3063000000000,"state":"active","ping":68},{"user_id":250,"name":"AMDBlackblast","steam_id":76561198282983141,"connected_time":52000000000,"state":"active","ping":96},{"user_id":184,"name":"s a i","steam_id":76561197970379754,"connected_time":5780000000000,"state":"active","ping":66},{"user_id":237,"name":"Crab","steam_id":76561198269167544,"connected_time":1859000000000,"state":"active","ping":93},{"user_id":238,"name":"danger noodle 2","steam_id":76561198328702538,"connected_time":1855000000000,"state":"active","ping":102},{"user_id":239,"name":"Princess Peach","steam_id":76561198260272240,"connected_time":1854000000000,"state":"active","ping":49},{"user_id":240,"name":"Audiofall","steam_id":76561198208814216,"connected_time":1818000000000,"state":"active","ping":48},{"user_id":225,"name":"mineblast99","steam_id":76561199065648954,"connected_time":2810000000000,"state":"active","ping":139},{"user_id":223,"name":"JohkupohkuXD","steam_id":76561198391108762,"connected_time":2968000000000,"state":"active","ping":86},{"user_id":217,"name":"Legenda 27","steam_id":76561198281986082,"connected_time":3247000000000,"state":"active","ping":71},{"user_id":228,"name":"Ander Escobar","steam_id":76561198335366902,"connected_time":2685000000000,"state":"active","ping":99},{"user_id":242,"name":"Dottie [She/They]","steam_id":76561198282046179,"connected_time":1737000000000,"state":"active","ping":167},{"user_id":251,"name":"Combat Wombat","steam_id":76561197994720068,"connected_time":39000000000,"state":"active","ping":57},{"user_id":203,"name":"Freeman","steam_id":76561198094288793,"connected_time":4720000000000,"state":"active","ping":60},{"user_id":245,"name":"Saneper","steam_id":76561198046043298,"connected_time":1593000000000,"state":"active","ping":69},{"user_id":252,"name":"Spajro","steam_id":76561198257383813,"connected_time":32000000000,"state":"active","ping":60},{"user_id":253,"name":"Syd","steam_id":76561198020515027,"connected_time":25000000000,"state":"active","ping":82}]},{"server_id":320,"name":"Uncletopia | London | 3 | All Maps","name_short":"lon-3","host":"lon-1.uk.uncletopia.com","port":27035,"enabled":true,"region":"eu","cc":"gb","latitude":51.509865,"longitude":-0.118092,"reserved":0,"last_update":"0001-01-01T00:00:00Z","name_a2s":"Uncletopia | London | 3 | All Maps","protocol":17,"map":"koth_lakeside_final","folder":"tf","game":"Team Fortress","app_id":440,"player_count":24,"max_players":24,"Bots":0,"server_type":"Dedicated","server_os":"Linux","password":true,"vac":true,"version":"7757534","steam_id":85568392924510192,"keywords":["cp","nocrits","nodmgspread","uncletopia"],"game_id":440,"stv_port":27036,"stv_name":"Uncletopia | London | 3 | All Maps | STV","players":[{"user_id":353,"name":"tactical783","steam_id":76561199051688560,"connected_time":7262000000000,"state":"active","ping":69},{"user_id":457,"name":"JeanCorben","steam_id":76561197965133561,"connected_time":1143000000000,"state":"active","ping":44},{"user_id":478,"name":"goreston","steam_id":76561197964666781,"connected_time":125000000000,"state":"active","ping":44},{"user_id":471,"name":"degu","steam_id":76561198180823942,"connected_time":291000000000,"state":"active","ping":51},{"user_id":467,"name":"God's Goofiest Goober","steam_id":76561198103175187,"connected_time":519000000000,"state":"active","ping":70},{"user_id":345,"name":"Sgreff","steam_id":76561198036304365,"connected_time":8735000000000,"state":"active","ping":41},{"user_id":365,"name":"John Ross","steam_id":76561198034560808,"connected_time":6359000000000,"state":"active","ping":59},{"user_id":452,"name":"Johnny Cockroach","steam_id":76561198049648277,"connected_time":1987000000000,"state":"active","ping":102},{"user_id":455,"name":"SolidSalt","steam_id":76561198334789026,"connected_time":1546000000000,"state":"active","ping":40},{"user_id":453,"name":"Alerxy","steam_id":76561198930670117,"connected_time":1986000000000,"state":"active","ping":41},{"user_id":460,"name":"MelvinIsANiceBoy","steam_id":76561198178415634,"connected_time":1002000000000,"state":"active","ping":67},{"user_id":474,"name":"Average meme enjoyer","steam_id":76561199087566663,"connected_time":215000000000,"state":"active","ping":88},{"user_id":466,"name":"Tre3","steam_id":76561198054795379,"connected_time":588000000000,"state":"active","ping":60},{"user_id":465,"name":"Mauricio™","steam_id":76561198058727934,"connected_time":660000000000,"state":"spawning","ping":32},{"user_id":462,"name":"pansexual","steam_id":76561198047778351,"connected_time":941000000000,"state":"active","ping":42},{"user_id":197,"name":"gamerweed5","steam_id":76561198087651151,"connected_time":20187000000000,"state":"active","ping":44},{"user_id":445,"name":"no. 1 lucki fan","steam_id":76561198022382969,"connected_time":2844000000000,"state":"active","ping":75},{"user_id":440,"name":"Suspicious Cabin","steam_id":76561198083261198,"connected_time":3033000000000,"state":"active","ping":52},{"user_id":479,"name":"Merasmus' Book","steam_id":76561199312878490,"connected_time":72000000000,"state":"active","ping":193},{"user_id":442,"name":"Bromoneto","steam_id":76561198876695014,"connected_time":3008000000000,"state":"active","ping":79},{"user_id":476,"name":"CrabboStabbo","steam_id":76561198105660937,"connected_time":168000000000,"state":"active","ping":56},{"user_id":419,"name":"Zogg","steam_id":76561198352683491,"connected_time":3535000000000,"state":"active","ping":40},{"user_id":477,"name":"Cunk","steam_id":76561198996618201,"connected_time":161000000000,"state":"active","ping":59},{"user_id":454,"name":"Milosz52","steam_id":76561199060940204,"connected_time":1926000000000,"state":"active","ping":92}]},{"server_id":321,"name":"Uncletopia | London | 4 | All Maps","name_short":"lon-4","host":"lon-1.uk.uncletopia.com","port":27045,"enabled":true,"region":"eu","cc":"gb","latitude":51.509865,"longitude":-0.118092,"reserved":0,"last_update":"0001-01-01T00:00:00Z","name_a2s":"Uncletopia | London | 4 | All Maps","protocol":17,"map":"pl_borneo","folder":"tf","game":"Team Fortress","app_id":440,"player_count":24,"max_players":24,"Bots":0,"server_type":"Dedicated","server_os":"Linux","password":true,"vac":true,"version":"7757534","steam_id":85568392924510193,"keywords":["nocrits","nodmgspread","payload","uncletopia"],"game_id":440,"stv_port":27046,"stv_name":"Uncletopia | London | 4 | All Maps | STV","players":[{"user_id":14,"name":"Certified Hood pybro (ua)","steam_id":76561198970562699,"connected_time":6087000000000,"state":"active","ping":50},{"user_id":103,"name":"FairlyFatFungus","steam_id":76561199152828854,"connected_time":509000000000,"state":"active","ping":53},{"user_id":78,"name":"Spageti","steam_id":76561198074122906,"connected_time":2421000000000,"state":"active","ping":86},{"user_id":73,"name":"jge","steam_id":76561198123186387,"connected_time":2745000000000,"state":"active","ping":69},{"user_id":89,"name":"It's a me Malario","steam_id":76561198176546013,"connected_time":1676000000000,"state":"active","ping":52},{"user_id":109,"name":"the joy of recycling","steam_id":76561198415564349,"connected_time":5000000000,"state":"spawning","ping":285},{"user_id":106,"name":"minn","steam_id":76561198099101232,"connected_time":319000000000,"state":"active","ping":49},{"user_id":79,"name":"Orochi","steam_id":76561198265192382,"connected_time":2399000000000,"state":"active","ping":68},{"user_id":86,"name":"Hey, I´m Andy!","steam_id":76561198060337777,"connected_time":2154000000000,"state":"active","ping":82},{"user_id":104,"name":"Morisan","steam_id":76561198043153528,"connected_time":455000000000,"state":"active","ping":46},{"user_id":95,"name":"XavierSweet","steam_id":76561198091781913,"connected_time":1348000000000,"state":"active","ping":51},{"user_id":108,"name":"AmadStatistician","steam_id":76561198163654770,"connected_time":313000000000,"state":"active","ping":68},{"user_id":94,"name":"Kurage","steam_id":76561198021221288,"connected_time":1396000000000,"state":"active","ping":72},{"user_id":96,"name":"Allereinan","steam_id":76561198342239906,"connected_time":1333000000000,"state":"active","ping":104},{"user_id":99,"name":"Balls","steam_id":76561198086400484,"connected_time":1163000000000,"state":"active","ping":74},{"user_id":98,"name":"vert2spooky // TUXEDO TERRORISM","steam_id":76561198914976373,"connected_time":1167000000000,"state":"active","ping":54},{"user_id":66,"name":"Arasey","steam_id":76561198996948426,"connected_time":4071000000000,"state":"active","ping":96},{"user_id":100,"name":"FilipeLuk","steam_id":76561198150675438,"connected_time":1160000000000,"state":"active","ping":69},{"user_id":56,"name":"stankyleg","steam_id":76561199169616120,"connected_time":4454000000000,"state":"active","ping":50},{"user_id":87,"name":"potatohead","steam_id":76561198282131133,"connected_time":1999000000000,"state":"active","ping":40},{"user_id":101,"name":"Davey","steam_id":76561198256879107,"connected_time":1060000000000,"state":"active","ping":75},{"user_id":105,"name":"LOBZIK","steam_id":76561198114830120,"connected_time":453000000000,"state":"active","ping":79},{"user_id":83,"name":"Khoreo","steam_id":76561198208096339,"connected_time":2366000000000,"state":"active","ping":45},{"user_id":84,"name":"Autumnsky","steam_id":76561198055161203,"connected_time":2360000000000,"state":"active","ping":63}]},{"server_id":21,"name":"Uncletopia | London | 5 | All Maps","name_short":"lon-5","host":"lon-1.uk.uncletopia.com","port":27055,"enabled":true,"region":"eu","cc":"gb","latitude":51.509865,"longitude":-0.118092,"reserved":0,"last_update":"0001-01-01T00:00:00Z","name_a2s":"Uncletopia | London | 5 | All Maps","protocol":17,"map":"cp_snakewater_final1","folder":"tf","game":"Team Fortress","app_id":440,"player_count":0,"max_players":24,"Bots":0,"server_type":"Dedicated","server_os":"Linux","password":true,"vac":true,"version":"7757534","steam_id":85568392924742829,"keywords":["cp","nocrits","nodmgspread","uncletopia"],"game_id":440,"stv_port":27056,"stv_name":"Uncletopia | London | 5 | All Maps | STV","players":null},{"server_id":22,"name":"Uncletopia | London | 6 | All Maps","name_short":"lon-6","host":"lon-1.uk.uncletopia.com","port":27065,"enabled":true,"region":"eu","cc":"gb","latitude":51.509865,"longitude":-0.118092,"reserved":0,"last_update":"0001-01-01T00:00:00Z","name_a2s":"Uncletopia | London | 6 | All Maps","protocol":17,"map":"pl_borneo","folder":"tf","game":"Team Fortress","app_id":440,"player_count":2,"max_players":24,"Bots":0,"server_type":"Dedicated","server_os":"Linux","password":true,"vac":true,"version":"7757534","steam_id":85568392924742830,"keywords":["nocrits","nodmgspread","payload","uncletopia"],"game_id":440,"stv_port":27066,"stv_name":"Uncletopia | London | 6 | All Maps | STV","players":[{"user_id":13,"name":"Tiki Man","steam_id":76561199274840987,"connected_time":134000000000,"state":"active","ping":97},{"user_id":14,"name":"[LAN]SarriKIOS2","steam_id":76561198052528262,"connected_time":124000000000,"state":"active","ping":107}]},{"server_id":40,"name":"Uncletopia | London | 7 | No Payload","name_short":"lon-7","host":"lon-1.uk.uncletopia.com","port":27075,"enabled":true,"region":"eu","cc":"gb","latitude":51.509865,"longitude":-0.118092,"reserved":0,"last_update":"0001-01-01T00:00:00Z","name_a2s":"Uncletopia | London | 7 | No Payload","protocol":17,"map":"ctf_well","folder":"tf","game":"Team Fortress","app_id":440,"player_count":1,"max_players":24,"Bots":0,"server_type":"Dedicated","server_os":"Linux","password":true,"vac":true,"version":"7757534","steam_id":85568392924964314,"keywords":["ctf","nocrits","nodmgspread","uncletopia"],"game_id":440,"stv_port":27076,"stv_name":"Uncletopia | London | 7 | No Payload | STV","players":[{"user_id":4,"name":"One Hundred","steam_id":76561199028651017,"connected_time":14000000000,"state":"active","ping":69}]},{"server_id":41,"name":"Uncletopia | London | 8 | Community","name_short":"lon-8","host":"lon-1.uk.uncletopia.com","port":27085,"enabled":true,"region":"eu","cc":"gb","latitude":51.509865,"longitude":-0.118092,"reserved":0,"last_update":"0001-01-01T00:00:00Z","name_a2s":"Uncletopia | London | 8 | Community","protocol":17,"map":"workshop/pl_eruption_b9a.ugc2807898013","folder":"tf","game":"Team Fortress","app_id":440,"player_count":0,"max_players":24,"Bots":0,"server_type":"Dedicated","server_os":"Linux","password":true,"vac":true,"version":"7757534","steam_id":85568392924964315,"keywords":["nocrits","nodmgspread","payload","uncletopia"],"game_id":440,"stv_port":27086,"stv_name":"Uncletopia | London | 8 | Community | STV","players":null},{"server_id":300,"name":"Uncletopia | Montréal | 1 | All Maps","name_short":"mtl-1","host":"mtl-1.ca.uncletopia.com","port":27015,"enabled":true,"region":"us-east","cc":"ca","latitude":45.50889,"longitude":-73.56167,"reserved":0,"last_update":"0001-01-01T00:00:00Z","name_a2s":"Uncletopia | Montréal | 1 | All Maps","protocol":17,"map":"pl_snowycoast","folder":"tf","game":"Team Fortress","app_id":440,"player_count":0,"max_players":24,"Bots":0,"server_type":"Dedicated","server_os":"Linux","password":true,"vac":true,"version":"7757534","steam_id":85568392924500087,"keywords":["nocrits","nodmgspread","payload","uncletopia"],"game_id":440,"stv_port":27016,"stv_name":"Uncletopia | Montréal | 1 | All Maps | STV","players":null},{"server_id":301,"name":"Uncletopia | Montréal | 2 | All Maps","name_short":"mtl-2","host":"mtl-1.ca.uncletopia.com","port":27025,"enabled":true,"region":"us-east","cc":"ca","latitude":45.50889,"longitude":-73.56167,"reserved":0,"last_update":"0001-01-01T00:00:00Z","name_a2s":"Uncletopia | Montréal | 2 | All Maps","protocol":17,"map":"pl_snowycoast","folder":"tf","game":"Team Fortress","app_id":440,"player_count":0,"max_players":24,"Bots":0,"server_type":"Dedicated","server_os":"Linux","password":true,"vac":true,"version":"7757534","steam_id":85568392924500088,"keywords":["nocrits","nodmgspread","payload","uncletopia"],"game_id":440,"stv_port":27026,"stv_name":"Uncletopia | Montréal | 2 | All Maps | STV","players":null},{"server_id":302,"name":"Uncletopia | Montréal | 3 | All Maps","name_short":"mtl-3","host":"mtl-1.ca.uncletopia.com","port":27035,"enabled":true,"region":"us-east","cc":"ca","latitude":45.50889,"longitude":-73.56167,"reserved":0,"last_update":"0001-01-01T00:00:00Z","name_a2s":"Uncletopia | Montréal | 3 | All Maps","protocol":17,"map":"cp_dustbowl","folder":"tf","game":"Team Fortress","app_id":440,"player_count":0,"max_players":24,"Bots":0,"server_type":"Dedicated","server_os":"Linux","password":true,"vac":true,"version":"7757534","steam_id":85568392924500089,"keywords":["cp","nocrits","nodmgspread","uncletopia"],"game_id":440,"stv_port":27036,"stv_name":"Uncletopia | Montréal | 3 | All Maps | STV","players":null},{"server_id":303,"name":"Uncletopia | Montréal | 4 | No Payload","name_short":"mtl-4","host":"mtl-1.ca.uncletopia.com","port":27045,"enabled":true,"region":"us-east","cc":"ca","latitude":45.50889,"longitude":-73.56167,"reserved":0,"last_update":"0001-01-01T00:00:00Z","name_a2s":"Uncletopia | Montréal | 4 | No Payload","protocol":17,"map":"pl_borneo","folder":"tf","game":"Team Fortress","app_id":440,"player_count":0,"max_players":24,"Bots":0,"server_type":"Dedicated","server_os":"Linux","password":true,"vac":true,"version":"7757534","steam_id":85568392924500090,"keywords":["nocrits","nodmgspread","payload","uncletopia"],"game_id":440,"stv_port":27046,"stv_name":"Uncletopia | Montréal | 4 | No Payload | STV","players":null},{"server_id":13,"name":"Uncletopia | New York City | 1 | All Maps","name_short":"nyc-1","host":"nyc-1.us.uncletopia.com","port":27015,"enabled":true,"region":"us-east","cc":"us","latitude":40.73061,"longitude":-73.93524,"reserved":0,"last_update":"0001-01-01T00:00:00Z","name_a2s":"Uncletopia | New York City | 1 | All Maps","protocol":17,"map":"koth_highpass","folder":"tf","game":"Team Fortress","app_id":440,"player_count":0,"max_players":24,"Bots":0,"server_type":"Dedicated","server_os":"Linux","password":true,"vac":true,"version":"7757534","steam_id":85568392924469993,"keywords":["cp","nocrits","nodmgspread","uncletopia"],"game_id":440,"stv_port":27016,"stv_name":"Uncletopia | New York City | 1 | All Maps | STV","players":null},{"server_id":14,"name":"Uncletopia | New York City | 2 | All Maps","name_short":"nyc-2","host":"nyc-1.us.uncletopia.com","port":27025,"enabled":true,"region":"us-east","cc":"us","latitude":40.73061,"longitude":-73.93524,"reserved":0,"last_update":"0001-01-01T00:00:00Z","name_a2s":"Uncletopia | New York City | 2 | All Maps","protocol":17,"map":"koth_lakeside_final","folder":"tf","game":"Team Fortress","app_id":440,"player_count":0,"max_players":24,"Bots":0,"server_type":"Dedicated","server_os":"Linux","password":true,"vac":true,"version":"7757534","steam_id":85568392924469994,"keywords":["cp","nocrits","nodmgspread","uncletopia"],"game_id":440,"stv_port":27026,"stv_name":"Uncletopia | New York City | 2 | All Maps | STV","players":null},{"server_id":15,"name":"Uncletopia | New York City | 3 | Stopwatch Beta","name_short":"nyc-3","host":"nyc-1.us.uncletopia.com","port":27035,"enabled":true,"region":"us-east","cc":"us","latitude":40.73061,"longitude":-73.93524,"reserved":0,"last_update":"0001-01-01T00:00:00Z","name_a2s":"Uncletopia | New York City | 3 | Stopwatch Beta","protocol":17,"map":"cp_mountainlab","folder":"tf","game":"Team Fortress","app_id":440,"player_count":0,"max_players":24,"Bots":0,"server_type":"Dedicated","server_os":"Linux","password":true,"vac":true,"version":"7757534","steam_id":85568392924742820,"keywords":["cp","nocrits","nodmgspread","uncletopia"],"game_id":440,"stv_port":27036,"stv_name":"Uncletopia | New York City | 3 | Stopwatch Beta | STV","players":null},{"server_id":16,"name":"Uncletopia | New York City | 4 | Community","name_short":"nyc-4","host":"nyc-1.us.uncletopia.com","port":27045,"enabled":true,"region":"us-east","cc":"us","latitude":40.73061,"longitude":-73.93524,"reserved":0,"last_update":"0001-01-01T00:00:00Z","name_a2s":"Uncletopia | New York City | 4 | Community","protocol":17,"map":"pl_borneo","folder":"tf","game":"Team Fortress","app_id":440,"player_count":0,"max_players":24,"Bots":0,"server_type":"Dedicated","server_os":"Linux","password":true,"vac":true,"version":"7757534","steam_id":85568392924742821,"keywords":["nocrits","nodmgspread","payload","uncletopia"],"game_id":440,"stv_port":27046,"stv_name":"Uncletopia | New York City | 4 | Community | STV","players":null},{"server_id":142,"name":"Uncletopia | São Paulo | 1 | All Maps","name_short":"sao-1","host":"sao-1.br.uncletopia.com","port":27015,"enabled":true,"region":"sa","cc":"br","latitude":-23.533773,"longitude":-46.62529,"reserved":0,"last_update":"0001-01-01T00:00:00Z","name_a2s":"Uncletopia | São Paulo | 1 | All Maps","protocol":17,"map":"pl_badwater","folder":"tf","game":"Team Fortress","app_id":440,"player_count":0,"max_players":24,"Bots":0,"server_type":"Dedicated","server_os":"Linux","password":true,"vac":true,"version":"7757534","steam_id":85568392924469996,"keywords":["nocrits","nodmgspread","payload","uncletopia"],"game_id":440,"stv_port":27016,"stv_name":"Uncletopia | São Paulo | 1 | All Maps | STV","players":null},{"server_id":143,"name":"Uncletopia | São Paulo | 2 | All Maps","name_short":"sao-2","host":"sao-2.br.uncletopia.com","port":27015,"enabled":true,"region":"sa","cc":"br","latitude":-23.533773,"longitude":-46.62529,"reserved":0,"last_update":"0001-01-01T00:00:00Z","name_a2s":"Uncletopia | São Paulo | 2 | All Maps","protocol":17,"map":"koth_viaduct","folder":"tf","game":"Team Fortress","app_id":440,"player_count":0,"max_players":24,"Bots":0,"server_type":"Dedicated","server_os":"Linux","password":true,"vac":true,"version":"7757534","steam_id":85568392924485349,"keywords":["cp","nocrits","nodmgspread","uncletopia"],"game_id":440,"stv_port":27016,"stv_name":"Uncletopia | São Paulo | 2 | All Maps | STV","players":null},{"server_id":7,"name":"Uncletopia | Seattle | 1 | All Maps","name_short":"sea-1","host":"sea-1.us.uncletopia.com","port":27015,"enabled":true,"region":"us-west","cc":"us","latitude":47.608013,"longitude":-122.33517,"reserved":0,"last_update":"0001-01-01T00:00:00Z","name_a2s":"Uncletopia | Seattle | 1 | All Maps","protocol":17,"map":"cp_mountainlab","folder":"tf","game":"Team Fortress","app_id":440,"player_count":0,"max_players":24,"Bots":0,"server_type":"Dedicated","server_os":"Linux","password":true,"vac":true,"version":"7757534","steam_id":85568392924469997,"keywords":["cp","nocrits","nodmgspread","uncletopia"],"game_id":440,"stv_port":27016,"stv_name":"Uncletopia | Seattle | 1 | All Maps | STV","players":null},{"server_id":119,"name":"Uncletopia | Seattle | 2 | All Maps","name_short":"sea-2","host":"sea-1.us.uncletopia.com","port":27025,"enabled":true,"region":"us-west","cc":"us","latitude":47.608013,"longitude":-122.33517,"reserved":0,"last_update":"0001-01-01T00:00:00Z","name_a2s":"Uncletopia | Seattle | 2 | All Maps","protocol":17,"map":"pl_badwater","folder":"tf","game":"Team Fortress","app_id":440,"player_count":24,"max_players":24,"Bots":0,"server_type":"Dedicated","server_os":"Linux","password":true,"vac":true,"version":"7757534","steam_id":85568392924469998,"keywords":["nocrits","nodmgspread","payload","uncletopia"],"game_id":440,"stv_port":27026,"stv_name":"Uncletopia | Seattle | 2 | All Maps | STV","players":[{"user_id":136,"name":"Quansen","steam_id":76561198151594550,"connected_time":2607000000000,"state":"active","ping":90},{"user_id":158,"name":"KyePerson","steam_id":76561198145597212,"connected_time":1187000000000,"state":"active","ping":75},{"user_id":168,"name":"swag","steam_id":76561198094615739,"connected_time":193000000000,"state":"active","ping":85},{"user_id":165,"name":"Naeole1","steam_id":76561198240378926,"connected_time":639000000000,"state":"active","ping":125},{"user_id":163,"name":"Shark Sandwich","steam_id":76561198025007938,"connected_time":1039000000000,"state":"active","ping":87},{"user_id":149,"name":"Bnuby","steam_id":76561198117708658,"connected_time":1870000000000,"state":"active","ping":59},{"user_id":171,"name":"Luella","steam_id":76561198036139202,"connected_time":95000000000,"state":"active","ping":106},{"user_id":157,"name":"TimTam Tom","steam_id":76561198045988062,"connected_time":1395000000000,"state":"active","ping":102},{"user_id":135,"name":"watrisntfruit","steam_id":76561199274595793,"connected_time":2727000000000,"state":"active","ping":51},{"user_id":104,"name":"Sloppy John (Extra Sauce)","steam_id":76561198359703432,"connected_time":4466000000000,"state":"active","ping":74},{"user_id":144,"name":"Ⓩre","steam_id":76561198044941294,"connected_time":2120000000000,"state":"active","ping":63},{"user_id":139,"name":"Wind Fucker","steam_id":76561198275362375,"connected_time":2520000000000,"state":"active","ping":64},{"user_id":27,"name":"lol","steam_id":76561198026491738,"connected_time":8840000000000,"state":"active","ping":84},{"user_id":127,"name":"DK360","steam_id":76561198796783094,"connected_time":3235000000000,"state":"active","ping":49},{"user_id":172,"name":"choi","steam_id":76561198053669887,"connected_time":4000000000,"state":"spawning","ping":79},{"user_id":118,"name":"Ignignokt","steam_id":76561198162207470,"connected_time":3788000000000,"state":"active","ping":60},{"user_id":152,"name":"my monitor is off","steam_id":76561198074499537,"connected_time":1641000000000,"state":"active","ping":81},{"user_id":154,"name":"Jovyel","steam_id":76561198118777065,"connected_time":1615000000000,"state":"active","ping":114},{"user_id":169,"name":"Engineer Gaming Live","steam_id":76561198045914603,"connected_time":148000000000,"state":"active","ping":70},{"user_id":170,"name":"Virgil the Talking Boat","steam_id":76561199163440419,"connected_time":117000000000,"state":"active","ping":103},{"user_id":155,"name":"joethefool","steam_id":76561199015436319,"connected_time":1598000000000,"state":"active","ping":119},{"user_id":137,"name":"mumbles","steam_id":76561197994528974,"connected_time":2532000000000,"state":"active","ping":78},{"user_id":140,"name":"Turts","steam_id":76561197998448097,"connected_time":2379000000000,"state":"active","ping":60},{"user_id":143,"name":"President Vex","steam_id":76561198157557477,"connected_time":2285000000000,"state":"active","ping":131}]},{"server_id":406,"name":"Uncletopia | Seattle | 3 | Stopwatch Beta","name_short":"sea-3","host":"sea-1.us.uncletopia.com","port":27035,"enabled":true,"region":"us-west","cc":"us","latitude":47.608013,"longitude":-122.33517,"reserved":0,"last_update":"0001-01-01T00:00:00Z","name_a2s":"Uncletopia | Seattle | 3 | Stopwatch Beta","protocol":17,"map":"pl_barnblitz","folder":"tf","game":"Team Fortress","app_id":440,"player_count":0,"max_players":24,"Bots":0,"server_type":"Dedicated","server_os":"Linux","password":true,"vac":true,"version":"7757534","steam_id":85568392924515217,"keywords":["nocrits","nodmgspread","payload","uncletopia"],"game_id":440,"stv_port":27036,"stv_name":"Uncletopia | Seattle | 3 | Stopwatch Beta | STV","players":null},{"server_id":17,"name":"Uncletopia | San Francisco | 1 | All Maps","name_short":"sfo-1","host":"sfo-1.us.uncletopia.com","port":27015,"enabled":true,"region":"us-west","cc":"us","latitude":37.77397,"longitude":-122.4313,"reserved":0,"last_update":"0001-01-01T00:00:00Z","name_a2s":"Uncletopia | San Francisco | 1 | All Maps","protocol":17,"map":"cp_process_final","folder":"tf","game":"Team Fortress","app_id":440,"player_count":0,"max_players":24,"Bots":0,"server_type":"Dedicated","server_os":"Linux","password":true,"vac":true,"version":"7757534","steam_id":85568392924469999,"keywords":["cp","nocrits","nodmgspread","uncletopia"],"game_id":440,"stv_port":27016,"stv_name":"Uncletopia | San Francisco | 1 | All Maps | STV","players":null},{"server_id":18,"name":"Uncletopia | San Francisco | 2 | All Maps","name_short":"sfo-2","host":"sfo-1.us.uncletopia.com","port":27025,"enabled":true,"region":"us-west","cc":"us","latitude":37.77397,"longitude":-122.4313,"reserved":0,"last_update":"0001-01-01T00:00:00Z","name_a2s":"Uncletopia | San Francisco | 2 | All Maps","protocol":17,"map":"cp_sunshine","folder":"tf","game":"Team Fortress","app_id":440,"player_count":0,"max_players":24,"Bots":0,"server_type":"Dedicated","server_os":"Linux","password":true,"vac":true,"version":"7757534","steam_id":85568392924470000,"keywords":["cp","nocrits","nodmgspread","uncletopia"],"game_id":440,"stv_port":27026,"stv_name":"Uncletopia | San Francisco | 2 | All Maps | STV","players":null},{"server_id":19,"name":"Uncletopia | San Francisco | 3 | Stopwatch Beta","name_short":"sfo-3","host":"sfo-1.us.uncletopia.com","port":27035,"enabled":true,"region":"us-west","cc":"us","latitude":37.77397,"longitude":-122.4313,"reserved":0,"last_update":"0001-01-01T00:00:00Z","name_a2s":"Uncletopia | San Francisco | 3 | Stopwatch Beta","protocol":17,"map":"pl_borneo","folder":"tf","game":"Team Fortress","app_id":440,"player_count":0,"max_players":24,"Bots":0,"server_type":"Dedicated","server_os":"Linux","password":true,"vac":true,"version":"7757534","steam_id":85568392924742824,"keywords":["nocrits","nodmgspread","payload","uncletopia"],"game_id":440,"stv_port":27036,"stv_name":"Uncletopia | San Francisco | 3 | Stopwatch Beta | STV","players":null},{"server_id":20,"name":"Uncletopia | San Francisco | 4 | Community","name_short":"sfo-4","host":"sfo-1.us.uncletopia.com","port":27045,"enabled":true,"region":"us-west","cc":"us","latitude":37.77397,"longitude":-122.4313,"reserved":0,"last_update":"0001-01-01T00:00:00Z","name_a2s":"Uncletopia | San Francisco | 4 | Community","protocol":17,"map":"koth_highpass","folder":"tf","game":"Team Fortress","app_id":440,"player_count":0,"max_players":24,"Bots":0,"server_type":"Dedicated","server_os":"Linux","password":true,"vac":true,"version":"7757534","steam_id":85568392924742826,"keywords":["cp","nocrits","nodmgspread","uncletopia"],"game_id":440,"stv_port":27046,"stv_name":"Uncletopia | San Francisco | 4 | Community | STV","players":null},{"server_id":141,"name":"Uncletopia | Sydney | 1 | All Maps","name_short":"syd-1","host":"syd-1.au.uncletopia.com","port":27015,"enabled":true,"region":"au","cc":"au","latitude":-33.865143,"longitude":151.2099,"reserved":0,"last_update":"0001-01-01T00:00:00Z","name_a2s":"Uncletopia | Sydney | 1 | All Maps","protocol":17,"map":"cp_snakewater_final1","folder":"tf","game":"Team Fortress","app_id":440,"player_count":0,"max_players":24,"Bots":0,"server_type":"Dedicated","server_os":"Linux","password":true,"vac":true,"version":"7757534","steam_id":85568392924470001,"keywords":["cp","nocrits","nodmgspread","uncletopia"],"game_id":440,"stv_port":27016,"stv_name":"Uncletopia | Sydney | 1 | All Maps | STV","players":null},{"server_id":123,"name":"Uncletopia | Sydney | 2 | All Maps","name_short":"syd-2","host":"syd-1.au.uncletopia.com","port":27025,"enabled":true,"region":"au","cc":"au","latitude":-33.865143,"longitude":151.2099,"reserved":0,"last_update":"0001-01-01T00:00:00Z","name_a2s":"Uncletopia | Sydney | 2 | All Maps","protocol":17,"map":"cp_altitude","folder":"tf","game":"Team Fortress","app_id":440,"player_count":0,"max_players":24,"Bots":0,"server_type":"Dedicated","server_os":"Linux","password":true,"vac":true,"version":"7757534","steam_id":85568392924470002,"keywords":["cp","nocrits","nodmgspread","uncletopia"],"game_id":440,"stv_port":27026,"stv_name":"Uncletopia | Sydney | 2 | All Maps | STV","players":null},{"server_id":395,"name":"Uncletopia | Sydney | 3 | All Maps","name_short":"syd-3","host":"syd-1.au.uncletopia.com","port":27035,"enabled":true,"region":"au","cc":"au","latitude":-33.865143,"longitude":151.2099,"reserved":0,"last_update":"0001-01-01T00:00:00Z","name_a2s":"Uncletopia | Sydney | 3 | All Maps","protocol":17,"map":"koth_lakeside_final","folder":"tf","game":"Team Fortress","app_id":440,"player_count":0,"max_players":24,"Bots":0,"server_type":"Dedicated","server_os":"Linux","password":true,"vac":true,"version":"7757534","steam_id":85568392925194467,"keywords":["cp","nocrits","nodmgspread","uncletopia"],"game_id":440,"stv_port":27036,"stv_name":"Uncletopia | Sydney | 3 | All Maps | STV","players":null},{"server_id":396,"name":"Uncletopia | Sydney | 4 | All Maps","name_short":"syd-4","host":"syd-1.au.uncletopia.com","port":27045,"enabled":true,"region":"au","cc":"au","latitude":-33.865143,"longitude":151.2099,"reserved":0,"last_update":"0001-01-01T00:00:00Z","name_a2s":"Uncletopia | Sydney | 4 | All Maps","protocol":17,"map":"koth_viaduct","folder":"tf","game":"Team Fortress","app_id":440,"player_count":0,"max_players":24,"Bots":0,"server_type":"Dedicated","server_os":"Linux","password":true,"vac":true,"version":"7757534","steam_id":85568392925397958,"keywords":["cp","nocrits","nodmgspread","uncletopia"],"game_id":440,"stv_port":27046,"stv_name":"Uncletopia | Sydney | 4 | All Maps | STV","players":null},{"server_id":58,"name":"Uncletopia | Sydney | 5 | Stopwatch Beta","name_short":"syd-5","host":"syd-1.au.uncletopia.com","port":27055,"enabled":true,"region":"au","cc":"au","latitude":-33.865143,"longitude":151.2099,"reserved":0,"last_update":"0001-01-01T00:00:00Z","name_a2s":"Uncletopia | Sydney | 5 | Stopwatch Beta","protocol":17,"map":"koth_highpass","folder":"tf","game":"Team Fortress","app_id":440,"player_count":0,"max_players":24,"Bots":0,"server_type":"Dedicated","server_os":"Linux","password":true,"vac":true,"version":"7757534","steam_id":85568392925397959,"keywords":["cp","nocrits","nodmgspread","uncletopia"],"game_id":440,"stv_port":27056,"stv_name":"Uncletopia | Sydney | 5 | Stopwatch Beta | STV","players":null},{"server_id":59,"name":"Uncletopia | Sydney | 6 | Community","name_short":"syd-6","host":"syd-1.au.uncletopia.com","port":27065,"enabled":true,"region":"au","cc":"au","latitude":-33.865143,"longitude":151.2099,"reserved":0,"last_update":"0001-01-01T00:00:00Z","name_a2s":"Uncletopia | Sydney | 6 | Community","protocol":17,"map":"workshop/cp_villa_b19.ugc2113052569","folder":"tf","game":"Team Fortress","app_id":440,"player_count":0,"max_players":24,"Bots":0,"server_type":"Dedicated","server_os":"Linux","password":true,"vac":true,"version":"7757534","steam_id":85568392925397960,"keywords":["cp","nocrits","nodmgspread","uncletopia"],"game_id":440,"stv_port":27066,"stv_name":"Uncletopia | Sydney | 6 | Community | STV","players":null},{"server_id":49,"name":"Uncletopia | Warsaw | 1 | All Maps","name_short":"waw-1","host":"waw-1.pl.uncletopia.com","port":27015,"enabled":true,"region":"eu","cc":"pl","latitude":52.2297,"longitude":21.017532,"reserved":0,"last_update":"0001-01-01T00:00:00Z","name_a2s":"","protocol":0,"map":"","folder":"","game":"","app_id":0,"player_count":0,"max_players":0,"Bots":0,"server_type":"","server_os":"","password":false,"vac":false,"version":"","steam_id":0,"keywords":null,"game_id":0,"stv_port":0,"stv_name":"","players":null},{"server_id":50,"name":"Uncletopia | Warsaw | 2 | All Maps","name_short":"waw-2","host":"waw-1.pl.uncletopia.com","port":27025,"enabled":true,"region":"eu","cc":"pl","latitude":52.2297,"longitude":21.017532,"reserved":0,"last_update":"0001-01-01T00:00:00Z","name_a2s":"Uncletopia | Warsaw | 2 | All Maps","protocol":17,"map":"cp_dustbowl","folder":"tf","game":"Team Fortress","app_id":440,"player_count":15,"max_players":24,"Bots":0,"server_type":"Dedicated","server_os":"Linux","password":true,"vac":true,"version":"7757534","steam_id":85568392925397851,"keywords":["cp","nocrits","nodmgspread","uncletopia"],"game_id":440,"stv_port":27026,"stv_name":"Uncletopia | Warsaw | 2 | All Maps | STV","players":[{"user_id":46,"name":"Guru","steam_id":76561198093853069,"connected_time":1068000000000,"state":"active","ping":64},{"user_id":6,"name":"0","steam_id":76561198267909207,"connected_time":5270000000000,"state":"active","ping":63},{"user_id":37,"name":"Breadcrab","steam_id":76561198015924039,"connected_time":1774000000000,"state":"active","ping":82},{"user_id":8,"name":"i heal gay people","steam_id":76561198032167311,"connected_time":4681000000000,"state":"active","ping":116},{"user_id":9,"name":"(can't chat)mafutbolero","steam_id":76561199233664005,"connected_time":4636000000000,"state":"active","ping":102},{"user_id":47,"name":"[waffles]","steam_id":76561198951206047,"connected_time":1026000000000,"state":"active","ping":125},{"user_id":12,"name":"Jonkster","steam_id":76561198329647787,"connected_time":3917000000000,"state":"active","ping":116},{"user_id":25,"name":"Travis Bickle","steam_id":76561198116072862,"connected_time":2439000000000,"state":"active","ping":75},{"user_id":58,"name":"Magirby","steam_id":76561198818777390,"connected_time":331000000000,"state":"active","ping":136},{"user_id":40,"name":"Elias","steam_id":76561198046500488,"connected_time":1446000000000,"state":"active","ping":71},{"user_id":59,"name":"Ossw","steam_id":76561198120079815,"connected_time":327000000000,"state":"active","ping":104},{"user_id":28,"name":"Rabbit","steam_id":76561198254566214,"connected_time":2412000000000,"state":"active","ping":125},{"user_id":35,"name":"69 ME 2NITE","steam_id":76561199124261801,"connected_time":2098000000000,"state":"active","ping":105},{"user_id":43,"name":"oknamer","steam_id":76561198127287649,"connected_time":1190000000000,"state":"active","ping":77},{"user_id":45,"name":"Caro-Kann","steam_id":76561198065506317,"connected_time":1157000000000,"state":"active","ping":67}]},{"server_id":51,"name":"Uncletopia | Warsaw | 3 | All Maps","name_short":"waw-3","host":"waw-1.pl.uncletopia.com","port":27035,"enabled":true,"region":"eu","cc":"pl","latitude":52.2297,"longitude":21.017532,"reserved":0,"last_update":"0001-01-01T00:00:00Z","name_a2s":"Uncletopia | Warsaw | 3 | All Maps","protocol":17,"map":"koth_highpass","folder":"tf","game":"Team Fortress","app_id":440,"player_count":0,"max_players":24,"Bots":0,"server_type":"Dedicated","server_os":"Linux","password":true,"vac":true,"version":"7757534","steam_id":85568392925397852,"keywords":["cp","nocrits","nodmgspread","uncletopia"],"game_id":440,"stv_port":27036,"stv_name":"Uncletopia | Warsaw | 3 | All Maps | STV","players":null},{"server_id":52,"name":"Uncletopia | Warsaw | 4 | All Maps","name_short":"waw-4","host":"waw-1.pl.uncletopia.com","port":27045,"enabled":true,"region":"eu","cc":"pl","latitude":52.2297,"longitude":21.017532,"reserved":0,"last_update":"0001-01-01T00:00:00Z","name_a2s":"Uncletopia | Warsaw | 4 | All Maps","protocol":17,"map":"pl_snowycoast","folder":"tf","game":"Team Fortress","app_id":440,"player_count":0,"max_players":24,"Bots":0,"server_type":"Dedicated","server_os":"Linux","password":true,"vac":true,"version":"7757534","steam_id":85568392925397853,"keywords":["nocrits","nodmgspread","payload","uncletopia"],"game_id":440,"stv_port":27046,"stv_name":"Uncletopia | Warsaw | 4 | All Maps | STV","players":null},{"server_id":53,"name":"Uncletopia | Warsaw | 5 | Stopwatch Beta","name_short":"waw-5","host":"waw-1.pl.uncletopia.com","port":27055,"enabled":true,"region":"eu","cc":"pl","latitude":52.2297,"longitude":21.017532,"reserved":0,"last_update":"0001-01-01T00:00:00Z","name_a2s":"Uncletopia | Warsaw | 5 | Stopwatch Beta","protocol":17,"map":"pl_barnblitz","folder":"tf","game":"Team Fortress","app_id":440,"player_count":0,"max_players":24,"Bots":0,"server_type":"Dedicated","server_os":"Linux","password":true,"vac":true,"version":"7757534","steam_id":85568392925397854,"keywords":["nocrits","nodmgspread","payload","uncletopia"],"game_id":440,"stv_port":27056,"stv_name":"Uncletopia | Warsaw | 5 | Stopwatch Beta | STV","players":null},{"server_id":54,"name":"Uncletopia | Warsaw | 6 | Community","name_short":"waw-6","host":"waw-1.pl.uncletopia.com","port":27065,"enabled":true,"region":"eu","cc":"pl","latitude":52.2297,"longitude":21.017532,"reserved":0,"last_update":"0001-01-01T00:00:00Z","name_a2s":"Uncletopia | Warsaw | 6 | Community","protocol":17,"map":"pl_swiftwater_final1","folder":"tf","game":"Team Fortress","app_id":440,"player_count":0,"max_players":24,"Bots":0,"server_type":"Dedicated","server_os":"Linux","password":true,"vac":true,"version":"7757534","steam_id":85568392925397856,"keywords":["nocrits","nodmgspread","payload","uncletopia"],"game_id":440,"stv_port":27066,"stv_name":"Uncletopia | Warsaw | 6 | Community | STV","players":null}]}