{"status":true,"message":"","result":[{"server_id":9,"name":"Uncletopia | Atlanta | 1 | All Maps","name_short":"atl-1","host":"atl-1.us.uncletopia.com","port":27015,"enabled":true,"region":"us-east","cc":"us","latitude":33.753746,"longitude":-84.38633,"reserved":0,"last_update":"0001-01-01T00:00:00Z","name_a2s":"Uncletopia | Atlanta | 1 | All Maps","protocol":17,"map":"pl_borneo","folder":"tf","game":"Team Fortress","app_id":440,"player_count":0,"max_players":24,"Bots":0,"server_type":"Dedicated","server_os":"Linux","password":true,"vac":true,"version":"7757534","steam_id":85568392924469982,"keywords":["nocrits","nodmgspread","payload","uncletopia"],"game_id":440,"stv_port":27016,"stv_name":"Uncletopia | Atlanta | 1 | All Maps | STV","players":null},{"server_id":400,"name":"Uncletopia | Atlanta | 3 | Community","name_short":"atl-3","host":"atl-1.us.uncletopia.com","port":27035,"enabled":true,"region":"us-east","cc":"us","latitude":33.753746,"longitude":-84.38633,"reserved":0,"last_update":"0001-01-01T00:00:00Z","name_a2s":"Uncletopia | Atlanta | 3 | Community","protocol":17,"map":"pl_swiftwater_final1","folder":"tf","game":"Team Fortress","app_id":440,"player_count":0,"max_players":32,"Bots":0,"server_type":"Dedicated","server_os":"Linux","password":true,"vac":true,"version":"7757534","steam_id":85568392924515187,"keywords":["increased_maxplayers","nocrits","nodmgspread","payload","uncletopia"],"game_id":440,"stv_port":27036,"stv_name":"Uncletopia | Atlanta | 3 | Community | STV","players":null},{"server_id":401,"name":"Uncletopia | Atlanta | 4 | No Payload","name_short":"atl-4","host":"atl-1.us.uncletopia.com","port":27045,"enabled":true,"region":"us-east","cc":"us","latitude":33.753746,"longitude":-84.38633,"reserved":0,"last_update":"0001-01-01T00:00:00Z","name_a2s":"","protocol":0,"map":"","folder":"","game":"","app_id":0,"player_count":0,"max_players":0,"Bots":0,"server_type":"","server_os":"","password":false,"vac":false,"version":"","steam_id":0,"keywords":null,"game_id":0,"stv_port":0,"stv_name":"","players":null},{"server_id":2,"name":"Uncletopia | Chicago | 1 | All Maps","name_short":"chi-1","host":"chi-1.us.uncletopia.com","port":27015,"enabled":true,"region":"us-central","cc":"us","latitude":41.881832,"longitude":-87.62318,"reserved":0,"last_update":"0001-01-01T00:00:00Z","name_a2s":"Uncletopia | Chicago | 1 | All Maps","protocol":17,"map":"koth_harvest_final","folder":"tf","game":"Team Fortress","app_id":440,"player_count":24,"max_players":24,"Bots":0,"server_type":"Dedicated","server_os":"Linux","password":true,"vac":true,"version":"7757534","steam_id":85568392924469984,"keywords":["cp","nocrits","nodmgspread","uncletopia"],"game_id":440,"stv_port":27016,"stv_name":"Uncletopia | Chicago | 1 | All Maps | STV","players":[{"user_id":158,"name":"[OC2TM] CF-TF2","steam_id":76561198145893044,"connected_time":543000000000,"state":"active","ping":72},{"user_id":165,"name":"Shymor","steam_id":76561198072202141,"connected_time":389000000000,"state":"active","ping":85},{"user_id":166,"name":"sufzu","steam_id":76561198112186325,"connected_time":366000000000,"state":"active","ping":52},{"user_id":168,"name":"SuperFresh","steam_id":76561198200723198,"connected_time":153000000000,"state":"active","ping":36},{"user_id":125,"name":"Jt","steam_id":76561198049853548,"connected_time":3718000000000,"state":"active","ping":68},{"user_id":159,"name":"Spacey","steam_id":76561198127335850,"connected_time":538000000000,"state":"active","ping":72},{"user_id":134,"name":"Sarah","steam_id":76561199013702818,"connected_time":2759000000000,"state":"active","ping":98},{"user_id":117,"name":"[slug]","steam_id":76561197989592178,"connected_time":3964000000000,"state":"active","ping":50},{"user_id":141,"name":"only pros can crouch jump","steam_id":76561198044641366,"connected_time":1689000000000,"state":"active","ping":73},{"user_id":154,"name":"Mister36","steam_id":76561198019132100,"connected_time":913000000000,"state":"active","ping":48},{"user_id":114,"name":"Ta5K","steam_id":76561198939558155,"connected_time":3987000000000,"state":"active","ping":44},{"user_id":136,"name":"Squid121","steam_id":76561198038832034,"connected_time":2745000000000,"state":"active","ping":105},{"user_id":160,"name":"aversa","steam_id":76561198840460101,"connected_time":511000000000,"state":"active","ping":72},{"user_id":115,"name":"Massive Conquistador","steam_id":76561197961138002,"connected_time":3979000000000,"state":"active","ping":79},{"user_id":155,"name":"finger","steam_id":76561198068558572,"connected_time":688000000000,"state":"active","ping":84},{"user_id":130,"name":"Padre Pat","steam_id":76561198392985381,"connected_time":3137000000000,"state":"active","ping":111},{"user_id":80,"name":"PaintMyMeow","steam_id":76561198056860387,"connected_time":7548000000000,"state":"active","ping":74},{"user_id":121,"name":"Unban Level Eater (She/They)","steam_id":76561198823616667,"connected_time":3862000000000,"state":"active","ping":83},{"user_id":139,"name":"hippo mode","steam_id":76561198073455521,"connected_time":1705000000000,"state":"active","ping":53},{"user_id":149,"name":"Jared In Target","steam_id":76561198372449718,"connected_time":1425000000000,"state":"active","ping":65},{"user_id":103,"name":"David.Smith.2009","steam_id":76561198309760791,"connected_time":5181000000000,"state":"active","ping":128},{"user_id":162,"name":"Fredrick","steam_id":76561197981419964,"connected_time":502000000000,"state":"active","ping":67},{"user_id":148,"name":"The Drunk Clown","steam_id":76561197986850426,"connected_time":1600000000000,"state":"active","ping":74},{"user_id":153,"name":"Veir≈´ Viseris","steam_id":76561197989857176,"connected_time":932000000000,"state":"active","ping":165}]},{"server_id":106,"name":"Uncletopia | Chicago | 2 | All Maps","name_short":"chi-2","host":"chi-1.us.uncletopia.com","port":27025,"enabled":true,"region":"us-central","cc":"us","latitude":41.881832,"longitude":-87.62318,"reserved":0,"last_update":"0001-01-01T00:00:00Z","name_a2s":"Uncletopia | Chicago | 2 | All Maps","protocol":17,"map":"pl_snowycoast","folder":"tf","game":"Team Fortress","app_id":440,"player_count":0,"max_players":24,"Bots":0,"server_type":"Dedicated","server_os":"Linux","password":true,"vac":true,"version":"7757534","steam_id":85568392924469985,"keywords":["nocrits","nodmgspread","payload","uncletopia"],"game_id":440,"stv_port":27026,"stv_name":"Uncletopia | Chicago | 2 | All Maps | STV","players":null},{"server_id":402,"name":"Uncletopia | Chicago | 3 | All Maps","name_short":"chi-3","host":"chi-1.us.uncletopia.com","port":27035,"enabled":true,"region":"us-central","cc":"us","latitude":41.881832,"longitude":-87.62318,"reserved":0,"last_update":"0001-01-01T00:00:00Z","name_a2s":"Uncletopia | Chicago | 3 | All Maps","protocol":17,"map":"koth_lakeside_final","folder":"tf","game":"Team Fortress","app_id":440,"player_count":0,"max_players":24,"Bots":0,"server_type":"Dedicated","server_os":"Linux","password":true,"vac":true,"version":"7757534","steam_id":85568392924515191,"keywords":["cp","nocrits","nodmgspread","uncletopia"],"game_id":440,"stv_port":27036,"stv_name":"Uncletopia | Chicago | 3 | All Maps | STV","players":null},{"server_id":403,"name":"Uncletopia | Chicago | 4 | All Maps","name_short":"chi-4","host":"chi-1.us.uncletopia.com","port":27045,"enabled":true,"region":"us-central","cc":"us","latitude":41.881832,"longitude":-87.62318,"reserved":0,"last_update":"0001-01-01T00:00:00Z","name_a2s":"Uncletopia | Chicago | 4 | All Maps","protocol":17,"map":"koth_lakeside_final","folder":"tf","game":"Team Fortress","app_id":440,"player_count":0,"max_players":24,"Bots":0,"server_type":"Dedicated","server_os":"Linux","password":true,"vac":true,"version":"7757534","steam_id":85568392924515193,"keywords":["cp","nocrits","nodmgspread","uncletopia"],"game_id":440,"stv_port":27046,"stv_name":"Uncletopia | Chicago | 4 | All Maps | STV","players":null},{"server_id":36,"name":"Uncletopia | Chicago | 5 | All Maps","name_short":"chi-5","host":"chi-2.us.uncletopia.com","port":27015,"enabled":true,"region":"us-central","cc":"us","latitude":41.881832,"longitude":-87.62318,"reserved":0,"last_update":"0001-01-01T00:00:00Z","name_a2s":"Uncletopia | Chicago | 5 | All Maps","protocol":17,"map":"koth_cascade","folder":"tf","game":"Team Fortress","app_id":440,"player_count":0,"max_players":24,"Bots":0,"server_type":"Dedicated","server_os":"Linux","password":true,"vac":true,"version":"7757534","steam_id":85568392924866362,"keywords":["cp","nocrits","nodmgspread","uncletopia"],"game_id":440,"stv_port":27016,"stv_name":"Uncletopia | Chicago | 5 | All Maps | STV","players":null},{"server_id":37,"name":"Uncletopia | Chicago | 6 | All Maps","name_short":"chi-6","host":"chi-2.us.uncletopia.com","port":27025,"enabled":true,"region":"us-central","cc":"us","latitude":41.881832,"longitude":-87.62318,"reserved":0,"last_update":"0001-01-01T00:00:00Z","name_a2s":"Uncletopia | Chicago | 6 | All Maps","protocol":17,"map":"koth_cascade","folder":"tf","game":"Team Fortress","app_id":440,"player_count":0,"max_players":24,"Bots":0,"server_type":"Dedicated","server_os":"Linux","password":true,"vac":true,"version":"7757534","steam_id":85568392924866363,"keywords":["cp","nocrits","nodmgspread","uncletopia"],"game_id":440,"stv_port":27026,"stv_name":"Uncletopia | Chicago | 6 | All Maps | STV","players":null},{"server_id":38,"name":"Uncletopia | Chicago | 7 | Stopwatch Beta","name_short":"chi-7","host":"chi-2.us.uncletopia.com","port":27035,"enabled":true,"region":"us-central","cc":"us","latitude":41.881832,"longitude":-87.62318,"reserved":0,"last_update":"0001-01-01T00:00:00Z","name_a2s":"Uncletopia | Chicago | 7 | Stopwatch Beta","protocol":17,"map":"pl_upward","folder":"tf","game":"Team Fortress","app_id":440,"player_count":0,"max_players":24,"Bots":0,"server_type":"Dedicated","server_os":"Linux","password":true,"vac":true,"version":"7757534","steam_id":85568392924866364,"keywords":["nocrits","nodmgspread","payload","uncletopia"],"game_id":440,"stv_port":27036,"stv_name":"Uncletopia | Chicago | 7 | Stopwatch Beta | STV","players":null},{"server_id":39,"name":"Uncletopia | Chicago | 8 | Community","name_short":"chi-8","host":"chi-2.us.uncletopia.com","port":27045,"enabled":true,"region":"us-central","cc":"us","latitude":41.881832,"longitude":-87.62318,"reserved":0,"last_update":"0001-01-01T00:00:00Z","name_a2s":"Uncletopia | Chicago | 8 | Community","protocol":17,"map":"pl_barnblitz","folder":"tf","game":"Team Fortress","app_id":440,"player_count":0,"max_players":24,"Bots":0,"server_type":"Dedicated","server_os":"Linux","password":true,"vac":true,"version":"7757534","steam_id":85568392924866365,"keywords":["nocrits","nodmgspread","payload","uncletopia"],"game_id":440,"stv_port":27046,"stv_name":"Uncletopia | Chicago | 8 | Community | STV","players":null},{"server_id":8,"name":"Uncletopia | Dallas | 1 | All Maps","name_short":"dal-1","host":"dal-1.us.uncletopia.com","port":27015,"enabled":true,"region":"us-central","cc":"us","latitude":32.779167,"longitude":-96.80889,"reserved":0,"last_update":"0001-01-01T00:00:00Z","name_a2s":"Uncletopia | Dallas | 1 | All Maps","protocol":17,"map":"koth_cascade","folder":"tf","game":"Team Fortress","app_id":440,"player_count":0,"max_players":24,"Bots":0,"server_type":"Dedicated","server_os":"Linux","password":true,"vac":true,"version":"7757534","steam_id":85568392924469986,"keywords":["cp","nocrits","nodmgspread","uncletopia"],"game_id":440,"stv_port":27016,"stv_name":"Uncletopia | Dallas | 1 | All Maps | STV","players":null},{"server_id":108,"name":"Uncletopia | Dallas | 2 | All Maps","name_short":"dal-2","host":"dal-1.us.uncletopia.com","port":27025,"enabled":true,"region":"us-central","cc":"us","latitude":32.779167,"longitude":-96.80889,"reserved":0,"last_update":"0001-01-01T00:00:00Z","name_a2s":"Uncletopia | Dallas | 2 | All Maps","protocol":17,"map":"pl_badwater","folder":"tf","game":"Team Fortress","app_id":440,"player_count":0,"max_players":24,"Bots":0,"server_type":"Dedicated","server_os":"Linux","password":true,"vac":true,"version":"7757534","steam_id":85568392924469988,"keywords":["nocrits","nodmgspread","payload","uncletopia"],"game_id":440,"stv_port":27026,"stv_name":"Uncletopia | Dallas | 2 | All Maps | STV","players":null},{"server_id":5,"name":"Uncletopia | Frankfurt | 1 | All Maps","name_short":"frk-1","host":"frk-1.de.uncletopia.com","port":27015,"enabled":true,"region":"eu","cc":"de","latitude":50.110924,"longitude":8.682127,"reserved":0,"last_update":"0001-01-01T00:00:00Z","name_a2s":"Uncletopia | Frankfurt | 1 | All Maps","protocol":17,"map":"pl_thundermountain","folder":"tf","game":"Team Fortress","app_id":440,"player_count":24,"max_players":24,"Bots":0,"server_type":"Dedicated","server_os":"Linux","password":true,"vac":true,"version":"7757534","steam_id":85568392924469989,"keywords":["nocrits","nodmgspread","payload","uncletopia"],"game_id":440,"stv_port":27016,"stv_name":"Uncletopia | Frankfurt | 1 | All Maps | STV","players":[{"user_id":171,"name":"citronous","steam_id":76561198093290934,"connected_time":467000000000,"state":"active","ping":56},{"user_id":157,"name":"rat performance","steam_id":76561198065854668,"connected_time":979000000000,"state":"active","ping":59},{"user_id":124,"name":"Healix","steam_id":76561198130270161,"connected_time":3384000000000,"state":"active","ping":52},{"user_id":174,"name":"Cuthbert","steam_id":76561198204649481,"connected_time":42000000000,"state":"active","ping":96},{"user_id":154,"name":"Gordon","steam_id":76561198303652059,"connected_time":1124000000000,"state":"active","ping":97},{"user_id":158,"name":"KnusprigeKloake","steam_id":76561198051422734,"connected_time":916000000000,"state":"active","ping":43},{"user_id":170,"name":"Penis Contortionist","steam_id":76561198073663784,"connected_time":503000000000,"state":"active","ping":52},{"user_id":118,"name":"Lukero","steam_id":76561198301594341,"connected_time":3731000000000,"state":"active","ping":70},{"user_id":127,"name":"galaxy","steam_id":76561198164819022,"connected_time":3282000000000,"state":"active","ping":71},{"user_id":161,"name":"Firevell","steam_id":76561198154813359,"connected_time":886000000000,"state":"active","ping":59},{"user_id":162,"name":"GMsU | Rebikas","steam_id":76561198077053764,"connected_time":884000000000,"state":"active","ping":45},{"user_id":123,"name":"Truegr","steam_id":76561198811912339,"connected_time":3476000000000,"state":"active","ping":59},{"user_id":163,"name":"GMsU | DaLuigi","steam_id":76561198054486188,"connected_time":880000000000,"state":"active","ping":46},{"user_id":104,"name":"I have aids","steam_id":76561198860347851,"connected_time":5341000000000,"state":"active","ping":133},{"user_id":169,"name":"Solymr ibn Wali Barad","steam_id":76561198044008976,"connected_time":615000000000,"state":"active","ping":74},{"user_id":150,"name":"Valoxi","steam_id":76561197995042938,"connected_time":1856000000000,"state":"active","ping":71},{"user_id":155,"name":"waffle toaster","steam_id":76561198799089628,"connected_time":1084000000000,"state":"active","ping":61},{"user_id":129,"name":"Mapavri","steam_id":76561198370196400,"connected_time":3248000000000,"state":"active","ping":76},{"user_id":140,"name":"sdgfasdgasdgas","steam_id":76561198079277466,"connected_time":2268000000000,"state":"active","ping":59},{"user_id":30,"name":"FUKAYU","steam_id":76561198380484033,"connected_time":11943000000000,"state":"active","ping":54},{"user_id":173,"name":"Bulyto","steam_id":76561198043205202,"connected_time":189000000000,"state":"active","ping":60},{"user_id":151,"name":"Aaye","steam_id":76561198032322151,"connected_time":1791000000000,"state":"active","ping":143},{"user_id":142,"name":"‚ô¶ Luka ‚ô¶","steam_id":76561198960100748,"connected_time":2200000000000,"state":"active","ping":75},{"user_id":167,"name":"Marmaduke","steam_id":76561198039788483,"connected_time":851000000000,"state":"active","ping":55}]},{"server_id":110,"name":"Uncletopia | Frankfurt | 2 | All Maps","name_short":"frk-2","host":"frk-1.de.uncletopia.com","port":27025,"enabled":true,"region":"eu","cc":"de","latitude":50.110924,"longitude":8.682127,"reserved":0,"last_update":"0001-01-01T00:00:00Z","name_a2s":"Uncletopia | Frankfurt | 2 | All Maps","protocol":17,"map":"pl_pier","folder":"tf","game":"Team Fortress","app_id":440,"player_count":24,"max_players":24,"Bots":0,"server_type":"Dedicated","server_os":"Linux","password":true,"vac":true,"version":"7757534","steam_id":85568392924469990,"keywords":["nocrits","nodmgspread","payload","uncletopia"],"game_id":440,"stv_port":27026,"stv_name":"Uncletopia | Frankfurt | 2 | All Maps | STV","players":[{"user_id":209,"name":"Mr.Aromatico","steam_id":76561198157982182,"connected_time":4412000000000,"state":"active","ping":54},{"user_id":240,"name":"MrMikopi","steam_id":76561198033644165,"connected_time":2217000000000,"state":"active","ping":86},{"user_id":211,"name":"CosminSL","steam_id":76561198055827684,"connected_time":4100000000000,"state":"active","ping":77},{"user_id":259,"name":"Akiron","steam_id":76561199267799044,"connected_time":970000000000,"state":"active","ping":90},{"user_id":246,"name":"cowboy","steam_id":76561198080361351,"connected_time":1705000000000,"state":"active","ping":55},{"user_id":272,"name":"inst @sexcoachrus","steam_id":76561197999921676,"connected_time":19000000000,"state":"active","ping":115},{"user_id":263,"name":"sunny happy love","steam_id":76561198105028151,"connected_time":823000000000,"state":"active","ping":46},{"user_id":258,"name":"Heimerdinger","steam_id":76561198008653022,"connected_time":980000000000,"state":"active","ping":61},{"user_id":235,"name":"goblin","steam_id":76561198151122921,"connected_time":2473000000000,"state":"active","ping":71},{"user_id":207,"name":"Vikud","steam_id":76561199110575856,"connected_time":4532000000000,"state":"active","ping":145},{"user_id":226,"name":"fl1p","steam_id":76561198148565659,"connected_time":3024000000000,"state":"active","ping":79},{"user_id":251,"name":"JohnnyRakieta","steam_id":76561198855789287,"connected_time":1595000000000,"state":"active","ping":69},{"user_id":270,"name":"Infantile Pillock","steam_id":76561198283851362,"connected_time":609000000000,"state":"active","ping":56},{"user_id":247,"name":"bobek","steam_id":76561198092312720,"connected_time":1683000000000,"state":"active","ping":53},{"user_id":253,"name":"big hoops","steam_id":76561198004703799,"connected_time":1386000000000,"state":"active","ping":46},{"user_id":185,"name":"\"Sniper_Airlines\"","steam_id":76561198169443647,"connected_time":5953000000000,"state":"active","ping":91},{"user_id":260,"name":"this mirror must be lying to me","steam_id":76561198104896547,"connected_time":967000000000,"state":"active","ping":73},{"user_id":249,"name":"Shibe","steam_id":76561198071312153,"connected_time":1658000000000,"state":"active","ping":65},{"user_id":206,"name":"Wario","steam_id":76561198356089255,"connected_time":4617000000000,"state":"active","ping":66},{"user_id":221,"name":"beurgeur","steam_id":76561198872426314,"connected_time":3462000000000,"state":"active","ping":48},{"user_id":269,"name":"he is black","steam_id":76561199433578516,"connected_time":659000000000,"state":"active","ping":77},{"user_id":203,"name":"dob:cob","steam_id":76561198253323044,"connected_time":5056000000000,"state":"active","ping":72},{"user_id":262,"name":"caucasian male","steam_id":76561198062107879,"connected_time":926000000000,"state":"active","ping":77},{"user_id":267,"name":"Dark_Prelate","steam_id":76561199065671442,"connected_time":755000000000,"state":"active","ping":57}]},{"server_id":308,"name":"Uncletopia | Frankfurt | 3 | All Maps","name_short":"frk-3","host":"frk-1.de.uncletopia.com","port":27035,"enabled":true,"region":"eu","cc":"de","latitude":50.110924,"longitude":8.682127,"reserved":0,"last_update":"0001-01-01T00:00:00Z","name_a2s":"Uncletopia | Frankfurt | 3 | All Maps","protocol":17,"map":"pl_swiftwater_final1","folder":"tf","game":"Team Fortress","app_id":440,"player_count":24,"max_players":24,"Bots":0,"server_type":"Dedicated","server_os":"Linux","password":true,"vac":true,"version":"7757534","steam_id":85568392924504274,"keywords":["nocrits","nodmgspread","payload","uncletopia"],"game_id":440,"stv_port":27036,"stv_name":"Uncletopia | Frankfurt | 3 | All Maps | STV","players":[{"user_id":341,"name":"Kaishakunin","steam_id":76561198028123874,"connected_time":129000000000,"state":"active","ping":85},{"user_id":343,"name":"Gryoss","steam_id":76561197999837111,"connected_time":83000000000,"state":"active","ping":93},{"user_id":315,"name":"Mr.Fosty","steam_id":76561198045212783,"connected_time":2036000000000,"state":"active","ping":74},{"user_id":345,"name":"my head + the wall = \u003c3","steam_id":76561198058012525,"connected_time":45000000000,"state":"active","ping":70},{"user_id":342,"name":"Repays","steam_id":76561198082993000,"connected_time":104000000000,"state":"active","ping":48},{"user_id":299,"name":"soganlƒ± makarna","steam_id":76561198985752490,"connected_time":3205000000000,"state":"active","ping":90},{"user_id":322,"name":"DaVinchi","steam_id":76561198035464165,"connected_time":1830000000000,"state":"active","ping":67},{"user_id":314,"name":"GuyWithoutAPie","steam_id":76561198054512149,"connected_time":2053000000000,"state":"active","ping":57},{"user_id":333,"name":"dominus.","steam_id":76561199065917088,"connected_time":900000000000,"state":"active","ping":61},{"user_id":318,"name":"Choruptian","steam_id":76561198017686366,"connected_time":1967000000000,"state":"active","ping":49},{"user_id":344,"name":"desnot","steam_id":76561198862581894,"connected_time":82000000000,"state":"active","ping":68},{"user_id":275,"name":"AnonTron","steam_id":76561199031895493,"connected_time":5828000000000,"state":"active","ping":182},{"user_id":339,"name":"Ghost11","steam_id":76561198068892992,"connected_time":300000000000,"state":"active","ping":107},{"user_id":334,"name":"Jon (alt)","steam_id":76561199380849468,"connected_time":849000000000,"state":"active","ping":62},{"user_id":337,"name":"Scuutte","steam_id":76561198105496293,"connected_time":796000000000,"state":"active","ping":75},{"user_id":310,"name":"Allereinan","steam_id":76561198342239906,"connected_time":2745000000000,"state":"active","ping":103},{"user_id":313,"name":"Insain Bolt!","steam_id":76561198025687726,"connected_time":2484000000000,"state":"active","ping":70},{"user_id":311,"name":"–ê–Ω–¥—Ä–µ–π","steam_id":76561199004027817,"connected_time":2735000000000,"state":"active","ping":112},{"user_id":328,"name":"FlameTheGame","steam_id":76561198841108519,"connected_time":1440000000000,"state":"active","ping":86},{"user_id":336,"name":"Flopphalla","steam_id":76561198160705564,"connected_time":812000000000,"state":"active","ping":66},{"user_id":329,"name":"‚òÖpoyo‚òÖ","steam_id":76561198150078959,"connected_time":1284000000000,"state":"active","ping":62},{"user_id":346,"name":"Silva_mlon","steam_id":76561199310242047,"connected_time":5000000000,"state":"spawning","ping":60},{"user_id":326,"name":"Snipereon","steam_id":76561198436817109,"connected_time":1726000000000,"state":"active","ping":65},{"user_id":340,"name":"Purple","steam_id":76561199032365015,"connected_time":271000000000,"state":"active","ping":92}]},{"server_id":309,"name":"Uncletopia | Frankfurt | 4 | All Maps","name_short":"frk-4","host":"frk-1.de.uncletopia.com","port":27045,"enabled":true,"region":"eu","cc":"de","latitude":50.110924,"longitude":8.682127,"reserved":0,"last_update":"0001-01-01T00:00:00Z","name_a2s":"Uncletopia | Frankfurt | 4 | All Maps","protocol":17,"map":"koth_viaduct","folder":"tf","game":"Team Fortress","app_id":440,"player_count":24,"max_players":24,"Bots":0,"server_type":"Dedicated","server_os":"Linux","password":true,"vac":true,"version":"7757534","steam_id":85568392924504275,"keywords":["cp","nocrits","nodmgspread","uncletopia"],"game_id":440,"stv_port":27046,"stv_name":"Uncletopia | Frankfurt | 4 | All Maps | STV","players":[{"user_id":82,"name":"Cookie_","steam_id":76561198091732557,"connected_time":3484000000000,"state":"active","ping":67},{"user_id":106,"name":"üóªüé¥Hadrian Maloneüé¥üóª","steam_id":76561198036151103,"connected_time":1307000000000,"state":"active","ping":62},{"user_id":100,"name":"Rat, the ungodly rat #SaveTF2","steam_id":76561199126577423,"connected_time":1827000000000,"state":"active","ping":56},{"user_id":101,"name":"Ice Tea","steam_id":76561199180744278,"connected_time":1580000000000,"state":"active","ping":91},{"user_id":62,"name":"doopsuiker","steam_id":76561198025916703,"connected_time":5550000000000,"state":"active","ping":73},{"user_id":85,"name":"Mugelzz","steam_id":76561198048528709,"connected_time":2928000000000,"state":"active","ping":111},{"user_id":11,"name":"zazuza","steam_id":76561198049820905,"connected_time":8970000000000,"state":"active","ping":61},{"user_id":110,"name":"Fpaoullis","steam_id":76561198897866131,"connected_time":1220000000000,"state":"active","ping":91},{"user_id":104,"name":"( Õ° Õ°¬∞ Õú  ñ Õ° Õ°¬∞) \\ ‚òû","steam_id":76561198084597975,"connected_time":1357000000000,"state":"active","ping":60},{"user_id":47,"name":"LordTrap.exe","steam_id":76561198318089716,"connected_time":6420000000000,"state":"active","ping":49},{"user_id":117,"name":"Bottom of the barrel terrorist","steam_id":76561198929386604,"connected_time":151000000000,"state":"active","ping":92},{"user_id":102,"name":"rmz.ssj","steam_id":76561198329613930,"connected_time":1531000000000,"state":"active","ping":61},{"user_id":105,"name":"·óúÀ∞·óú","steam_id":76561198148074472,"connected_time":1351000000000,"state":"active","ping":43},{"user_id":48,"name":"harizzment","steam_id":76561198890409949,"connected_time":6387000000000,"state":"active","ping":88},{"user_id":113,"name":"anairat","steam_id":76561198863788240,"connected_time":1061000000000,"state":"active","ping":81},{"user_id":44,"name":"EGirl | Klarra","steam_id":76561198077745407,"connected_time":7112000000000,"state":"active","ping":57},{"user_id":98,"name":"BilaL","steam_id":76561199043740497,"connected_time":2122000000000,"state":"active","ping":68},{"user_id":107,"name":"Lucky B.üèÜ","steam_id":76561198077571162,"connected_time":1296000000000,"state":"active","ping":60},{"user_id":109,"name":"Salih","steam_id":76561198287934839,"connected_time":1269000000000,"state":"active","ping":51},{"user_id":114,"name":"Toaster1337","steam_id":76561198103706881,"connected_time":826000000000,"state":"active","ping":64},{"user_id":112,"name":"Garry_G","steam_id":76561198362834902,"connected_time":1189000000000,"state":"active","ping":75},{"user_id":93,"name":"lexapro dellirium","steam_id":76561199221733094,"connected_time":2478000000000,"state":"active","ping":72},{"user_id":118,"name":"Duke Fishlord","steam_id":76561198079928327,"connected_time":76000000000,"state":"active","ping":64},{"user_id":45,"name":"robsan","steam_id":76561198137375391,"connected_time":7112000000000,"state":"active","ping":75}]},{"server_id":310,"name":"Uncletopia | Frankfurt | 5 | All Maps","name_short":"frk-5","host":"frk-1.de.uncletopia.com","port":27055,"enabled":true,"region":"eu","cc":"de","latitude":50.110924,"longitude":8.682127,"reserved":0,"last_update":"0001-01-01T00:00:00Z","name_a2s":"Uncletopia | Frankfurt | 5 | All Maps","protocol":17,"map":"pl_frontier_final","folder":"tf","game":"Team Fortress","app_id":440,"player_count":0,"max_players":24,"Bots":0,"server_type":"Dedicated","server_os":"Linux","password":true,"vac":true,"version":"7757534","steam_id":85568392924504277,"keywords":["nocrits","nodmgspread","payload","uncletopia"],"game_id":440,"stv_port":27056,"stv_name":"Uncletopia | Frankfurt | 5 | All Maps | STV","players":null},{"server_id":311,"name":"Uncletopia | Frankfurt | 6 | All Maps","name_short":"frk-6","host":"frk-1.de.uncletopia.com","port":27065,"enabled":true,"region":"eu","cc":"de","latitude":50.110924,"longitude":8.682127,"reserved":0,"last_update":"0001-01-01T00:00:00Z","name_a2s":"Uncletopia | Frankfurt | 6 | All Maps","protocol":17,"map":"koth_highpass","folder":"tf","game":"Team Fortress","app_id":440,"player_count":0,"max_players":24,"Bots":0,"server_type":"Dedicated","server_os":"Linux","password":true,"vac":true,"version":"7757534","steam_id":85568392924504278,"keywords":["cp","nocrits","nodmgspread","uncletopia"],"game_id":440,"stv_port":27066,"stv_name":"Uncletopia | Frankfurt | 6 | All Maps | STV","players":null},{"server_id":23,"name":"Uncletopia | Frankfurt | 7 | Stopwatch Beta","name_short":"frk-7","host":"frk-1.de.uncletopia.com","port":27075,"enabled":true,"region":"eu","cc":"de","latitude":50.110924,"longitude":8.682127,"reserved":0,"last_update":"0001-01-01T00:00:00Z","name_a2s":"Uncletopia | Frankfurt | 7 | Stopwatch Beta","protocol":17,"map":"pl_frontier_final","folder":"tf","game":"Team Fortress","app_id":440,"player_count":0,"max_players":24,"Bots":0,"server_type":"Dedicated","server_os":"Linux","password":true,"vac":true,"version":"7757534","steam_id":85568392924742827,"keywords":["nocrits","nodmgspread","payload","uncletopia"],"game_id":440,"stv_port":27076,"stv_name":"Uncletopia | Frankfurt | 7 | Stopwatch Beta | STV","players":null},{"server_id":24,"name":"Uncletopia | Frankfurt | 8 | Community","name_short":"frk-8","host":"frk-1.de.uncletopia.com","port":27085,"enabled":true,"region":"eu","cc":"de","latitude":50.110924,"longitude":8.682127,"reserved":0,"last_update":"0001-01-01T00:00:00Z","name_a2s":"Uncletopia | Frankfurt | 8 | Community","protocol":17,"map":"workshop/cp_overgrown_rc7b.ugc503939302","folder":"tf","game":"Team Fortress","app_id":440,"player_count":0,"max_players":24,"Bots":0,"server_type":"Dedicated","server_os":"Linux","password":true,"vac":true,"version":"7757534","steam_id":85568392924742828,"keywords":["cp","nocrits","nodmgspread","uncletopia"],"game_id":440,"stv_port":27086,"stv_name":"Uncletopia | Frankfurt | 8 | Community | STV","players":null},{"server_id":202,"name":"Uncletopia | Hong Kong | 1 | All Maps","name_short":"hgk-1","host":"hgk-1.hk.uncletopia.com","port":27015,"enabled":true,"region":"asia","cc":"hk","latitude":22.302711,"longitude":114.177216,"reserved":0,"last_update":"0001-01-01T00:00:00Z","name_a2s":"Uncletopia | Hong Kong | 1 | All Maps","protocol":17,"map":"pl_badwater","folder":"tf","game":"Team Fortress","app_id":440,"player_count":23,"max_players":24,"Bots":0,"server_type":"Dedicated","server_os":"Linux","password":true,"vac":true,"version":"7757534","steam_id":85568392924494504,"keywords":["nocrits","nodmgspread","payload","uncletopia"],"game_id":440,"stv_port":27016,"stv_name":"Uncletopia | Hong Kong | 1 | All Maps | STV","players":[{"user_id":441,"name":"Ferrum","steam_id":76561198171508829,"connected_time":103000000000,"state":"active","ping":109},{"user_id":418,"name":"Turbo.RF4","steam_id":76561199061012484,"connected_time":1283000000000,"state":"active","ping":71},{"user_id":442,"name":"teddyswk","steam_id":76561198404939571,"connected_time":87000000000,"state":"active","ping":284},{"user_id":409,"name":"Michael Scott","steam_id":76561198023082794,"connected_time":1933000000000,"state":"active","ping":52},{"user_id":407,"name":":)","steam_id":76561198437941450,"connected_time":2146000000000,"state":"active","ping":84},{"user_id":423,"name":"spinach (new mouse)","steam_id":76561198042539541,"connected_time":928000000000,"state":"active","ping":74},{"user_id":411,"name":"8091573212","steam_id":76561198968776439,"connected_time":1507000000000,"state":"active","ping":80},{"user_id":440,"name":"Cock And Balls Torture Enjoyer ","steam_id":76561199058105528,"connected_time":172000000000,"state":"active","ping":120},{"user_id":361,"name":"uptriste","steam_id":76561198158666692,"connected_time":6024000000000,"state":"active","ping":31},{"user_id":404,"name":"Pluem","steam_id":76561198864742734,"connected_time":2882000000000,"state":"active","ping":97},{"user_id":318,"name":"ÊØç„ÅÆËÇâÂõ£Â≠ê@hao123.com","steam_id":76561198069561896,"connected_time":10763000000000,"state":"active","ping":42},{"user_id":373,"name":"434476","steam_id":76561199146847474,"connected_time":5453000000000,"state":"active","ping":47},{"user_id":402,"name":"AmaiToxic","steam_id":76561199122491157,"connected_time":2905000000000,"state":"active","ping":81},{"user_id":406,"name":"sloth of the fragment clan","steam_id":76561198214192048,"connected_time":2316000000000,"state":"active","ping":91},{"user_id":444,"name":"Darknight","steam_id":76561199090139287,"connected_time":13000000000,"state":"spawning","ping":76},{"user_id":389,"name":"silverhouse7","steam_id":76561198349634906,"connected_time":4451000000000,"state":"active","ping":90},{"user_id":445,"name":"Owmyn","steam_id":76561199239651098,"connected_time":12000000000,"state":"spawning","ping":130},{"user_id":413,"name":"let me in","steam_id":76561198024666371,"connected_time":1314000000000,"state":"active","ping":88},{"user_id":398,"name":"Ïø†ÌÇ§","steam_id":76561197997220367,"connected_time":3557000000000,"state":"active","ping":47},{"user_id":412,"name":"Bepo","steam_id":76561198136685157,"connected_time":1327000000000,"state":"active","ping":55},{"user_id":422,"name":"Just the crust","steam_id":76561198118872550,"connected_time":1198000000000,"state":"active","ping":116},{"user_id":417,"name":"albert rodutunga","steam_id":76561198268752908,"connected_time":1302000000000,"state":"active","ping":90},{"user_id":405,"name":"Bertengkar","steam_id":76561198213031155,"connected_time":2877000000000,"state":"active","ping":95}]},{"server_id":1,"name":"Uncletopia | Los Angeles | 1 | All Maps","name_short":"lax-1","host":"lax-1.us.uncletopia.com","port":27015,"enabled":true,"region":"us-west","cc":"us","latitude":33.94279,"longitude":-118.41004,"reserved":0,"last_update":"0001-01-01T00:00:00Z","name_a2s":"Uncletopia | Los Angeles | 1 | All Maps","protocol":17,"map":"pl_borneo","folder":"tf","game":"Team Fortress","app_id":440,"player_count":0,"max_players":24,"Bots":0,"server_type":"Dedicated","server_os":"Linux","password":true,"vac":true,"version":"7757534","steam_id":85568392924469991,"keywords":["nocrits","nodmgspread","payload","uncletopia"],"game_id":440,"stv_port":27016,"stv_name":"Uncletopia | Los Angeles | 1 | All Maps | STV","players":null},{"server_id":112,"name":"Uncletopia | Los Angeles | 2 | All Maps","name_short":"lax-2","host":"lax-1.us.uncletopia.com","port":27025,"enabled":true,"region":"us-west","cc":"us","latitude":33.94279,"longitude":-118.41004,"reserved":0,"last_update":"0001-01-01T00:00:00Z","name_a2s":"Uncletopia | Los Angeles | 2 | All Maps","protocol":17,"map":"koth_cascade","folder":"tf","game":"Team Fortress","app_id":440,"player_count":0,"max_players":24,"Bots":0,"server_type":"Dedicated","server_os":"Linux","password":true,"vac":true,"version":"7757534","steam_id":85568392924469992,"keywords":["cp","nocrits","nodmgspread","uncletopia"],"game_id":440,"stv_port":27026,"stv_name":"Uncletopia | Los Angeles | 2 | All Maps | STV","players":null},{"server_id":324,"name":"Uncletopia | Los Angeles | 3 | All Maps","name_short":"lax-3","host":"lax-1.us.uncletopia.com","port":27035,"enabled":true,"region":"us-west","cc":"us","latitude":33.94279,"longitude":-118.41004,"reserved":0,"last_update":"0001-01-01T00:00:00Z","name_a2s":"Uncletopia | Los Angeles | 3 | All Maps","protocol":17,"map":"pl_pier","folder":"tf","game":"Team Fortress","app_id":440,"player_count":3,"max_players":24,"Bots":0,"server_type":"Dedicated","server_os":"Linux","password":true,"vac":true,"version":"7757534","steam_id":85568392924510198,"keywords":["nocrits","nodmgspread","payload","uncletopia"],"game_id":440,"stv_port":27036,"stv_name":"Uncletopia | Los Angeles | 3 | All Maps | STV","players":[{"user_id":4,"name":"cheeto dealer","steam_id":76561199243489976,"connected_time":475000000000,"state":"active","ping":95},{"user_id":5,"name":"CrackedSanity","steam_id":76561198279841251,"connected_time":467000000000,"state":"active","ping":44},{"user_id":6,"name":"Whirblewind","steam_id":76561197964722449,"connected_time":263000000000,"state":"active","ping":117}]},{"server_id":25,"name":"Uncletopia | Los Angeles | 4 | Stopwatch Beta","name_short":"lax-4","host":"lax-1.us.uncletopia.com","port":27045,"enabled":true,"region":"us-west","cc":"us","latitude":33.94279,"longitude":-118.41004,"reserved":0,"last_update":"0001-01-01T00:00:00Z","name_a2s":"Uncletopia | Los Angeles | 4 | Stopwatch Beta","protocol":17,"map":"pl_frontier_final","folder":"tf","game":"Team Fortress","app_id":440,"player_count":0,"max_players":24,"Bots":0,"server_type":"Dedicated","server_os":"Linux","password":true,"vac":true,"version":"7757534","steam_id":85568392924510199,"keywords":["nocrits","nodmgspread","payload","uncletopia"],"game_id":440,"stv_port":27046,"stv_name":"Uncletopia | Los Angeles | 4 | Stopwatch Beta | STV","players":null},{"server_id":11,"name":"Uncletopia | London | 1 | All Maps","name_short":"lon-1","host":"lon-1.uk.uncletopia.com","port":27015,"enabled":true,"region":"eu","cc":"gb","latitude":51.509865,"longitude":-0.118092,"reserved":0,"last_update":"0001-01-01T00:00:00Z","name_a2s":"Uncletopia | London | 1 | All Maps","protocol":17,"map":"koth_cascade","folder":"tf","game":"Team Fortress","app_id":440,"player_count":24,"max_players":24,"Bots":0,"server_type":"Dedicated","server_os":"Linux","password":true,"vac":true,"version":"7757534","steam_id":85568392924367362,"keywords":["cp","nocrits","nodmgspread","uncletopia"],"game_id":440,"stv_port":27016,"stv_name":"Uncletopia | London | 1 | All Maps | STV","players":[{"user_id":23,"name":"guyinatophat51","steam_id":76561198180230694,"connected_time":717000000000,"state":"active","ping":127},{"user_id":11,"name":"Salty_shark","steam_id":76561198300798280,"connected_time":2250000000000,"state":"active","ping":86},{"user_id":49,"name":"average cpp programmer","steam_id":76561198259249173,"connected_time":363000000000,"state":"active","ping":60},{"user_id":13,"name":"Mowelic","steam_id":76561198873641222,"connected_time":1739000000000,"state":"active","ping":81},{"user_id":14,"name":"Guru","steam_id":76561198093853069,"connected_time":1736000000000,"state":"active","ping":60},{"user_id":17,"name":"ashsbhop","steam_id":76561199155075476,"connected_time":1102000000000,"state":"active","ping":93},{"user_id":43,"name":"Small Mouse","steam_id":76561198286085100,"connected_time":444000000000,"state":"active","ping":92},{"user_id":50,"name":"night.s","steam_id":76561198326287823,"connected_time":312000000000,"state":"active","ping":77},{"user_id":56,"name":"murderwow","steam_id":76561198024566944,"connected_time":228000000000,"state":"active","ping":108},{"user_id":28,"name":"Blupgo Beurbgunha√ºr","steam_id":76561198280566565,"connected_time":625000000000,"state":"active","ping":75},{"user_id":29,"name":"ArikMor","steam_id":76561199124472513,"connected_time":615000000000,"state":"active","ping":123},{"user_id":30,"name":"Avoonix","steam_id":76561198186954897,"connected_time":613000000000,"state":"active","ping":74},{"user_id":31,"name":"Speedyjoestar","steam_id":76561198907130963,"connected_time":577000000000,"state":"active","ping":88},{"user_id":63,"name":"multiflex","steam_id":76561198049639319,"connected_time":93000000000,"state":"active","ping":62},{"user_id":33,"name":"Zarden","steam_id":76561198080638451,"connected_time":564000000000,"state":"active","ping":48},{"user_id":34,"name":"donal rump","steam_id":76561198136239861,"connected_time":550000000000,"state":"active","ping":45},{"user_id":59,"name":"FunynMan","steam_id":76561198070387328,"connected_time":194000000000,"state":"active","ping":60},{"user_id":36,"name":"Flex","steam_id":76561197970482191,"connected_time":533000000000,"state":"active","ping":46},{"user_id":37,"name":"r0nja_ | tfdb.tf","steam_id":76561197963298322,"connected_time":528000000000,"state":"active","ping":75},{"user_id":38,"name":"barosans FR","steam_id":76561198038109099,"connected_time":523000000000,"state":"active","ping":48},{"user_id":39,"name":"Mayor Wank from Wanker Town","steam_id":76561197998253588,"connected_time":507000000000,"state":"active","ping":59},{"user_id":42,"name":"Spraxinator","steam_id":76561199083563607,"connected_time":449000000000,"state":"active","ping":191},{"user_id":41,"name":"do you want to try my air fryer","steam_id":76561198004847013,"connected_time":472000000000,"state":"active","ping":175},{"user_id":64,"name":"Flyingcomputer","steam_id":76561198042005826,"connected_time":47000000000,"state":"active","ping":133}]},{"server_id":114,"name":"Uncletopia | London | 2 | All Maps","name_short":"lon-2","host":"lon-1.uk.uncletopia.com","port":27025,"enabled":true,"region":"eu","cc":"gb","latitude":51.509865,"longitude":-0.118092,"reserved":0,"last_update":"0001-01-01T00:00:00Z","name_a2s":"Uncletopia | London | 2 | All Maps","protocol":17,"map":"cp_dustbowl","folder":"tf","game":"Team Fortress","app_id":440,"player_count":0,"max_players":24,"Bots":0,"server_type":"Dedicated","server_os":"Linux","password":true,"vac":true,"version":"7757534","steam_id":85568392924470941,"keywords":["cp","nocrits","nodmgspread","uncletopia"],"game_id":440,"stv_port":27026,"stv_name":"Uncletopia | London | 2 | All Maps | STV","players":null},{"server_id":320,"name":"Uncletopia | London | 3 | All Maps","name_short":"lon-3","host":"lon-1.uk.uncletopia.com","port":27035,"enabled":true,"region":"eu","cc":"gb","latitude":51.509865,"longitude":-0.118092,"reserved":0,"last_update":"0001-01-01T00:00:00Z","name_a2s":"Uncletopia | London | 3 | All Maps","protocol":17,"map":"pl_frontier_final","folder":"tf","game":"Team Fortress","app_id":440,"player_count":24,"max_players":24,"Bots":0,"server_type":"Dedicated","server_os":"Linux","password":true,"vac":true,"version":"7757534","steam_id":85568392924510192,"keywords":["nocrits","nodmgspread","payload","uncletopia"],"game_id":440,"stv_port":27036,"stv_name":"Uncletopia | London | 3 | All Maps | STV","players":[{"user_id":224,"name":"Flare","steam_id":76561198039098320,"connected_time":8581000000000,"state":"active","ping":58},{"user_id":315,"name":"Joel!","steam_id":76561198155422742,"connected_time":3024000000000,"state":"active","ping":60},{"user_id":350,"name":"Tank","steam_id":76561199059174576,"connected_time":587000000000,"state":"active","ping":183},{"user_id":343,"name":"socaramel","steam_id":76561197984480336,"connected_time":1123000000000,"state":"active","ping":94},{"user_id":340,"name":"TallestPerson","steam_id":76561198097923550,"connected_time":1215000000000,"state":"active","ping":60},{"user_id":345,"name":"B4R10N","steam_id":76561198047167954,"connected_time":975000000000,"state":"active","ping":44},{"user_id":338,"name":"ricky pee pee","steam_id":76561198152620745,"connected_time":1235000000000,"state":"active","ping":54},{"user_id":328,"name":"Professional facestab","steam_id":76561198258721056,"connected_time":2297000000000,"state":"active","ping":50},{"user_id":339,"name":"Ivan the Terrible","steam_id":76561198139595241,"connected_time":1227000000000,"state":"active","ping":82},{"user_id":344,"name":"Paul B√§umer","steam_id":76561198308302932,"connected_time":1040000000000,"state":"active","ping":104},{"user_id":356,"name":"StabbyKnife","steam_id":76561198094010004,"connected_time":4000000000,"state":"spawning","ping":74},{"user_id":349,"name":"blurst of times","steam_id":76561197972325640,"connected_time":599000000000,"state":"active","ping":49},{"user_id":353,"name":"nightmare","steam_id":76561198386928726,"connected_time":325000000000,"state":"active","ping":101},{"user_id":318,"name":"Jack","steam_id":76561198079575891,"connected_time":3010000000000,"state":"active","ping":45},{"user_id":290,"name":"Munibe","steam_id":76561198107967904,"connected_time":4732000000000,"state":"active","ping":56},{"user_id":334,"name":"gibb (official)","steam_id":76561198074097655,"connected_time":1466000000000,"state":"active","ping":33},{"user_id":319,"name":"RockMan","steam_id":76561199228684720,"connected_time":3010000000000,"state":"active","ping":146},{"user_id":347,"name":"Medieval Doktor","steam_id":76561198075373362,"connected_time":838000000000,"state":"active","ping":37},{"user_id":326,"name":"lunk alarm","steam_id":76561198271870824,"connected_time":2534000000000,"state":"active","ping":114},{"user_id":354,"name":"Krokinet","steam_id":76561198985877252,"connected_time":298000000000,"state":"active","ping":90},{"user_id":342,"name":"Croy","steam_id":76561197972552579,"connected_time":1143000000000,"state":"active","ping":44},{"user_id":337,"name":"Shadowmix","steam_id":76561197981176383,"connected_time":1287000000000,"state":"active","ping":60},{"user_id":305,"name":"SexyHotChocolate","steam_id":76561198164087698,"connected_time":4066000000000,"state":"active","ping":93},{"user_id":329,"name":"romaingallo","steam_id":76561198268112907,"connected_time":2227000000000,"state":"active","ping":65}]},{"server_id":321,"name":"Uncletopia | London | 4 | All Maps","name_short":"lon-4","host":"lon-1.uk.uncletopia.com","port":27045,"enabled":true,"region":"eu","cc":"gb","latitude":51.509865,"longitude":-0.118092,"reserved":0,"last_update":"0001-01-01T00:00:00Z","name_a2s":"Uncletopia | London | 4 | All Maps","protocol":17,"map":"pl_barnblitz","folder":"tf","game":"Team Fortress","app_id":440,"player_count":24,"max_players":24,"Bots":0,"server_type":"Dedicated","server_os":"Linux","password":true,"vac":true,"version":"7757534","steam_id":85568392924510193,"keywords":["nocrits","nodmgspread","payload","uncletopia"],"game_id":440,"stv_port":27046,"stv_name":"Uncletopia | London | 4 | All Maps | STV","players":[{"user_id":76,"name":"Freezer Fox YT","steam_id":76561198060542607,"connected_time":2188000000000,"state":"active","ping":172},{"user_id":95,"name":"FuntimeGoose","steam_id":76561198893252155,"connected_time":1068000000000,"state":"active","ping":58},{"user_id":79,"name":"I-I","steam_id":76561198267969436,"connected_time":2168000000000,"state":"active","ping":69},{"user_id":103,"name":"System","steam_id":76561199442503973,"connected_time":180000000000,"state":"active","ping":57},{"user_id":93,"name":"Racist -*issou*-","steam_id":76561198099433856,"connected_time":1165000000000,"state":"active","ping":73},{"user_id":90,"name":"Saken","steam_id":76561198049075295,"connected_time":1732000000000,"state":"active","ping":60},{"user_id":97,"name":"festry","steam_id":76561198873296090,"connected_time":905000000000,"state":"active","ping":75},{"user_id":63,"name":"Qwerty","steam_id":76561198023525894,"connected_time":2765000000000,"state":"active","ping":82},{"user_id":101,"name":"Zerfesh","steam_id":76561198117534358,"connected_time":190000000000,"state":"active","ping":97},{"user_id":107,"name":"tiia (cold hends)","steam_id":76561198046196005,"connected_time":91000000000,"state":"active","ping":59},{"user_id":108,"name":"Kapitan Polska","steam_id":76561197968069413,"connected_time":62000000000,"state":"active","ping":79},{"user_id":104,"name":"Krabs","steam_id":76561198161679477,"connected_time":171000000000,"state":"active","ping":44},{"user_id":92,"name":"lark","steam_id":76561198091724522,"connected_time":1264000000000,"state":"active","ping":59},{"user_id":100,"name":"Spieller","steam_id":76561198057197847,"connected_time":414000000000,"state":"active","ping":81},{"user_id":75,"name":"mat","steam_id":76561198824697295,"connected_time":2198000000000,"state":"active","ping":82},{"user_id":105,"name":"LOBZIK","steam_id":76561198114830120,"connected_time":163000000000,"state":"active","ping":75},{"user_id":106,"name":"eidis","steam_id":76561198314954479,"connected_time":160000000000,"state":"active","ping":111},{"user_id":80,"name":"grape","steam_id":76561198048836593,"connected_time":2150000000000,"state":"active","ping":76},{"user_id":102,"name":"erobrine2","steam_id":76561198173218318,"connected_time":187000000000,"state":"active","ping":47},{"user_id":94,"name":"1ggy","steam_id":76561199051285912,"connected_time":1137000000000,"state":"active","ping":84},{"user_id":82,"name":"kilo","steam_id":76561198015641339,"connected_time":2124000000000,"state":"active","ping":84},{"user_id":89,"name":"cropping","steam_id":76561198026586456,"connected_time":1899000000000,"state":"active","ping":61},{"user_id":83,"name":"Ruth(-less bitch)","steam_id":76561198150006573,"connected_time":2112000000000,"state":"active","ping":54},{"user_id":45,"name":"NO end to POOTIS","steam_id":76561198144879361,"connected_time":3762000000000,"state":"active","ping":128}]},{"server_id":21,"name":"Uncletopia | London | 5 | All Maps","name_short":"lon-5","host":"lon-1.uk.uncletopia.com","port":27055,"enabled":true,"region":"eu","cc":"gb","latitude":51.509865,"longitude":-0.118092,"reserved":0,"last_update":"0001-01-01T00:00:00Z","name_a2s":"Uncletopia | London | 5 | All Maps","protocol":17,"map":"pl_frontier_final","folder":"tf","game":"Team Fortress","app_id":440,"player_count":0,"max_players":24,"Bots":0,"server_type":"Dedicated","server_os":"Linux","password":true,"vac":true,"version":"7757534","steam_id":85568392924742829,"keywords":["nocrits","nodmgspread","payload","uncletopia"],"game_id":440,"stv_port":27056,"stv_name":"Uncletopia | London | 5 | All Maps | STV","players":null},{"server_id":22,"name":"Uncletopia | London | 6 | All Maps","name_short":"lon-6","host":"lon-1.uk.uncletopia.com","port":27065,"enabled":true,"region":"eu","cc":"gb","latitude":51.509865,"longitude":-0.118092,"reserved":0,"last_update":"0001-01-01T00:00:00Z","name_a2s":"Uncletopia | London | 6 | All Maps","protocol":17,"map":"koth_cascade","folder":"tf","game":"Team Fortress","app_id":440,"player_count":2,"max_players":24,"Bots":0,"server_type":"Dedicated","server_os":"Linux","password":true,"vac":true,"version":"7757534","steam_id":85568392924742830,"keywords":["cp","nocrits","nodmgspread","uncletopia"],"game_id":440,"stv_port":27066,"stv_name":"Uncletopia | London | 6 | All Maps | STV","players":[{"user_id":5,"name":"OTP DynamoDM","steam_id":76561198150755391,"connected_time":96000000000,"state":"active","ping":38},{"user_id":6,"name":"Derp","steam_id":76561198197901062,"connected_time":92000000000,"state":"active","ping":58}]},{"server_id":40,"name":"Uncletopia | London | 7 | No Payload","name_short":"lon-7","host":"lon-1.uk.uncletopia.com","port":27075,"enabled":true,"region":"eu","cc":"gb","latitude":51.509865,"longitude":-0.118092,"reserved":0,"last_update":"0001-01-01T00:00:00Z","name_a2s":"Uncletopia | London | 7 | No Payload","protocol":17,"map":"koth_king","folder":"tf","game":"Team Fortress","app_id":440,"player_count":0,"max_players":24,"Bots":0,"server_type":"Dedicated","server_os":"Linux","password":true,"vac":true,"version":"7757534","steam_id":85568392924964314,"keywords":["cp","nocrits","nodmgspread","uncletopia"],"game_id":440,"stv_port":27076,"stv_name":"Uncletopia | London | 7 | No Payload | STV","players":null},{"server_id":41,"name":"Uncletopia | London | 8 | Community","name_short":"lon-8","host":"lon-1.uk.uncletopia.com","port":27085,"enabled":true,"region":"eu","cc":"gb","latitude":51.509865,"longitude":-0.118092,"reserved":0,"last_update":"0001-01-01T00:00:00Z","name_a2s":"Uncletopia | London | 8 | Community","protocol":17,"map":"workshop/koth_kemptown_rc1.ugc767410655","folder":"tf","game":"Team Fortress","app_id":440,"player_count":0,"max_players":24,"Bots":0,"server_type":"Dedicated","server_os":"Linux","password":true,"vac":true,"version":"7757534","steam_id":85568392924964315,"keywords":["cp","nocrits","nodmgspread","uncletopia"],"game_id":440,"stv_port":27086,"stv_name":"Uncletopia | London | 8 | Community | STV","players":null},{"server_id":300,"name":"Uncletopia | Montr√©al | 1 | All Maps","name_short":"mtl-1","host":"mtl-1.ca.uncletopia.com","port":27015,"enabled":true,"region":"us-east","cc":"ca","latitude":45.50889,"longitude":-73.56167,"reserved":0,"last_update":"0001-01-01T00:00:00Z","name_a2s":"Uncletopia | Montr√©al | 1 | All Maps","protocol":17,"map":"pl_snowycoast","folder":"tf","game":"Team Fortress","app_id":440,"player_count":0,"max_players":24,"Bots":0,"server_type":"Dedicated","server_os":"Linux","password":true,"vac":true,"version":"7757534","steam_id":85568392924500087,"keywords":["nocrits","nodmgspread","payload","uncletopia"],"game_id":440,"stv_port":27016,"stv_name":"Uncletopia | Montr√©al | 1 | All Maps | STV","players":null},{"server_id":301,"name":"Uncletopia | Montr√©al | 2 | All Maps","name_short":"mtl-2","host":"mtl-1.ca.uncletopia.com","port":27025,"enabled":true,"region":"us-east","cc":"ca","latitude":45.50889,"longitude":-73.56167,"reserved":0,"last_update":"0001-01-01T00:00:00Z","name_a2s":"Uncletopia | Montr√©al | 2 | All Maps","protocol":17,"map":"pl_snowycoast","folder":"tf","game":"Team Fortress","app_id":440,"player_count":0,"max_players":24,"Bots":0,"server_type":"Dedicated","server_os":"Linux","password":true,"vac":true,"version":"7757534","steam_id":85568392924500088,"keywords":["nocrits","nodmgspread","payload","uncletopia"],"game_id":440,"stv_port":27026,"stv_name":"Uncletopia | Montr√©al | 2 | All Maps | STV","players":null},{"server_id":302,"name":"Uncletopia | Montr√©al | 3 | All Maps","name_short":"mtl-3","host":"mtl-1.ca.uncletopia.com","port":27035,"enabled":true,"region":"us-east","cc":"ca","latitude":45.50889,"longitude":-73.56167,"reserved":0,"last_update":"0001-01-01T00:00:00Z","name_a2s":"Uncletopia | Montr√©al | 3 | All Maps","protocol":17,"map":"cp_dustbowl","folder":"tf","game":"Team Fortress","app_id":440,"player_count":0,"max_players":24,"Bots":0,"server_type":"Dedicated","server_os":"Linux","password":true,"vac":true,"version":"7757534","steam_id":85568392924500089,"keywords":["cp","nocrits","nodmgspread","uncletopia"],"game_id":440,"stv_port":27036,"stv_name":"Uncletopia | Montr√©al | 3 | All Maps | STV","players":null},{"server_id":303,"name":"Uncletopia | Montr√©al | 4 | No Payload","name_short":"mtl-4","host":"mtl-1.ca.uncletopia.com","port":27045,"enabled":true,"region":"us-east","cc":"ca","latitude":45.50889,"longitude":-73.56167,"reserved":0,"last_update":"0001-01-01T00:00:00Z","name_a2s":"Uncletopia | Montr√©al | 4 | No Payload","protocol":17,"map":"pl_borneo","folder":"tf","game":"Team Fortress","app_id":440,"player_count":0,"max_players":24,"Bots":0,"server_type":"Dedicated","server_os":"Linux","password":true,"vac":true,"version":"7757534","steam_id":85568392924500090,"keywords":["nocrits","nodmgspread","payload","uncletopia"],"game_id":440,"stv_port":27046,"stv_name":"Uncletopia | Montr√©al | 4 | No Payload | STV","players":null},{"server_id":13,"name":"Uncletopia | New York City | 1 | All Maps","name_short":"nyc-1","host":"nyc-1.us.uncletopia.com","port":27015,"enabled":true,"region":"us-east","cc":"us","latitude":40.73061,"longitude":-73.93524,"reserved":0,"last_update":"0001-01-01T00:00:00Z","name_a2s":"Uncletopia | New York City | 1 | All Maps","protocol":17,"map":"koth_highpass","folder":"tf","game":"Team Fortress","app_id":440,"player_count":0,"max_players":24,"Bots":0,"server_type":"Dedicated","server_os":"Linux","password":true,"vac":true,"version":"7757534","steam_id":85568392924469993,"keywords":["cp","nocrits","nodmgspread","uncletopia"],"game_id":440,"stv_port":27016,"stv_name":"Uncletopia | New York City | 1 | All Maps | STV","players":null},{"server_id":14,"name":"Uncletopia | New York City | 2 | All Maps","name_short":"nyc-2","host":"nyc-1.us.uncletopia.com","port":27025,"enabled":true,"region":"us-east","cc":"us","latitude":40.73061,"longitude":-73.93524,"reserved":0,"last_update":"0001-01-01T00:00:00Z","name_a2s":"Uncletopia | New York City | 2 | All Maps","protocol":17,"map":"pl_pier","folder":"tf","game":"Team Fortress","app_id":440,"player_count":0,"max_players":24,"Bots":0,"server_type":"Dedicated","server_os":"Linux","password":true,"vac":true,"version":"7757534","steam_id":85568392924469994,"keywords":["nocrits","nodmgspread","payload","uncletopia"],"game_id":440,"stv_port":27026,"stv_name":"Uncletopia | New York City | 2 | All Maps | STV","players":null},{"server_id":15,"name":"Uncletopia | New York City | 3 | Stopwatch Beta","name_short":"nyc-3","host":"nyc-1.us.uncletopia.com","port":27035,"enabled":true,"region":"us-east","cc":"us","latitude":40.73061,"longitude":-73.93524,"reserved":0,"last_update":"0001-01-01T00:00:00Z","name_a2s":"Uncletopia | New York City | 3 | Stopwatch Beta","protocol":17,"map":"cp_mountainlab","folder":"tf","game":"Team Fortress","app_id":440,"player_count":0,"max_players":24,"Bots":0,"server_type":"Dedicated","server_os":"Linux","password":true,"vac":true,"version":"7757534","steam_id":85568392924742820,"keywords":["cp","nocrits","nodmgspread","uncletopia"],"game_id":440,"stv_port":27036,"stv_name":"Uncletopia | New York City | 3 | Stopwatch Beta | STV","players":null},{"server_id":16,"name":"Uncletopia | New York City | 4 | Community","name_short":"nyc-4","host":"nyc-1.us.uncletopia.com","port":27045,"enabled":true,"region":"us-east","cc":"us","latitude":40.73061,"longitude":-73.93524,"reserved":0,"last_update":"0001-01-01T00:00:00Z","name_a2s":"Uncletopia | New York City | 4 | Community","protocol":17,"map":"pl_borneo","folder":"tf","game":"Team Fortress","app_id":440,"player_count":0,"max_players":24,"Bots":0,"server_type":"Dedicated","server_os":"Linux","password":true,"vac":true,"version":"7757534","steam_id":85568392924742821,"keywords":["nocrits","nodmgspread","payload","uncletopia"],"game_id":440,"stv_port":27046,"stv_name":"Uncletopia | New York City | 4 | Community | STV","players":null},{"server_id":142,"name":"Uncletopia | S√£o Paulo | 1 | All Maps","name_short":"sao-1","host":"sao-1.br.uncletopia.com","port":27015,"enabled":true,"region":"sa","cc":"br","latitude":-23.533773,"longitude":-46.62529,"reserved":0,"last_update":"0001-01-01T00:00:00Z","name_a2s":"Uncletopia | S√£o Paulo | 1 | All Maps","protocol":17,"map":"koth_cascade","folder":"tf","game":"Team Fortress","app_id":440,"player_count":0,"max_players":24,"Bots":0,"server_type":"Dedicated","server_os":"Linux","password":true,"vac":true,"version":"7757534","steam_id":85568392924469996,"keywords":["cp","nocrits","nodmgspread","uncletopia"],"game_id":440,"stv_port":27016,"stv_name":"Uncletopia | S√£o Paulo | 1 | All Maps | STV","players":null},{"server_id":143,"name":"Uncletopia | S√£o Paulo | 2 | All Maps","name_short":"sao-2","host":"sao-2.br.uncletopia.com","port":27015,"enabled":true,"region":"sa","cc":"br","latitude":-23.533773,"longitude":-46.62529,"reserved":0,"last_update":"0001-01-01T00:00:00Z","name_a2s":"Uncletopia | S√£o Paulo | 2 | All Maps","protocol":17,"map":"koth_viaduct","folder":"tf","game":"Team Fortress","app_id":440,"player_count":0,"max_players":24,"Bots":0,"server_type":"Dedicated","server_os":"Linux","password":true,"vac":true,"version":"7757534","steam_id":85568392924485349,"keywords":["cp","nocrits","nodmgspread","uncletopia"],"game_id":440,"stv_port":27016,"stv_name":"Uncletopia | S√£o Paulo | 2 | All Maps | STV","players":null},{"server_id":7,"name":"Uncletopia | Seattle | 1 | All Maps","name_short":"sea-1","host":"sea-1.us.uncletopia.com","port":27015,"enabled":true,"region":"us-west","cc":"us","latitude":47.608013,"longitude":-122.33517,"reserved":0,"last_update":"0001-01-01T00:00:00Z","name_a2s":"Uncletopia | Seattle | 1 | All Maps","protocol":17,"map":"pl_upward","folder":"tf","game":"Team Fortress","app_id":440,"player_count":2,"max_players":24,"Bots":0,"server_type":"Dedicated","server_os":"Linux","password":true,"vac":true,"version":"7757534","steam_id":85568392924469997,"keywords":["nocrits","nodmgspread","payload","uncletopia"],"game_id":440,"stv_port":27016,"stv_name":"Uncletopia | Seattle | 1 | All Maps | STV","players":[{"user_id":4,"name":"-‚Åß‚Åß Rin „É™„É≥","steam_id":76561198155841915,"connected_time":284000000000,"state":"active","ping":62},{"user_id":5,"name":"CakeBlock","steam_id":76561198067238228,"connected_time":40000000000,"state":"active","ping":119}]},{"server_id":119,"name":"Uncletopia | Seattle | 2 | All Maps","name_short":"sea-2","host":"sea-1.us.uncletopia.com","port":27025,"enabled":true,"region":"us-west","cc":"us","latitude":47.608013,"longitude":-122.33517,"reserved":0,"last_update":"0001-01-01T00:00:00Z","name_a2s":"Uncletopia | Seattle | 2 | All Maps","protocol":17,"map":"pl_upward","folder":"tf","game":"Team Fortress","app_id":440,"player_count":24,"max_players":24,"Bots":0,"server_type":"Dedicated","server_os":"Linux","password":true,"vac":true,"version":"7757534","steam_id":85568392924469998,"keywords":["nocrits","nodmgspread","payload","uncletopia"],"game_id":440,"stv_port":27026,"stv_name":"Uncletopia | Seattle | 2 | All Maps | STV","players":[{"user_id":33,"name":"KennytheHedgehog","steam_id":76561198094607721,"connected_time":3099000000000,"state":"active","ping":104},{"user_id":81,"name":"The Land Admiral","steam_id":76561198159356609,"connected_time":301000000000,"state":"active","ping":127},{"user_id":31,"name":"I AM GOING TO EAT YOUR FACE","steam_id":76561198277449857,"connected_time":3458000000000,"state":"active","ping":95},{"user_id":85,"name":"KingTeddy","steam_id":76561198131757499,"connected_time":39000000000,"state":"active","ping":210},{"user_id":66,"name":"Yiff Police","steam_id":76561198103938356,"connected_time":1688000000000,"state":"active","ping":121},{"user_id":79,"name":"Coffee with a Stranger","steam_id":76561198307422313,"connected_time":967000000000,"state":"active","ping":118},{"user_id":38,"name":"Clormac Macalahacte","steam_id":76561198103305334,"connected_time":2561000000000,"state":"active","ping":90},{"user_id":72,"name":"I DECIDE","steam_id":76561198011675372,"connected_time":1399000000000,"state":"active","ping":56},{"user_id":64,"name":"Marksito14","steam_id":76561199132272437,"connected_time":1754000000000,"state":"active","ping":104},{"user_id":69,"name":"chikin.sauce","steam_id":76561198042464635,"connected_time":1629000000000,"state":"active","ping":111},{"user_id":42,"name":"xd Clover","steam_id":76561198038905361,"connected_time":2304000000000,"state":"active","ping":103},{"user_id":82,"name":"Mr.Kevin120","steam_id":76561199186919096,"connected_time":234000000000,"state":"active","ping":134},{"user_id":44,"name":"L86A1","steam_id":76561197990436505,"connected_time":2262000000000,"state":"active","ping":136},{"user_id":46,"name":"town.midi","steam_id":76561198059041027,"connected_time":2122000000000,"state":"active","ping":65},{"user_id":48,"name":"Sartupial","steam_id":76561198443169940,"connected_time":2082000000000,"state":"active","ping":101},{"user_id":73,"name":"sagekiss","steam_id":76561198038831240,"connected_time":1319000000000,"state":"active","ping":58},{"user_id":56,"name":"Resident Thrussy Lender","steam_id":76561198071790583,"connected_time":1917000000000,"state":"active","ping":105},{"user_id":83,"name":"Iron Argus","steam_id":76561198181088245,"connected_time":154000000000,"state":"active","ping":122},{"user_id":78,"name":"Delacroix","steam_id":76561198842964669,"connected_time":1124000000000,"state":"active","ping":108},{"user_id":71,"name":"Chiappa Rhino","steam_id":76561198155176802,"connected_time":1500000000000,"state":"active","ping":125},{"user_id":61,"name":"Marsy","steam_id":76561198310195218,"connected_time":1840000000000,"state":"active","ping":166},{"user_id":67,"name":"Ylime","steam_id":76561198027878221,"connected_time":1675000000000,"state":"active","ping":59},{"user_id":84,"name":"THE GOOP","steam_id":76561199058211576,"connected_time":126000000000,"state":"active","ping":126},{"user_id":70,"name":"Oniko","steam_id":76561198087703138,"connected_time":1577000000000,"state":"active","ping":74}]},{"server_id":406,"name":"Uncletopia | Seattle | 3 | Stopwatch Beta","name_short":"sea-3","host":"sea-1.us.uncletopia.com","port":27035,"enabled":true,"region":"us-west","cc":"us","latitude":47.608013,"longitude":-122.33517,"reserved":0,"last_update":"0001-01-01T00:00:00Z","name_a2s":"Uncletopia | Seattle | 3 | Stopwatch Beta","protocol":17,"map":"pl_barnblitz","folder":"tf","game":"Team Fortress","app_id":440,"player_count":0,"max_players":24,"Bots":0,"server_type":"Dedicated","server_os":"Linux","password":true,"vac":true,"version":"7757534","steam_id":85568392924515217,"keywords":["nocrits","nodmgspread","payload","uncletopia"],"game_id":440,"stv_port":27036,"stv_name":"Uncletopia | Seattle | 3 | Stopwatch Beta | STV","players":null},{"server_id":17,"name":"Uncletopia | San Francisco | 1 | All Maps","name_short":"sfo-1","host":"sfo-1.us.uncletopia.com","port":27015,"enabled":true,"region":"us-west","cc":"us","latitude":37.77397,"longitude":-122.4313,"reserved":0,"last_update":"0001-01-01T00:00:00Z","name_a2s":"Uncletopia | San Francisco | 1 | All Maps","protocol":17,"map":"cp_process_final","folder":"tf","game":"Team Fortress","app_id":440,"player_count":0,"max_players":24,"Bots":0,"server_type":"Dedicated","server_os":"Linux","password":true,"vac":true,"version":"7757534","steam_id":85568392924469999,"keywords":["cp","nocrits","nodmgspread","uncletopia"],"game_id":440,"stv_port":27016,"stv_name":"Uncletopia | San Francisco | 1 | All Maps | STV","players":null},{"server_id":18,"name":"Uncletopia | San Francisco | 2 | All Maps","name_short":"sfo-2","host":"sfo-1.us.uncletopia.com","port":27025,"enabled":true,"region":"us-west","cc":"us","latitude":37.77397,"longitude":-122.4313,"reserved":0,"last_update":"0001-01-01T00:00:00Z","name_a2s":"Uncletopia | San Francisco | 2 | All Maps","protocol":17,"map":"cp_sunshine","folder":"tf","game":"Team Fortress","app_id":440,"player_count":0,"max_players":24,"Bots":0,"server_type":"Dedicated","server_os":"Linux","password":true,"vac":true,"version":"7757534","steam_id":85568392924470000,"keywords":["cp","nocrits","nodmgspread","uncletopia"],"game_id":440,"stv_port":27026,"stv_name":"Uncletopia | San Francisco | 2 | All Maps | STV","players":null},{"server_id":19,"name":"Uncletopia | San Francisco | 3 | Stopwatch Beta","name_short":"sfo-3","host":"sfo-1.us.uncletopia.com","port":27035,"enabled":true,"region":"us-west","cc":"us","latitude":37.77397,"longitude":-122.4313,"reserved":0,"last_update":"0001-01-01T00:00:00Z","name_a2s":"Uncletopia | San Francisco | 3 | Stopwatch Beta","protocol":17,"map":"pl_borneo","folder":"tf","game":"Team Fortress","app_id":440,"player_count":0,"max_players":24,"Bots":0,"server_type":"Dedicated","server_os":"Linux","password":true,"vac":true,"version":"7757534","steam_id":85568392924742824,"keywords":["nocrits","nodmgspread","payload","uncletopia"],"game_id":440,"stv_port":27036,"stv_name":"Uncletopia | San Francisco | 3 | Stopwatch Beta | STV","players":null},{"server_id":20,"name":"Uncletopia | San Francisco | 4 | Community","name_short":"sfo-4","host":"sfo-1.us.uncletopia.com","port":27045,"enabled":true,"region":"us-west","cc":"us","latitude":37.77397,"longitude":-122.4313,"reserved":0,"last_update":"0001-01-01T00:00:00Z","name_a2s":"Uncletopia | San Francisco | 4 | Community","protocol":17,"map":"koth_highpass","folder":"tf","game":"Team Fortress","app_id":440,"player_count":0,"max_players":24,"Bots":0,"server_type":"Dedicated","server_os":"Linux","password":true,"vac":true,"version":"7757534","steam_id":85568392924742826,"keywords":["cp","nocrits","nodmgspread","uncletopia"],"game_id":440,"stv_port":27046,"stv_name":"Uncletopia | San Francisco | 4 | Community | STV","players":null},{"server_id":141,"name":"Uncletopia | Sydney | 1 | All Maps","name_short":"syd-1","host":"syd-1.au.uncletopia.com","port":27015,"enabled":true,"region":"au","cc":"au","latitude":-33.865143,"longitude":151.2099,"reserved":0,"last_update":"0001-01-01T00:00:00Z","name_a2s":"Uncletopia | Sydney | 1 | All Maps","protocol":17,"map":"cp_mountainlab","folder":"tf","game":"Team Fortress","app_id":440,"player_count":0,"max_players":24,"Bots":0,"server_type":"Dedicated","server_os":"Linux","password":true,"vac":true,"version":"7757534","steam_id":85568392924470001,"keywords":["cp","nocrits","nodmgspread","uncletopia"],"game_id":440,"stv_port":27016,"stv_name":"Uncletopia | Sydney | 1 | All Maps | STV","players":null},{"server_id":123,"name":"Uncletopia | Sydney | 2 | All Maps","name_short":"syd-2","host":"syd-1.au.uncletopia.com","port":27025,"enabled":true,"region":"au","cc":"au","latitude":-33.865143,"longitude":151.2099,"reserved":0,"last_update":"0001-01-01T00:00:00Z","name_a2s":"Uncletopia | Sydney | 2 | All Maps","protocol":17,"map":"cp_mountainlab","folder":"tf","game":"Team Fortress","app_id":440,"player_count":6,"max_players":24,"Bots":0,"server_type":"Dedicated","server_os":"Linux","password":true,"vac":true,"version":"7757534","steam_id":85568392924470002,"keywords":["cp","nocrits","nodmgspread","uncletopia"],"game_id":440,"stv_port":27026,"stv_name":"Uncletopia | Sydney | 2 | All Maps | STV","players":[{"user_id":572,"name":"2nd_Bombing_bomb","steam_id":76561199060737987,"connected_time":59000000000,"state":"active","ping":243},{"user_id":573,"name":"totoeevee2","steam_id":76561199205798108,"connected_time":0,"state":"spawning","ping":66},{"user_id":557,"name":"FrontlineNinja","steam_id":76561198046731954,"connected_time":1110000000000,"state":"active","ping":48},{"user_id":559,"name":"JayCatnip","steam_id":76561198125106357,"connected_time":671000000000,"state":"active","ping":69},{"user_id":554,"name":"Fun Disliker","steam_id":76561198067733319,"connected_time":1401000000000,"state":"active","ping":83},{"user_id":569,"name":"slow foot","steam_id":76561199223275073,"connected_time":210000000000,"state":"active","ping":160}]},{"server_id":395,"name":"Uncletopia | Sydney | 3 | All Maps","name_short":"syd-3","host":"syd-1.au.uncletopia.com","port":27035,"enabled":true,"region":"au","cc":"au","latitude":-33.865143,"longitude":151.2099,"reserved":0,"last_update":"0001-01-01T00:00:00Z","name_a2s":"Uncletopia | Sydney | 3 | All Maps","protocol":17,"map":"pl_pier","folder":"tf","game":"Team Fortress","app_id":440,"player_count":0,"max_players":24,"Bots":0,"server_type":"Dedicated","server_os":"Linux","password":true,"vac":true,"version":"7757534","steam_id":85568392925194467,"keywords":["nocrits","nodmgspread","payload","uncletopia"],"game_id":440,"stv_port":27036,"stv_name":"Uncletopia | Sydney | 3 | All Maps | STV","players":null},{"server_id":396,"name":"Uncletopia | Sydney | 4 | All Maps","name_short":"syd-4","host":"syd-1.au.uncletopia.com","port":27045,"enabled":true,"region":"au","cc":"au","latitude":-33.865143,"longitude":151.2099,"reserved":0,"last_update":"0001-01-01T00:00:00Z","name_a2s":"Uncletopia | Sydney | 4 | All Maps","protocol":17,"map":"koth_cascade","folder":"tf","game":"Team Fortress","app_id":440,"player_count":0,"max_players":24,"Bots":0,"server_type":"Dedicated","server_os":"Linux","password":true,"vac":true,"version":"7757534","steam_id":85568392925397958,"keywords":["cp","nocrits","nodmgspread","uncletopia"],"game_id":440,"stv_port":27046,"stv_name":"Uncletopia | Sydney | 4 | All Maps | STV","players":null},{"server_id":58,"name":"Uncletopia | Sydney | 5 | Stopwatch Beta","name_short":"syd-5","host":"syd-1.au.uncletopia.com","port":27055,"enabled":true,"region":"au","cc":"au","latitude":-33.865143,"longitude":151.2099,"reserved":0,"last_update":"0001-01-01T00:00:00Z","name_a2s":"Uncletopia | Sydney | 5 | Stopwatch Beta","protocol":17,"map":"koth_highpass","folder":"tf","game":"Team Fortress","app_id":440,"player_count":0,"max_players":24,"Bots":0,"server_type":"Dedicated","server_os":"Linux","password":true,"vac":true,"version":"7757534","steam_id":85568392925397959,"keywords":["cp","nocrits","nodmgspread","uncletopia"],"game_id":440,"stv_port":27056,"stv_name":"Uncletopia | Sydney | 5 | Stopwatch Beta | STV","players":null},{"server_id":59,"name":"Uncletopia | Sydney | 6 | Community","name_short":"syd-6","host":"syd-1.au.uncletopia.com","port":27065,"enabled":true,"region":"au","cc":"au","latitude":-33.865143,"longitude":151.2099,"reserved":0,"last_update":"0001-01-01T00:00:00Z","name_a2s":"Uncletopia | Sydney | 6 | Community","protocol":17,"map":"workshop/koth_trenchfoot_b1a.ugc731436616","folder":"tf","game":"Team Fortress","app_id":440,"player_count":0,"max_players":24,"Bots":0,"server_type":"Dedicated","server_os":"Linux","password":true,"vac":true,"version":"7757534","steam_id":85568392925397960,"keywords":["cp","nocrits","nodmgspread","uncletopia"],"game_id":440,"stv_port":27066,"stv_name":"Uncletopia | Sydney | 6 | Community | STV","players":null},{"server_id":49,"name":"Uncletopia | Warsaw | 1 | All Maps","name_short":"waw-1","host":"waw-1.pl.uncletopia.com","port":27015,"enabled":true,"region":"eu","cc":"pl","latitude":52.2297,"longitude":21.017532,"reserved":0,"last_update":"0001-01-01T00:00:00Z","name_a2s":"","protocol":0,"map":"","folder":"","game":"","app_id":0,"player_count":0,"max_players":0,"Bots":0,"server_type":"","server_os":"","password":false,"vac":false,"version":"","steam_id":0,"keywords":null,"game_id":0,"stv_port":0,"stv_name":"","players":null},{"server_id":50,"name":"Uncletopia | Warsaw | 2 | All Maps","name_short":"waw-2","host":"waw-1.pl.uncletopia.com","port":27025,"enabled":true,"region":"eu","cc":"pl","latitude":52.2297,"longitude":21.017532,"reserved":0,"last_update":"0001-01-01T00:00:00Z","name_a2s":"Uncletopia | Warsaw | 2 | All Maps","protocol":17,"map":"cp_mountainlab","folder":"tf","game":"Team Fortress","app_id":440,"player_count":0,"max_players":24,"Bots":0,"server_type":"Dedicated","server_os":"Linux","password":true,"vac":true,"version":"7757534","steam_id":85568392925397851,"keywords":["cp","nocrits","nodmgspread","uncletopia"],"game_id":440,"stv_port":27026,"stv_name":"Uncletopia | Warsaw | 2 | All Maps | STV","players":null},{"server_id":51,"name":"Uncletopia | Warsaw | 3 | All Maps","name_short":"waw-3","host":"waw-1.pl.uncletopia.com","port":27035,"enabled":true,"region":"eu","cc":"pl","latitude":52.2297,"longitude":21.017532,"reserved":0,"last_update":"0001-01-01T00:00:00Z","name_a2s":"Uncletopia | Warsaw | 3 | All Maps","protocol":17,"map":"cp_snakewater_final1","folder":"tf","game":"Team Fortress","app_id":440,"player_count":0,"max_players":24,"Bots":0,"server_type":"Dedicated","server_os":"Linux","password":true,"vac":true,"version":"7757534","steam_id":85568392925397852,"keywords":["cp","nocrits","nodmgspread","uncletopia"],"game_id":440,"stv_port":27036,"stv_name":"Uncletopia | Warsaw | 3 | All Maps | STV","players":null},{"server_id":52,"name":"Uncletopia | Warsaw | 4 | All Maps","name_short":"waw-4","host":"waw-1.pl.uncletopia.com","port":27045,"enabled":true,"region":"eu","cc":"pl","latitude":52.2297,"longitude":21.017532,"reserved":0,"last_update":"0001-01-01T00:00:00Z","name_a2s":"Uncletopia | Warsaw | 4 | All Maps","protocol":17,"map":"pl_snowycoast","folder":"tf","game":"Team Fortress","app_id":440,"player_count":0,"max_players":24,"Bots":0,"server_type":"Dedicated","server_os":"Linux","password":true,"vac":true,"version":"7757534","steam_id":85568392925397853,"keywords":["nocrits","nodmgspread","payload","uncletopia"],"game_id":440,"stv_port":27046,"stv_name":"Uncletopia | Warsaw | 4 | All Maps | STV","players":null},{"server_id":53,"name":"Uncletopia | Warsaw | 5 | Stopwatch Beta","name_short":"waw-5","host":"waw-1.pl.uncletopia.com","port":27055,"enabled":true,"region":"eu","cc":"pl","latitude":52.2297,"longitude":21.017532,"reserved":0,"last_update":"0001-01-01T00:00:00Z","name_a2s":"Uncletopia | Warsaw | 5 | Stopwatch Beta","protocol":17,"map":"pl_barnblitz","folder":"tf","game":"Team Fortress","app_id":440,"player_count":0,"max_players":24,"Bots":0,"server_type":"Dedicated","server_os":"Linux","password":true,"vac":true,"version":"7757534","steam_id":85568392925397854,"keywords":["nocrits","nodmgspread","payload","uncletopia"],"game_id":440,"stv_port":27056,"stv_name":"Uncletopia | Warsaw | 5 | Stopwatch Beta | STV","players":null},{"server_id":54,"name":"Uncletopia | Warsaw | 6 | Community","name_short":"waw-6","host":"waw-1.pl.uncletopia.com","port":27065,"enabled":true,"region":"eu","cc":"pl","latitude":52.2297,"longitude":21.017532,"reserved":0,"last_update":"0001-01-01T00:00:00Z","name_a2s":"Uncletopia | Warsaw | 6 | Community","protocol":17,"map":"workshop/koth_trenchfoot_b1a.ugc731436616","folder":"tf","game":"Team Fortress","app_id":440,"player_count":0,"max_players":24,"Bots":0,"server_type":"Dedicated","server_os":"Linux","password":true,"vac":true,"version":"7757534","steam_id":85568392925397856,"keywords":["cp","nocrits","nodmgspread","uncletopia"],"game_id":440,"stv_port":27066,"stv_name":"Uncletopia | Warsaw | 6 | Community | STV","players":null}]}