{"status":true,"message":"","result":[{"server_id":9,"name":"Uncletopia | Atlanta | 1 | All Maps","name_short":"atl-1","host":"atl-1.us.uncletopia.com","port":27015,"enabled":true,"region":"us-east","cc":"us","latitude":33.753746,"longitude":-84.38633,"reserved":0,"last_update":"0001-01-01T00:00:00Z","name_a2s":"Uncletopia | Atlanta | 1 | All Maps","protocol":17,"map":"pl_pier","folder":"tf","game":"Team Fortress","app_id":440,"player_count":25,"max_players":24,"Bots":0,"server_type":"Dedicated","server_os":"Linux","password":true,"vac":true,"version":"7961495","steam_id":85568392924469982,"keywords":["nocrits","nodmgspread","payload","uncletopia"],"game_id":440,"stv_port":27016,"stv_name":"Uncletopia | Atlanta | 1 | All Maps | STV","players":null},{"server_id":104,"name":"Uncletopia | Atlanta | 2 | All Maps","name_short":"atl-2","host":"atl-1.us.uncletopia.com","port":27025,"enabled":true,"region":"us-east","cc":"us","latitude":33.753746,"longitude":-84.38633,"reserved":0,"last_update":"0001-01-01T00:00:00Z","name_a2s":"Uncletopia | Atlanta | 2 | All Maps","protocol":17,"map":"cp_altitude","folder":"tf","game":"Team Fortress","app_id":440,"player_count":17,"max_players":24,"Bots":0,"server_type":"Dedicated","server_os":"Linux","password":true,"vac":true,"version":"7961495","steam_id":85568392924469983,"keywords":["cp","nocrits","nodmgspread","uncletopia"],"game_id":440,"stv_port":27026,"stv_name":"Uncletopia | Atlanta | 2 | All Maps | STV","players":null},{"server_id":400,"name":"Uncletopia | Atlanta | 3 | Stopwatch","name_short":"atl-3","host":"atl-1.us.uncletopia.com","port":27035,"enabled":true,"region":"us-east","cc":"us","latitude":33.753746,"longitude":-84.38633,"reserved":0,"last_update":"0001-01-01T00:00:00Z","name_a2s":"Uncletopia | Atlanta | 3 | Stopwatch","protocol":17,"map":"koth_product_final","folder":"tf","game":"Team Fortress","app_id":440,"player_count":0,"max_players":24,"Bots":0,"server_type":"Dedicated","server_os":"Linux","password":true,"vac":true,"version":"7961495","steam_id":85568392924515187,"keywords":["cp","nocrits","nodmgspread","uncletopia"],"game_id":440,"stv_port":27036,"stv_name":"Uncletopia | Atlanta | 3 | Stopwatch | STV","players":null},{"server_id":401,"name":"Uncletopia | Atlanta | 4 | Community","name_short":"atl-4","host":"atl-1.us.uncletopia.com","port":27045,"enabled":true,"region":"us-east","cc":"us","latitude":33.753746,"longitude":-84.38633,"reserved":0,"last_update":"0001-01-01T00:00:00Z","name_a2s":"Uncletopia | Atlanta | 4 | Community","protocol":17,"map":"cp_kalinka_rc6a","folder":"tf","game":"Team Fortress","app_id":440,"player_count":3,"max_players":24,"Bots":0,"server_type":"Dedicated","server_os":"Linux","password":true,"vac":true,"version":"7961495","steam_id":85568392924515188,"keywords":["cp","nocrits","nodmgspread","uncletopia"],"game_id":440,"stv_port":27046,"stv_name":"Uncletopia | Atlanta | 4 | Community | STV","players":null},{"server_id":2,"name":"Uncletopia | Chicago | 1 | All Maps","name_short":"chi-1","host":"chi-1.us.uncletopia.com","port":27015,"enabled":true,"region":"us-central","cc":"us","latitude":41.881832,"longitude":-87.62318,"reserved":0,"last_update":"0001-01-01T00:00:00Z","name_a2s":"Uncletopia | Chicago | 1 | All Maps","protocol":17,"map":"cp_dustbowl","folder":"tf","game":"Team Fortress","app_id":440,"player_count":18,"max_players":24,"Bots":0,"server_type":"Dedicated","server_os":"Linux","password":true,"vac":true,"version":"7961495","steam_id":85568392924469984,"keywords":["cp","nocrits","nodmgspread","uncletopia"],"game_id":440,"stv_port":27016,"stv_name":"Uncletopia | Chicago | 1 | All Maps | STV","players":[{"user_id":603,"name":"badboy6996","steam_id":76561197969386201,"connected_time":7024000000000,"state":"active","ping":45},{"user_id":691,"name":"loser","steam_id":76561198259380127,"connected_time":94000000000,"state":"active","ping":52},{"user_id":649,"name":"Not Rook","steam_id":76561199232296380,"connected_time":3799000000000,"state":"active","ping":79},{"user_id":686,"name":"Gaming","steam_id":76561198107080532,"connected_time":827000000000,"state":"active","ping":71},{"user_id":597,"name":"LVL","steam_id":76561198334403617,"connected_time":7078000000000,"state":"active","ping":53},{"user_id":692,"name":"dillon/dylan","steam_id":76561198118054166,"connected_time":76000000000,"state":"active","ping":59},{"user_id":655,"name":"QWERTY","steam_id":76561198211430420,"connected_time":2922000000000,"state":"active","ping":71},{"user_id":589,"name":"momlovie","steam_id":76561198843933742,"connected_time":8208000000000,"state":"active","ping":63},{"user_id":609,"name":"my friend can take 5guys anyday","steam_id":76561198144766439,"connected_time":6685000000000,"state":"active","ping":41},{"user_id":693,"name":"Kuchio","steam_id":76561198161218914,"connected_time":29000000000,"state":"active","ping":95},{"user_id":687,"name":"SleezusKryst","steam_id":76561198135644937,"connected_time":764000000000,"state":"active","ping":75},{"user_id":672,"name":"Beepleton The 3rd","steam_id":76561198081466207,"connected_time":2008000000000,"state":"active","ping":70},{"user_id":674,"name":"mr.teeth","steam_id":76561199210541615,"connected_time":1911000000000,"state":"active","ping":79},{"user_id":665,"name":"Aniz","steam_id":76561199226665024,"connected_time":2362000000000,"state":"active","ping":138},{"user_id":652,"name":"googa","steam_id":76561198133130452,"connected_time":3170000000000,"state":"active","ping":61},{"user_id":678,"name":"joeyyfan2011","steam_id":76561199014715203,"connected_time":1431000000000,"state":"active","ping":111},{"user_id":689,"name":"Chin, Bruce Lee's Relative","steam_id":76561198240105522,"connected_time":608000000000,"state":"active","ping":75},{"user_id":682,"name":"SamFec","steam_id":76561198414538682,"connected_time":1197000000000,"state":"active","ping":112}]},{"server_id":106,"name":"Uncletopia | Chicago | 2 | All Maps","name_short":"chi-2","host":"chi-1.us.uncletopia.com","port":27025,"enabled":true,"region":"us-central","cc":"us","latitude":41.881832,"longitude":-87.62318,"reserved":0,"last_update":"0001-01-01T00:00:00Z","name_a2s":"Uncletopia | Chicago | 2 | All Maps","protocol":17,"map":"pl_borneo","folder":"tf","game":"Team Fortress","app_id":440,"player_count":23,"max_players":24,"Bots":0,"server_type":"Dedicated","server_os":"Linux","password":true,"vac":true,"version":"7961495","steam_id":85568392924469985,"keywords":["nocrits","nodmgspread","payload","uncletopia"],"game_id":440,"stv_port":27026,"stv_name":"Uncletopia | Chicago | 2 | All Maps | STV","players":[{"user_id":724,"name":"Eric4bz","steam_id":76561198054439606,"connected_time":1042000000000,"state":"active","ping":112},{"user_id":710,"name":"chesterwnimitz","steam_id":76561198062664377,"connected_time":3218000000000,"state":"active","ping":91},{"user_id":660,"name":"Cy4nideCutie","steam_id":76561198126686695,"connected_time":5907000000000,"state":"active","ping":68},{"user_id":693,"name":"homewurk","steam_id":76561199080327081,"connected_time":3618000000000,"state":"active","ping":112},{"user_id":694,"name":"Ma dick itchy","steam_id":76561199080912379,"connected_time":3608000000000,"state":"active","ping":101},{"user_id":696,"name":"firstlastmcgee","steam_id":76561198170187989,"connected_time":3548000000000,"state":"active","ping":64},{"user_id":728,"name":"Drapph","steam_id":76561199384213314,"connected_time":129000000000,"state":"active","ping":60},{"user_id":712,"name":"Luski","steam_id":76561199023039901,"connected_time":3143000000000,"state":"active","ping":104},{"user_id":674,"name":"carson kannot","steam_id":76561198819733507,"connected_time":5425000000000,"state":"active","ping":93},{"user_id":700,"name":"Ikanboken","steam_id":76561198026926934,"connected_time":3495000000000,"state":"active","ping":61},{"user_id":725,"name":"4 life","steam_id":76561198175961598,"connected_time":1016000000000,"state":"active","ping":112},{"user_id":703,"name":"Peepster","steam_id":76561198297854733,"connected_time":3451000000000,"state":"active","ping":69},{"user_id":720,"name":"evegioyidechadab","steam_id":76561198075991626,"connected_time":1515000000000,"state":"active","ping":172},{"user_id":718,"name":"coolkid","steam_id":76561198072600034,"connected_time":1876000000000,"state":"active","ping":147},{"user_id":717,"name":"Smug Corvo","steam_id":76561198159509389,"connected_time":2535000000000,"state":"active","ping":88},{"user_id":723,"name":"HeathcliffReader12","steam_id":76561198180840049,"connected_time":1208000000000,"state":"active","ping":76},{"user_id":721,"name":"N00SE","steam_id":76561198211473307,"connected_time":1502000000000,"state":"active","ping":63},{"user_id":722,"name":"ink","steam_id":76561198081308147,"connected_time":1501000000000,"state":"active","ping":78},{"user_id":671,"name":"Feathers! üûß","steam_id":76561198812663884,"connected_time":5483000000000,"state":"active","ping":91},{"user_id":727,"name":"b","steam_id":76561198156336213,"connected_time":530000000000,"state":"active","ping":75},{"user_id":726,"name":"Artic_Ryuu","steam_id":76561198182194918,"connected_time":977000000000,"state":"active","ping":90},{"user_id":673,"name":"dsstroi lognley..","steam_id":76561199102391736,"connected_time":5450000000000,"state":"active","ping":104}]},{"server_id":402,"name":"Uncletopia | Chicago | 3 | All Maps","name_short":"chi-3","host":"chi-1.us.uncletopia.com","port":27035,"enabled":true,"region":"us-central","cc":"us","latitude":41.881832,"longitude":-87.62318,"reserved":0,"last_update":"0001-01-01T00:00:00Z","name_a2s":"Uncletopia | Chicago | 3 | All Maps","protocol":17,"map":"pl_frontier_final","folder":"tf","game":"Team Fortress","app_id":440,"player_count":0,"max_players":24,"Bots":0,"server_type":"Dedicated","server_os":"Linux","password":true,"vac":true,"version":"7961495","steam_id":85568392924515191,"keywords":["nocrits","nodmgspread","payload","uncletopia"],"game_id":440,"stv_port":27036,"stv_name":"Uncletopia | Chicago | 3 | All Maps | STV","players":null},{"server_id":403,"name":"Uncletopia | Chicago | 4 | All Maps","name_short":"chi-4","host":"chi-1.us.uncletopia.com","port":27045,"enabled":true,"region":"us-central","cc":"us","latitude":41.881832,"longitude":-87.62318,"reserved":0,"last_update":"0001-01-01T00:00:00Z","name_a2s":"Uncletopia | Chicago | 4 | All Maps","protocol":17,"map":"pl_upward","folder":"tf","game":"Team Fortress","app_id":440,"player_count":24,"max_players":24,"Bots":0,"server_type":"Dedicated","server_os":"Linux","password":true,"vac":true,"version":"7961495","steam_id":85568392924515193,"keywords":["nocrits","nodmgspread","payload","uncletopia"],"game_id":440,"stv_port":27046,"stv_name":"Uncletopia | Chicago | 4 | All Maps | STV","players":[{"user_id":747,"name":"cyanideknife","steam_id":76561198346351549,"connected_time":1549000000000,"state":"active","ping":119},{"user_id":729,"name":"Yuri Practioner \u0026 Expert Online","steam_id":76561198029274581,"connected_time":3037000000000,"state":"active","ping":63},{"user_id":757,"name":"CoziestGlobe","steam_id":76561198199237735,"connected_time":529000000000,"state":"active","ping":75},{"user_id":756,"name":"ELONMUSK IS DEAD","steam_id":76561198042259533,"connected_time":543000000000,"state":"active","ping":73},{"user_id":758,"name":"rf","steam_id":76561198195359229,"connected_time":447000000000,"state":"active","ping":87},{"user_id":750,"name":"Reality Loser","steam_id":76561198001541433,"connected_time":1115000000000,"state":"active","ping":54},{"user_id":739,"name":"I'm using a drawing tablet","steam_id":76561198986639507,"connected_time":1983000000000,"state":"active","ping":107},{"user_id":754,"name":"oof aim small brain","steam_id":76561198079925551,"connected_time":935000000000,"state":"active","ping":60},{"user_id":755,"name":"The Great Eagle Scourge of 1822","steam_id":76561198325086209,"connected_time":764000000000,"state":"active","ping":116},{"user_id":759,"name":"Goose","steam_id":76561198084166129,"connected_time":445000000000,"state":"active","ping":56},{"user_id":718,"name":"legalize nuclear bombs","steam_id":76561198072789439,"connected_time":4055000000000,"state":"active","ping":90},{"user_id":760,"name":"Girthworm Jim","steam_id":76561198007433376,"connected_time":438000000000,"state":"active","ping":81},{"user_id":722,"name":"only a spoonful","steam_id":76561198113180616,"connected_time":3861000000000,"state":"active","ping":69},{"user_id":746,"name":"jimmyfnaf172198yay","steam_id":76561198311446636,"connected_time":1572000000000,"state":"active","ping":59},{"user_id":734,"name":"Vladikr1","steam_id":76561198401495362,"connected_time":2071000000000,"state":"active","ping":78},{"user_id":714,"name":"Strange Festive Femboy","steam_id":76561198050385093,"connected_time":4163000000000,"state":"active","ping":84},{"user_id":745,"name":"K—îliŒ∑ ‚òÑ‚òÑ‚òÑ","steam_id":76561198025495912,"connected_time":1772000000000,"state":"active","ping":60},{"user_id":720,"name":"my house burned down","steam_id":76561198058890821,"connected_time":4045000000000,"state":"active","ping":48},{"user_id":761,"name":"deez ratz","steam_id":76561198864572366,"connected_time":420000000000,"state":"active","ping":90},{"user_id":752,"name":"We Go Crazy","steam_id":76561198209641359,"connected_time":983000000000,"state":"active","ping":70},{"user_id":741,"name":"epix","steam_id":76561198354108114,"connected_time":1948000000000,"state":"active","ping":68},{"user_id":742,"name":"kiseek","steam_id":76561198075474088,"connected_time":1887000000000,"state":"active","ping":84},{"user_id":753,"name":"wintermint","steam_id":76561198013735714,"connected_time":962000000000,"state":"active","ping":83},{"user_id":732,"name":"Sporp","steam_id":76561197987957133,"connected_time":2789000000000,"state":"active","ping":85}]},{"server_id":36,"name":"Uncletopia | Chicago | 5 | All Maps","name_short":"chi-5","host":"chi-2.us.uncletopia.com","port":27015,"enabled":true,"region":"us-central","cc":"us","latitude":41.881832,"longitude":-87.62318,"reserved":0,"last_update":"0001-01-01T00:00:00Z","name_a2s":"Uncletopia | Chicago | 5 | All Maps","protocol":17,"map":"cp_mercenarypark","folder":"tf","game":"Team Fortress","app_id":440,"player_count":13,"max_players":24,"Bots":0,"server_type":"Dedicated","server_os":"Linux","password":true,"vac":true,"version":"7961495","steam_id":85568392924866362,"keywords":["cp","nocrits","nodmgspread","uncletopia"],"game_id":440,"stv_port":27016,"stv_name":"Uncletopia | Chicago | 5 | All Maps | STV","players":[{"user_id":506,"name":"Shapeshiftertrue","steam_id":76561198440835095,"connected_time":2613000000000,"state":"active","ping":81},{"user_id":531,"name":"Mighty","steam_id":76561198096569755,"connected_time":173000000000,"state":"active","ping":93},{"user_id":527,"name":"Chimp of the year","steam_id":76561198114676855,"connected_time":327000000000,"state":"active","ping":65},{"user_id":451,"name":"Yellow","steam_id":76561199226953022,"connected_time":5364000000000,"state":"active","ping":133},{"user_id":528,"name":"fiend","steam_id":76561198122159645,"connected_time":295000000000,"state":"active","ping":61},{"user_id":495,"name":"ElectronX","steam_id":76561198116034988,"connected_time":3605000000000,"state":"active","ping":94},{"user_id":529,"name":"Funky the Fungus Monkey","steam_id":76561198140894890,"connected_time":285000000000,"state":"active","ping":83},{"user_id":509,"name":"Bucket Hat Trick","steam_id":76561198381785132,"connected_time":2534000000000,"state":"active","ping":103},{"user_id":530,"name":"elf tragedy","steam_id":76561198049223356,"connected_time":284000000000,"state":"active","ping":61},{"user_id":517,"name":"Bren20225","steam_id":76561198174421550,"connected_time":1840000000000,"state":"active","ping":67},{"user_id":452,"name":"frank","steam_id":76561198137777483,"connected_time":5353000000000,"state":"active","ping":61},{"user_id":473,"name":"Salixiola","steam_id":76561198042177809,"connected_time":4403000000000,"state":"active","ping":72},{"user_id":440,"name":"Jag","steam_id":76561198001220471,"connected_time":6154000000000,"state":"active","ping":53}]},{"server_id":37,"name":"Uncletopia | Chicago | 6 | All Maps","name_short":"chi-6","host":"chi-2.us.uncletopia.com","port":27025,"enabled":true,"region":"us-central","cc":"us","latitude":41.881832,"longitude":-87.62318,"reserved":0,"last_update":"0001-01-01T00:00:00Z","name_a2s":"Uncletopia | Chicago | 6 | All Maps","protocol":17,"map":"koth_lakeside_final","folder":"tf","game":"Team Fortress","app_id":440,"player_count":24,"max_players":24,"Bots":0,"server_type":"Dedicated","server_os":"Linux","password":true,"vac":true,"version":"7961495","steam_id":85568392924866363,"keywords":["cp","nocrits","nodmgspread","uncletopia"],"game_id":440,"stv_port":27026,"stv_name":"Uncletopia | Chicago | 6 | All Maps | STV","players":[{"user_id":829,"name":"PlanktonTheWayiCumBuckets","steam_id":76561198074678273,"connected_time":2745000000000,"state":"active","ping":45},{"user_id":868,"name":"ImWeirdfreak79","steam_id":76561198066319439,"connected_time":303000000000,"state":"active","ping":68},{"user_id":838,"name":"turbo","steam_id":76561198066434187,"connected_time":2308000000000,"state":"active","ping":72},{"user_id":820,"name":"AzuriousAlex","steam_id":76561198158026405,"connected_time":3471000000000,"state":"active","ping":74},{"user_id":866,"name":"Toffee Hognose","steam_id":76561198202177000,"connected_time":342000000000,"state":"active","ping":78},{"user_id":865,"name":"njokuani","steam_id":76561199061380038,"connected_time":394000000000,"state":"active","ping":61},{"user_id":830,"name":"MAN I CAN'T COMPLAIN","steam_id":76561198111925708,"connected_time":2739000000000,"state":"active","ping":85},{"user_id":831,"name":"Willy","steam_id":76561198046508940,"connected_time":2738000000000,"state":"active","ping":64},{"user_id":836,"name":"A Big Rat","steam_id":76561197990853987,"connected_time":2684000000000,"state":"active","ping":56},{"user_id":834,"name":"displace","steam_id":76561198068492903,"connected_time":2729000000000,"state":"active","ping":64},{"user_id":860,"name":"M249 | Spectre","steam_id":76561198118334485,"connected_time":1275000000000,"state":"active","ping":75},{"user_id":867,"name":"Neo","steam_id":76561198112618713,"connected_time":338000000000,"state":"active","ping":88},{"user_id":869,"name":"Red Charge","steam_id":76561198084465764,"connected_time":291000000000,"state":"active","ping":60},{"user_id":870,"name":"cipE","steam_id":76561198300412740,"connected_time":287000000000,"state":"active","ping":60},{"user_id":863,"name":"Snoot Boi 69","steam_id":76561198087698630,"connected_time":667000000000,"state":"active","ping":69},{"user_id":837,"name":"yall got a chevy back there?","steam_id":76561198043766401,"connected_time":2486000000000,"state":"active","ping":76},{"user_id":876,"name":"peee pee man","steam_id":76561198044979205,"connected_time":72000000000,"state":"active","ping":62},{"user_id":847,"name":"crispylego_","steam_id":76561199453679719,"connected_time":1835000000000,"state":"active","ping":111},{"user_id":853,"name":"Donut?","steam_id":76561199122315920,"connected_time":1624000000000,"state":"active","ping":62},{"user_id":872,"name":"45Amazing","steam_id":76561198303081758,"connected_time":249000000000,"state":"active","ping":101},{"user_id":873,"name":"Fitz","steam_id":76561198092027330,"connected_time":212000000000,"state":"active","ping":70},{"user_id":874,"name":"Trumpetspyman59","steam_id":76561198048989561,"connected_time":201000000000,"state":"active","ping":74},{"user_id":875,"name":"Block O' Chedda","steam_id":76561198262385709,"connected_time":195000000000,"state":"active","ping":77},{"user_id":862,"name":"tlm","steam_id":76561198178457461,"connected_time":1081000000000,"state":"active","ping":60}]},{"server_id":38,"name":"Uncletopia | Chicago | 7 | Stopwatch","name_short":"chi-7","host":"chi-2.us.uncletopia.com","port":27035,"enabled":true,"region":"us-central","cc":"us","latitude":41.881832,"longitude":-87.62318,"reserved":0,"last_update":"0001-01-01T00:00:00Z","name_a2s":"Uncletopia | Chicago | 7 | Stopwatch","protocol":17,"map":"pl_badwater","folder":"tf","game":"Team Fortress","app_id":440,"player_count":0,"max_players":24,"Bots":0,"server_type":"Dedicated","server_os":"Linux","password":true,"vac":true,"version":"7961495","steam_id":85568392924866364,"keywords":["nocrits","nodmgspread","payload","uncletopia"],"game_id":440,"stv_port":27036,"stv_name":"Uncletopia | Chicago | 7 | Stopwatch | STV","players":null},{"server_id":39,"name":"Uncletopia | Chicago | 8 | Community","name_short":"chi-8","host":"chi-2.us.uncletopia.com","port":27045,"enabled":true,"region":"us-central","cc":"us","latitude":41.881832,"longitude":-87.62318,"reserved":0,"last_update":"0001-01-01T00:00:00Z","name_a2s":"Uncletopia | Chicago | 8 | Community","protocol":17,"map":"workshop/pl_highwood_b13.ugc1769496557","folder":"tf","game":"Team Fortress","app_id":440,"player_count":24,"max_players":24,"Bots":0,"server_type":"Dedicated","server_os":"Linux","password":true,"vac":true,"version":"7961495","steam_id":85568392924866365,"keywords":["nocrits","nodmgspread","payload","uncletopia"],"game_id":440,"stv_port":27046,"stv_name":"Uncletopia | Chicago | 8 | Community | STV","players":[{"user_id":137,"name":"There is a hot muffler up my as","steam_id":76561198213863907,"connected_time":1214000000000,"state":"active","ping":121},{"user_id":132,"name":"b-dot","steam_id":76561198160786631,"connected_time":2376000000000,"state":"active","ping":74},{"user_id":138,"name":"JC The Dumb","steam_id":76561199186185567,"connected_time":1198000000000,"state":"active","ping":107},{"user_id":139,"name":"pill","steam_id":76561198051310816,"connected_time":899000000000,"state":"active","ping":70},{"user_id":143,"name":"Captain Chicken","steam_id":76561198047767530,"connected_time":338000000000,"state":"active","ping":109},{"user_id":141,"name":"raspy","steam_id":76561198027298961,"connected_time":667000000000,"state":"active","ping":60},{"user_id":122,"name":"Bestmaster202","steam_id":76561198235282680,"connected_time":3925000000000,"state":"active","ping":109},{"user_id":116,"name":"Man Man","steam_id":76561199068338634,"connected_time":4091000000000,"state":"active","ping":78},{"user_id":144,"name":"Arrythmia","steam_id":76561198093748123,"connected_time":181000000000,"state":"active","ping":75},{"user_id":126,"name":"kaputon","steam_id":76561198146299782,"connected_time":3677000000000,"state":"active","ping":61},{"user_id":118,"name":"social distance warrior","steam_id":76561198128992994,"connected_time":4028000000000,"state":"active","ping":84},{"user_id":85,"name":"canofspaghettios","steam_id":76561198124204246,"connected_time":6913000000000,"state":"active","ping":60},{"user_id":145,"name":"Chap","steam_id":76561198294226443,"connected_time":166000000000,"state":"active","ping":111},{"user_id":128,"name":"roddy ricch - ballin","steam_id":76561198111290441,"connected_time":3347000000000,"state":"active","ping":58},{"user_id":146,"name":"J21","steam_id":76561198066590783,"connected_time":120000000000,"state":"active","ping":72},{"user_id":119,"name":"Chiaki Nanami","steam_id":76561198164782653,"connected_time":4025000000000,"state":"active","ping":64},{"user_id":136,"name":"Hellbound","steam_id":76561198319648930,"connected_time":1731000000000,"state":"active","ping":56},{"user_id":120,"name":"gerg","steam_id":76561197997127387,"connected_time":4014000000000,"state":"active","ping":98},{"user_id":147,"name":"One Horned Bitch Destroyer","steam_id":76561198045810191,"connected_time":67000000000,"state":"spawning","ping":191},{"user_id":121,"name":"Ocean Man","steam_id":76561198294511218,"connected_time":4003000000000,"state":"active","ping":117},{"user_id":148,"name":"HeaT","steam_id":76561198089227368,"connected_time":61000000000,"state":"spawning","ping":454},{"user_id":105,"name":"Skeleton Hotel","steam_id":76561198041704727,"connected_time":5005000000000,"state":"active","ping":58},{"user_id":104,"name":"meth","steam_id":76561198118715586,"connected_time":5324000000000,"state":"active","ping":88},{"user_id":149,"name":"Dr. Pleasant","steam_id":76561198111945101,"connected_time":53000000000,"state":"active","ping":72}]},{"server_id":8,"name":"Uncletopia | Dallas | 1 | All Maps","name_short":"dal-1","host":"dal-1.us.uncletopia.com","port":27015,"enabled":true,"region":"us-central","cc":"us","latitude":32.779167,"longitude":-96.80889,"reserved":0,"last_update":"0001-01-01T00:00:00Z","name_a2s":"Uncletopia | Dallas | 1 | All Maps","protocol":17,"map":"ctf_2fort","folder":"tf","game":"Team Fortress","app_id":440,"player_count":16,"max_players":24,"Bots":0,"server_type":"Dedicated","server_os":"Linux","password":true,"vac":true,"version":"7961495","steam_id":85568392924469986,"keywords":["ctf","nocrits","nodmgspread","uncletopia"],"game_id":440,"stv_port":27016,"stv_name":"Uncletopia | Dallas | 1 | All Maps | STV","players":[{"user_id":757,"name":"Shisho","steam_id":76561198800199201,"connected_time":2381000000000,"state":"active","ping":51},{"user_id":772,"name":"Homewrecker Bill","steam_id":76561198120379171,"connected_time":754000000000,"state":"active","ping":116},{"user_id":773,"name":"The Apoleon","steam_id":76561198870709855,"connected_time":669000000000,"state":"active","ping":83},{"user_id":756,"name":"‚ô†Silver‚ô†","steam_id":76561198206109224,"connected_time":2668000000000,"state":"active","ping":156},{"user_id":774,"name":"chickin soup","steam_id":76561198830376305,"connected_time":669000000000,"state":"active","ping":110},{"user_id":768,"name":"kreeper700","steam_id":76561199495556056,"connected_time":1269000000000,"state":"active","ping":101},{"user_id":760,"name":"PizzaFratello","steam_id":76561199059951970,"connected_time":2198000000000,"state":"active","ping":69},{"user_id":770,"name":"Randy \"the Man\" Johnson","steam_id":76561198039124445,"connected_time":820000000000,"state":"active","ping":106},{"user_id":771,"name":"Rearranging furniture","steam_id":76561199054971009,"connected_time":808000000000,"state":"active","ping":46},{"user_id":734,"name":"Tommy Provolone","steam_id":76561198170062377,"connected_time":5172000000000,"state":"active","ping":66},{"user_id":763,"name":"Voodoo","steam_id":76561199082256740,"connected_time":2108000000000,"state":"active","ping":92},{"user_id":775,"name":"AffirmedDrip13","steam_id":76561198241951532,"connected_time":563000000000,"state":"active","ping":65},{"user_id":784,"name":"Username","steam_id":76561198198918781,"connected_time":9000000000,"state":"spawning","ping":82},{"user_id":783,"name":"Siev","steam_id":76561198000518937,"connected_time":88000000000,"state":"active","ping":61},{"user_id":782,"name":"Basement Creep","steam_id":76561198127730236,"connected_time":145000000000,"state":"active","ping":86},{"user_id":781,"name":"hollowheart","steam_id":76561198057884377,"connected_time":307000000000,"state":"active","ping":62}]},{"server_id":108,"name":"Uncletopia | Dallas | 2 | All Maps","name_short":"dal-2","host":"dal-1.us.uncletopia.com","port":27025,"enabled":true,"region":"us-central","cc":"us","latitude":32.779167,"longitude":-96.80889,"reserved":0,"last_update":"0001-01-01T00:00:00Z","name_a2s":"Uncletopia | Dallas | 2 | All Maps","protocol":17,"map":"cp_snakewater_final1","folder":"tf","game":"Team Fortress","app_id":440,"player_count":16,"max_players":24,"Bots":0,"server_type":"Dedicated","server_os":"Linux","password":true,"vac":true,"version":"7961495","steam_id":85568392924469988,"keywords":["cp","nocrits","nodmgspread","uncletopia"],"game_id":440,"stv_port":27026,"stv_name":"Uncletopia | Dallas | 2 | All Maps | STV","players":[{"user_id":736,"name":"Auxientios","steam_id":76561198232952908,"connected_time":154000000000,"state":"active","ping":66},{"user_id":737,"name":"D3M0N R0KKSTAR","steam_id":76561198206177593,"connected_time":45000000000,"state":"active","ping":75},{"user_id":734,"name":"H2OBourne","steam_id":76561198396293109,"connected_time":216000000000,"state":"active","ping":56},{"user_id":735,"name":"U œâ U","steam_id":76561198118802562,"connected_time":208000000000,"state":"active","ping":86},{"user_id":722,"name":"silly jester","steam_id":76561198079609974,"connected_time":591000000000,"state":"active","ping":87},{"user_id":717,"name":"La Bomba","steam_id":76561198069948353,"connected_time":890000000000,"state":"active","ping":76},{"user_id":693,"name":"Bisque","steam_id":76561198327661850,"connected_time":1944000000000,"state":"active","ping":66},{"user_id":512,"name":"Clockey","steam_id":76561198386319583,"connected_time":9279000000000,"state":"active","ping":51},{"user_id":648,"name":"7__2","steam_id":76561198074184077,"connected_time":3154000000000,"state":"active","ping":53},{"user_id":728,"name":"Anomalocaris Gay Ming","steam_id":76561198257921898,"connected_time":405000000000,"state":"active","ping":106},{"user_id":731,"name":"{ST} Oxythemoron","steam_id":76561198060089965,"connected_time":344000000000,"state":"active","ping":49},{"user_id":650,"name":"little_neb","steam_id":76561198117396733,"connected_time":3146000000000,"state":"active","ping":56},{"user_id":556,"name":"D0nutSlayer","steam_id":76561198143123007,"connected_time":5983000000000,"state":"active","ping":62},{"user_id":726,"name":"bulbasaur890","steam_id":76561198093443639,"connected_time":477000000000,"state":"active","ping":51},{"user_id":704,"name":"DankeyDang","steam_id":76561198299798796,"connected_time":1542000000000,"state":"active","ping":87},{"user_id":707,"name":"YoteDab McFapDab.jpg","steam_id":76561197984870380,"connected_time":1370000000000,"state":"active","ping":84}]},{"server_id":404,"name":"Uncletopia | Dallas | 3 | All Maps","name_short":"dal-3","host":"dal-1.us.uncletopia.com","port":27035,"enabled":true,"region":"us-central","cc":"us","latitude":32.779167,"longitude":-96.80889,"reserved":0,"last_update":"0001-01-01T00:00:00Z","name_a2s":"Uncletopia | Dallas | 3 | All Maps","protocol":17,"map":"koth_cascade","folder":"tf","game":"Team Fortress","app_id":440,"player_count":0,"max_players":24,"Bots":0,"server_type":"Dedicated","server_os":"Linux","password":true,"vac":true,"version":"7961495","steam_id":85568392924515219,"keywords":["cp","nocrits","nodmgspread","uncletopia"],"game_id":440,"stv_port":27036,"stv_name":"Uncletopia | Dallas | 3 | All Maps | STV","players":null},{"server_id":405,"name":"Uncletopia | Dallas | 4 | Community","name_short":"dal-4","host":"dal-1.us.uncletopia.com","port":27045,"enabled":true,"region":"us-central","cc":"us","latitude":32.779167,"longitude":-96.80889,"reserved":0,"last_update":"0001-01-01T00:00:00Z","name_a2s":"Uncletopia | Dallas | 4 | Community","protocol":17,"map":"workshop/cp_bruhstbowl_b6.ugc2878604990","folder":"tf","game":"Team Fortress","app_id":440,"player_count":0,"max_players":24,"Bots":0,"server_type":"Dedicated","server_os":"Linux","password":true,"vac":true,"version":"7961495","steam_id":85568392924515220,"keywords":["cp","nocrits","nodmgspread","uncletopia"],"game_id":440,"stv_port":27046,"stv_name":"Uncletopia | Dallas | 4 | Community | STV","players":null},{"server_id":5,"name":"Uncletopia | Frankfurt | 1 | All Maps","name_short":"frk-1","host":"frk-1.de.uncletopia.com","port":27015,"enabled":true,"region":"eu","cc":"de","latitude":50.110924,"longitude":8.682127,"reserved":0,"last_update":"0001-01-01T00:00:00Z","name_a2s":"Uncletopia | Frankfurt | 1 | All Maps","protocol":17,"map":"koth_highpass","folder":"tf","game":"Team Fortress","app_id":440,"player_count":0,"max_players":24,"Bots":0,"server_type":"Dedicated","server_os":"Linux","password":true,"vac":true,"version":"7961495","steam_id":85568392924469989,"keywords":["cp","nocrits","nodmgspread","uncletopia"],"game_id":440,"stv_port":27016,"stv_name":"Uncletopia | Frankfurt | 1 | All Maps | STV","players":null},{"server_id":110,"name":"Uncletopia | Frankfurt | 2 | All Maps","name_short":"frk-2","host":"frk-1.de.uncletopia.com","port":27025,"enabled":true,"region":"eu","cc":"de","latitude":50.110924,"longitude":8.682127,"reserved":0,"last_update":"0001-01-01T00:00:00Z","name_a2s":"Uncletopia | Frankfurt | 2 | All Maps","protocol":17,"map":"cp_dustbowl","folder":"tf","game":"Team Fortress","app_id":440,"player_count":0,"max_players":24,"Bots":0,"server_type":"Dedicated","server_os":"Linux","password":true,"vac":true,"version":"7961495","steam_id":85568392924469990,"keywords":["cp","nocrits","nodmgspread","uncletopia"],"game_id":440,"stv_port":27026,"stv_name":"Uncletopia | Frankfurt | 2 | All Maps | STV","players":null},{"server_id":308,"name":"Uncletopia | Frankfurt | 3 | All Maps","name_short":"frk-3","host":"frk-1.de.uncletopia.com","port":27035,"enabled":true,"region":"eu","cc":"de","latitude":50.110924,"longitude":8.682127,"reserved":0,"last_update":"0001-01-01T00:00:00Z","name_a2s":"Uncletopia | Frankfurt | 3 | All Maps","protocol":17,"map":"koth_cascade","folder":"tf","game":"Team Fortress","app_id":440,"player_count":0,"max_players":24,"Bots":0,"server_type":"Dedicated","server_os":"Linux","password":true,"vac":true,"version":"7961495","steam_id":85568392924504274,"keywords":["cp","nocrits","nodmgspread","uncletopia"],"game_id":440,"stv_port":27036,"stv_name":"Uncletopia | Frankfurt | 3 | All Maps | STV","players":null},{"server_id":309,"name":"Uncletopia | Frankfurt | 4 | All Maps","name_short":"frk-4","host":"frk-1.de.uncletopia.com","port":27045,"enabled":true,"region":"eu","cc":"de","latitude":50.110924,"longitude":8.682127,"reserved":0,"last_update":"0001-01-01T00:00:00Z","name_a2s":"Uncletopia | Frankfurt | 4 | All Maps","protocol":17,"map":"koth_highpass","folder":"tf","game":"Team Fortress","app_id":440,"player_count":0,"max_players":24,"Bots":0,"server_type":"Dedicated","server_os":"Linux","password":true,"vac":true,"version":"7961495","steam_id":85568392924504275,"keywords":["cp","nocrits","nodmgspread","uncletopia"],"game_id":440,"stv_port":27046,"stv_name":"Uncletopia | Frankfurt | 4 | All Maps | STV","players":null},{"server_id":310,"name":"Uncletopia | Frankfurt | 5 | All Maps","name_short":"frk-5","host":"frk-1.de.uncletopia.com","port":27055,"enabled":true,"region":"eu","cc":"de","latitude":50.110924,"longitude":8.682127,"reserved":0,"last_update":"0001-01-01T00:00:00Z","name_a2s":"Uncletopia | Frankfurt | 5 | All Maps","protocol":17,"map":"pl_badwater","folder":"tf","game":"Team Fortress","app_id":440,"player_count":0,"max_players":24,"Bots":0,"server_type":"Dedicated","server_os":"Linux","password":true,"vac":true,"version":"7961495","steam_id":85568392924504277,"keywords":["nocrits","nodmgspread","payload","uncletopia"],"game_id":440,"stv_port":27056,"stv_name":"Uncletopia | Frankfurt | 5 | All Maps | STV","players":null},{"server_id":311,"name":"Uncletopia | Frankfurt | 6 | All Maps","name_short":"frk-6","host":"frk-1.de.uncletopia.com","port":27065,"enabled":true,"region":"eu","cc":"de","latitude":50.110924,"longitude":8.682127,"reserved":0,"last_update":"0001-01-01T00:00:00Z","name_a2s":"Uncletopia | Frankfurt | 6 | All Maps","protocol":17,"map":"cp_altitude","folder":"tf","game":"Team Fortress","app_id":440,"player_count":0,"max_players":24,"Bots":0,"server_type":"Dedicated","server_os":"Linux","password":true,"vac":true,"version":"7961495","steam_id":85568392924504278,"keywords":["cp","nocrits","nodmgspread","uncletopia"],"game_id":440,"stv_port":27066,"stv_name":"Uncletopia | Frankfurt | 6 | All Maps | STV","players":null},{"server_id":23,"name":"Uncletopia | Frankfurt | 7 | Stopwatch","name_short":"frk-7","host":"frk-1.de.uncletopia.com","port":27075,"enabled":true,"region":"eu","cc":"de","latitude":50.110924,"longitude":8.682127,"reserved":0,"last_update":"0001-01-01T00:00:00Z","name_a2s":"Uncletopia | Frankfurt | 7 | Stopwatch","protocol":17,"map":"pl_frontier_final","folder":"tf","game":"Team Fortress","app_id":440,"player_count":2,"max_players":24,"Bots":0,"server_type":"Dedicated","server_os":"Linux","password":true,"vac":true,"version":"7961495","steam_id":85568392924742827,"keywords":["nocrits","nodmgspread","payload","uncletopia"],"game_id":440,"stv_port":27076,"stv_name":"Uncletopia | Frankfurt | 7 | Stopwatch | STV","players":[{"user_id":3,"name":"Check your windows","steam_id":76561199230379349,"connected_time":335000000000,"state":"active","ping":68},{"user_id":4,"name":"FlocarioTheDemon","steam_id":76561199496652334,"connected_time":321000000000,"state":"active","ping":62}]},{"server_id":24,"name":"Uncletopia | Frankfurt | 8 | Community","name_short":"frk-8","host":"frk-1.de.uncletopia.com","port":27085,"enabled":true,"region":"eu","cc":"de","latitude":50.110924,"longitude":8.682127,"reserved":0,"last_update":"0001-01-01T00:00:00Z","name_a2s":"Uncletopia | Frankfurt | 8 | Community","protocol":17,"map":"cp_mountainlab","folder":"tf","game":"Team Fortress","app_id":440,"player_count":0,"max_players":24,"Bots":0,"server_type":"Dedicated","server_os":"Linux","password":true,"vac":true,"version":"7961495","steam_id":85568392924742828,"keywords":["cp","nocrits","nodmgspread","uncletopia"],"game_id":440,"stv_port":27086,"stv_name":"Uncletopia | Frankfurt | 8 | Community | STV","players":null},{"server_id":202,"name":"Uncletopia | Hong Kong | 1 | All Maps","name_short":"hgk-1","host":"hgk-1.hk.uncletopia.com","port":27015,"enabled":true,"region":"asia","cc":"hk","latitude":22.302711,"longitude":114.177216,"reserved":0,"last_update":"0001-01-01T00:00:00Z","name_a2s":"Uncletopia | Hong Kong | 1 | All Maps","protocol":17,"map":"pl_badwater","folder":"tf","game":"Team Fortress","app_id":440,"player_count":24,"max_players":24,"Bots":0,"server_type":"Dedicated","server_os":"Linux","password":true,"vac":true,"version":"7961495","steam_id":85568392924494504,"keywords":["nocrits","nodmgspread","payload","uncletopia"],"game_id":440,"stv_port":27016,"stv_name":"Uncletopia | Hong Kong | 1 | All Maps | STV","players":[{"user_id":247,"name":"Scrappy","steam_id":76561198970038475,"connected_time":1539000000000,"state":"active","ping":156},{"user_id":253,"name":"pissmaster","steam_id":76561197990537324,"connected_time":1155000000000,"state":"active","ping":146},{"user_id":225,"name":"churropan","steam_id":76561199258385450,"connected_time":2738000000000,"state":"active","ping":97},{"user_id":257,"name":"JDSFE","steam_id":76561198975490851,"connected_time":293000000000,"state":"active","ping":84},{"user_id":176,"name":"vintage","steam_id":76561198230213828,"connected_time":5604000000000,"state":"active","ping":60},{"user_id":258,"name":"Nephew Nate","steam_id":76561199137872034,"connected_time":292000000000,"state":"active","ping":106},{"user_id":233,"name":"Ë∂ôÂñúÂ®ú","steam_id":76561198061628689,"connected_time":2533000000000,"state":"active","ping":56},{"user_id":250,"name":"Lu","steam_id":76561198320532821,"connected_time":1412000000000,"state":"active","ping":129},{"user_id":232,"name":"SunShine","steam_id":76561198323642446,"connected_time":2547000000000,"state":"active","ping":100},{"user_id":240,"name":"protons","steam_id":76561198008307645,"connected_time":2102000000000,"state":"active","ping":109},{"user_id":264,"name":"justify","steam_id":76561199227541378,"connected_time":221000000000,"state":"active","ping":145},{"user_id":241,"name":"feet fetish","steam_id":76561198164297839,"connected_time":2085000000000,"state":"active","ping":80},{"user_id":212,"name":"xPhid","steam_id":76561199080808930,"connected_time":3796000000000,"state":"active","ping":87},{"user_id":254,"name":"komaki","steam_id":76561198989168133,"connected_time":337000000000,"state":"active","ping":85},{"user_id":246,"name":"twentyfourseven","steam_id":76561198339641444,"connected_time":1644000000000,"state":"active","ping":81},{"user_id":219,"name":"nyakky","steam_id":76561198927779787,"connected_time":3232000000000,"state":"active","ping":102},{"user_id":234,"name":"waira","steam_id":76561198010097954,"connected_time":2372000000000,"state":"active","ping":112},{"user_id":209,"name":"MANCO FETT","steam_id":76561198107128889,"connected_time":4088000000000,"state":"active","ping":87},{"user_id":252,"name":"Darknight","steam_id":76561199090139287,"connected_time":1185000000000,"state":"active","ping":89},{"user_id":260,"name":"1803097987","steam_id":76561198846939339,"connected_time":270000000000,"state":"active","ping":87},{"user_id":245,"name":"IHS","steam_id":76561198048065303,"connected_time":1672000000000,"state":"active","ping":140},{"user_id":255,"name":"2746","steam_id":76561199390507975,"connected_time":320000000000,"state":"active","ping":59},{"user_id":261,"name":"Gaz","steam_id":76561199081356069,"connected_time":257000000000,"state":"active","ping":139},{"user_id":263,"name":"water tastes good","steam_id":76561199375947670,"connected_time":243000000000,"state":"active","ping":74}]},{"server_id":1,"name":"Uncletopia | Los Angeles | 1 | All Maps","name_short":"lax-1","host":"lax-1.us.uncletopia.com","port":27015,"enabled":true,"region":"us-west","cc":"us","latitude":33.94279,"longitude":-118.41004,"reserved":0,"last_update":"0001-01-01T00:00:00Z","name_a2s":"Uncletopia | Los Angeles | 1 | All Maps","protocol":17,"map":"cp_sunshine","folder":"tf","game":"Team Fortress","app_id":440,"player_count":24,"max_players":24,"Bots":0,"server_type":"Dedicated","server_os":"Linux","password":true,"vac":true,"version":"7961495","steam_id":85568392924469991,"keywords":["cp","nocrits","nodmgspread","uncletopia"],"game_id":440,"stv_port":27016,"stv_name":"Uncletopia | Los Angeles | 1 | All Maps | STV","players":[{"user_id":599,"name":"Punished Jeff #NeverSimpAgain","steam_id":76561198304252584,"connected_time":30000000000,"state":"active","ping":64},{"user_id":480,"name":"werolat","steam_id":76561197960544784,"connected_time":9124000000000,"state":"active","ping":52},{"user_id":590,"name":"i cant aim","steam_id":76561198065873462,"connected_time":1087000000000,"state":"active","ping":47},{"user_id":592,"name":"the slay queen of yassville","steam_id":76561198049258493,"connected_time":1021000000000,"state":"active","ping":88},{"user_id":587,"name":"(TPT) Ghost","steam_id":76561198123262873,"connected_time":1953000000000,"state":"active","ping":58},{"user_id":589,"name":"hog cranker","steam_id":76561198073587145,"connected_time":1452000000000,"state":"active","ping":243},{"user_id":560,"name":"coffee veins","steam_id":76561198044004639,"connected_time":3935000000000,"state":"active","ping":84},{"user_id":597,"name":"doctor sex","steam_id":76561198936412406,"connected_time":880000000000,"state":"active","ping":124},{"user_id":568,"name":"Gawin Goodman","steam_id":76561198192661585,"connected_time":3366000000000,"state":"active","ping":75},{"user_id":584,"name":"Meso","steam_id":76561199088153190,"connected_time":2008000000000,"state":"active","ping":84},{"user_id":598,"name":"Â¶ÇÈ°ò","steam_id":76561198038486613,"connected_time":57000000000,"state":"active","ping":120},{"user_id":533,"name":"Vinnie","steam_id":76561198067894894,"connected_time":5341000000000,"state":"active","ping":50},{"user_id":578,"name":"Abril","steam_id":76561199496059845,"connected_time":2052000000000,"state":"active","ping":107},{"user_id":593,"name":"-L","steam_id":76561198046074220,"connected_time":1004000000000,"state":"active","ping":35},{"user_id":588,"name":"‚ô•‚ô°‚àûiMaCH‚àû‚ô°‚ô•","steam_id":76561198820527565,"connected_time":1885000000000,"state":"active","ping":74},{"user_id":594,"name":"Pyrotek‚Å¥","steam_id":76561198072747672,"connected_time":1003000000000,"state":"active","ping":44},{"user_id":583,"name":"blinker foo","steam_id":76561198105374054,"connected_time":2008000000000,"state":"active","ping":67},{"user_id":595,"name":"Platinum Chain","steam_id":76561198129935351,"connected_time":1001000000000,"state":"active","ping":73},{"user_id":561,"name":"MegaMott","steam_id":76561199172245274,"connected_time":3904000000000,"state":"active","ping":64},{"user_id":530,"name":"Anon","steam_id":76561198109740776,"connected_time":5426000000000,"state":"active","ping":51},{"user_id":577,"name":"Cricket","steam_id":76561198200037217,"connected_time":2544000000000,"state":"active","ping":127},{"user_id":562,"name":"Livin' Like Larry","steam_id":76561198313360974,"connected_time":3886000000000,"state":"active","ping":48},{"user_id":596,"name":"Uluyo","steam_id":76561198065857148,"connected_time":926000000000,"state":"active","ping":69},{"user_id":574,"name":"FROYO b4nny","steam_id":76561197970669109,"connected_time":2791000000000,"state":"active","ping":56}]},{"server_id":112,"name":"Uncletopia | Los Angeles | 2 | All Maps","name_short":"lax-2","host":"lax-1.us.uncletopia.com","port":27025,"enabled":true,"region":"us-west","cc":"us","latitude":33.94279,"longitude":-118.41004,"reserved":0,"last_update":"0001-01-01T00:00:00Z","name_a2s":"Uncletopia | Los Angeles | 2 | All Maps","protocol":17,"map":"cp_mossrock","folder":"tf","game":"Team Fortress","app_id":440,"player_count":24,"max_players":24,"Bots":0,"server_type":"Dedicated","server_os":"Linux","password":true,"vac":true,"version":"7961495","steam_id":85568392924469992,"keywords":["cp","nocrits","nodmgspread","uncletopia"],"game_id":440,"stv_port":27026,"stv_name":"Uncletopia | Los Angeles | 2 | All Maps | STV","players":[{"user_id":924,"name":"thug shaker central","steam_id":76561198121268007,"connected_time":3054000000000,"state":"active","ping":64},{"user_id":916,"name":"walrooos #hotlinebling","steam_id":76561198024521839,"connected_time":3423000000000,"state":"active","ping":40},{"user_id":917,"name":"Tubit","steam_id":76561198135810557,"connected_time":3402000000000,"state":"active","ping":93},{"user_id":934,"name":"Thunder","steam_id":76561198097721532,"connected_time":2188000000000,"state":"active","ping":46},{"user_id":932,"name":"SanitysEdge","steam_id":76561198130732813,"connected_time":2388000000000,"state":"active","ping":46},{"user_id":926,"name":"Mocha Josie","steam_id":76561198066452726,"connected_time":2826000000000,"state":"active","ping":51},{"user_id":936,"name":"Tosh","steam_id":76561198026948976,"connected_time":2023000000000,"state":"active","ping":44},{"user_id":935,"name":"shreklover69","steam_id":76561198054070811,"connected_time":2181000000000,"state":"active","ping":51},{"user_id":957,"name":"Silvermace","steam_id":76561198090696843,"connected_time":99000000000,"state":"active","ping":44},{"user_id":894,"name":"Seriously Bruh","steam_id":76561198070408485,"connected_time":4848000000000,"state":"active","ping":77},{"user_id":945,"name":"An00bis","steam_id":76561198044084508,"connected_time":1059000000000,"state":"active","ping":55},{"user_id":955,"name":"Metalogic","steam_id":76561198049469629,"connected_time":634000000000,"state":"active","ping":86},{"user_id":896,"name":"SmallErection","steam_id":76561198071770147,"connected_time":4834000000000,"state":"active","ping":121},{"user_id":948,"name":"Super Saiyan Bear","steam_id":76561198063118280,"connected_time":845000000000,"state":"active","ping":60},{"user_id":938,"name":"evil","steam_id":76561199001918194,"connected_time":1842000000000,"state":"active","ping":66},{"user_id":949,"name":"Jray","steam_id":76561198831619367,"connected_time":826000000000,"state":"active","ping":90},{"user_id":933,"name":"sola venereum","steam_id":76561198368179166,"connected_time":2369000000000,"state":"active","ping":40},{"user_id":939,"name":"CantaloupeKing","steam_id":76561198041949472,"connected_time":1806000000000,"state":"active","ping":70},{"user_id":954,"name":"CLB","steam_id":76561198057971005,"connected_time":655000000000,"state":"active","ping":74},{"user_id":958,"name":"CheeseCake488","steam_id":76561199407617942,"connected_time":2000000000,"state":"spawning","ping":105},{"user_id":956,"name":"Your Dinosaurs","steam_id":76561198392670237,"connected_time":543000000000,"state":"active","ping":55},{"user_id":937,"name":"2","steam_id":76561198037332418,"connected_time":1994000000000,"state":"active","ping":73},{"user_id":928,"name":"thom yorke official","steam_id":76561198361382279,"connected_time":2775000000000,"state":"active","ping":68},{"user_id":923,"name":"PillCosby","steam_id":76561199396184696,"connected_time":3129000000000,"state":"active","ping":75}]},{"server_id":324,"name":"Uncletopia | Los Angeles | 3 | All Maps","name_short":"lax-3","host":"lax-1.us.uncletopia.com","port":27035,"enabled":true,"region":"us-west","cc":"us","latitude":33.94279,"longitude":-118.41004,"reserved":0,"last_update":"0001-01-01T00:00:00Z","name_a2s":"Uncletopia | Los Angeles | 3 | All Maps","protocol":17,"map":"pl_pier","folder":"tf","game":"Team Fortress","app_id":440,"player_count":0,"max_players":24,"Bots":0,"server_type":"Dedicated","server_os":"Linux","password":true,"vac":true,"version":"7961495","steam_id":85568392924510198,"keywords":["nocrits","nodmgspread","payload","uncletopia"],"game_id":440,"stv_port":27036,"stv_name":"Uncletopia | Los Angeles | 3 | All Maps | STV","players":null},{"server_id":25,"name":"Uncletopia | Los Angeles | 4 | Stopwatch","name_short":"lax-4","host":"lax-1.us.uncletopia.com","port":27045,"enabled":true,"region":"us-west","cc":"us","latitude":33.94279,"longitude":-118.41004,"reserved":0,"last_update":"0001-01-01T00:00:00Z","name_a2s":"Uncletopia | Los Angeles | 4 | Stopwatch","protocol":17,"map":"workshop/cp_process_f12.ugc2302948105","folder":"tf","game":"Team Fortress","app_id":440,"player_count":0,"max_players":24,"Bots":0,"server_type":"Dedicated","server_os":"Linux","password":true,"vac":true,"version":"7961495","steam_id":85568392924510199,"keywords":["cp","nocrits","nodmgspread","uncletopia"],"game_id":440,"stv_port":27046,"stv_name":"Uncletopia | Los Angeles | 4 | Stopwatch | STV","players":null},{"server_id":11,"name":"Uncletopia | London | 1 | All Maps","name_short":"lon-1","host":"lon-1.uk.uncletopia.com","port":27015,"enabled":true,"region":"eu","cc":"gb","latitude":51.509865,"longitude":-0.118092,"reserved":0,"last_update":"0001-01-01T00:00:00Z","name_a2s":"Uncletopia | London | 1 | All Maps","protocol":17,"map":"pl_badwater","folder":"tf","game":"Team Fortress","app_id":440,"player_count":22,"max_players":24,"Bots":0,"server_type":"Dedicated","server_os":"Linux","password":true,"vac":true,"version":"7961495","steam_id":85568392924367362,"keywords":["nocrits","nodmgspread","payload","uncletopia"],"game_id":440,"stv_port":27016,"stv_name":"Uncletopia | London | 1 | All Maps | STV","players":[{"user_id":42,"name":"build","steam_id":76561198818037965,"connected_time":1795000000000,"state":"active","ping":106},{"user_id":65,"name":"Linguini","steam_id":76561198327750625,"connected_time":203000000000,"state":"active","ping":31},{"user_id":57,"name":"noseb","steam_id":76561199480942903,"connected_time":483000000000,"state":"active","ping":78},{"user_id":58,"name":"rets_","steam_id":76561198061551392,"connected_time":454000000000,"state":"active","ping":61},{"user_id":43,"name":"Frog and Toad Audio Books","steam_id":76561199182752057,"connected_time":1691000000000,"state":"active","ping":142},{"user_id":54,"name":"N√∫√∫b","steam_id":76561198111933414,"connected_time":750000000000,"state":"active","ping":77},{"user_id":46,"name":"Chiabuvis","steam_id":76561198450037172,"connected_time":1393000000000,"state":"active","ping":72},{"user_id":10,"name":"Splendorous","steam_id":76561198880320499,"connected_time":5578000000000,"state":"active","ping":49},{"user_id":35,"name":"Rin-Nakaret","steam_id":76561197971051188,"connected_time":2094000000000,"state":"active","ping":59},{"user_id":28,"name":"close your eyes","steam_id":76561199000490449,"connected_time":3168000000000,"state":"active","ping":116},{"user_id":31,"name":"Jebediah Kerman","steam_id":76561198173846714,"connected_time":2627000000000,"state":"active","ping":59},{"user_id":37,"name":"Neimon","steam_id":76561198343485710,"connected_time":2056000000000,"state":"active","ping":134},{"user_id":59,"name":"Meow","steam_id":76561198062433153,"connected_time":439000000000,"state":"active","ping":117},{"user_id":70,"name":"Chicken Fillet","steam_id":76561198062267267,"connected_time":58000000000,"state":"active","ping":108},{"user_id":61,"name":"Astolfo","steam_id":76561198354584982,"connected_time":405000000000,"state":"active","ping":62},{"user_id":51,"name":"UglyTwinYgor","steam_id":76561198132718039,"connected_time":856000000000,"state":"active","ping":86},{"user_id":55,"name":"Buddyram5","steam_id":76561198409858620,"connected_time":590000000000,"state":"active","ping":129},{"user_id":62,"name":"night.s","steam_id":76561198326287823,"connected_time":343000000000,"state":"active","ping":76},{"user_id":64,"name":"Avon","steam_id":76561199021652529,"connected_time":271000000000,"state":"active","ping":109},{"user_id":66,"name":"Dry","steam_id":76561198027164095,"connected_time":174000000000,"state":"active","ping":132},{"user_id":67,"name":"throne","steam_id":76561198059723960,"connected_time":163000000000,"state":"active","ping":59},{"user_id":69,"name":"marvi444","steam_id":76561198431534139,"connected_time":89000000000,"state":"spawning","ping":62}]},{"server_id":114,"name":"Uncletopia | London | 2 | All Maps","name_short":"lon-2","host":"lon-1.uk.uncletopia.com","port":27025,"enabled":true,"region":"eu","cc":"gb","latitude":51.509865,"longitude":-0.118092,"reserved":0,"last_update":"0001-01-01T00:00:00Z","name_a2s":"Uncletopia | London | 2 | All Maps","protocol":17,"map":"koth_lakeside_final","folder":"tf","game":"Team Fortress","app_id":440,"player_count":0,"max_players":24,"Bots":0,"server_type":"Dedicated","server_os":"Linux","password":true,"vac":true,"version":"7961495","steam_id":85568392924470941,"keywords":["cp","nocrits","nodmgspread","uncletopia"],"game_id":440,"stv_port":27026,"stv_name":"Uncletopia | London | 2 | All Maps | STV","players":null},{"server_id":320,"name":"Uncletopia | London | 3 | All Maps","name_short":"lon-3","host":"lon-1.uk.uncletopia.com","port":27035,"enabled":true,"region":"eu","cc":"gb","latitude":51.509865,"longitude":-0.118092,"reserved":0,"last_update":"0001-01-01T00:00:00Z","name_a2s":"Uncletopia | London | 3 | All Maps","protocol":17,"map":"cp_process_final","folder":"tf","game":"Team Fortress","app_id":440,"player_count":0,"max_players":24,"Bots":0,"server_type":"Dedicated","server_os":"Linux","password":true,"vac":true,"version":"7961495","steam_id":85568392924510192,"keywords":["cp","nocrits","nodmgspread","uncletopia"],"game_id":440,"stv_port":27036,"stv_name":"Uncletopia | London | 3 | All Maps | STV","players":null},{"server_id":321,"name":"Uncletopia | London | 4 | All Maps","name_short":"lon-4","host":"lon-1.uk.uncletopia.com","port":27045,"enabled":true,"region":"eu","cc":"gb","latitude":51.509865,"longitude":-0.118092,"reserved":0,"last_update":"0001-01-01T00:00:00Z","name_a2s":"Uncletopia | London | 4 | All Maps","protocol":17,"map":"koth_cascade","folder":"tf","game":"Team Fortress","app_id":440,"player_count":0,"max_players":24,"Bots":0,"server_type":"Dedicated","server_os":"Linux","password":true,"vac":true,"version":"7961495","steam_id":85568392924510193,"keywords":["cp","nocrits","nodmgspread","uncletopia"],"game_id":440,"stv_port":27046,"stv_name":"Uncletopia | London | 4 | All Maps | STV","players":null},{"server_id":21,"name":"Uncletopia | London | 5 | All Maps","name_short":"lon-5","host":"lon-1.uk.uncletopia.com","port":27055,"enabled":true,"region":"eu","cc":"gb","latitude":51.509865,"longitude":-0.118092,"reserved":0,"last_update":"0001-01-01T00:00:00Z","name_a2s":"Uncletopia | London | 5 | All Maps","protocol":17,"map":"koth_lakeside_final","folder":"tf","game":"Team Fortress","app_id":440,"player_count":0,"max_players":24,"Bots":0,"server_type":"Dedicated","server_os":"Linux","password":true,"vac":true,"version":"7961495","steam_id":85568392924742829,"keywords":["cp","nocrits","nodmgspread","uncletopia"],"game_id":440,"stv_port":27056,"stv_name":"Uncletopia | London | 5 | All Maps | STV","players":null},{"server_id":22,"name":"Uncletopia | London | 6 | All Maps","name_short":"lon-6","host":"lon-1.uk.uncletopia.com","port":27065,"enabled":true,"region":"eu","cc":"gb","latitude":51.509865,"longitude":-0.118092,"reserved":0,"last_update":"0001-01-01T00:00:00Z","name_a2s":"Uncletopia | London | 6 | All Maps","protocol":17,"map":"cp_dustbowl","folder":"tf","game":"Team Fortress","app_id":440,"player_count":0,"max_players":24,"Bots":0,"server_type":"Dedicated","server_os":"Linux","password":true,"vac":true,"version":"7961495","steam_id":85568392924742830,"keywords":["cp","nocrits","nodmgspread","uncletopia"],"game_id":440,"stv_port":27066,"stv_name":"Uncletopia | London | 6 | All Maps | STV","players":null},{"server_id":40,"name":"Uncletopia | London | 7 | Stopwatch","name_short":"lon-7","host":"lon-1.uk.uncletopia.com","port":27075,"enabled":true,"region":"eu","cc":"gb","latitude":51.509865,"longitude":-0.118092,"reserved":0,"last_update":"0001-01-01T00:00:00Z","name_a2s":"Uncletopia | London | 7 | Stopwatch","protocol":17,"map":"koth_lakeside_final","folder":"tf","game":"Team Fortress","app_id":440,"player_count":0,"max_players":24,"Bots":0,"server_type":"Dedicated","server_os":"Linux","password":true,"vac":true,"version":"7961495","steam_id":85568392924964314,"keywords":["cp","nocrits","nodmgspread","uncletopia"],"game_id":440,"stv_port":27076,"stv_name":"Uncletopia | London | 7 | Stopwatch | STV","players":null},{"server_id":41,"name":"Uncletopia | London | 8 | Community","name_short":"lon-8","host":"lon-1.uk.uncletopia.com","port":27085,"enabled":true,"region":"eu","cc":"gb","latitude":51.509865,"longitude":-0.118092,"reserved":0,"last_update":"0001-01-01T00:00:00Z","name_a2s":"Uncletopia | London | 8 | Community","protocol":17,"map":"cp_snakewater_final1","folder":"tf","game":"Team Fortress","app_id":440,"player_count":0,"max_players":24,"Bots":0,"server_type":"Dedicated","server_os":"Linux","password":true,"vac":true,"version":"7961495","steam_id":85568392924964315,"keywords":["cp","nocrits","nodmgspread","uncletopia"],"game_id":440,"stv_port":27086,"stv_name":"Uncletopia | London | 8 | Community | STV","players":null},{"server_id":300,"name":"Uncletopia | Montr√©al | 1 | All Maps","name_short":"mtl-1","host":"mtl-1.ca.uncletopia.com","port":27015,"enabled":true,"region":"us-east","cc":"ca","latitude":45.50889,"longitude":-73.56167,"reserved":0,"last_update":"0001-01-01T00:00:00Z","name_a2s":"","protocol":0,"map":"","folder":"","game":"","app_id":0,"player_count":0,"max_players":0,"Bots":0,"server_type":"","server_os":"","password":false,"vac":false,"version":"","steam_id":0,"keywords":null,"game_id":0,"stv_port":0,"stv_name":"","players":null},{"server_id":301,"name":"Uncletopia | Montr√©al | 2 | ???","name_short":"mtl-2","host":"mtl-1.ca.uncletopia.com","port":27025,"enabled":true,"region":"us-east","cc":"ca","latitude":45.50889,"longitude":-73.56167,"reserved":0,"last_update":"0001-01-01T00:00:00Z","name_a2s":"","protocol":0,"map":"","folder":"","game":"","app_id":0,"player_count":0,"max_players":0,"Bots":0,"server_type":"","server_os":"","password":false,"vac":false,"version":"","steam_id":0,"keywords":null,"game_id":0,"stv_port":0,"stv_name":"","players":null},{"server_id":13,"name":"Uncletopia | New York City | 1 | All Maps","name_short":"nyc-1","host":"nyc-1.us.uncletopia.com","port":27015,"enabled":true,"region":"us-east","cc":"us","latitude":40.73061,"longitude":-73.93524,"reserved":0,"last_update":"0001-01-01T00:00:00Z","name_a2s":"Uncletopia | New York City | 1 | All Maps","protocol":17,"map":"koth_viaduct","folder":"tf","game":"Team Fortress","app_id":440,"player_count":0,"max_players":24,"Bots":0,"server_type":"Dedicated","server_os":"Linux","password":true,"vac":true,"version":"7961495","steam_id":85568392924469993,"keywords":["cp","nocrits","nodmgspread","uncletopia"],"game_id":440,"stv_port":27016,"stv_name":"Uncletopia | New York City | 1 | All Maps | STV","players":null},{"server_id":14,"name":"Uncletopia | New York City | 2 | All Maps","name_short":"nyc-2","host":"nyc-1.us.uncletopia.com","port":27025,"enabled":true,"region":"us-east","cc":"us","latitude":40.73061,"longitude":-73.93524,"reserved":0,"last_update":"0001-01-01T00:00:00Z","name_a2s":"Uncletopia | New York City | 2 | All Maps","protocol":17,"map":"koth_highpass","folder":"tf","game":"Team Fortress","app_id":440,"player_count":24,"max_players":24,"Bots":0,"server_type":"Dedicated","server_os":"Linux","password":true,"vac":true,"version":"7961495","steam_id":85568392924469994,"keywords":["cp","nocrits","nodmgspread","uncletopia"],"game_id":440,"stv_port":27026,"stv_name":"Uncletopia | New York City | 2 | All Maps | STV","players":[{"user_id":623,"name":"WHO WAS IN PARIS?","steam_id":76561198071502515,"connected_time":727000000000,"state":"active","ping":145},{"user_id":603,"name":"DarthPorgus69420","steam_id":76561198014429676,"connected_time":2936000000000,"state":"active","ping":73},{"user_id":624,"name":"It's FoolMoon","steam_id":76561198153344375,"connected_time":681000000000,"state":"active","ping":45},{"user_id":618,"name":"Kipados","steam_id":76561197997147319,"connected_time":1007000000000,"state":"active","ping":48},{"user_id":593,"name":"Broadway Rose","steam_id":76561198046083342,"connected_time":3503000000000,"state":"active","ping":41},{"user_id":617,"name":"Truffleoil","steam_id":76561198114689041,"connected_time":1281000000000,"state":"active","ping":58},{"user_id":602,"name":"Robo Boss","steam_id":76561199067098696,"connected_time":3252000000000,"state":"active","ping":95},{"user_id":625,"name":"Shrebbie","steam_id":76561198875230824,"connected_time":643000000000,"state":"active","ping":43},{"user_id":626,"name":"slurpee #„Å´„ÇÉ","steam_id":76561197990257202,"connected_time":635000000000,"state":"active","ping":97},{"user_id":600,"name":"Resistance","steam_id":76561197998318861,"connected_time":3281000000000,"state":"active","ping":84},{"user_id":627,"name":"Rodrick Knee","steam_id":76561198283021062,"connected_time":603000000000,"state":"active","ping":75},{"user_id":572,"name":"Obsurd Sasayaka","steam_id":76561198037080979,"connected_time":5927000000000,"state":"active","ping":73},{"user_id":608,"name":"minecrafterking8","steam_id":76561198366299848,"connected_time":2629000000000,"state":"active","ping":61},{"user_id":628,"name":"yamme","steam_id":76561198117849124,"connected_time":533000000000,"state":"active","ping":112},{"user_id":609,"name":"ndvr","steam_id":76561199379200102,"connected_time":2616000000000,"state":"active","ping":53},{"user_id":563,"name":"The Deer Consumer","steam_id":76561198812026312,"connected_time":6926000000000,"state":"active","ping":59},{"user_id":622,"name":"Lunar Lepidoptera","steam_id":76561198014593467,"connected_time":857000000000,"state":"active","ping":57},{"user_id":551,"name":"Lane","steam_id":76561197965828506,"connected_time":7859000000000,"state":"active","ping":61},{"user_id":561,"name":"Hideo Kojima","steam_id":76561198082582335,"connected_time":7075000000000,"state":"active","ping":54},{"user_id":611,"name":"xFactr","steam_id":76561198129007422,"connected_time":2599000000000,"state":"active","ping":42},{"user_id":614,"name":"d1pp_","steam_id":76561198395577807,"connected_time":2292000000000,"state":"active","ping":64},{"user_id":580,"name":"peaball","steam_id":76561198054192430,"connected_time":5152000000000,"state":"active","ping":69},{"user_id":591,"name":"retinz","steam_id":76561198135563495,"connected_time":4116000000000,"state":"active","ping":56},{"user_id":592,"name":"Joshie Coombes","steam_id":76561198367471629,"connected_time":4067000000000,"state":"active","ping":54}]},{"server_id":15,"name":"Uncletopia | New York City | 3 | Stopwatch","name_short":"nyc-3","host":"nyc-1.us.uncletopia.com","port":27035,"enabled":true,"region":"us-east","cc":"us","latitude":40.73061,"longitude":-73.93524,"reserved":0,"last_update":"0001-01-01T00:00:00Z","name_a2s":"Uncletopia | New York City | 3 | Stopwatch","protocol":17,"map":"workshop/pl_badwater_pro_v12.ugc2142942074","folder":"tf","game":"Team Fortress","app_id":440,"player_count":0,"max_players":24,"Bots":0,"server_type":"Dedicated","server_os":"Linux","password":true,"vac":true,"version":"7961495","steam_id":85568392924742820,"keywords":["nocrits","nodmgspread","payload","uncletopia"],"game_id":440,"stv_port":27036,"stv_name":"Uncletopia | New York City | 3 | Stopwatch | STV","players":null},{"server_id":16,"name":"Uncletopia | New York City | 4 | Community","name_short":"nyc-4","host":"nyc-1.us.uncletopia.com","port":27045,"enabled":true,"region":"us-east","cc":"us","latitude":40.73061,"longitude":-73.93524,"reserved":0,"last_update":"0001-01-01T00:00:00Z","name_a2s":"Uncletopia | New York City | 4 | Community","protocol":17,"map":"workshop/pl_corrode_rc2.ugc546577989","folder":"tf","game":"Team Fortress","app_id":440,"player_count":0,"max_players":24,"Bots":0,"server_type":"Dedicated","server_os":"Linux","password":true,"vac":true,"version":"7961495","steam_id":85568392924742821,"keywords":["nocrits","nodmgspread","payload","uncletopia"],"game_id":440,"stv_port":27046,"stv_name":"Uncletopia | New York City | 4 | Community | STV","players":null},{"server_id":142,"name":"Uncletopia | S√£o Paulo | 1 | All Maps","name_short":"sao-1","host":"sao-1.br.uncletopia.com","port":27015,"enabled":true,"region":"sa","cc":"br","latitude":-23.533773,"longitude":-46.62529,"reserved":0,"last_update":"0001-01-01T00:00:00Z","name_a2s":"Uncletopia | S√£o Paulo | 1 | All Maps","protocol":17,"map":"koth_highpass","folder":"tf","game":"Team Fortress","app_id":440,"player_count":0,"max_players":24,"Bots":0,"server_type":"Dedicated","server_os":"Linux","password":true,"vac":true,"version":"7961495","steam_id":85568392924469996,"keywords":["cp","nocrits","nodmgspread","uncletopia"],"game_id":440,"stv_port":27016,"stv_name":"Uncletopia | S√£o Paulo | 1 | All Maps | STV","players":null},{"server_id":143,"name":"Uncletopia | S√£o Paulo | 2 | Community","name_short":"sao-2","host":"sao-2.br.uncletopia.com","port":27015,"enabled":true,"region":"sa","cc":"br","latitude":-23.533773,"longitude":-46.62529,"reserved":0,"last_update":"0001-01-01T00:00:00Z","name_a2s":"Uncletopia | S√£o Paulo | 2 | Community","protocol":17,"map":"workshop/cp_reckoner_rc6.ugc674719999","folder":"tf","game":"Team Fortress","app_id":440,"player_count":0,"max_players":24,"Bots":0,"server_type":"Dedicated","server_os":"Linux","password":true,"vac":true,"version":"7961495","steam_id":85568392924485349,"keywords":["cp","nocrits","nodmgspread","uncletopia"],"game_id":440,"stv_port":27016,"stv_name":"Uncletopia | S√£o Paulo | 2 | Community | STV","players":null},{"server_id":7,"name":"Uncletopia | Seattle | 1 | All Maps","name_short":"sea-1","host":"sea-1.us.uncletopia.com","port":27015,"enabled":true,"region":"us-west","cc":"us","latitude":47.608013,"longitude":-122.33517,"reserved":0,"last_update":"0001-01-01T00:00:00Z","name_a2s":"Uncletopia | Seattle | 1 | All Maps","protocol":17,"map":"pl_frontier_final","folder":"tf","game":"Team Fortress","app_id":440,"player_count":24,"max_players":24,"Bots":0,"server_type":"Dedicated","server_os":"Linux","password":true,"vac":true,"version":"7961495","steam_id":85568392924469997,"keywords":["nocrits","nodmgspread","payload","uncletopia"],"game_id":440,"stv_port":27016,"stv_name":"Uncletopia | Seattle | 1 | All Maps | STV","players":[{"user_id":555,"name":"mega","steam_id":76561198089520959,"connected_time":1976000000000,"state":"active","ping":108},{"user_id":565,"name":"Donny Q","steam_id":76561198020901703,"connected_time":858000000000,"state":"active","ping":43},{"user_id":572,"name":"mn","steam_id":76561198042357436,"connected_time":123000000000,"state":"active","ping":33},{"user_id":534,"name":"NEBULA","steam_id":76561198086878595,"connected_time":3068000000000,"state":"active","ping":72},{"user_id":567,"name":"Elfy","steam_id":76561199166448617,"connected_time":814000000000,"state":"active","ping":48},{"user_id":557,"name":"Xenagos","steam_id":76561198045678290,"connected_time":1964000000000,"state":"active","ping":45},{"user_id":514,"name":"evilOlive","steam_id":76561198106222025,"connected_time":6210000000000,"state":"active","ping":82},{"user_id":464,"name":"Cheezbeargur","steam_id":76561198164702899,"connected_time":10907000000000,"state":"active","ping":68},{"user_id":558,"name":"SHADOW WIZARD MONEY GANG","steam_id":76561198097178599,"connected_time":1964000000000,"state":"active","ping":50},{"user_id":573,"name":"hatless peasant, MD","steam_id":76561198065377667,"connected_time":122000000000,"state":"active","ping":59},{"user_id":568,"name":"JTuu","steam_id":76561198030606396,"connected_time":812000000000,"state":"active","ping":40},{"user_id":504,"name":"Octopus","steam_id":76561198114639980,"connected_time":7143000000000,"state":"active","ping":61},{"user_id":569,"name":"jorts","steam_id":76561199041179985,"connected_time":779000000000,"state":"active","ping":58},{"user_id":571,"name":"resh","steam_id":76561198239598834,"connected_time":212000000000,"state":"active","ping":137},{"user_id":574,"name":"Spread Joy, Not Hate","steam_id":76561198053117503,"connected_time":51000000000,"state":"active","ping":61},{"user_id":516,"name":"gorlab","steam_id":76561198025089694,"connected_time":5619000000000,"state":"active","ping":60},{"user_id":448,"name":"‚ù§ Ashley ‚ù§","steam_id":76561198056428303,"connected_time":12480000000000,"state":"active","ping":75},{"user_id":525,"name":"fungi","steam_id":76561198169755734,"connected_time":5240000000000,"state":"active","ping":70},{"user_id":554,"name":"high elo sexworker","steam_id":76561197980280272,"connected_time":1979000000000,"state":"active","ping":46},{"user_id":524,"name":"Zee‚úû","steam_id":76561198274550638,"connected_time":5244000000000,"state":"active","ping":115},{"user_id":559,"name":"Ayayayayayahuasca","steam_id":76561199002906056,"connected_time":1962000000000,"state":"active","ping":46},{"user_id":449,"name":"self sufficient kitten","steam_id":76561197960592612,"connected_time":12473000000000,"state":"active","ping":45},{"user_id":530,"name":"Arsonist Goose","steam_id":76561198147441830,"connected_time":4585000000000,"state":"active","ping":71},{"user_id":513,"name":"Lord Hater","steam_id":76561199158148782,"connected_time":6302000000000,"state":"active","ping":81}]},{"server_id":119,"name":"Uncletopia | Seattle | 2 | All Maps","name_short":"sea-2","host":"sea-1.us.uncletopia.com","port":27025,"enabled":true,"region":"us-west","cc":"us","latitude":47.608013,"longitude":-122.33517,"reserved":0,"last_update":"0001-01-01T00:00:00Z","name_a2s":"Uncletopia | Seattle | 2 | All Maps","protocol":17,"map":"koth_harvest_final","folder":"tf","game":"Team Fortress","app_id":440,"player_count":25,"max_players":24,"Bots":0,"server_type":"Dedicated","server_os":"Linux","password":true,"vac":true,"version":"7961495","steam_id":85568392924469998,"keywords":["cp","nocrits","nodmgspread","uncletopia"],"game_id":440,"stv_port":27026,"stv_name":"Uncletopia | Seattle | 2 | All Maps | STV","players":[{"user_id":455,"name":"fragadelphia","steam_id":76561198066116363,"connected_time":2379000000000,"state":"active","ping":47},{"user_id":393,"name":"Gm_Trash","steam_id":76561199445091548,"connected_time":9719000000000,"state":"active","ping":55},{"user_id":477,"name":"gugcat","steam_id":76561198129822860,"connected_time":122000000000,"state":"active","ping":40},{"user_id":435,"name":"Tripll-L","steam_id":76561197998077437,"connected_time":4731000000000,"state":"active","ping":52},{"user_id":444,"name":"Finkly","steam_id":76561198049828110,"connected_time":3960000000000,"state":"active","ping":44},{"user_id":466,"name":"Zero 007","steam_id":76561198027776317,"connected_time":1076000000000,"state":"active","ping":141},{"user_id":378,"name":"slushy :))","steam_id":76561198135281802,"connected_time":10983000000000,"state":"active","ping":30},{"user_id":470,"name":"Strikerbolt","steam_id":76561199095622897,"connected_time":549000000000,"state":"active","ping":77},{"user_id":471,"name":"Patio","steam_id":76561197986082608,"connected_time":447000000000,"state":"active","ping":45},{"user_id":482,"name":"human (real)","steam_id":76561199001855562,"connected_time":5000000000,"state":"spawning","ping":59},{"user_id":433,"name":"T√ºCold","steam_id":76561198111278197,"connected_time":5030000000000,"state":"active","ping":59},{"user_id":459,"name":"Chocc-_-","steam_id":76561198068070211,"connected_time":1925000000000,"state":"active","ping":84},{"user_id":416,"name":"cat woman yuri","steam_id":76561198004916219,"connected_time":6487000000000,"state":"active","ping":73},{"user_id":462,"name":"ma≈Çiƒô","steam_id":76561198337705174,"connected_time":1711000000000,"state":"active","ping":78},{"user_id":421,"name":"Lili Winters","steam_id":76561199391478575,"connected_time":5647000000000,"state":"active","ping":59},{"user_id":458,"name":"old woman yuri","steam_id":76561198111844236,"connected_time":1935000000000,"state":"active","ping":132},{"user_id":472,"name":"[Bandit]","steam_id":76561197986919852,"connected_time":411000000000,"state":"active","ping":45},{"user_id":441,"name":"Melly","steam_id":76561198045867175,"connected_time":4246000000000,"state":"active","ping":74},{"user_id":436,"name":"mub","steam_id":76561197961943948,"connected_time":4585000000000,"state":"active","ping":45},{"user_id":464,"name":"Kris-The Moss Eater","steam_id":76561198060061139,"connected_time":1581000000000,"state":"active","ping":67},{"user_id":454,"name":"death snail","steam_id":76561198093053238,"connected_time":2392000000000,"state":"active","ping":39},{"user_id":467,"name":"rocks","steam_id":76561198058619465,"connected_time":920000000000,"state":"active","ping":40},{"user_id":474,"name":"Keamy","steam_id":76561199471434875,"connected_time":378000000000,"state":"active","ping":43},{"user_id":479,"name":"sex haver","steam_id":76561198256575672,"connected_time":68000000000,"state":"active","ping":49},{"user_id":451,"name":"rushy :))","steam_id":76561198065825165,"connected_time":2850000000000,"state":"active","ping":106}]},{"server_id":406,"name":"Uncletopia | Seattle | 3 | Stopwatch","name_short":"sea-3","host":"sea-1.us.uncletopia.com","port":27035,"enabled":true,"region":"us-west","cc":"us","latitude":47.608013,"longitude":-122.33517,"reserved":0,"last_update":"0001-01-01T00:00:00Z","name_a2s":"Uncletopia | Seattle | 3 | Stopwatch","protocol":17,"map":"koth_lakeside_final","folder":"tf","game":"Team Fortress","app_id":440,"player_count":0,"max_players":24,"Bots":0,"server_type":"Dedicated","server_os":"Linux","password":true,"vac":true,"version":"7961495","steam_id":85568392924515217,"keywords":["cp","nocrits","nodmgspread","uncletopia"],"game_id":440,"stv_port":27036,"stv_name":"Uncletopia | Seattle | 3 | Stopwatch | STV","players":null},{"server_id":17,"name":"Uncletopia | San Francisco | 1 | All Maps","name_short":"sfo-1","host":"sfo-1.us.uncletopia.com","port":27015,"enabled":true,"region":"us-west","cc":"us","latitude":37.77397,"longitude":-122.4313,"reserved":0,"last_update":"0001-01-01T00:00:00Z","name_a2s":"Uncletopia | San Francisco | 1 | All Maps","protocol":17,"map":"cp_foundry","folder":"tf","game":"Team Fortress","app_id":440,"player_count":24,"max_players":24,"Bots":0,"server_type":"Dedicated","server_os":"Linux","password":true,"vac":true,"version":"7961495","steam_id":85568392924469999,"keywords":["cp","nocrits","nodmgspread","uncletopia"],"game_id":440,"stv_port":27016,"stv_name":"Uncletopia | San Francisco | 1 | All Maps | STV","players":[{"user_id":313,"name":"toxic mental instability","steam_id":76561198161760556,"connected_time":786000000000,"state":"active","ping":74},{"user_id":242,"name":"V A R M I N T","steam_id":76561198417042268,"connected_time":6920000000000,"state":"active","ping":81},{"user_id":209,"name":"eBay","steam_id":76561198061214569,"connected_time":9131000000000,"state":"active","ping":87},{"user_id":305,"name":"Norville \"Shaggy\" Rogers","steam_id":76561198309272858,"connected_time":1750000000000,"state":"active","ping":85},{"user_id":311,"name":"Galalendon","steam_id":76561198055771198,"connected_time":1394000000000,"state":"active","ping":82},{"user_id":258,"name":"worker","steam_id":76561198039608940,"connected_time":5983000000000,"state":"active","ping":101},{"user_id":277,"name":"lker","steam_id":76561197976975075,"connected_time":4264000000000,"state":"active","ping":101},{"user_id":315,"name":"OzzyAkiro47","steam_id":76561199076449499,"connected_time":399000000000,"state":"active","ping":60},{"user_id":314,"name":"Ôº≤Ôº•Ôº§","steam_id":76561198030282308,"connected_time":780000000000,"state":"active","ping":63},{"user_id":300,"name":"‚òÖSuperBurgerBoy‚òÖ","steam_id":76561198856387197,"connected_time":2275000000000,"state":"active","ping":58},{"user_id":284,"name":"Non-Euclidian Beatdown","steam_id":76561199443302709,"connected_time":3524000000000,"state":"active","ping":133},{"user_id":312,"name":"Higuma","steam_id":76561198375229012,"connected_time":1162000000000,"state":"active","ping":55},{"user_id":272,"name":"El Gato Paranoico","steam_id":76561198116567116,"connected_time":4788000000000,"state":"active","ping":105},{"user_id":279,"name":"Mr defrost","steam_id":76561198322125657,"connected_time":4141000000000,"state":"active","ping":83},{"user_id":316,"name":"Scrampled Aigs","steam_id":76561198014526583,"connected_time":377000000000,"state":"active","ping":105},{"user_id":303,"name":"shitass (Reaping and Sowing)","steam_id":76561198210572481,"connected_time":1979000000000,"state":"active","ping":53},{"user_id":317,"name":"Randle of John","steam_id":76561198328210524,"connected_time":277000000000,"state":"active","ping":60},{"user_id":306,"name":"St. Michael","steam_id":76561198037611052,"connected_time":1662000000000,"state":"active","ping":82},{"user_id":239,"name":"Tejan","steam_id":76561197985668557,"connected_time":7396000000000,"state":"active","ping":131},{"user_id":310,"name":"pills here","steam_id":76561198080790447,"connected_time":1483000000000,"state":"active","ping":51},{"user_id":298,"name":"1000 Ping","steam_id":76561198098330939,"connected_time":2722000000000,"state":"active","ping":79},{"user_id":304,"name":"doro","steam_id":76561198099041747,"connected_time":1824000000000,"state":"active","ping":58},{"user_id":224,"name":"Poofy Doofy","steam_id":76561198448224519,"connected_time":8107000000000,"state":"active","ping":102},{"user_id":283,"name":"BL√òRG","steam_id":76561198036126673,"connected_time":3590000000000,"state":"active","ping":88}]},{"server_id":18,"name":"Uncletopia | San Francisco | 2 | All Maps","name_short":"sfo-2","host":"sfo-1.us.uncletopia.com","port":27025,"enabled":true,"region":"us-west","cc":"us","latitude":37.77397,"longitude":-122.4313,"reserved":0,"last_update":"0001-01-01T00:00:00Z","name_a2s":"Uncletopia | San Francisco | 2 | All Maps","protocol":17,"map":"cp_dustbowl","folder":"tf","game":"Team Fortress","app_id":440,"player_count":24,"max_players":24,"Bots":0,"server_type":"Dedicated","server_os":"Linux","password":true,"vac":true,"version":"7961495","steam_id":85568392924470000,"keywords":["cp","nocrits","nodmgspread","uncletopia"],"game_id":440,"stv_port":27026,"stv_name":"Uncletopia | San Francisco | 2 | All Maps | STV","players":[{"user_id":318,"name":"itz_yoboi_tree","steam_id":76561199016657010,"connected_time":4681000000000,"state":"active","ping":77},{"user_id":261,"name":"Hitomi's Tanakas","steam_id":76561198165364766,"connected_time":8831000000000,"state":"active","ping":91},{"user_id":362,"name":"Chills","steam_id":76561198086144555,"connected_time":1011000000000,"state":"active","ping":75},{"user_id":375,"name":"Rommel2007","steam_id":76561198041744631,"connected_time":116000000000,"state":"active","ping":59},{"user_id":364,"name":"El pipe","steam_id":76561198008053387,"connected_time":948000000000,"state":"active","ping":81},{"user_id":342,"name":"Action-Flash","steam_id":76561198042438122,"connected_time":2769000000000,"state":"active","ping":87},{"user_id":259,"name":"A Flying Kidney","steam_id":76561198046208175,"connected_time":8865000000000,"state":"active","ping":89},{"user_id":260,"name":"Minty","steam_id":76561198045890570,"connected_time":8857000000000,"state":"active","ping":89},{"user_id":296,"name":"cool beans","steam_id":76561198045758072,"connected_time":6753000000000,"state":"active","ping":46},{"user_id":339,"name":"bluetacos","steam_id":76561198880622349,"connected_time":3036000000000,"state":"active","ping":68},{"user_id":353,"name":"Happy Chaos","steam_id":76561198194248527,"connected_time":1135000000000,"state":"active","ping":69},{"user_id":354,"name":"run fast fall dopwn","steam_id":76561198048925904,"connected_time":1088000000000,"state":"active","ping":68},{"user_id":360,"name":"Hello Citizen","steam_id":76561198055522364,"connected_time":1030000000000,"state":"active","ping":65},{"user_id":361,"name":"Dr. Bob","steam_id":76561198020215410,"connected_time":1027000000000,"state":"active","ping":50},{"user_id":365,"name":"It's a Doggydog World","steam_id":76561198018232414,"connected_time":946000000000,"state":"active","ping":86},{"user_id":359,"name":"Sleepy Bunny","steam_id":76561198069870490,"connected_time":1036000000000,"state":"active","ping":67},{"user_id":366,"name":"VanWic","steam_id":76561198094537538,"connected_time":900000000000,"state":"active","ping":59},{"user_id":273,"name":"CatLike Pigeon","steam_id":76561198171716030,"connected_time":8711000000000,"state":"active","ping":99},{"user_id":374,"name":"Many Bees' Chilling","steam_id":76561198079641282,"connected_time":189000000000,"state":"active","ping":82},{"user_id":344,"name":"Ralph Kramden (Slim Charles)","steam_id":76561197981687895,"connected_time":2643000000000,"state":"active","ping":61},{"user_id":369,"name":"Princess Bloom","steam_id":76561198107492237,"connected_time":763000000000,"state":"active","ping":56},{"user_id":370,"name":"Myra1090","steam_id":76561198060917191,"connected_time":761000000000,"state":"active","ping":57},{"user_id":347,"name":"thebeast","steam_id":76561198255963049,"connected_time":2082000000000,"state":"active","ping":80},{"user_id":371,"name":"yaoipilled","steam_id":76561198055486814,"connected_time":754000000000,"state":"active","ping":74}]},{"server_id":19,"name":"Uncletopia | San Francisco | 3 | Stopwatch","name_short":"sfo-3","host":"sfo-1.us.uncletopia.com","port":27035,"enabled":true,"region":"us-west","cc":"us","latitude":37.77397,"longitude":-122.4313,"reserved":0,"last_update":"0001-01-01T00:00:00Z","name_a2s":"Uncletopia | San Francisco | 3 | Stopwatch","protocol":17,"map":"koth_lakeside_final","folder":"tf","game":"Team Fortress","app_id":440,"player_count":4,"max_players":24,"Bots":0,"server_type":"Dedicated","server_os":"Linux","password":true,"vac":true,"version":"7961495","steam_id":85568392924742824,"keywords":["cp","nocrits","nodmgspread","uncletopia"],"game_id":440,"stv_port":27036,"stv_name":"Uncletopia | San Francisco | 3 | Stopwatch | STV","players":[{"user_id":13,"name":"50,372 european wheat farmers","steam_id":76561198297326065,"connected_time":670000000000,"state":"active","ping":59},{"user_id":19,"name":"Arbiter","steam_id":76561198079723399,"connected_time":285000000000,"state":"active","ping":68},{"user_id":18,"name":"Carpalini","steam_id":76561198419296396,"connected_time":453000000000,"state":"active","ping":65},{"user_id":16,"name":"LloydingTime","steam_id":76561198831731176,"connected_time":527000000000,"state":"active","ping":57}]},{"server_id":20,"name":"Uncletopia | San Francisco | 4 | Community","name_short":"sfo-4","host":"sfo-1.us.uncletopia.com","port":27045,"enabled":true,"region":"us-west","cc":"us","latitude":37.77397,"longitude":-122.4313,"reserved":0,"last_update":"0001-01-01T00:00:00Z","name_a2s":"Uncletopia | San Francisco | 4 | Community","protocol":17,"map":"workshop/koth_slaughter_rc1.ugc1712845210","folder":"tf","game":"Team Fortress","app_id":440,"player_count":0,"max_players":24,"Bots":0,"server_type":"Dedicated","server_os":"Linux","password":true,"vac":true,"version":"7961495","steam_id":85568392924742826,"keywords":["cp","nocrits","nodmgspread","uncletopia"],"game_id":440,"stv_port":27046,"stv_name":"Uncletopia | San Francisco | 4 | Community | STV","players":null},{"server_id":141,"name":"Uncletopia | Sydney | 1 | All Maps","name_short":"syd-1","host":"syd-1.au.uncletopia.com","port":27015,"enabled":true,"region":"au","cc":"au","latitude":-33.865143,"longitude":151.2099,"reserved":0,"last_update":"0001-01-01T00:00:00Z","name_a2s":"Uncletopia | Sydney | 1 | All Maps","protocol":17,"map":"pl_frontier_final","folder":"tf","game":"Team Fortress","app_id":440,"player_count":24,"max_players":24,"Bots":0,"server_type":"Dedicated","server_os":"Linux","password":true,"vac":true,"version":"7961495","steam_id":85568392924470001,"keywords":["nocrits","nodmgspread","payload","uncletopia"],"game_id":440,"stv_port":27016,"stv_name":"Uncletopia | Sydney | 1 | All Maps | STV","players":[{"user_id":116,"name":"Deadly guy","steam_id":76561199001145026,"connected_time":481000000000,"state":"active","ping":49},{"user_id":79,"name":"Aquila","steam_id":76561198042520637,"connected_time":3355000000000,"state":"active","ping":43},{"user_id":114,"name":"hired goon","steam_id":76561198048064049,"connected_time":1085000000000,"state":"active","ping":71},{"user_id":48,"name":"Â¢≥È†≠ÂêÉËëóÁâÜÈ†≠Ëçâ","steam_id":76561199169553351,"connected_time":5012000000000,"state":"active","ping":176},{"user_id":49,"name":"Lord Head ass","steam_id":76561199018321560,"connected_time":5012000000000,"state":"active","ping":86},{"user_id":84,"name":"swag messiah","steam_id":76561198380839792,"connected_time":3253000000000,"state":"active","ping":45},{"user_id":53,"name":"Don't.","steam_id":76561198069626429,"connected_time":4733000000000,"state":"active","ping":97},{"user_id":54,"name":"True God","steam_id":76561198047632259,"connected_time":4717000000000,"state":"active","ping":69},{"user_id":117,"name":"Coffee","steam_id":76561198008865459,"connected_time":48000000000,"state":"active","ping":51},{"user_id":68,"name":"Marzell","steam_id":76561198151276153,"connected_time":4423000000000,"state":"active","ping":89},{"user_id":111,"name":"LeoJoeD","steam_id":76561198161848749,"connected_time":1120000000000,"state":"active","ping":39},{"user_id":77,"name":"Devious Scoundrel","steam_id":76561198055404248,"connected_time":3912000000000,"state":"active","ping":56},{"user_id":102,"name":"Chooka","steam_id":76561197992307814,"connected_time":2507000000000,"state":"active","ping":67},{"user_id":118,"name":"sabeuo","steam_id":76561198288259746,"connected_time":47000000000,"state":"active","ping":59},{"user_id":108,"name":"Warren","steam_id":76561198120350917,"connected_time":1214000000000,"state":"active","ping":41},{"user_id":109,"name":"Ben is mightier than the sword","steam_id":76561198301282416,"connected_time":1129000000000,"state":"active","ping":59},{"user_id":115,"name":"Medieval Cucumber Sorcerer","steam_id":76561198972095766,"connected_time":1084000000000,"state":"active","ping":44},{"user_id":104,"name":"funGus","steam_id":76561198799796200,"connected_time":2137000000000,"state":"active","ping":70},{"user_id":71,"name":"Serceina","steam_id":76561197993240474,"connected_time":4182000000000,"state":"active","ping":56},{"user_id":110,"name":"Citizen Dan","steam_id":76561197970496955,"connected_time":1125000000000,"state":"active","ping":74},{"user_id":101,"name":"mini john.feels","steam_id":76561198075745774,"connected_time":2543000000000,"state":"active","ping":50},{"user_id":112,"name":"Rashid Of The Dank Memes","steam_id":76561198281398078,"connected_time":1116000000000,"state":"active","ping":67},{"user_id":113,"name":"OllyDaGreat","steam_id":76561198420634375,"connected_time":1116000000000,"state":"active","ping":66},{"user_id":90,"name":"soupy","steam_id":76561198073734936,"connected_time":3142000000000,"state":"active","ping":93}]},{"server_id":123,"name":"Uncletopia | Sydney | 2 | All Maps","name_short":"syd-2","host":"syd-1.au.uncletopia.com","port":27025,"enabled":true,"region":"au","cc":"au","latitude":-33.865143,"longitude":151.2099,"reserved":0,"last_update":"0001-01-01T00:00:00Z","name_a2s":"Uncletopia | Sydney | 2 | All Maps","protocol":17,"map":"pl_borneo","folder":"tf","game":"Team Fortress","app_id":440,"player_count":12,"max_players":24,"Bots":0,"server_type":"Dedicated","server_os":"Linux","password":true,"vac":true,"version":"7961495","steam_id":85568392924470002,"keywords":["nocrits","nodmgspread","payload","uncletopia"],"game_id":440,"stv_port":27026,"stv_name":"Uncletopia | Sydney | 2 | All Maps | STV","players":[{"user_id":9,"name":"Giant Rat","steam_id":76561198110170714,"connected_time":3128000000000,"state":"active","ping":56},{"user_id":12,"name":"militarywombat","steam_id":76561198798651633,"connected_time":2274000000000,"state":"active","ping":69},{"user_id":35,"name":"Chibi Wolf","steam_id":76561198074235306,"connected_time":444000000000,"state":"active","ping":68},{"user_id":36,"name":"Nero","steam_id":76561198449565973,"connected_time":353000000000,"state":"active","ping":322},{"user_id":30,"name":"Master LitFam","steam_id":76561199056106183,"connected_time":817000000000,"state":"active","ping":64},{"user_id":27,"name":"quite","steam_id":76561199085719869,"connected_time":1117000000000,"state":"active","ping":70},{"user_id":25,"name":"dizzy","steam_id":76561198102953163,"connected_time":1246000000000,"state":"active","ping":64},{"user_id":39,"name":"Qwello","steam_id":76561198301883796,"connected_time":314000000000,"state":"active","ping":39},{"user_id":44,"name":"rei","steam_id":76561198102268183,"connected_time":4000000000,"state":"spawning","ping":40},{"user_id":32,"name":"Dave","steam_id":76561197994203216,"connected_time":549000000000,"state":"active","ping":57},{"user_id":40,"name":"mywither","steam_id":76561199057425346,"connected_time":277000000000,"state":"active","ping":182},{"user_id":42,"name":"Sover blw.tf","steam_id":76561198136347837,"connected_time":214000000000,"state":"active","ping":133}]},{"server_id":395,"name":"Uncletopia | Sydney | 3 | All Maps","name_short":"syd-3","host":"syd-1.au.uncletopia.com","port":27035,"enabled":true,"region":"au","cc":"au","latitude":-33.865143,"longitude":151.2099,"reserved":0,"last_update":"0001-01-01T00:00:00Z","name_a2s":"Uncletopia | Sydney | 3 | All Maps","protocol":17,"map":"cp_gullywash_final1","folder":"tf","game":"Team Fortress","app_id":440,"player_count":1,"max_players":24,"Bots":0,"server_type":"Dedicated","server_os":"Linux","password":true,"vac":true,"version":"7961495","steam_id":85568392925194467,"keywords":["cp","nocrits","nodmgspread","uncletopia"],"game_id":440,"stv_port":27036,"stv_name":"Uncletopia | Sydney | 3 | All Maps | STV","players":[{"user_id":7,"name":"Jeshƒ´","steam_id":76561198105982416,"connected_time":112000000000,"state":"active","ping":45}]},{"server_id":396,"name":"Uncletopia | Sydney | 4 | All Maps","name_short":"syd-4","host":"syd-1.au.uncletopia.com","port":27045,"enabled":true,"region":"au","cc":"au","latitude":-33.865143,"longitude":151.2099,"reserved":0,"last_update":"0001-01-01T00:00:00Z","name_a2s":"Uncletopia | Sydney | 4 | All Maps","protocol":17,"map":"cp_process_final","folder":"tf","game":"Team Fortress","app_id":440,"player_count":0,"max_players":24,"Bots":0,"server_type":"Dedicated","server_os":"Linux","password":true,"vac":true,"version":"7961495","steam_id":85568392925397958,"keywords":["cp","nocrits","nodmgspread","uncletopia"],"game_id":440,"stv_port":27046,"stv_name":"Uncletopia | Sydney | 4 | All Maps | STV","players":null},{"server_id":58,"name":"Uncletopia | Sydney | 5 | Stopwatch","name_short":"syd-5","host":"syd-1.au.uncletopia.com","port":27055,"enabled":true,"region":"au","cc":"au","latitude":-33.865143,"longitude":151.2099,"reserved":0,"last_update":"0001-01-01T00:00:00Z","name_a2s":"Uncletopia | Sydney | 5 | Stopwatch","protocol":17,"map":"workshop/koth_clearcut_b15.ugc2107050255","folder":"tf","game":"Team Fortress","app_id":440,"player_count":0,"max_players":24,"Bots":0,"server_type":"Dedicated","server_os":"Linux","password":true,"vac":true,"version":"7961495","steam_id":85568392925397959,"keywords":["cp","nocrits","nodmgspread","uncletopia"],"game_id":440,"stv_port":27056,"stv_name":"Uncletopia | Sydney | 5 | Stopwatch | STV","players":null},{"server_id":59,"name":"Uncletopia | Sydney | 6 | Community","name_short":"syd-6","host":"syd-1.au.uncletopia.com","port":27065,"enabled":true,"region":"au","cc":"au","latitude":-33.865143,"longitude":151.2099,"reserved":0,"last_update":"0001-01-01T00:00:00Z","name_a2s":"Uncletopia | Sydney | 6 | Community","protocol":17,"map":"workshop/koth_kemptown_rc1.ugc767410655","folder":"tf","game":"Team Fortress","app_id":440,"player_count":3,"max_players":24,"Bots":0,"server_type":"Dedicated","server_os":"Linux","password":true,"vac":true,"version":"7961495","steam_id":85568392925397960,"keywords":["cp","nocrits","nodmgspread","uncletopia"],"game_id":440,"stv_port":27066,"stv_name":"Uncletopia | Sydney | 6 | Community | STV","players":[{"user_id":4,"name":"Shienn__","steam_id":76561199174019837,"connected_time":2148000000000,"state":"active","ping":154},{"user_id":5,"name":"inverse_pie","steam_id":76561199135459870,"connected_time":2072000000000,"state":"active","ping":187},{"user_id":6,"name":"YonGG_","steam_id":76561198976488488,"connected_time":2049000000000,"state":"active","ping":178}]},{"server_id":49,"name":"Uncletopia | Warsaw | 1 | All Maps","name_short":"waw-1","host":"waw-1.pl.uncletopia.com","port":27015,"enabled":true,"region":"eu","cc":"pl","latitude":52.2297,"longitude":21.017532,"reserved":0,"last_update":"0001-01-01T00:00:00Z","name_a2s":"Uncletopia | Warsaw | 1 | All Maps","protocol":17,"map":"koth_lakeside_final","folder":"tf","game":"Team Fortress","app_id":440,"player_count":0,"max_players":24,"Bots":0,"server_type":"Dedicated","server_os":"Linux","password":true,"vac":true,"version":"7961495","steam_id":85568392925397850,"keywords":["cp","nocrits","nodmgspread","uncletopia"],"game_id":440,"stv_port":27016,"stv_name":"Uncletopia | Warsaw | 1 | All Maps | STV","players":null},{"server_id":50,"name":"Uncletopia | Warsaw | 2 | All Maps","name_short":"waw-2","host":"waw-1.pl.uncletopia.com","port":27025,"enabled":true,"region":"eu","cc":"pl","latitude":52.2297,"longitude":21.017532,"reserved":0,"last_update":"0001-01-01T00:00:00Z","name_a2s":"Uncletopia | Warsaw | 2 | All Maps","protocol":17,"map":"pl_borneo","folder":"tf","game":"Team Fortress","app_id":440,"player_count":0,"max_players":24,"Bots":0,"server_type":"Dedicated","server_os":"Linux","password":true,"vac":true,"version":"7961495","steam_id":85568392925397851,"keywords":["nocrits","nodmgspread","payload","uncletopia"],"game_id":440,"stv_port":27026,"stv_name":"Uncletopia | Warsaw | 2 | All Maps | STV","players":null},{"server_id":51,"name":"Uncletopia | Warsaw | 3 | All Maps","name_short":"waw-3","host":"waw-1.pl.uncletopia.com","port":27035,"enabled":true,"region":"eu","cc":"pl","latitude":52.2297,"longitude":21.017532,"reserved":0,"last_update":"0001-01-01T00:00:00Z","name_a2s":"Uncletopia | Warsaw | 3 | All Maps","protocol":17,"map":"pl_barnblitz","folder":"tf","game":"Team Fortress","app_id":440,"player_count":0,"max_players":24,"Bots":0,"server_type":"Dedicated","server_os":"Linux","password":true,"vac":true,"version":"7961495","steam_id":85568392925397852,"keywords":["nocrits","nodmgspread","payload","uncletopia"],"game_id":440,"stv_port":27036,"stv_name":"Uncletopia | Warsaw | 3 | All Maps | STV","players":null},{"server_id":52,"name":"Uncletopia | Warsaw | 4 | All Maps","name_short":"waw-4","host":"waw-1.pl.uncletopia.com","port":27045,"enabled":true,"region":"eu","cc":"pl","latitude":52.2297,"longitude":21.017532,"reserved":0,"last_update":"0001-01-01T00:00:00Z","name_a2s":"Uncletopia | Warsaw | 4 | All Maps","protocol":17,"map":"pl_borneo","folder":"tf","game":"Team Fortress","app_id":440,"player_count":0,"max_players":24,"Bots":0,"server_type":"Dedicated","server_os":"Linux","password":true,"vac":true,"version":"7961495","steam_id":85568392925397853,"keywords":["nocrits","nodmgspread","payload","uncletopia"],"game_id":440,"stv_port":27046,"stv_name":"Uncletopia | Warsaw | 4 | All Maps | STV","players":null},{"server_id":53,"name":"Uncletopia | Warsaw | 5 | Stopwatch","name_short":"waw-5","host":"waw-1.pl.uncletopia.com","port":27055,"enabled":true,"region":"eu","cc":"pl","latitude":52.2297,"longitude":21.017532,"reserved":0,"last_update":"0001-01-01T00:00:00Z","name_a2s":"Uncletopia | Warsaw | 5 | Stopwatch","protocol":17,"map":"pl_barnblitz","folder":"tf","game":"Team Fortress","app_id":440,"player_count":0,"max_players":24,"Bots":0,"server_type":"Dedicated","server_os":"Linux","password":true,"vac":true,"version":"7961495","steam_id":85568392925397854,"keywords":["nocrits","nodmgspread","payload","uncletopia"],"game_id":440,"stv_port":27056,"stv_name":"Uncletopia | Warsaw | 5 | Stopwatch | STV","players":null},{"server_id":54,"name":"Uncletopia | Warsaw | 6 | Community","name_short":"waw-6","host":"waw-1.pl.uncletopia.com","port":27065,"enabled":true,"region":"eu","cc":"pl","latitude":52.2297,"longitude":21.017532,"reserved":0,"last_update":"0001-01-01T00:00:00Z","name_a2s":"Uncletopia | Warsaw | 6 | Community","protocol":17,"map":"cp_altitude","folder":"tf","game":"Team Fortress","app_id":440,"player_count":0,"max_players":24,"Bots":0,"server_type":"Dedicated","server_os":"Linux","password":true,"vac":true,"version":"7961495","steam_id":85568392925397856,"keywords":["cp","nocrits","nodmgspread","uncletopia"],"game_id":440,"stv_port":27066,"stv_name":"Uncletopia | Warsaw | 6 | Community | STV","players":null}]}