{"status":true,"message":"","result":[{"server_id":9,"name":"Uncletopia | Atlanta | 1 | All Maps","name_short":"atl-1","host":"atl-1.us.uncletopia.com","port":27015,"enabled":true,"region":"us-east","cc":"us","latitude":33.753746,"longitude":-84.38633,"reserved":0,"last_update":"0001-01-01T00:00:00Z","name_a2s":"Uncletopia | Atlanta | 1 | All Maps","protocol":17,"map":"koth_highpass","folder":"tf","game":"Team Fortress","app_id":440,"player_count":0,"max_players":24,"Bots":0,"server_type":"Dedicated","server_os":"Linux","password":true,"vac":true,"version":"7961495","steam_id":85568392924469982,"keywords":["cp","nocrits","nodmgspread","uncletopia"],"game_id":440,"stv_port":27016,"stv_name":"Uncletopia | Atlanta | 1 | All Maps | STV","players":null},{"server_id":104,"name":"Uncletopia | Atlanta | 2 | All Maps","name_short":"atl-2","host":"atl-1.us.uncletopia.com","port":27025,"enabled":true,"region":"us-east","cc":"us","latitude":33.753746,"longitude":-84.38633,"reserved":0,"last_update":"0001-01-01T00:00:00Z","name_a2s":"Uncletopia | Atlanta | 2 | All Maps","protocol":17,"map":"pl_barnblitz","folder":"tf","game":"Team Fortress","app_id":440,"player_count":6,"max_players":24,"Bots":0,"server_type":"Dedicated","server_os":"Linux","password":true,"vac":true,"version":"7961495","steam_id":85568392924469983,"keywords":["nocrits","nodmgspread","payload","uncletopia"],"game_id":440,"stv_port":27026,"stv_name":"Uncletopia | Atlanta | 2 | All Maps | STV","players":[{"user_id":782,"name":"Joe, Banana","steam_id":76561198077551754,"connected_time":230000000000,"state":"active","ping":54},{"user_id":783,"name":"Real Neanderthal Shit","steam_id":76561198086991324,"connected_time":210000000000,"state":"active","ping":63},{"user_id":777,"name":"Snikersnee","steam_id":76561198156512551,"connected_time":919000000000,"state":"active","ping":88},{"user_id":778,"name":"JakePackage","steam_id":76561198033973438,"connected_time":780000000000,"state":"active","ping":62},{"user_id":771,"name":"NotPikawin","steam_id":76561198106844042,"connected_time":2079000000000,"state":"active","ping":77},{"user_id":772,"name":"Spencer","steam_id":76561198329247286,"connected_time":2044000000000,"state":"active","ping":60}]},{"server_id":400,"name":"Uncletopia | Atlanta | 3 | Stopwatch","name_short":"atl-3","host":"atl-1.us.uncletopia.com","port":27035,"enabled":true,"region":"us-east","cc":"us","latitude":33.753746,"longitude":-84.38633,"reserved":0,"last_update":"0001-01-01T00:00:00Z","name_a2s":"Uncletopia | Atlanta | 3 | Stopwatch","protocol":17,"map":"koth_highpass","folder":"tf","game":"Team Fortress","app_id":440,"player_count":0,"max_players":24,"Bots":0,"server_type":"Dedicated","server_os":"Linux","password":true,"vac":true,"version":"7961495","steam_id":85568392924515187,"keywords":["cp","nocrits","nodmgspread","uncletopia"],"game_id":440,"stv_port":27036,"stv_name":"Uncletopia | Atlanta | 3 | Stopwatch | STV","players":null},{"server_id":401,"name":"Uncletopia | Atlanta | 4 | Community","name_short":"atl-4","host":"atl-1.us.uncletopia.com","port":27045,"enabled":true,"region":"us-east","cc":"us","latitude":33.753746,"longitude":-84.38633,"reserved":0,"last_update":"0001-01-01T00:00:00Z","name_a2s":"Uncletopia | Atlanta | 4 | Community","protocol":17,"map":"workshop/koth_trenchfoot_ab1.ugc731436616","folder":"tf","game":"Team Fortress","app_id":440,"player_count":0,"max_players":24,"Bots":0,"server_type":"Dedicated","server_os":"Linux","password":true,"vac":true,"version":"7961495","steam_id":85568392924515188,"keywords":["cp","nocrits","nodmgspread","uncletopia"],"game_id":440,"stv_port":27046,"stv_name":"Uncletopia | Atlanta | 4 | Community | STV","players":null},{"server_id":2,"name":"Uncletopia | Chicago | 1 | All Maps","name_short":"chi-1","host":"chi-1.us.uncletopia.com","port":27015,"enabled":true,"region":"us-central","cc":"us","latitude":41.881832,"longitude":-87.62318,"reserved":0,"last_update":"0001-01-01T00:00:00Z","name_a2s":"Uncletopia | Chicago | 1 | All Maps","protocol":17,"map":"pl_barnblitz","folder":"tf","game":"Team Fortress","app_id":440,"player_count":2,"max_players":24,"Bots":0,"server_type":"Dedicated","server_os":"Linux","password":true,"vac":true,"version":"7961495","steam_id":85568392924469984,"keywords":["nocrits","nodmgspread","payload","uncletopia"],"game_id":440,"stv_port":27016,"stv_name":"Uncletopia | Chicago | 1 | All Maps | STV","players":[{"user_id":890,"name":"Micc","steam_id":76561199447744486,"connected_time":4392000000000,"state":"active","ping":85},{"user_id":904,"name":"KimonoBoxFox","steam_id":76561197968892800,"connected_time":3339000000000,"state":"active","ping":89}]},{"server_id":106,"name":"Uncletopia | Chicago | 2 | All Maps","name_short":"chi-2","host":"chi-1.us.uncletopia.com","port":27025,"enabled":true,"region":"us-central","cc":"us","latitude":41.881832,"longitude":-87.62318,"reserved":0,"last_update":"0001-01-01T00:00:00Z","name_a2s":"Uncletopia | Chicago | 2 | All Maps","protocol":17,"map":"pl_borneo","folder":"tf","game":"Team Fortress","app_id":440,"player_count":24,"max_players":24,"Bots":0,"server_type":"Dedicated","server_os":"Linux","password":true,"vac":true,"version":"7961495","steam_id":85568392924469985,"keywords":["nocrits","nodmgspread","payload","uncletopia"],"game_id":440,"stv_port":27026,"stv_name":"Uncletopia | Chicago | 2 | All Maps | STV","players":[{"user_id":771,"name":"gungon","steam_id":76561198099843841,"connected_time":404000000000,"state":"active","ping":90},{"user_id":750,"name":"Kwol-o Tingba","steam_id":76561198067653291,"connected_time":2390000000000,"state":"active","ping":51},{"user_id":747,"name":"steven","steam_id":76561198173047169,"connected_time":2741000000000,"state":"active","ping":56},{"user_id":751,"name":"Thingy","steam_id":76561198140161202,"connected_time":2384000000000,"state":"active","ping":80},{"user_id":765,"name":"imma let my nuts hang","steam_id":76561198097544038,"connected_time":850000000000,"state":"active","ping":92},{"user_id":772,"name":"Jeremiah Finch","steam_id":76561198046899113,"connected_time":397000000000,"state":"active","ping":65},{"user_id":695,"name":"PizzaThot","steam_id":76561198278237289,"connected_time":6619000000000,"state":"active","ping":79},{"user_id":766,"name":"vulcan nightclub pon farr night","steam_id":76561197974283797,"connected_time":837000000000,"state":"active","ping":41},{"user_id":773,"name":"BB","steam_id":76561197982356871,"connected_time":380000000000,"state":"active","ping":47},{"user_id":736,"name":"Alecto","steam_id":76561198042476864,"connected_time":3603000000000,"state":"active","ping":45},{"user_id":737,"name":"Rohi Mig","steam_id":76561198113623627,"connected_time":3599000000000,"state":"active","ping":64},{"user_id":774,"name":"exa*✩‧₊˚","steam_id":76561198044511912,"connected_time":325000000000,"state":"active","ping":102},{"user_id":762,"name":"DRUMMY GRAMMY","steam_id":76561198047642540,"connected_time":993000000000,"state":"active","ping":82},{"user_id":768,"name":"Vava","steam_id":76561199061877557,"connected_time":698000000000,"state":"active","ping":66},{"user_id":704,"name":"Jerry Kool-Aid","steam_id":76561198030281560,"connected_time":6438000000000,"state":"active","ping":69},{"user_id":759,"name":"Riff III","steam_id":76561198066921423,"connected_time":1797000000000,"state":"active","ping":75},{"user_id":693,"name":"Nefarious Fentsmokaa Rudebwoy","steam_id":76561198160572249,"connected_time":6651000000000,"state":"active","ping":89},{"user_id":739,"name":"Neo","steam_id":76561198112618713,"connected_time":3564000000000,"state":"active","ping":85},{"user_id":729,"name":"Crystal Toa","steam_id":76561198033861221,"connected_time":4563000000000,"state":"active","ping":116},{"user_id":777,"name":"minecraft","steam_id":76561198104345201,"connected_time":255000000000,"state":"active","ping":86},{"user_id":760,"name":"Jeremy","steam_id":76561198286240347,"connected_time":1452000000000,"state":"active","ping":57},{"user_id":744,"name":"Bullahorns","steam_id":76561197997138052,"connected_time":3323000000000,"state":"active","ping":64},{"user_id":778,"name":"Snoopist","steam_id":76561198144023761,"connected_time":150000000000,"state":"active","ping":38},{"user_id":776,"name":"krd","steam_id":76561198347660282,"connected_time":311000000000,"state":"active","ping":75}]},{"server_id":402,"name":"Uncletopia | Chicago | 3 | All Maps","name_short":"chi-3","host":"chi-1.us.uncletopia.com","port":27035,"enabled":true,"region":"us-central","cc":"us","latitude":41.881832,"longitude":-87.62318,"reserved":0,"last_update":"0001-01-01T00:00:00Z","name_a2s":"Uncletopia | Chicago | 3 | All Maps","protocol":17,"map":"cp_sunshine","folder":"tf","game":"Team Fortress","app_id":440,"player_count":14,"max_players":24,"Bots":0,"server_type":"Dedicated","server_os":"Linux","password":true,"vac":true,"version":"7961495","steam_id":85568392924515191,"keywords":["cp","nocrits","nodmgspread","uncletopia"],"game_id":440,"stv_port":27036,"stv_name":"Uncletopia | Chicago | 3 | All Maps | STV","players":[{"user_id":608,"name":"Gunkzilla","steam_id":76561198068228415,"connected_time":1847000000000,"state":"active","ping":67},{"user_id":598,"name":"jb","steam_id":76561198038607085,"connected_time":2619000000000,"state":"active","ping":84},{"user_id":629,"name":"craven","steam_id":76561198088191503,"connected_time":623000000000,"state":"active","ping":75},{"user_id":591,"name":"Bearegard","steam_id":76561198061926542,"connected_time":3074000000000,"state":"active","ping":52},{"user_id":626,"name":"coda","steam_id":76561198092052685,"connected_time":1196000000000,"state":"active","ping":60},{"user_id":627,"name":"b","steam_id":76561198156336213,"connected_time":1175000000000,"state":"active","ping":75},{"user_id":546,"name":"Large Man","steam_id":76561198880396651,"connected_time":7395000000000,"state":"active","ping":91},{"user_id":493,"name":"shitass | troutsupply.net","steam_id":76561198210572481,"connected_time":12041000000000,"state":"active","ping":85},{"user_id":618,"name":"1000 Ping","steam_id":76561198098330939,"connected_time":1467000000000,"state":"active","ping":131},{"user_id":619,"name":"Philo","steam_id":76561198061873341,"connected_time":1459000000000,"state":"active","ping":93},{"user_id":561,"name":"HIDDEN HIPPO the hippo","steam_id":76561198071628457,"connected_time":5793000000000,"state":"active","ping":50},{"user_id":564,"name":"Duck","steam_id":76561198076077244,"connected_time":5432000000000,"state":"active","ping":63},{"user_id":596,"name":"bladees realest, saddest verse","steam_id":76561198098099826,"connected_time":2834000000000,"state":"active","ping":97},{"user_id":623,"name":"VidzCMC","steam_id":76561198848142973,"connected_time":1377000000000,"state":"active","ping":53}]},{"server_id":403,"name":"Uncletopia | Chicago | 4 | All Maps","name_short":"chi-4","host":"chi-1.us.uncletopia.com","port":27045,"enabled":true,"region":"us-central","cc":"us","latitude":41.881832,"longitude":-87.62318,"reserved":0,"last_update":"0001-01-01T00:00:00Z","name_a2s":"Uncletopia | Chicago | 4 | All Maps","protocol":17,"map":"pl_pier","folder":"tf","game":"Team Fortress","app_id":440,"player_count":23,"max_players":24,"Bots":0,"server_type":"Dedicated","server_os":"Linux","password":true,"vac":true,"version":"7961495","steam_id":85568392924515193,"keywords":["nocrits","nodmgspread","payload","uncletopia"],"game_id":440,"stv_port":27046,"stv_name":"Uncletopia | Chicago | 4 | All Maps | STV","players":[{"user_id":836,"name":"Jetsu","steam_id":76561198836931319,"connected_time":1025000000000,"state":"active","ping":58},{"user_id":834,"name":"Overwatch's PvE Mode","steam_id":76561198046127710,"connected_time":1396000000000,"state":"active","ping":55},{"user_id":800,"name":"♡Ame♡","steam_id":76561198071217748,"connected_time":3644000000000,"state":"active","ping":53},{"user_id":801,"name":"We Make It Look Easy™","steam_id":76561198024442760,"connected_time":3623000000000,"state":"active","ping":63},{"user_id":837,"name":"tiny","steam_id":76561198010743348,"connected_time":980000000000,"state":"active","ping":60},{"user_id":816,"name":"mommy","steam_id":76561198129195009,"connected_time":2820000000000,"state":"active","ping":71},{"user_id":828,"name":"Rein","steam_id":76561198300340427,"connected_time":1668000000000,"state":"active","ping":62},{"user_id":838,"name":"TOBY!!!","steam_id":76561199380822531,"connected_time":964000000000,"state":"active","ping":52},{"user_id":845,"name":"have blue","steam_id":76561198054260599,"connected_time":776000000000,"state":"active","ping":77},{"user_id":839,"name":"Drapph","steam_id":76561199384213314,"connected_time":962000000000,"state":"active","ping":65},{"user_id":847,"name":"D","steam_id":76561198292908619,"connected_time":554000000000,"state":"active","ping":80},{"user_id":840,"name":"Shart Simpson","steam_id":76561198002759469,"connected_time":927000000000,"state":"active","ping":60},{"user_id":790,"name":"ms. capgras [troutsupply.net]","steam_id":76561199080209996,"connected_time":4546000000000,"state":"active","ping":51},{"user_id":841,"name":"Genesis","steam_id":76561198141287198,"connected_time":893000000000,"state":"active","ping":74},{"user_id":647,"name":"kaputon","steam_id":76561198146299782,"connected_time":13451000000000,"state":"active","ping":60},{"user_id":842,"name":"Rudy","steam_id":76561198013456828,"connected_time":859000000000,"state":"active","ping":60},{"user_id":783,"name":"Training Bot [Easy]","steam_id":76561199119473164,"connected_time":4685000000000,"state":"active","ping":65},{"user_id":826,"name":"Decapitation Station","steam_id":76561198201796098,"connected_time":1710000000000,"state":"active","ping":80},{"user_id":827,"name":"Plasic74x","steam_id":76561199058981206,"connected_time":1688000000000,"state":"active","ping":67},{"user_id":851,"name":"DanielGarka","steam_id":76561198302972656,"connected_time":412000000000,"state":"active","ping":160},{"user_id":848,"name":"Dreamy Sweat from 2hu","steam_id":76561198094602446,"connected_time":493000000000,"state":"active","ping":71},{"user_id":852,"name":"Townze","steam_id":76561198081827165,"connected_time":280000000000,"state":"active","ping":56},{"user_id":632,"name":"Shrebbie","steam_id":76561198875230824,"connected_time":15382000000000,"state":"active","ping":62}]},{"server_id":36,"name":"Uncletopia | Chicago | 5 | All Maps","name_short":"chi-5","host":"chi-2.us.uncletopia.com","port":27015,"enabled":true,"region":"us-central","cc":"us","latitude":41.881832,"longitude":-87.62318,"reserved":0,"last_update":"0001-01-01T00:00:00Z","name_a2s":"Uncletopia | Chicago | 5 | All Maps","protocol":17,"map":"pl_borneo","folder":"tf","game":"Team Fortress","app_id":440,"player_count":5,"max_players":24,"Bots":0,"server_type":"Dedicated","server_os":"Linux","password":true,"vac":true,"version":"7961495","steam_id":85568392924866362,"keywords":["nocrits","nodmgspread","payload","uncletopia"],"game_id":440,"stv_port":27016,"stv_name":"Uncletopia | Chicago | 5 | All Maps | STV","players":[{"user_id":708,"name":"badvernxxxxx","steam_id":76561198310087851,"connected_time":2760000000000,"state":"active","ping":242},{"user_id":718,"name":"Roaper","steam_id":76561198000141041,"connected_time":1121000000000,"state":"active","ping":119},{"user_id":707,"name":"doing the sponge","steam_id":76561198058209703,"connected_time":3431000000000,"state":"active","ping":74},{"user_id":703,"name":"be nice im new","steam_id":76561199227557263,"connected_time":4272000000000,"state":"active","ping":79},{"user_id":711,"name":"GrunerJunge","steam_id":76561199492836198,"connected_time":2382000000000,"state":"active","ping":68}]},{"server_id":37,"name":"Uncletopia | Chicago | 6 | All Maps","name_short":"chi-6","host":"chi-2.us.uncletopia.com","port":27025,"enabled":true,"region":"us-central","cc":"us","latitude":41.881832,"longitude":-87.62318,"reserved":0,"last_update":"0001-01-01T00:00:00Z","name_a2s":"Uncletopia | Chicago | 6 | All Maps","protocol":17,"map":"pl_hoodoo_final","folder":"tf","game":"Team Fortress","app_id":440,"player_count":22,"max_players":24,"Bots":0,"server_type":"Dedicated","server_os":"Linux","password":true,"vac":true,"version":"7961495","steam_id":85568392924866363,"keywords":["nocrits","nodmgspread","payload","uncletopia"],"game_id":440,"stv_port":27026,"stv_name":"Uncletopia | Chicago | 6 | All Maps | STV","players":[{"user_id":376,"name":"BANDIDO","steam_id":76561199509676031,"connected_time":4201000000000,"state":"active","ping":59},{"user_id":344,"name":"Kola ✧","steam_id":76561198049995341,"connected_time":6626000000000,"state":"active","ping":49},{"user_id":374,"name":"LVL","steam_id":76561198334403617,"connected_time":4217000000000,"state":"active","ping":58},{"user_id":390,"name":"The One True Luke","steam_id":76561198180891187,"connected_time":1355000000000,"state":"active","ping":75},{"user_id":342,"name":"iiamiizzyy","steam_id":76561198355030751,"connected_time":6783000000000,"state":"active","ping":84},{"user_id":391,"name":"Ya_Boi_Clapitao","steam_id":76561198274969584,"connected_time":1343000000000,"state":"active","ping":118},{"user_id":382,"name":"Lord_Manship","steam_id":76561198045168765,"connected_time":3047000000000,"state":"active","ping":79},{"user_id":392,"name":"Grand Theft Hobby Lobby","steam_id":76561198306384449,"connected_time":1335000000000,"state":"active","ping":96},{"user_id":414,"name":"Still Alive","steam_id":76561198042523000,"connected_time":128000000000,"state":"active","ping":66},{"user_id":327,"name":"frank","steam_id":76561198137777483,"connected_time":8146000000000,"state":"active","ping":68},{"user_id":406,"name":"TTVPlumSmug","steam_id":76561198103960265,"connected_time":878000000000,"state":"active","ping":57},{"user_id":365,"name":"poopybutt420","steam_id":76561199000805315,"connected_time":5167000000000,"state":"active","ping":86},{"user_id":408,"name":"Xylemon","steam_id":76561197965297420,"connected_time":643000000000,"state":"active","ping":113},{"user_id":379,"name":"I. C. Wiener","steam_id":76561198062777610,"connected_time":4110000000000,"state":"active","ping":99},{"user_id":373,"name":"jordan","steam_id":76561198136642793,"connected_time":4550000000000,"state":"active","ping":68},{"user_id":415,"name":"Super Bullshit Man","steam_id":76561198102416507,"connected_time":61000000000,"state":"active","ping":67},{"user_id":377,"name":"FELON #COMEGETME","steam_id":76561198144766439,"connected_time":4189000000000,"state":"active","ping":48},{"user_id":402,"name":"chikin.sauce","steam_id":76561198042464635,"connected_time":1075000000000,"state":"active","ping":82},{"user_id":412,"name":"YohjiYamamotoSasukeUchihaHyoma","steam_id":76561198150382695,"connected_time":443000000000,"state":"active","ping":75},{"user_id":416,"name":"kuy","steam_id":76561198165352005,"connected_time":58000000000,"state":"active","ping":84},{"user_id":410,"name":"Sweater-Fan","steam_id":76561199389567214,"connected_time":619000000000,"state":"active","ping":65},{"user_id":407,"name":"KrylonHeretic","steam_id":76561198139811459,"connected_time":872000000000,"state":"active","ping":114}]},{"server_id":38,"name":"Uncletopia | Chicago | 7 | Stopwatch","name_short":"chi-7","host":"chi-2.us.uncletopia.com","port":27035,"enabled":true,"region":"us-central","cc":"us","latitude":41.881832,"longitude":-87.62318,"reserved":0,"last_update":"0001-01-01T00:00:00Z","name_a2s":"Uncletopia | Chicago | 7 | Stopwatch","protocol":17,"map":"koth_highpass","folder":"tf","game":"Team Fortress","app_id":440,"player_count":0,"max_players":24,"Bots":0,"server_type":"Dedicated","server_os":"Linux","password":true,"vac":true,"version":"7961495","steam_id":85568392924866364,"keywords":["cp","nocrits","nodmgspread","uncletopia"],"game_id":440,"stv_port":27036,"stv_name":"Uncletopia | Chicago | 7 | Stopwatch | STV","players":null},{"server_id":39,"name":"Uncletopia | Chicago | 8 | Community","name_short":"chi-8","host":"chi-2.us.uncletopia.com","port":27045,"enabled":true,"region":"us-central","cc":"us","latitude":41.881832,"longitude":-87.62318,"reserved":0,"last_update":"0001-01-01T00:00:00Z","name_a2s":"Uncletopia | Chicago | 8 | Community","protocol":17,"map":"workshop/koth_slaughter_rc1.ugc1712845210","folder":"tf","game":"Team Fortress","app_id":440,"player_count":0,"max_players":24,"Bots":0,"server_type":"Dedicated","server_os":"Linux","password":true,"vac":true,"version":"7961495","steam_id":85568392924866365,"keywords":["cp","nocrits","nodmgspread","uncletopia"],"game_id":440,"stv_port":27046,"stv_name":"Uncletopia | Chicago | 8 | Community | STV","players":null},{"server_id":8,"name":"Uncletopia | Dallas | 1 | All Maps","name_short":"dal-1","host":"dal-1.us.uncletopia.com","port":27015,"enabled":true,"region":"us-central","cc":"us","latitude":32.779167,"longitude":-96.80889,"reserved":0,"last_update":"0001-01-01T00:00:00Z","name_a2s":"Uncletopia | Dallas | 1 | All Maps","protocol":17,"map":"pl_barnblitz","folder":"tf","game":"Team Fortress","app_id":440,"player_count":24,"max_players":24,"Bots":0,"server_type":"Dedicated","server_os":"Linux","password":true,"vac":true,"version":"7961495","steam_id":85568392924469986,"keywords":["nocrits","nodmgspread","payload","uncletopia"],"game_id":440,"stv_port":27016,"stv_name":"Uncletopia | Dallas | 1 | All Maps | STV","players":[{"user_id":680,"name":"Muselk, but mexican","steam_id":76561199289676387,"connected_time":3332000000000,"state":"active","ping":61},{"user_id":639,"name":"Pvt. Dimitri Petrenko","steam_id":76561198078040091,"connected_time":8848000000000,"state":"active","ping":54},{"user_id":723,"name":"Boobie and vagene","steam_id":76561198078464924,"connected_time":1050000000000,"state":"active","ping":101},{"user_id":737,"name":"Nyah","steam_id":76561199192601345,"connected_time":198000000000,"state":"active","ping":72},{"user_id":727,"name":"doodpwns","steam_id":76561198113233365,"connected_time":852000000000,"state":"active","ping":45},{"user_id":718,"name":"5k RPM","steam_id":76561198926416886,"connected_time":1501000000000,"state":"active","ping":65},{"user_id":713,"name":"Spoinga Bob","steam_id":76561198172772014,"connected_time":1644000000000,"state":"active","ping":85},{"user_id":710,"name":"errant","steam_id":76561197961758410,"connected_time":1936000000000,"state":"active","ping":44},{"user_id":686,"name":"Boston","steam_id":76561198061078236,"connected_time":2926000000000,"state":"active","ping":62},{"user_id":739,"name":"iluvtoust","steam_id":76561198869269207,"connected_time":46000000000,"state":"active","ping":38},{"user_id":707,"name":"Lamp","steam_id":76561198844301690,"connected_time":2370000000000,"state":"active","ping":76},{"user_id":688,"name":"Lav (She/They)","steam_id":76561198289106015,"connected_time":2853000000000,"state":"active","ping":90},{"user_id":729,"name":"Person Man","steam_id":76561198293857963,"connected_time":581000000000,"state":"active","ping":99},{"user_id":712,"name":"StarfruitGalaxy","steam_id":76561198279236985,"connected_time":1801000000000,"state":"active","ping":111},{"user_id":728,"name":"Mungo","steam_id":76561198353597289,"connected_time":851000000000,"state":"active","ping":74},{"user_id":738,"name":"endwalker simp","steam_id":76561198066177299,"connected_time":169000000000,"state":"active","ping":127},{"user_id":693,"name":"ark","steam_id":76561198041066271,"connected_time":2801000000000,"state":"active","ping":75},{"user_id":714,"name":"My heart is COLD","steam_id":76561198046895822,"connected_time":1620000000000,"state":"active","ping":67},{"user_id":730,"name":"ArcticTone","steam_id":76561199163932146,"connected_time":579000000000,"state":"active","ping":80},{"user_id":699,"name":"Kataoka","steam_id":76561198162169852,"connected_time":2706000000000,"state":"active","ping":83},{"user_id":646,"name":"AzuriousAlex","steam_id":76561198158026405,"connected_time":7925000000000,"state":"active","ping":67},{"user_id":700,"name":"Squiddysquibbles","steam_id":76561198268476001,"connected_time":2703000000000,"state":"active","ping":89},{"user_id":732,"name":"leguang james","steam_id":76561198143312969,"connected_time":514000000000,"state":"active","ping":45},{"user_id":702,"name":"Glitch Zncro","steam_id":76561198139526026,"connected_time":2633000000000,"state":"active","ping":63}]},{"server_id":108,"name":"Uncletopia | Dallas | 2 | All Maps","name_short":"dal-2","host":"dal-1.us.uncletopia.com","port":27025,"enabled":true,"region":"us-central","cc":"us","latitude":32.779167,"longitude":-96.80889,"reserved":0,"last_update":"0001-01-01T00:00:00Z","name_a2s":"Uncletopia | Dallas | 2 | All Maps","protocol":17,"map":"cp_dustbowl","folder":"tf","game":"Team Fortress","app_id":440,"player_count":24,"max_players":24,"Bots":0,"server_type":"Dedicated","server_os":"Linux","password":true,"vac":true,"version":"7961495","steam_id":85568392924469988,"keywords":["cp","nocrits","nodmgspread","uncletopia"],"game_id":440,"stv_port":27026,"stv_name":"Uncletopia | Dallas | 2 | All Maps | STV","players":[{"user_id":839,"name":"Freyja","steam_id":76561198207412177,"connected_time":1086000000000,"state":"active","ping":75},{"user_id":837,"name":"Rearranging furniture","steam_id":76561199054971009,"connected_time":1493000000000,"state":"active","ping":50},{"user_id":732,"name":"stuffedidiot","steam_id":76561199181513019,"connected_time":9196000000000,"state":"active","ping":120},{"user_id":824,"name":"nori_420","steam_id":76561199117134203,"connected_time":2506000000000,"state":"active","ping":80},{"user_id":805,"name":"sleepychama","steam_id":76561198085314882,"connected_time":3347000000000,"state":"active","ping":185},{"user_id":838,"name":"JOHNSMOKER007","steam_id":76561198145015891,"connected_time":1482000000000,"state":"active","ping":57},{"user_id":840,"name":"b4b4b003y","steam_id":76561198028981154,"connected_time":1040000000000,"state":"active","ping":88},{"user_id":833,"name":"HappySmiles1010","steam_id":76561199202300463,"connected_time":1979000000000,"state":"active","ping":90},{"user_id":830,"name":"MoomyBoomy","steam_id":76561198150787961,"connected_time":2016000000000,"state":"active","ping":61},{"user_id":810,"name":"Sasu","steam_id":76561198893447505,"connected_time":3168000000000,"state":"active","ping":75},{"user_id":843,"name":"★TC2","steam_id":76561198026985346,"connected_time":796000000000,"state":"active","ping":85},{"user_id":809,"name":"kyrgyzstan3","steam_id":76561198207940136,"connected_time":3213000000000,"state":"active","ping":56},{"user_id":812,"name":"Andrew's Taint","steam_id":76561198131400543,"connected_time":3117000000000,"state":"active","ping":71},{"user_id":848,"name":"Siopao","steam_id":76561198254089497,"connected_time":236000000000,"state":"active","ping":99},{"user_id":845,"name":"Mitsuba","steam_id":76561198034175095,"connected_time":422000000000,"state":"active","ping":99},{"user_id":764,"name":"anonEDM","steam_id":76561197976560316,"connected_time":7143000000000,"state":"active","ping":99},{"user_id":847,"name":"smosh fan 2001","steam_id":76561198043684960,"connected_time":278000000000,"state":"active","ping":46},{"user_id":842,"name":"ocky","steam_id":76561198313049944,"connected_time":954000000000,"state":"active","ping":89},{"user_id":816,"name":"Anonymoose","steam_id":76561198862312405,"connected_time":3006000000000,"state":"active","ping":71},{"user_id":768,"name":"Rat Smacker","steam_id":76561198043629646,"connected_time":5698000000000,"state":"active","ping":62},{"user_id":788,"name":"LaChancla","steam_id":76561198971528917,"connected_time":5299000000000,"state":"active","ping":57},{"user_id":836,"name":"Alivefox","steam_id":76561198075211239,"connected_time":1514000000000,"state":"active","ping":44},{"user_id":832,"name":"Knight Bewion","steam_id":76561198166718271,"connected_time":1992000000000,"state":"active","ping":103},{"user_id":820,"name":"totoro","steam_id":76561198210420871,"connected_time":2878000000000,"state":"active","ping":73}]},{"server_id":404,"name":"Uncletopia | Dallas | 3 | All Maps","name_short":"dal-3","host":"dal-1.us.uncletopia.com","port":27035,"enabled":true,"region":"us-central","cc":"us","latitude":32.779167,"longitude":-96.80889,"reserved":0,"last_update":"0001-01-01T00:00:00Z","name_a2s":"Uncletopia | Dallas | 3 | All Maps","protocol":17,"map":"pl_borneo","folder":"tf","game":"Team Fortress","app_id":440,"player_count":0,"max_players":24,"Bots":0,"server_type":"Dedicated","server_os":"Linux","password":true,"vac":true,"version":"7961495","steam_id":85568392924515219,"keywords":["nocrits","nodmgspread","payload","uncletopia"],"game_id":440,"stv_port":27036,"stv_name":"Uncletopia | Dallas | 3 | All Maps | STV","players":null},{"server_id":405,"name":"Uncletopia | Dallas | 4 | Community","name_short":"dal-4","host":"dal-1.us.uncletopia.com","port":27045,"enabled":true,"region":"us-central","cc":"us","latitude":32.779167,"longitude":-96.80889,"reserved":0,"last_update":"0001-01-01T00:00:00Z","name_a2s":"Uncletopia | Dallas | 4 | Community","protocol":17,"map":"workshop/cp_hazyfort_rc6.ugc1365963729","folder":"tf","game":"Team Fortress","app_id":440,"player_count":0,"max_players":24,"Bots":0,"server_type":"Dedicated","server_os":"Linux","password":true,"vac":true,"version":"7961495","steam_id":85568392924515220,"keywords":["cp","nocrits","nodmgspread","uncletopia"],"game_id":440,"stv_port":27046,"stv_name":"Uncletopia | Dallas | 4 | Community | STV","players":null},{"server_id":5,"name":"Uncletopia | Frankfurt | 1 | All Maps","name_short":"frk-1","host":"frk-1.de.uncletopia.com","port":27015,"enabled":true,"region":"eu","cc":"de","latitude":50.110924,"longitude":8.682127,"reserved":0,"last_update":"0001-01-01T00:00:00Z","name_a2s":"Uncletopia | Frankfurt | 1 | All Maps","protocol":17,"map":"koth_highpass","folder":"tf","game":"Team Fortress","app_id":440,"player_count":0,"max_players":24,"Bots":0,"server_type":"Dedicated","server_os":"Linux","password":true,"vac":true,"version":"7961495","steam_id":85568392924469989,"keywords":["cp","nocrits","nodmgspread","uncletopia"],"game_id":440,"stv_port":27016,"stv_name":"Uncletopia | Frankfurt | 1 | All Maps | STV","players":null},{"server_id":110,"name":"Uncletopia | Frankfurt | 2 | All Maps","name_short":"frk-2","host":"frk-1.de.uncletopia.com","port":27025,"enabled":true,"region":"eu","cc":"de","latitude":50.110924,"longitude":8.682127,"reserved":0,"last_update":"0001-01-01T00:00:00Z","name_a2s":"Uncletopia | Frankfurt | 2 | All Maps","protocol":17,"map":"cp_coldfront","folder":"tf","game":"Team Fortress","app_id":440,"player_count":0,"max_players":24,"Bots":0,"server_type":"Dedicated","server_os":"Linux","password":true,"vac":true,"version":"7961495","steam_id":85568392924469990,"keywords":["cp","nocrits","nodmgspread","uncletopia"],"game_id":440,"stv_port":27026,"stv_name":"Uncletopia | Frankfurt | 2 | All Maps | STV","players":null},{"server_id":308,"name":"Uncletopia | Frankfurt | 3 | All Maps","name_short":"frk-3","host":"frk-1.de.uncletopia.com","port":27035,"enabled":true,"region":"eu","cc":"de","latitude":50.110924,"longitude":8.682127,"reserved":0,"last_update":"0001-01-01T00:00:00Z","name_a2s":"Uncletopia | Frankfurt | 3 | All Maps","protocol":17,"map":"plr_pipeline","folder":"tf","game":"Team Fortress","app_id":440,"player_count":0,"max_players":24,"Bots":0,"server_type":"Dedicated","server_os":"Linux","password":true,"vac":true,"version":"7961495","steam_id":85568392924504274,"keywords":["nocrits","nodmgspread","payload","uncletopia"],"game_id":440,"stv_port":27036,"stv_name":"Uncletopia | Frankfurt | 3 | All Maps | STV","players":null},{"server_id":309,"name":"Uncletopia | Frankfurt | 4 | All Maps","name_short":"frk-4","host":"frk-1.de.uncletopia.com","port":27045,"enabled":true,"region":"eu","cc":"de","latitude":50.110924,"longitude":8.682127,"reserved":0,"last_update":"0001-01-01T00:00:00Z","name_a2s":"Uncletopia | Frankfurt | 4 | All Maps","protocol":17,"map":"koth_lakeside_final","folder":"tf","game":"Team Fortress","app_id":440,"player_count":0,"max_players":24,"Bots":0,"server_type":"Dedicated","server_os":"Linux","password":true,"vac":true,"version":"7961495","steam_id":85568392924504275,"keywords":["cp","nocrits","nodmgspread","uncletopia"],"game_id":440,"stv_port":27046,"stv_name":"Uncletopia | Frankfurt | 4 | All Maps | STV","players":null},{"server_id":310,"name":"Uncletopia | Frankfurt | 5 | All Maps","name_short":"frk-5","host":"frk-1.de.uncletopia.com","port":27055,"enabled":true,"region":"eu","cc":"de","latitude":50.110924,"longitude":8.682127,"reserved":0,"last_update":"0001-01-01T00:00:00Z","name_a2s":"Uncletopia | Frankfurt | 5 | All Maps","protocol":17,"map":"cp_gorge","folder":"tf","game":"Team Fortress","app_id":440,"player_count":0,"max_players":24,"Bots":0,"server_type":"Dedicated","server_os":"Linux","password":true,"vac":true,"version":"7961495","steam_id":85568392924504277,"keywords":["cp","nocrits","nodmgspread","uncletopia"],"game_id":440,"stv_port":27056,"stv_name":"Uncletopia | Frankfurt | 5 | All Maps | STV","players":null},{"server_id":311,"name":"Uncletopia | Frankfurt | 6 | All Maps","name_short":"frk-6","host":"frk-1.de.uncletopia.com","port":27065,"enabled":true,"region":"eu","cc":"de","latitude":50.110924,"longitude":8.682127,"reserved":0,"last_update":"0001-01-01T00:00:00Z","name_a2s":"Uncletopia | Frankfurt | 6 | All Maps","protocol":17,"map":"cp_steel","folder":"tf","game":"Team Fortress","app_id":440,"player_count":0,"max_players":24,"Bots":0,"server_type":"Dedicated","server_os":"Linux","password":true,"vac":true,"version":"7961495","steam_id":85568392924504278,"keywords":["cp","nocrits","nodmgspread","uncletopia"],"game_id":440,"stv_port":27066,"stv_name":"Uncletopia | Frankfurt | 6 | All Maps | STV","players":null},{"server_id":23,"name":"Uncletopia | Frankfurt | 7 | Stopwatch","name_short":"frk-7","host":"frk-1.de.uncletopia.com","port":27075,"enabled":true,"region":"eu","cc":"de","latitude":50.110924,"longitude":8.682127,"reserved":0,"last_update":"0001-01-01T00:00:00Z","name_a2s":"Uncletopia | Frankfurt | 7 | Stopwatch","protocol":17,"map":"workshop/koth_clearcut_b15.ugc2107050255","folder":"tf","game":"Team Fortress","app_id":440,"player_count":0,"max_players":24,"Bots":0,"server_type":"Dedicated","server_os":"Linux","password":true,"vac":true,"version":"7961495","steam_id":85568392924742827,"keywords":["cp","nocrits","nodmgspread","uncletopia"],"game_id":440,"stv_port":27076,"stv_name":"Uncletopia | Frankfurt | 7 | Stopwatch | STV","players":null},{"server_id":24,"name":"Uncletopia | Frankfurt | 8 | Community","name_short":"frk-8","host":"frk-1.de.uncletopia.com","port":27085,"enabled":true,"region":"eu","cc":"de","latitude":50.110924,"longitude":8.682127,"reserved":0,"last_update":"0001-01-01T00:00:00Z","name_a2s":"Uncletopia | Frankfurt | 8 | Community","protocol":17,"map":"workshop/pl_stallberg_rc3.ugc1849111469","folder":"tf","game":"Team Fortress","app_id":440,"player_count":0,"max_players":24,"Bots":0,"server_type":"Dedicated","server_os":"Linux","password":true,"vac":true,"version":"7961495","steam_id":85568392924742828,"keywords":["nocrits","nodmgspread","payload","uncletopia"],"game_id":440,"stv_port":27086,"stv_name":"Uncletopia | Frankfurt | 8 | Community | STV","players":null},{"server_id":202,"name":"Uncletopia | Hong Kong | 1 | All Maps","name_short":"hgk-1","host":"hgk-1.hk.uncletopia.com","port":27015,"enabled":true,"region":"asia","cc":"hk","latitude":22.302711,"longitude":114.177216,"reserved":0,"last_update":"0001-01-01T00:00:00Z","name_a2s":"Uncletopia | Hong Kong | 1 | All Maps","protocol":17,"map":"pl_upward","folder":"tf","game":"Team Fortress","app_id":440,"player_count":24,"max_players":24,"Bots":0,"server_type":"Dedicated","server_os":"Linux","password":true,"vac":true,"version":"7961495","steam_id":85568392924494504,"keywords":["nocrits","nodmgspread","payload","uncletopia"],"game_id":440,"stv_port":27016,"stv_name":"Uncletopia | Hong Kong | 1 | All Maps | STV","players":[{"user_id":219,"name":"screamer","steam_id":76561198147950041,"connected_time":126000000000,"state":"active","ping":77},{"user_id":214,"name":"PotTimesTwo","steam_id":76561199405461327,"connected_time":1428000000000,"state":"active","ping":62},{"user_id":150,"name":"BURN PYGMALION!!!","steam_id":76561198074339034,"connected_time":6463000000000,"state":"active","ping":63},{"user_id":168,"name":"im_0ff","steam_id":76561198339346695,"connected_time":4877000000000,"state":"active","ping":124},{"user_id":197,"name":"Cloud","steam_id":76561198272454184,"connected_time":2392000000000,"state":"active","ping":94},{"user_id":202,"name":"steame17","steam_id":76561199387872784,"connected_time":2319000000000,"state":"active","ping":151},{"user_id":59,"name":"14","steam_id":76561198113401862,"connected_time":13740000000000,"state":"active","ping":86},{"user_id":162,"name":"好油喔peko","steam_id":76561198326354576,"connected_time":5854000000000,"state":"active","ping":100},{"user_id":132,"name":"UR MOTHERRR... IS A N**GERRR","steam_id":76561198797699056,"connected_time":8669000000000,"state":"active","ping":95},{"user_id":179,"name":"water tastes good","steam_id":76561199375947670,"connected_time":4002000000000,"state":"active","ping":69},{"user_id":205,"name":"Variety","steam_id":76561198047396742,"connected_time":2190000000000,"state":"active","ping":71},{"user_id":169,"name":"Mac09","steam_id":76561198934873063,"connected_time":4778000000000,"state":"active","ping":73},{"user_id":207,"name":"screaming sniper","steam_id":76561199085568674,"connected_time":2116000000000,"state":"active","ping":71},{"user_id":106,"name":"yveth","steam_id":76561198320532821,"connected_time":10574000000000,"state":"active","ping":71},{"user_id":218,"name":"TomProPlayer","steam_id":76561199223292521,"connected_time":634000000000,"state":"active","ping":67},{"user_id":206,"name":"toad♡","steam_id":76561198082199290,"connected_time":2181000000000,"state":"active","ping":45},{"user_id":217,"name":"qingque","steam_id":76561198230213828,"connected_time":658000000000,"state":"active","ping":59},{"user_id":182,"name":"Bearrett_","steam_id":76561198841067509,"connected_time":3790000000000,"state":"active","ping":87},{"user_id":166,"name":"v1.","steam_id":76561198037571054,"connected_time":5051000000000,"state":"active","ping":39},{"user_id":212,"name":"Ivy's evil clone","steam_id":76561199219484527,"connected_time":1623000000000,"state":"active","ping":98},{"user_id":164,"name":"tiden2000","steam_id":76561198092969425,"connected_time":5190000000000,"state":"active","ping":61},{"user_id":181,"name":"Professor 'Iggins","steam_id":76561198064448905,"connected_time":3866000000000,"state":"active","ping":55},{"user_id":192,"name":"MongGoyo63","steam_id":76561198349540834,"connected_time":2883000000000,"state":"active","ping":88},{"user_id":154,"name":"Ivy","steam_id":76561198400698408,"connected_time":6444000000000,"state":"active","ping":97}]},{"server_id":1,"name":"Uncletopia | Los Angeles | 1 | All Maps","name_short":"lax-1","host":"lax-1.us.uncletopia.com","port":27015,"enabled":true,"region":"us-west","cc":"us","latitude":33.94279,"longitude":-118.41004,"reserved":0,"last_update":"0001-01-01T00:00:00Z","name_a2s":"Uncletopia | Los Angeles | 1 | All Maps","protocol":17,"map":"cp_process_final","folder":"tf","game":"Team Fortress","app_id":440,"player_count":22,"max_players":24,"Bots":0,"server_type":"Dedicated","server_os":"Linux","password":true,"vac":true,"version":"7961495","steam_id":85568392924469991,"keywords":["cp","nocrits","nodmgspread","uncletopia"],"game_id":440,"stv_port":27016,"stv_name":"Uncletopia | Los Angeles | 1 | All Maps | STV","players":[{"user_id":459,"name":"Da Bird","steam_id":76561198215677985,"connected_time":945000000000,"state":"active","ping":44},{"user_id":443,"name":"Pixelated Pussy","steam_id":76561198002511088,"connected_time":1840000000000,"state":"active","ping":44},{"user_id":391,"name":"HAT-WEARING™ Maggot Gamer Cat","steam_id":76561197973992705,"connected_time":7246000000000,"state":"active","ping":61},{"user_id":457,"name":"SolarusD","steam_id":76561198029279861,"connected_time":1021000000000,"state":"active","ping":46},{"user_id":473,"name":"davout","steam_id":76561198064662875,"connected_time":176000000000,"state":"active","ping":95},{"user_id":472,"name":"Rotarius","steam_id":76561198109893506,"connected_time":188000000000,"state":"active","ping":62},{"user_id":415,"name":"a chicken","steam_id":76561198313121580,"connected_time":4947000000000,"state":"active","ping":46},{"user_id":463,"name":"Witch Vomit","steam_id":76561199079587227,"connected_time":584000000000,"state":"active","ping":67},{"user_id":460,"name":"cada","steam_id":76561198341189135,"connected_time":940000000000,"state":"active","ping":100},{"user_id":461,"name":"Robertred","steam_id":76561199062495086,"connected_time":899000000000,"state":"active","ping":120},{"user_id":464,"name":"[DFC] j_yuuki","steam_id":76561198864314450,"connected_time":490000000000,"state":"active","ping":56},{"user_id":455,"name":"epsilon","steam_id":76561198025337276,"connected_time":1290000000000,"state":"active","ping":82},{"user_id":474,"name":"ack.awesome676","steam_id":76561199109415958,"connected_time":106000000000,"state":"active","ping":30},{"user_id":470,"name":"KrageSpawn","steam_id":76561199214730628,"connected_time":305000000000,"state":"active","ping":66},{"user_id":466,"name":"CaptainTal","steam_id":76561198304671916,"connected_time":438000000000,"state":"active","ping":66},{"user_id":318,"name":"FI LO","steam_id":76561198976530881,"connected_time":13481000000000,"state":"active","ping":39},{"user_id":431,"name":"Gamer to Femboy pipeline","steam_id":76561198026941076,"connected_time":2626000000000,"state":"active","ping":47},{"user_id":471,"name":"ars110","steam_id":76561198030492435,"connected_time":201000000000,"state":"active","ping":90},{"user_id":468,"name":"yung hoisin","steam_id":76561199122537902,"connected_time":427000000000,"state":"active","ping":48},{"user_id":452,"name":"Aeon","steam_id":76561198079117315,"connected_time":1516000000000,"state":"active","ping":45},{"user_id":454,"name":"Choy","steam_id":76561198005322345,"connected_time":1331000000000,"state":"active","ping":53},{"user_id":475,"name":"fart","steam_id":76561198074198286,"connected_time":34000000000,"state":"active","ping":60}]},{"server_id":112,"name":"Uncletopia | Los Angeles | 2 | All Maps","name_short":"lax-2","host":"lax-1.us.uncletopia.com","port":27025,"enabled":true,"region":"us-west","cc":"us","latitude":33.94279,"longitude":-118.41004,"reserved":0,"last_update":"0001-01-01T00:00:00Z","name_a2s":"Uncletopia | Los Angeles | 2 | All Maps","protocol":17,"map":"pl_rumford_event","folder":"tf","game":"Team Fortress","app_id":440,"player_count":24,"max_players":24,"Bots":0,"server_type":"Dedicated","server_os":"Linux","password":true,"vac":true,"version":"7961495","steam_id":85568392924469992,"keywords":["nocrits","nodmgspread","payload","uncletopia"],"game_id":440,"stv_port":27026,"stv_name":"Uncletopia | Los Angeles | 2 | All Maps | STV","players":[{"user_id":161,"name":"Pork Belly","steam_id":76561198053003142,"connected_time":8121000000000,"state":"active","ping":52},{"user_id":230,"name":"SirAnthonyIII_","steam_id":76561198132602636,"connected_time":2769000000000,"state":"active","ping":117},{"user_id":263,"name":"An00bis","steam_id":76561198044084508,"connected_time":794000000000,"state":"active","ping":46},{"user_id":195,"name":"MORE BOUNCE TO THE OUNCE","steam_id":76561198243399336,"connected_time":5861000000000,"state":"active","ping":68},{"user_id":211,"name":"waffles con leche","steam_id":76561198246934872,"connected_time":4356000000000,"state":"active","ping":64},{"user_id":265,"name":"AzRoth","steam_id":76561198312841772,"connected_time":715000000000,"state":"active","ping":92},{"user_id":258,"name":"tOwl","steam_id":76561198094005426,"connected_time":1120000000000,"state":"active","ping":55},{"user_id":262,"name":"lukamine","steam_id":76561198166827208,"connected_time":825000000000,"state":"active","ping":74},{"user_id":238,"name":"Mak","steam_id":76561198089197922,"connected_time":1914000000000,"state":"active","ping":83},{"user_id":268,"name":"Eden","steam_id":76561198081284664,"connected_time":197000000000,"state":"active","ping":58},{"user_id":245,"name":"Artic_Ryuu","steam_id":76561198182194918,"connected_time":1817000000000,"state":"active","ping":44},{"user_id":227,"name":"Irony is pretty cringy","steam_id":76561198120391460,"connected_time":3228000000000,"state":"active","ping":46},{"user_id":234,"name":"June","steam_id":76561198141803658,"connected_time":2291000000000,"state":"active","ping":49},{"user_id":260,"name":"how do i control my guy?","steam_id":76561198158855211,"connected_time":865000000000,"state":"active","ping":74},{"user_id":251,"name":"Tohubohu","steam_id":76561198077838448,"connected_time":1689000000000,"state":"active","ping":57},{"user_id":266,"name":"just took estrogen ama :3","steam_id":76561198039225492,"connected_time":691000000000,"state":"active","ping":60},{"user_id":253,"name":"virtualconnor4","steam_id":76561198218524512,"connected_time":1567000000000,"state":"active","ping":66},{"user_id":259,"name":"SO RETRO","steam_id":76561198846344452,"connected_time":1092000000000,"state":"active","ping":63},{"user_id":267,"name":"estrogen in my vape juice","steam_id":76561198068387373,"connected_time":682000000000,"state":"active","ping":74},{"user_id":224,"name":"Mom","steam_id":76561198207936000,"connected_time":3475000000000,"state":"active","ping":47},{"user_id":231,"name":"Scrux","steam_id":76561198129763115,"connected_time":2767000000000,"state":"active","ping":56},{"user_id":249,"name":"Fridgidaere @bowie.gg","steam_id":76561198131467867,"connected_time":1773000000000,"state":"active","ping":59},{"user_id":223,"name":"MistaRattle","steam_id":76561199144406643,"connected_time":3920000000000,"state":"active","ping":74},{"user_id":233,"name":"supe®man","steam_id":76561198115924427,"connected_time":2689000000000,"state":"active","ping":84}]},{"server_id":324,"name":"Uncletopia | Los Angeles | 3 | All Maps","name_short":"lax-3","host":"lax-1.us.uncletopia.com","port":27035,"enabled":true,"region":"us-west","cc":"us","latitude":33.94279,"longitude":-118.41004,"reserved":0,"last_update":"0001-01-01T00:00:00Z","name_a2s":"Uncletopia | Los Angeles | 3 | All Maps","protocol":17,"map":"koth_lakeside_final","folder":"tf","game":"Team Fortress","app_id":440,"player_count":1,"max_players":24,"Bots":0,"server_type":"Dedicated","server_os":"Linux","password":true,"vac":true,"version":"7961495","steam_id":85568392924510198,"keywords":["cp","nocrits","nodmgspread","uncletopia"],"game_id":440,"stv_port":27036,"stv_name":"Uncletopia | Los Angeles | 3 | All Maps | STV","players":[{"user_id":45,"name":"Sailor","steam_id":76561199081983517,"connected_time":31000000000,"state":"active","ping":73}]},{"server_id":25,"name":"Uncletopia | Los Angeles | 4 | Stopwatch","name_short":"lax-4","host":"lax-1.us.uncletopia.com","port":27045,"enabled":true,"region":"us-west","cc":"us","latitude":33.94279,"longitude":-118.41004,"reserved":0,"last_update":"0001-01-01T00:00:00Z","name_a2s":"Uncletopia | Los Angeles | 4 | Stopwatch","protocol":17,"map":"cp_metalworks","folder":"tf","game":"Team Fortress","app_id":440,"player_count":0,"max_players":24,"Bots":0,"server_type":"Dedicated","server_os":"Linux","password":true,"vac":true,"version":"7961495","steam_id":85568392924510199,"keywords":["cp","nocrits","nodmgspread","uncletopia"],"game_id":440,"stv_port":27046,"stv_name":"Uncletopia | Los Angeles | 4 | Stopwatch | STV","players":null},{"server_id":11,"name":"Uncletopia | London | 1 | All Maps","name_short":"lon-1","host":"lon-1.uk.uncletopia.com","port":27015,"enabled":true,"region":"eu","cc":"gb","latitude":51.509865,"longitude":-0.118092,"reserved":0,"last_update":"0001-01-01T00:00:00Z","name_a2s":"Uncletopia | London | 1 | All Maps","protocol":17,"map":"pl_snowycoast","folder":"tf","game":"Team Fortress","app_id":440,"player_count":24,"max_players":24,"Bots":0,"server_type":"Dedicated","server_os":"Linux","password":true,"vac":true,"version":"7961495","steam_id":85568392924367362,"keywords":["nocrits","nodmgspread","payload","uncletopia"],"game_id":440,"stv_port":27016,"stv_name":"Uncletopia | London | 1 | All Maps | STV","players":[{"user_id":3,"name":"AnimeGirl(real)","steam_id":76561199062433944,"connected_time":7924000000000,"state":"active","ping":136},{"user_id":60,"name":"sniffer (ultra rare)","steam_id":76561199080666656,"connected_time":969000000000,"state":"active","ping":137},{"user_id":43,"name":"Zulik92","steam_id":76561198152442373,"connected_time":2651000000000,"state":"active","ping":68},{"user_id":51,"name":"Arthur Morgan","steam_id":76561198148190507,"connected_time":1989000000000,"state":"active","ping":71},{"user_id":45,"name":"r2r keygen music","steam_id":76561198269154534,"connected_time":2493000000000,"state":"active","ping":43},{"user_id":9,"name":"pulsar","steam_id":76561198842123868,"connected_time":6693000000000,"state":"active","ping":105},{"user_id":67,"name":"Saint","steam_id":76561198003296382,"connected_time":339000000000,"state":"active","ping":68},{"user_id":14,"name":"Dov","steam_id":76561198856685379,"connected_time":4852000000000,"state":"active","ping":71},{"user_id":25,"name":"night.s","steam_id":76561198326287823,"connected_time":3821000000000,"state":"active","ping":70},{"user_id":16,"name":"dopamine overdose","steam_id":76561199032511302,"connected_time":4699000000000,"state":"active","ping":105},{"user_id":62,"name":"Stellar Fox","steam_id":76561198236985244,"connected_time":714000000000,"state":"active","ping":67},{"user_id":53,"name":"randem_","steam_id":76561198338793755,"connected_time":1852000000000,"state":"active","ping":32},{"user_id":47,"name":"FanFish","steam_id":76561199389558024,"connected_time":2253000000000,"state":"active","ping":64},{"user_id":30,"name":"ez VAC from Bornholm","steam_id":76561198052381812,"connected_time":3613000000000,"state":"active","ping":62},{"user_id":23,"name":"Lewylow","steam_id":76561198005425686,"connected_time":3897000000000,"state":"active","ping":50},{"user_id":71,"name":"json","steam_id":76561198378866654,"connected_time":198000000000,"state":"active","ping":98},{"user_id":65,"name":"Overseer Boots","steam_id":76561199115636221,"connected_time":566000000000,"state":"active","ping":56},{"user_id":49,"name":"Yonio","steam_id":76561198408428132,"connected_time":2213000000000,"state":"active","ping":75},{"user_id":59,"name":"Friendly Neighborhood Engineer","steam_id":76561199074181200,"connected_time":1054000000000,"state":"active","ping":40},{"user_id":34,"name":"Spraxinator","steam_id":76561199083563607,"connected_time":3467000000000,"state":"active","ping":174},{"user_id":39,"name":"Nyhde","steam_id":76561198012771416,"connected_time":3260000000000,"state":"active","ping":99},{"user_id":64,"name":"Yuzu","steam_id":76561198121694613,"connected_time":600000000000,"state":"active","ping":51},{"user_id":63,"name":"Kurt Beyber","steam_id":76561198047207247,"connected_time":605000000000,"state":"active","ping":67},{"user_id":70,"name":"The worst TF2 player(Real)","steam_id":76561199184873889,"connected_time":224000000000,"state":"active","ping":78}]},{"server_id":114,"name":"Uncletopia | London | 2 | All Maps","name_short":"lon-2","host":"lon-1.uk.uncletopia.com","port":27025,"enabled":true,"region":"eu","cc":"gb","latitude":51.509865,"longitude":-0.118092,"reserved":0,"last_update":"0001-01-01T00:00:00Z","name_a2s":"Uncletopia | London | 2 | All Maps","protocol":17,"map":"cp_mountainlab","folder":"tf","game":"Team Fortress","app_id":440,"player_count":0,"max_players":24,"Bots":0,"server_type":"Dedicated","server_os":"Linux","password":true,"vac":true,"version":"7961495","steam_id":85568392924470941,"keywords":["cp","nocrits","nodmgspread","uncletopia"],"game_id":440,"stv_port":27026,"stv_name":"Uncletopia | London | 2 | All Maps | STV","players":null},{"server_id":320,"name":"Uncletopia | London | 3 | All Maps","name_short":"lon-3","host":"lon-1.uk.uncletopia.com","port":27035,"enabled":true,"region":"eu","cc":"gb","latitude":51.509865,"longitude":-0.118092,"reserved":0,"last_update":"0001-01-01T00:00:00Z","name_a2s":"Uncletopia | London | 3 | All Maps","protocol":17,"map":"cp_mountainlab","folder":"tf","game":"Team Fortress","app_id":440,"player_count":0,"max_players":24,"Bots":0,"server_type":"Dedicated","server_os":"Linux","password":true,"vac":true,"version":"7961495","steam_id":85568392924510192,"keywords":["cp","nocrits","nodmgspread","uncletopia"],"game_id":440,"stv_port":27036,"stv_name":"Uncletopia | London | 3 | All Maps | STV","players":null},{"server_id":321,"name":"Uncletopia | London | 4 | All Maps","name_short":"lon-4","host":"lon-1.uk.uncletopia.com","port":27045,"enabled":true,"region":"eu","cc":"gb","latitude":51.509865,"longitude":-0.118092,"reserved":0,"last_update":"0001-01-01T00:00:00Z","name_a2s":"Uncletopia | London | 4 | All Maps","protocol":17,"map":"pl_badwater","folder":"tf","game":"Team Fortress","app_id":440,"player_count":0,"max_players":24,"Bots":0,"server_type":"Dedicated","server_os":"Linux","password":true,"vac":true,"version":"7961495","steam_id":85568392924510193,"keywords":["nocrits","nodmgspread","payload","uncletopia"],"game_id":440,"stv_port":27046,"stv_name":"Uncletopia | London | 4 | All Maps | STV","players":null},{"server_id":21,"name":"Uncletopia | London | 5 | All Maps","name_short":"lon-5","host":"lon-1.uk.uncletopia.com","port":27055,"enabled":true,"region":"eu","cc":"gb","latitude":51.509865,"longitude":-0.118092,"reserved":0,"last_update":"0001-01-01T00:00:00Z","name_a2s":"Uncletopia | London | 5 | All Maps","protocol":17,"map":"koth_suijin","folder":"tf","game":"Team Fortress","app_id":440,"player_count":0,"max_players":24,"Bots":0,"server_type":"Dedicated","server_os":"Linux","password":true,"vac":true,"version":"7961495","steam_id":85568392924742829,"keywords":["cp","nocrits","nodmgspread","uncletopia"],"game_id":440,"stv_port":27056,"stv_name":"Uncletopia | London | 5 | All Maps | STV","players":null},{"server_id":22,"name":"Uncletopia | London | 6 | All Maps","name_short":"lon-6","host":"lon-1.uk.uncletopia.com","port":27065,"enabled":true,"region":"eu","cc":"gb","latitude":51.509865,"longitude":-0.118092,"reserved":0,"last_update":"0001-01-01T00:00:00Z","name_a2s":"Uncletopia | London | 6 | All Maps","protocol":17,"map":"pl_frontier_final","folder":"tf","game":"Team Fortress","app_id":440,"player_count":0,"max_players":24,"Bots":0,"server_type":"Dedicated","server_os":"Linux","password":true,"vac":true,"version":"7961495","steam_id":85568392924742830,"keywords":["nocrits","nodmgspread","payload","uncletopia"],"game_id":440,"stv_port":27066,"stv_name":"Uncletopia | London | 6 | All Maps | STV","players":null},{"server_id":40,"name":"Uncletopia | London | 7 | Stopwatch","name_short":"lon-7","host":"lon-1.uk.uncletopia.com","port":27075,"enabled":true,"region":"eu","cc":"gb","latitude":51.509865,"longitude":-0.118092,"reserved":0,"last_update":"0001-01-01T00:00:00Z","name_a2s":"Uncletopia | London | 7 | Stopwatch","protocol":17,"map":"pl_swiftwater_final1","folder":"tf","game":"Team Fortress","app_id":440,"player_count":0,"max_players":24,"Bots":0,"server_type":"Dedicated","server_os":"Linux","password":true,"vac":true,"version":"7961495","steam_id":85568392924964314,"keywords":["nocrits","nodmgspread","payload","uncletopia"],"game_id":440,"stv_port":27076,"stv_name":"Uncletopia | London | 7 | Stopwatch | STV","players":null},{"server_id":41,"name":"Uncletopia | London | 8 | Community","name_short":"lon-8","host":"lon-1.uk.uncletopia.com","port":27085,"enabled":true,"region":"eu","cc":"gb","latitude":51.509865,"longitude":-0.118092,"reserved":0,"last_update":"0001-01-01T00:00:00Z","name_a2s":"Uncletopia | London | 8 | Community","protocol":17,"map":"workshop/cp_propaganda_b18.ugc1603743849","folder":"tf","game":"Team Fortress","app_id":440,"player_count":0,"max_players":24,"Bots":0,"server_type":"Dedicated","server_os":"Linux","password":true,"vac":true,"version":"7961495","steam_id":85568392924964315,"keywords":["cp","nocrits","nodmgspread","uncletopia"],"game_id":440,"stv_port":27086,"stv_name":"Uncletopia | London | 8 | Community | STV","players":null},{"server_id":300,"name":"Uncletopia | Montréal | 1 | One Thousand Uncles","name_short":"mtl-1","host":"mtl-1.ca.uncletopia.com","port":27015,"enabled":true,"region":"us-east","cc":"ca","latitude":45.50889,"longitude":-73.56167,"reserved":0,"last_update":"0001-01-01T00:00:00Z","name_a2s":"Uncletopia | Montréal | 1 | One Thousand Uncles","protocol":17,"map":"cp_egypt_final","folder":"tf","game":"Team Fortress","app_id":440,"player_count":0,"max_players":32,"Bots":0,"server_type":"Dedicated","server_os":"Linux","password":true,"vac":true,"version":"7961495","steam_id":85568392924500087,"keywords":["alltalk","cp","danepve","increased_maxplayers","norespawntime","uncletopia"],"game_id":440,"stv_port":0,"stv_name":"","players":null},{"server_id":301,"name":"Uncletopia | Montréal | 2 | One Thousand Uncles","name_short":"mtl-2","host":"mtl-1.ca.uncletopia.com","port":27025,"enabled":true,"region":"us-east","cc":"ca","latitude":45.50889,"longitude":-73.56167,"reserved":0,"last_update":"0001-01-01T00:00:00Z","name_a2s":"Uncletopia | Montréal | 2 | One Thousand Uncles","protocol":17,"map":"cp_dustbowl","folder":"tf","game":"Team Fortress","app_id":440,"player_count":0,"max_players":32,"Bots":0,"server_type":"Dedicated","server_os":"Linux","password":true,"vac":true,"version":"7961495","steam_id":85568392924500088,"keywords":["alltalk","cp","danepve","increased_maxplayers","norespawntime","uncletopia"],"game_id":440,"stv_port":0,"stv_name":"","players":null},{"server_id":302,"name":"Uncletopia | Montréal | 3 | One Thousand Uncles","name_short":"mtl-3","host":"mtl-1.ca.uncletopia.com","port":27035,"enabled":true,"region":"us-east","cc":"ca","latitude":45.50889,"longitude":-73.56167,"reserved":0,"last_update":"0001-01-01T00:00:00Z","name_a2s":"Uncletopia | Montréal | 3 | One Thousand Uncles","protocol":17,"map":"pl_thundermountain","folder":"tf","game":"Team Fortress","app_id":440,"player_count":0,"max_players":32,"Bots":0,"server_type":"Dedicated","server_os":"Linux","password":true,"vac":true,"version":"7961495","steam_id":85568392924500089,"keywords":["alltalk","danepve","increased_maxplayers","norespawntime","payload","uncletopia"],"game_id":440,"stv_port":0,"stv_name":"","players":null},{"server_id":13,"name":"Uncletopia | New York City | 1 | All Maps","name_short":"nyc-1","host":"nyc-1.us.uncletopia.com","port":27015,"enabled":true,"region":"us-east","cc":"us","latitude":40.73061,"longitude":-73.93524,"reserved":0,"last_update":"0001-01-01T00:00:00Z","name_a2s":"Uncletopia | New York City | 1 | All Maps","protocol":17,"map":"pl_borneo","folder":"tf","game":"Team Fortress","app_id":440,"player_count":24,"max_players":24,"Bots":0,"server_type":"Dedicated","server_os":"Linux","password":true,"vac":true,"version":"7961495","steam_id":85568392924469993,"keywords":["nocrits","nodmgspread","payload","uncletopia"],"game_id":440,"stv_port":27016,"stv_name":"Uncletopia | New York City | 1 | All Maps | STV","players":[{"user_id":851,"name":"komodoom","steam_id":76561198048619639,"connected_time":2814000000000,"state":"active","ping":77},{"user_id":862,"name":"Tickle Me Im Gay","steam_id":76561198041901825,"connected_time":1208000000000,"state":"active","ping":125},{"user_id":871,"name":"t h i c c  b o i","steam_id":76561198059547538,"connected_time":802000000000,"state":"active","ping":65},{"user_id":806,"name":"The Great Eagle Scourge of 1822","steam_id":76561198325086209,"connected_time":6559000000000,"state":"active","ping":114},{"user_id":854,"name":"Zippy","steam_id":76561198279229422,"connected_time":2760000000000,"state":"active","ping":77},{"user_id":879,"name":"Zeelidox","steam_id":76561198110613375,"connected_time":96000000000,"state":"active","ping":94},{"user_id":872,"name":"ssg god","steam_id":76561198821451167,"connected_time":736000000000,"state":"active","ping":172},{"user_id":873,"name":"Model CHP-3Y","steam_id":76561198107806145,"connected_time":726000000000,"state":"active","ping":65},{"user_id":864,"name":"Beef or Chicken??","steam_id":76561198047034408,"connected_time":1194000000000,"state":"active","ping":115},{"user_id":861,"name":"[HOH] 「Kenubis」","steam_id":76561198105671758,"connected_time":1222000000000,"state":"active","ping":135},{"user_id":874,"name":"living in mushroom park","steam_id":76561198097588802,"connected_time":471000000000,"state":"active","ping":65},{"user_id":860,"name":"Knocksban","steam_id":76561198436480853,"connected_time":1765000000000,"state":"active","ping":98},{"user_id":843,"name":"Aoiuchuu","steam_id":76561198051947219,"connected_time":3617000000000,"state":"active","ping":176},{"user_id":867,"name":"YASAI JUICE","steam_id":76561198131971992,"connected_time":1105000000000,"state":"active","ping":55},{"user_id":868,"name":"TacoBellManager","steam_id":76561198339154507,"connected_time":1054000000000,"state":"active","ping":52},{"user_id":844,"name":"GrinchsUltimatum","steam_id":76561198075366657,"connected_time":3605000000000,"state":"active","ping":112},{"user_id":875,"name":"World's Biggest Sniper Hater","steam_id":76561198209153291,"connected_time":428000000000,"state":"active","ping":116},{"user_id":816,"name":"Rambly Dambly","steam_id":76561198844496567,"connected_time":6009000000000,"state":"active","ping":38},{"user_id":845,"name":"Cobaltion","steam_id":76561198035701210,"connected_time":3577000000000,"state":"active","ping":127},{"user_id":876,"name":"When I'm touched, I bleed","steam_id":76561198056467179,"connected_time":411000000000,"state":"active","ping":86},{"user_id":877,"name":"notatrip(soulless n' hostile :3","steam_id":76561198046109327,"connected_time":406000000000,"state":"active","ping":68},{"user_id":835,"name":"William","steam_id":76561198017970207,"connected_time":4528000000000,"state":"active","ping":92},{"user_id":848,"name":"Pootis ENGAGE","steam_id":76561198192752793,"connected_time":3335000000000,"state":"active","ping":53},{"user_id":878,"name":"SubZeroDestruction","steam_id":76561198145082209,"connected_time":137000000000,"state":"active","ping":57}]},{"server_id":14,"name":"Uncletopia | New York City | 2 | All Maps","name_short":"nyc-2","host":"nyc-1.us.uncletopia.com","port":27025,"enabled":true,"region":"us-east","cc":"us","latitude":40.73061,"longitude":-73.93524,"reserved":0,"last_update":"0001-01-01T00:00:00Z","name_a2s":"Uncletopia | New York City | 2 | All Maps","protocol":17,"map":"koth_viaduct","folder":"tf","game":"Team Fortress","app_id":440,"player_count":0,"max_players":24,"Bots":0,"server_type":"Dedicated","server_os":"Linux","password":true,"vac":true,"version":"7961495","steam_id":85568392924469994,"keywords":["cp","nocrits","nodmgspread","uncletopia"],"game_id":440,"stv_port":27026,"stv_name":"Uncletopia | New York City | 2 | All Maps | STV","players":null},{"server_id":15,"name":"Uncletopia | New York City | 3 | Stopwatch","name_short":"nyc-3","host":"nyc-1.us.uncletopia.com","port":27035,"enabled":true,"region":"us-east","cc":"us","latitude":40.73061,"longitude":-73.93524,"reserved":0,"last_update":"0001-01-01T00:00:00Z","name_a2s":"Uncletopia | New York City | 3 | Stopwatch","protocol":17,"map":"workshop/pl_badwater_pro_v12.ugc2142942074","folder":"tf","game":"Team Fortress","app_id":440,"player_count":0,"max_players":24,"Bots":0,"server_type":"Dedicated","server_os":"Linux","password":true,"vac":true,"version":"7961495","steam_id":85568392924742820,"keywords":["nocrits","nodmgspread","payload","uncletopia"],"game_id":440,"stv_port":27036,"stv_name":"Uncletopia | New York City | 3 | Stopwatch | STV","players":null},{"server_id":16,"name":"Uncletopia | New York City | 4 | Community","name_short":"nyc-4","host":"nyc-1.us.uncletopia.com","port":27045,"enabled":true,"region":"us-east","cc":"us","latitude":40.73061,"longitude":-73.93524,"reserved":0,"last_update":"0001-01-01T00:00:00Z","name_a2s":"Uncletopia | New York City | 4 | Community","protocol":17,"map":"workshop/cp_bruhstbowl_b6.ugc2878604990","folder":"tf","game":"Team Fortress","app_id":440,"player_count":0,"max_players":24,"Bots":0,"server_type":"Dedicated","server_os":"Linux","password":true,"vac":true,"version":"7961495","steam_id":85568392924742821,"keywords":["cp","nocrits","nodmgspread","uncletopia"],"game_id":440,"stv_port":27046,"stv_name":"Uncletopia | New York City | 4 | Community | STV","players":null},{"server_id":142,"name":"Uncletopia | São Paulo | 1 | All Maps","name_short":"sao-1","host":"sao-1.br.uncletopia.com","port":27015,"enabled":true,"region":"sa","cc":"br","latitude":-23.533773,"longitude":-46.62529,"reserved":0,"last_update":"0001-01-01T00:00:00Z","name_a2s":"Uncletopia | São Paulo | 1 | All Maps","protocol":17,"map":"cp_gorge","folder":"tf","game":"Team Fortress","app_id":440,"player_count":0,"max_players":24,"Bots":0,"server_type":"Dedicated","server_os":"Linux","password":true,"vac":true,"version":"7961495","steam_id":85568392924469996,"keywords":["cp","nocrits","nodmgspread","uncletopia"],"game_id":440,"stv_port":27016,"stv_name":"Uncletopia | São Paulo | 1 | All Maps | STV","players":null},{"server_id":143,"name":"Uncletopia | São Paulo | 2 | Community","name_short":"sao-2","host":"sao-2.br.uncletopia.com","port":27015,"enabled":true,"region":"sa","cc":"br","latitude":-23.533773,"longitude":-46.62529,"reserved":0,"last_update":"0001-01-01T00:00:00Z","name_a2s":"Uncletopia | São Paulo | 2 | Community","protocol":17,"map":"workshop/koth_product_final.ugc454272353","folder":"tf","game":"Team Fortress","app_id":440,"player_count":0,"max_players":24,"Bots":0,"server_type":"Dedicated","server_os":"Linux","password":true,"vac":true,"version":"7961495","steam_id":85568392924485349,"keywords":["cp","nocrits","nodmgspread","uncletopia"],"game_id":440,"stv_port":27016,"stv_name":"Uncletopia | São Paulo | 2 | Community | STV","players":null},{"server_id":7,"name":"Uncletopia | Seattle | 1 | All Maps","name_short":"sea-1","host":"sea-1.us.uncletopia.com","port":27015,"enabled":true,"region":"us-west","cc":"us","latitude":47.608013,"longitude":-122.33517,"reserved":0,"last_update":"0001-01-01T00:00:00Z","name_a2s":"Uncletopia | Seattle | 1 | All Maps","protocol":17,"map":"koth_viaduct","folder":"tf","game":"Team Fortress","app_id":440,"player_count":24,"max_players":24,"Bots":0,"server_type":"Dedicated","server_os":"Linux","password":true,"vac":true,"version":"7961495","steam_id":85568392924469997,"keywords":["cp","nocrits","nodmgspread","uncletopia"],"game_id":440,"stv_port":27016,"stv_name":"Uncletopia | Seattle | 1 | All Maps | STV","players":[{"user_id":901,"name":"orangePulp","steam_id":76561198038373636,"connected_time":1321000000000,"state":"active","ping":90},{"user_id":753,"name":"ghor","steam_id":76561197994547132,"connected_time":9610000000000,"state":"active","ping":30},{"user_id":749,"name":"AveragePhil","steam_id":76561199139836802,"connected_time":9837000000000,"state":"active","ping":45},{"user_id":857,"name":"Brathic","steam_id":76561198966232163,"connected_time":5068000000000,"state":"active","ping":81},{"user_id":890,"name":"lavender","steam_id":76561199069518286,"connected_time":2238000000000,"state":"active","ping":68},{"user_id":895,"name":"Cancerous Pineapple","steam_id":76561198097307656,"connected_time":1962000000000,"state":"active","ping":69},{"user_id":898,"name":"Soupcan","steam_id":76561198056269538,"connected_time":1353000000000,"state":"active","ping":53},{"user_id":902,"name":"Neon plush","steam_id":76561198435967167,"connected_time":1286000000000,"state":"active","ping":134},{"user_id":900,"name":"Henchie!","steam_id":76561198047567464,"connected_time":1322000000000,"state":"active","ping":95},{"user_id":863,"name":"wiener","steam_id":76561198150281353,"connected_time":4878000000000,"state":"active","ping":55},{"user_id":786,"name":"hazel","steam_id":76561198037292232,"connected_time":7597000000000,"state":"active","ping":124},{"user_id":872,"name":"smeasly","steam_id":76561198028718812,"connected_time":4148000000000,"state":"active","ping":44},{"user_id":903,"name":"trackball triops","steam_id":76561198059041027,"connected_time":1286000000000,"state":"active","ping":55},{"user_id":904,"name":"LFF prophet","steam_id":76561198131166135,"connected_time":1136000000000,"state":"active","ping":39},{"user_id":873,"name":"Sniff","steam_id":76561198010270922,"connected_time":4118000000000,"state":"active","ping":41},{"user_id":864,"name":"4lorist LFT FROTTING","steam_id":76561198009121060,"connected_time":4878000000000,"state":"active","ping":45},{"user_id":877,"name":"doopsies","steam_id":76561198083000867,"connected_time":3534000000000,"state":"active","ping":58},{"user_id":878,"name":"Moffein","steam_id":76561198016739296,"connected_time":3491000000000,"state":"active","ping":60},{"user_id":896,"name":"fungi@bowie.gg","steam_id":76561198169755734,"connected_time":1938000000000,"state":"active","ping":61},{"user_id":866,"name":"fadeaway backshots","steam_id":76561198086878595,"connected_time":4860000000000,"state":"active","ping":74},{"user_id":894,"name":"Canned Lobster","steam_id":76561198110847328,"connected_time":2070000000000,"state":"active","ping":81},{"user_id":805,"name":"blinkerton city","steam_id":76561198054270410,"connected_time":6539000000000,"state":"active","ping":57},{"user_id":897,"name":"rorywashere /ᐠ - ˕ -マ Ⳋ","steam_id":76561198065825165,"connected_time":1841000000000,"state":"active","ping":107},{"user_id":796,"name":"Cheezbeargur","steam_id":76561198164702899,"connected_time":6822000000000,"state":"active","ping":69}]},{"server_id":119,"name":"Uncletopia | Seattle | 2 | All Maps","name_short":"sea-2","host":"sea-1.us.uncletopia.com","port":27025,"enabled":true,"region":"us-west","cc":"us","latitude":47.608013,"longitude":-122.33517,"reserved":0,"last_update":"0001-01-01T00:00:00Z","name_a2s":"Uncletopia | Seattle | 2 | All Maps","protocol":17,"map":"pl_swiftwater_final1","folder":"tf","game":"Team Fortress","app_id":440,"player_count":24,"max_players":24,"Bots":0,"server_type":"Dedicated","server_os":"Linux","password":true,"vac":true,"version":"7961495","steam_id":85568392924469998,"keywords":["nocrits","nodmgspread","payload","uncletopia"],"game_id":440,"stv_port":27026,"stv_name":"Uncletopia | Seattle | 2 | All Maps | STV","players":[{"user_id":599,"name":"TTV/ZenmanTTV","steam_id":76561198110651094,"connected_time":5135000000000,"state":"active","ping":126},{"user_id":624,"name":"Larry Gooseman","steam_id":76561198018696922,"connected_time":1599000000000,"state":"active","ping":83},{"user_id":570,"name":"Caramel_Chalice","steam_id":76561198307609692,"connected_time":7855000000000,"state":"active","ping":47},{"user_id":604,"name":"Mr. Pine","steam_id":76561198112203861,"connected_time":4139000000000,"state":"active","ping":61},{"user_id":605,"name":"smoking spy","steam_id":76561198329096986,"connected_time":4093000000000,"state":"active","ping":97},{"user_id":626,"name":"gingerbredman","steam_id":76561199165814938,"connected_time":1231000000000,"state":"active","ping":51},{"user_id":614,"name":"self sufficient kitten ♥","steam_id":76561197960592612,"connected_time":2990000000000,"state":"active","ping":45},{"user_id":607,"name":"Comradical","steam_id":76561197990808285,"connected_time":3688000000000,"state":"active","ping":124},{"user_id":615,"name":"hungry kibten","steam_id":76561198184099558,"connected_time":2973000000000,"state":"active","ping":45},{"user_id":592,"name":"Optimore","steam_id":76561198047662990,"connected_time":6693000000000,"state":"active","ping":64},{"user_id":616,"name":"2 Point Tom","steam_id":76561198087617008,"connected_time":2940000000000,"state":"active","ping":53},{"user_id":618,"name":"superweedprincess4000","steam_id":76561198049258493,"connected_time":2660000000000,"state":"active","ping":59},{"user_id":571,"name":"Violet K.","steam_id":76561198062963842,"connected_time":7835000000000,"state":"active","ping":69},{"user_id":628,"name":"Chocc-_-","steam_id":76561198068070211,"connected_time":587000000000,"state":"active","ping":86},{"user_id":582,"name":"Kronk","steam_id":76561198267956028,"connected_time":7304000000000,"state":"active","ping":50},{"user_id":608,"name":"Day Man","steam_id":76561198067154807,"connected_time":3677000000000,"state":"active","ping":48},{"user_id":625,"name":"Precision_Context","steam_id":76561199180393975,"connected_time":1587000000000,"state":"active","ping":57},{"user_id":627,"name":"MoistPP","steam_id":76561199100990739,"connected_time":791000000000,"state":"active","ping":55},{"user_id":581,"name":"Antzen","steam_id":76561198041343470,"connected_time":7422000000000,"state":"active","ping":60},{"user_id":590,"name":"American Dad Funny Moments #32","steam_id":76561198254874328,"connected_time":6856000000000,"state":"active","ping":54},{"user_id":530,"name":"Clagger","steam_id":76561198066701092,"connected_time":10638000000000,"state":"active","ping":43},{"user_id":610,"name":"Dongus","steam_id":76561197979056451,"connected_time":3458000000000,"state":"active","ping":51},{"user_id":617,"name":"paws :3","steam_id":76561199371694361,"connected_time":2808000000000,"state":"active","ping":83},{"user_id":594,"name":"Dogg wader","steam_id":76561199090314340,"connected_time":6253000000000,"state":"active","ping":97}]},{"server_id":406,"name":"Uncletopia | Seattle | 3 | Stopwatch","name_short":"sea-3","host":"sea-1.us.uncletopia.com","port":27035,"enabled":true,"region":"us-west","cc":"us","latitude":47.608013,"longitude":-122.33517,"reserved":0,"last_update":"0001-01-01T00:00:00Z","name_a2s":"Uncletopia | Seattle | 3 | Stopwatch","protocol":17,"map":"pl_upward","folder":"tf","game":"Team Fortress","app_id":440,"player_count":0,"max_players":24,"Bots":0,"server_type":"Dedicated","server_os":"Linux","password":true,"vac":true,"version":"7961495","steam_id":85568392924515217,"keywords":["nocrits","nodmgspread","payload","uncletopia"],"game_id":440,"stv_port":27036,"stv_name":"Uncletopia | Seattle | 3 | Stopwatch | STV","players":null},{"server_id":17,"name":"Uncletopia | San Francisco | 1 | All Maps","name_short":"sfo-1","host":"sfo-1.us.uncletopia.com","port":27015,"enabled":true,"region":"us-west","cc":"us","latitude":37.77397,"longitude":-122.4313,"reserved":0,"last_update":"0001-01-01T00:00:00Z","name_a2s":"Uncletopia | San Francisco | 1 | All Maps","protocol":17,"map":"pl_borneo","folder":"tf","game":"Team Fortress","app_id":440,"player_count":0,"max_players":24,"Bots":0,"server_type":"Dedicated","server_os":"Linux","password":true,"vac":true,"version":"7961495","steam_id":85568392924469999,"keywords":["nocrits","nodmgspread","payload","uncletopia"],"game_id":440,"stv_port":27016,"stv_name":"Uncletopia | San Francisco | 1 | All Maps | STV","players":null},{"server_id":18,"name":"Uncletopia | San Francisco | 2 | All Maps","name_short":"sfo-2","host":"sfo-1.us.uncletopia.com","port":27025,"enabled":true,"region":"us-west","cc":"us","latitude":37.77397,"longitude":-122.4313,"reserved":0,"last_update":"0001-01-01T00:00:00Z","name_a2s":"Uncletopia | San Francisco | 2 | All Maps","protocol":17,"map":"cp_sunshine","folder":"tf","game":"Team Fortress","app_id":440,"player_count":23,"max_players":24,"Bots":0,"server_type":"Dedicated","server_os":"Linux","password":true,"vac":true,"version":"7961495","steam_id":85568392924470000,"keywords":["cp","nocrits","nodmgspread","uncletopia"],"game_id":440,"stv_port":27026,"stv_name":"Uncletopia | San Francisco | 2 | All Maps | STV","players":[{"user_id":110,"name":"Natural Crowe","steam_id":76561198256909706,"connected_time":2452000000000,"state":"active","ping":96},{"user_id":88,"name":"Mirce","steam_id":76561198100889621,"connected_time":3978000000000,"state":"active","ping":93},{"user_id":135,"name":"popped my clogs","steam_id":76561197980280272,"connected_time":346000000000,"state":"active","ping":49},{"user_id":131,"name":"raduski","steam_id":76561198795699119,"connected_time":532000000000,"state":"active","ping":85},{"user_id":120,"name":"Leroy Sinclair","steam_id":76561198116082889,"connected_time":1708000000000,"state":"active","ping":59},{"user_id":55,"name":"pablo.rodriguez2006","steam_id":76561198059740184,"connected_time":7040000000000,"state":"active","ping":67},{"user_id":127,"name":"Mocha Josie","steam_id":76561198066452726,"connected_time":991000000000,"state":"active","ping":59},{"user_id":122,"name":"Spare(8)Ball","steam_id":76561197982432995,"connected_time":1645000000000,"state":"active","ping":53},{"user_id":132,"name":"NotThatGuyPal","steam_id":76561199127607812,"connected_time":531000000000,"state":"active","ping":89},{"user_id":90,"name":"Golden Darkness","steam_id":76561198399018335,"connected_time":3788000000000,"state":"active","ping":105},{"user_id":115,"name":"Ryver","steam_id":76561199082197266,"connected_time":1991000000000,"state":"active","ping":104},{"user_id":128,"name":"up tossin my pigskin","steam_id":76561198062294687,"connected_time":946000000000,"state":"active","ping":45},{"user_id":124,"name":"Cool Vibrations","steam_id":76561198142493659,"connected_time":1607000000000,"state":"active","ping":70},{"user_id":125,"name":"› We Are You.j2","steam_id":76561197995242200,"connected_time":1554000000000,"state":"active","ping":47},{"user_id":58,"name":"spirit","steam_id":76561198102040731,"connected_time":6932000000000,"state":"active","ping":104},{"user_id":50,"name":"Profile Name","steam_id":76561198404517128,"connected_time":7154000000000,"state":"active","ping":105},{"user_id":102,"name":"FrostyBoiGrim","steam_id":76561198114335037,"connected_time":2704000000000,"state":"active","ping":52},{"user_id":126,"name":"BonesMaster52","steam_id":76561199072479189,"connected_time":1514000000000,"state":"active","ping":94},{"user_id":133,"name":"chickenenthusiast427","steam_id":76561198909415646,"connected_time":513000000000,"state":"active","ping":92},{"user_id":117,"name":"Hashbrowncow","steam_id":76561198272021902,"connected_time":1978000000000,"state":"active","ping":47},{"user_id":64,"name":"kiwi","steam_id":76561198052177917,"connected_time":6699000000000,"state":"active","ping":69},{"user_id":101,"name":"the pizza","steam_id":76561198221331476,"connected_time":2921000000000,"state":"active","ping":43}]},{"server_id":19,"name":"Uncletopia | San Francisco | 3 | Stopwatch","name_short":"sfo-3","host":"sfo-1.us.uncletopia.com","port":27035,"enabled":true,"region":"us-west","cc":"us","latitude":37.77397,"longitude":-122.4313,"reserved":0,"last_update":"0001-01-01T00:00:00Z","name_a2s":"Uncletopia | San Francisco | 3 | Stopwatch","protocol":17,"map":"workshop/pl_barnblitz_pro7.ugc582280235","folder":"tf","game":"Team Fortress","app_id":440,"player_count":0,"max_players":24,"Bots":0,"server_type":"Dedicated","server_os":"Linux","password":true,"vac":true,"version":"7961495","steam_id":85568392924742824,"keywords":["nocrits","nodmgspread","payload","uncletopia"],"game_id":440,"stv_port":27036,"stv_name":"Uncletopia | San Francisco | 3 | Stopwatch | STV","players":null},{"server_id":20,"name":"Uncletopia | San Francisco | 4 | Community","name_short":"sfo-4","host":"sfo-1.us.uncletopia.com","port":27045,"enabled":true,"region":"us-west","cc":"us","latitude":37.77397,"longitude":-122.4313,"reserved":0,"last_update":"0001-01-01T00:00:00Z","name_a2s":"Uncletopia | San Francisco | 4 | Community","protocol":17,"map":"workshop/koth_bagel_rc6.ugc2514036946","folder":"tf","game":"Team Fortress","app_id":440,"player_count":0,"max_players":24,"Bots":0,"server_type":"Dedicated","server_os":"Linux","password":true,"vac":true,"version":"7961495","steam_id":85568392924742826,"keywords":["cp","nocrits","nodmgspread","uncletopia"],"game_id":440,"stv_port":27046,"stv_name":"Uncletopia | San Francisco | 4 | Community | STV","players":null},{"server_id":141,"name":"Uncletopia | Sydney | 1 | All Maps","name_short":"syd-1","host":"syd-1.au.uncletopia.com","port":27015,"enabled":true,"region":"au","cc":"au","latitude":-33.865143,"longitude":151.2099,"reserved":0,"last_update":"0001-01-01T00:00:00Z","name_a2s":"Uncletopia | Sydney | 1 | All Maps","protocol":17,"map":"cp_process_final","folder":"tf","game":"Team Fortress","app_id":440,"player_count":25,"max_players":24,"Bots":0,"server_type":"Dedicated","server_os":"Linux","password":true,"vac":true,"version":"7961495","steam_id":85568392924470001,"keywords":["cp","nocrits","nodmgspread","uncletopia"],"game_id":440,"stv_port":27016,"stv_name":"Uncletopia | Sydney | 1 | All Maps | STV","players":[{"user_id":320,"name":"entradinkgle","steam_id":76561198137562689,"connected_time":538000000000,"state":"active","ping":49},{"user_id":289,"name":"carrot monster","steam_id":76561199056025092,"connected_time":4060000000000,"state":"active","ping":42},{"user_id":321,"name":"dissplayedd","steam_id":76561199240403436,"connected_time":534000000000,"state":"active","ping":70},{"user_id":324,"name":"Two Fortress Enjoyer","steam_id":76561198039845750,"connected_time":299000000000,"state":"active","ping":60},{"user_id":245,"name":"MAYHEM","steam_id":76561199323730865,"connected_time":8247000000000,"state":"active","ping":40},{"user_id":306,"name":"will smith","steam_id":76561198112980997,"connected_time":1990000000000,"state":"active","ping":49},{"user_id":257,"name":"Dot","steam_id":76561198064534661,"connected_time":6907000000000,"state":"active","ping":58},{"user_id":290,"name":"COLLINSct","steam_id":76561198045395403,"connected_time":3891000000000,"state":"active","ping":52},{"user_id":295,"name":"Plastic_Wrapp","steam_id":76561198817560659,"connected_time":3179000000000,"state":"active","ping":76},{"user_id":313,"name":"ReHou2","steam_id":76561199197155555,"connected_time":1333000000000,"state":"active","ping":60},{"user_id":260,"name":"Glockenspe (She/Her)","steam_id":76561199184115241,"connected_time":6596000000000,"state":"active","ping":50},{"user_id":304,"name":"Franky 'Fist Me' Farnsworth","steam_id":76561198059546358,"connected_time":2372000000000,"state":"active","ping":56},{"user_id":308,"name":"Ace","steam_id":76561198143792684,"connected_time":1566000000000,"state":"active","ping":60},{"user_id":271,"name":"Eddie","steam_id":76561198081031350,"connected_time":5091000000000,"state":"active","ping":48},{"user_id":322,"name":"Venom Spitz","steam_id":76561198163510505,"connected_time":434000000000,"state":"active","ping":81},{"user_id":323,"name":"gus1230","steam_id":76561198855856022,"connected_time":375000000000,"state":"active","ping":66},{"user_id":302,"name":"Chrisy","steam_id":76561198092382473,"connected_time":2395000000000,"state":"active","ping":79},{"user_id":315,"name":"HSmileyFace","steam_id":76561198062385882,"connected_time":1298000000000,"state":"active","ping":98},{"user_id":325,"name":"Zclipse_","steam_id":76561198406959622,"connected_time":146000000000,"state":"connecting","ping":0},{"user_id":299,"name":"Chooka","steam_id":76561197992307814,"connected_time":2718000000000,"state":"active","ping":71},{"user_id":251,"name":"noXy","steam_id":76561198032671657,"connected_time":7598000000000,"state":"active","ping":58},{"user_id":317,"name":"A Tree","steam_id":76561199038681860,"connected_time":1268000000000,"state":"active","ping":89},{"user_id":268,"name":"ANDY64","steam_id":76561198049447026,"connected_time":5335000000000,"state":"active","ping":81},{"user_id":307,"name":"Orsn","steam_id":76561198297074145,"connected_time":1940000000000,"state":"active","ping":95},{"user_id":326,"name":"akmon753","steam_id":76561199507989067,"connected_time":62000000000,"state":"active","ping":73}]},{"server_id":123,"name":"Uncletopia | Sydney | 2 | All Maps","name_short":"syd-2","host":"syd-1.au.uncletopia.com","port":27025,"enabled":true,"region":"au","cc":"au","latitude":-33.865143,"longitude":151.2099,"reserved":0,"last_update":"0001-01-01T00:00:00Z","name_a2s":"Uncletopia | Sydney | 2 | All Maps","protocol":17,"map":"pl_borneo","folder":"tf","game":"Team Fortress","app_id":440,"player_count":23,"max_players":24,"Bots":0,"server_type":"Dedicated","server_os":"Linux","password":true,"vac":true,"version":"7961495","steam_id":85568392924470002,"keywords":["nocrits","nodmgspread","payload","uncletopia"],"game_id":440,"stv_port":27026,"stv_name":"Uncletopia | Sydney | 2 | All Maps | STV","players":[{"user_id":32,"name":"POLSKA","steam_id":76561199090168813,"connected_time":5292000000000,"state":"active","ping":51},{"user_id":84,"name":"monnickev","steam_id":76561198252587162,"connected_time":669000000000,"state":"active","ping":44},{"user_id":78,"name":"Magicant","steam_id":76561198064244826,"connected_time":1994000000000,"state":"active","ping":60},{"user_id":44,"name":"N0thing_but_pure_lag_and_luck","steam_id":76561199002102933,"connected_time":4312000000000,"state":"active","ping":95},{"user_id":82,"name":"CypressFluff (she/her)","steam_id":76561198174667818,"connected_time":1068000000000,"state":"active","ping":60},{"user_id":58,"name":"doctor morbin' (official)","steam_id":76561199365241695,"connected_time":2739000000000,"state":"active","ping":121},{"user_id":67,"name":"El","steam_id":76561198095659550,"connected_time":2409000000000,"state":"active","ping":91},{"user_id":59,"name":"dark modus","steam_id":76561198000568803,"connected_time":2633000000000,"state":"active","ping":56},{"user_id":52,"name":"better safe than Gregory","steam_id":76561198301282416,"connected_time":3069000000000,"state":"active","ping":69},{"user_id":53,"name":"Livid","steam_id":76561198060024585,"connected_time":3062000000000,"state":"active","ping":42},{"user_id":73,"name":"\u003e:FrozenDragon:\u003c","steam_id":76561198227960928,"connected_time":2304000000000,"state":"active","ping":92},{"user_id":55,"name":"...","steam_id":76561198309750355,"connected_time":2985000000000,"state":"active","ping":55},{"user_id":61,"name":"4LOW","steam_id":76561199156942316,"connected_time":2626000000000,"state":"active","ping":82},{"user_id":83,"name":"Tantei Rotana","steam_id":76561198041204323,"connected_time":933000000000,"state":"active","ping":65},{"user_id":63,"name":"monkey (with spoon)","steam_id":76561198301254663,"connected_time":2611000000000,"state":"active","ping":71},{"user_id":64,"name":"tuxy","steam_id":76561198996816684,"connected_time":2560000000000,"state":"active","ping":69},{"user_id":66,"name":"Huz","steam_id":76561198039231303,"connected_time":2427000000000,"state":"active","ping":92},{"user_id":85,"name":"Diming","steam_id":76561198325584599,"connected_time":268000000000,"state":"active","ping":74},{"user_id":87,"name":"Mole Cricket Romancer","steam_id":76561198004276062,"connected_time":66000000000,"state":"active","ping":82},{"user_id":71,"name":"young thug disciple","steam_id":76561198046239819,"connected_time":2346000000000,"state":"active","ping":82},{"user_id":74,"name":"Notorious","steam_id":76561198042197894,"connected_time":2209000000000,"state":"active","ping":63},{"user_id":76,"name":"bangs","steam_id":76561198041334029,"connected_time":2089000000000,"state":"active","ping":90},{"user_id":81,"name":"SpyHunTer","steam_id":76561198020445370,"connected_time":1111000000000,"state":"active","ping":37}]},{"server_id":395,"name":"Uncletopia | Sydney | 3 | All Maps","name_short":"syd-3","host":"syd-1.au.uncletopia.com","port":27035,"enabled":true,"region":"au","cc":"au","latitude":-33.865143,"longitude":151.2099,"reserved":0,"last_update":"0001-01-01T00:00:00Z","name_a2s":"Uncletopia | Sydney | 3 | All Maps","protocol":17,"map":"koth_brazil","folder":"tf","game":"Team Fortress","app_id":440,"player_count":0,"max_players":24,"Bots":0,"server_type":"Dedicated","server_os":"Linux","password":true,"vac":true,"version":"7961495","steam_id":85568392925194467,"keywords":["cp","nocrits","nodmgspread","uncletopia"],"game_id":440,"stv_port":27036,"stv_name":"Uncletopia | Sydney | 3 | All Maps | STV","players":null},{"server_id":396,"name":"Uncletopia | Sydney | 4 | All Maps","name_short":"syd-4","host":"syd-1.au.uncletopia.com","port":27045,"enabled":true,"region":"au","cc":"au","latitude":-33.865143,"longitude":151.2099,"reserved":0,"last_update":"0001-01-01T00:00:00Z","name_a2s":"Uncletopia | Sydney | 4 | All Maps","protocol":17,"map":"koth_cascade","folder":"tf","game":"Team Fortress","app_id":440,"player_count":0,"max_players":24,"Bots":0,"server_type":"Dedicated","server_os":"Linux","password":true,"vac":true,"version":"7961495","steam_id":85568392925397958,"keywords":["cp","nocrits","nodmgspread","uncletopia"],"game_id":440,"stv_port":27046,"stv_name":"Uncletopia | Sydney | 4 | All Maps | STV","players":null},{"server_id":58,"name":"Uncletopia | Sydney | 5 | Stopwatch","name_short":"syd-5","host":"syd-1.au.uncletopia.com","port":27055,"enabled":true,"region":"au","cc":"au","latitude":-33.865143,"longitude":151.2099,"reserved":0,"last_update":"0001-01-01T00:00:00Z","name_a2s":"Uncletopia | Sydney | 5 | Stopwatch","protocol":17,"map":"koth_highpass","folder":"tf","game":"Team Fortress","app_id":440,"player_count":0,"max_players":24,"Bots":0,"server_type":"Dedicated","server_os":"Linux","password":true,"vac":true,"version":"7961495","steam_id":85568392925397959,"keywords":["cp","nocrits","nodmgspread","uncletopia"],"game_id":440,"stv_port":27056,"stv_name":"Uncletopia | Sydney | 5 | Stopwatch | STV","players":null},{"server_id":59,"name":"Uncletopia | Sydney | 6 | Community","name_short":"syd-6","host":"syd-1.au.uncletopia.com","port":27065,"enabled":true,"region":"au","cc":"au","latitude":-33.865143,"longitude":151.2099,"reserved":0,"last_update":"0001-01-01T00:00:00Z","name_a2s":"Uncletopia | Sydney | 6 | Community","protocol":17,"map":"workshop/cp_mannbase_rc2a.ugc1900737467","folder":"tf","game":"Team Fortress","app_id":440,"player_count":0,"max_players":24,"Bots":0,"server_type":"Dedicated","server_os":"Linux","password":true,"vac":true,"version":"7961495","steam_id":85568392925397960,"keywords":["cp","nocrits","nodmgspread","uncletopia"],"game_id":440,"stv_port":27066,"stv_name":"Uncletopia | Sydney | 6 | Community | STV","players":null},{"server_id":49,"name":"Uncletopia | Warsaw | 1 | One Thousand Uncles","name_short":"waw-1","host":"waw-1.pl.uncletopia.com","port":27015,"enabled":true,"region":"eu","cc":"pl","latitude":52.2297,"longitude":21.017532,"reserved":0,"last_update":"0001-01-01T00:00:00Z","name_a2s":"Uncletopia | Warsaw | 1 | One Thousand Uncles","protocol":17,"map":"cp_egypt_final","folder":"tf","game":"Team Fortress","app_id":440,"player_count":0,"max_players":32,"Bots":0,"server_type":"Dedicated","server_os":"Linux","password":true,"vac":true,"version":"7961495","steam_id":85568392925397850,"keywords":["alltalk","cp","danepve","increased_maxplayers","norespawntime","uncletopia"],"game_id":440,"stv_port":0,"stv_name":"","players":null},{"server_id":50,"name":"Uncletopia | Warsaw | 2 | One Thousand Uncles","name_short":"waw-2","host":"waw-1.pl.uncletopia.com","port":27025,"enabled":true,"region":"eu","cc":"pl","latitude":52.2297,"longitude":21.017532,"reserved":0,"last_update":"0001-01-01T00:00:00Z","name_a2s":"Uncletopia | Warsaw | 2 | One Thousand Uncles","protocol":17,"map":"cp_altitude","folder":"tf","game":"Team Fortress","app_id":440,"player_count":24,"max_players":32,"Bots":20,"server_type":"Dedicated","server_os":"Linux","password":true,"vac":true,"version":"7961495","steam_id":85568392925397851,"keywords":["alltalk","bots","cp","danepve","increased_maxplayers","norespawntime","uncletopia"],"game_id":440,"stv_port":0,"stv_name":"","players":[{"user_id":75,"name":"Little Spy","steam_id":76561199238736286,"connected_time":1526000000000,"state":"active","ping":66},{"user_id":77,"name":"Feigelman","steam_id":76561199404585461,"connected_time":550000000000,"state":"active","ping":98},{"user_id":78,"name":"depepper.fun_Дiкiй","steam_id":76561199508140142,"connected_time":520000000000,"state":"active","ping":153},{"user_id":79,"name":"absolutely befuddled","steam_id":76561199329784491,"connected_time":395000000000,"state":"active","ping":89}]},{"server_id":51,"name":"Uncletopia | Warsaw | 3 | All Maps","name_short":"waw-3","host":"waw-1.pl.uncletopia.com","port":27035,"enabled":true,"region":"eu","cc":"pl","latitude":52.2297,"longitude":21.017532,"reserved":0,"last_update":"0001-01-01T00:00:00Z","name_a2s":"Uncletopia | Warsaw | 3 | All Maps","protocol":17,"map":"pl_frontier_final","folder":"tf","game":"Team Fortress","app_id":440,"player_count":0,"max_players":24,"Bots":0,"server_type":"Dedicated","server_os":"Linux","password":true,"vac":true,"version":"7961495","steam_id":85568392925397852,"keywords":["nocrits","nodmgspread","payload","uncletopia"],"game_id":440,"stv_port":27036,"stv_name":"Uncletopia | Warsaw | 3 | All Maps | STV","players":null},{"server_id":52,"name":"Uncletopia | Warsaw | 4 | All Maps","name_short":"waw-4","host":"waw-1.pl.uncletopia.com","port":27045,"enabled":true,"region":"eu","cc":"pl","latitude":52.2297,"longitude":21.017532,"reserved":0,"last_update":"0001-01-01T00:00:00Z","name_a2s":"Uncletopia | Warsaw | 4 | All Maps","protocol":17,"map":"ctf_turbine","folder":"tf","game":"Team Fortress","app_id":440,"player_count":0,"max_players":24,"Bots":0,"server_type":"Dedicated","server_os":"Linux","password":true,"vac":true,"version":"7961495","steam_id":85568392925397853,"keywords":["ctf","nocrits","nodmgspread","uncletopia"],"game_id":440,"stv_port":27046,"stv_name":"Uncletopia | Warsaw | 4 | All Maps | STV","players":null},{"server_id":53,"name":"Uncletopia | Warsaw | 5 | Stopwatch","name_short":"waw-5","host":"waw-1.pl.uncletopia.com","port":27055,"enabled":true,"region":"eu","cc":"pl","latitude":52.2297,"longitude":21.017532,"reserved":0,"last_update":"0001-01-01T00:00:00Z","name_a2s":"Uncletopia | Warsaw | 5 | Stopwatch","protocol":17,"map":"workshop/koth_clearcut_b15.ugc2107050255","folder":"tf","game":"Team Fortress","app_id":440,"player_count":0,"max_players":24,"Bots":0,"server_type":"Dedicated","server_os":"Linux","password":true,"vac":true,"version":"7961495","steam_id":85568392925397854,"keywords":["cp","nocrits","nodmgspread","uncletopia"],"game_id":440,"stv_port":27056,"stv_name":"Uncletopia | Warsaw | 5 | Stopwatch | STV","players":null},{"server_id":54,"name":"Uncletopia | Warsaw | 6 | Community","name_short":"waw-6","host":"waw-1.pl.uncletopia.com","port":27065,"enabled":true,"region":"eu","cc":"pl","latitude":52.2297,"longitude":21.017532,"reserved":0,"last_update":"0001-01-01T00:00:00Z","name_a2s":"Uncletopia | Warsaw | 6 | Community","protocol":17,"map":"workshop/pl_highwood_b19.ugc1769496557","folder":"tf","game":"Team Fortress","app_id":440,"player_count":0,"max_players":24,"Bots":0,"server_type":"Dedicated","server_os":"Linux","password":true,"vac":true,"version":"7961495","steam_id":85568392925397856,"keywords":["nocrits","nodmgspread","payload","uncletopia"],"game_id":440,"stv_port":27066,"stv_name":"Uncletopia | Warsaw | 6 | Community | STV","players":null}]}