{"status":true,"message":"","result":[{"server_id":9,"name":"Uncletopia | Atlanta | 1 | All Maps","name_short":"atl-1","host":"atl-1.us.uncletopia.com","port":27015,"enabled":true,"region":"us-east","cc":"us","latitude":33.753746,"longitude":-84.38633,"reserved":0,"last_update":"0001-01-01T00:00:00Z","name_a2s":"Uncletopia | Atlanta | 1 | All Maps","protocol":17,"map":"pl_swiftwater_final1","folder":"tf","game":"Team Fortress","app_id":440,"player_count":0,"max_players":24,"Bots":0,"server_type":"Dedicated","server_os":"Linux","password":true,"vac":true,"version":"7932396","steam_id":85568392924469982,"keywords":["nocrits","nodmgspread","payload","uncletopia"],"game_id":440,"stv_port":27016,"stv_name":"Uncletopia | Atlanta | 1 | All Maps | STV","players":null},{"server_id":104,"name":"Uncletopia | Atlanta | 2 | All Maps","name_short":"atl-2","host":"atl-1.us.uncletopia.com","port":27025,"enabled":true,"region":"us-east","cc":"us","latitude":33.753746,"longitude":-84.38633,"reserved":0,"last_update":"0001-01-01T00:00:00Z","name_a2s":"Uncletopia | Atlanta | 2 | All Maps","protocol":17,"map":"pl_barnblitz","folder":"tf","game":"Team Fortress","app_id":440,"player_count":0,"max_players":24,"Bots":0,"server_type":"Dedicated","server_os":"Linux","password":true,"vac":true,"version":"7932396","steam_id":85568392924469983,"keywords":["nocrits","nodmgspread","payload","uncletopia"],"game_id":440,"stv_port":27026,"stv_name":"Uncletopia | Atlanta | 2 | All Maps | STV","players":null},{"server_id":400,"name":"Uncletopia | Atlanta | 3 | Community","name_short":"atl-3","host":"atl-1.us.uncletopia.com","port":27035,"enabled":true,"region":"us-east","cc":"us","latitude":33.753746,"longitude":-84.38633,"reserved":0,"last_update":"0001-01-01T00:00:00Z","name_a2s":"Uncletopia | Atlanta | 3 | Community","protocol":17,"map":"pl_borneo","folder":"tf","game":"Team Fortress","app_id":440,"player_count":0,"max_players":24,"Bots":0,"server_type":"Dedicated","server_os":"Linux","password":true,"vac":true,"version":"7932396","steam_id":85568392924515187,"keywords":["nocrits","nodmgspread","payload","uncletopia"],"game_id":440,"stv_port":27036,"stv_name":"Uncletopia | Atlanta | 3 | Community | STV","players":null},{"server_id":401,"name":"Uncletopia | Atlanta | 4 | No Payload","name_short":"atl-4","host":"atl-1.us.uncletopia.com","port":27045,"enabled":true,"region":"us-east","cc":"us","latitude":33.753746,"longitude":-84.38633,"reserved":0,"last_update":"0001-01-01T00:00:00Z","name_a2s":"","protocol":0,"map":"","folder":"","game":"","app_id":0,"player_count":0,"max_players":0,"Bots":0,"server_type":"","server_os":"","password":false,"vac":false,"version":"","steam_id":0,"keywords":null,"game_id":0,"stv_port":0,"stv_name":"","players":null},{"server_id":2,"name":"Uncletopia | Chicago | 1 | All Maps","name_short":"chi-1","host":"chi-1.us.uncletopia.com","port":27015,"enabled":true,"region":"us-central","cc":"us","latitude":41.881832,"longitude":-87.62318,"reserved":0,"last_update":"0001-01-01T00:00:00Z","name_a2s":"Uncletopia | Chicago | 1 | All Maps","protocol":17,"map":"koth_lakeside_final","folder":"tf","game":"Team Fortress","app_id":440,"player_count":0,"max_players":24,"Bots":0,"server_type":"Dedicated","server_os":"Linux","password":true,"vac":true,"version":"7932396","steam_id":85568392924469984,"keywords":["cp","nocrits","nodmgspread","uncletopia"],"game_id":440,"stv_port":27016,"stv_name":"Uncletopia | Chicago | 1 | All Maps | STV","players":null},{"server_id":106,"name":"Uncletopia | Chicago | 2 | All Maps","name_short":"chi-2","host":"chi-1.us.uncletopia.com","port":27025,"enabled":true,"region":"us-central","cc":"us","latitude":41.881832,"longitude":-87.62318,"reserved":0,"last_update":"0001-01-01T00:00:00Z","name_a2s":"Uncletopia | Chicago | 2 | All Maps","protocol":17,"map":"koth_viaduct","folder":"tf","game":"Team Fortress","app_id":440,"player_count":0,"max_players":24,"Bots":0,"server_type":"Dedicated","server_os":"Linux","password":true,"vac":true,"version":"7932396","steam_id":85568392924469985,"keywords":["cp","nocrits","nodmgspread","uncletopia"],"game_id":440,"stv_port":27026,"stv_name":"Uncletopia | Chicago | 2 | All Maps | STV","players":null},{"server_id":402,"name":"Uncletopia | Chicago | 3 | All Maps","name_short":"chi-3","host":"chi-1.us.uncletopia.com","port":27035,"enabled":true,"region":"us-central","cc":"us","latitude":41.881832,"longitude":-87.62318,"reserved":0,"last_update":"0001-01-01T00:00:00Z","name_a2s":"Uncletopia | Chicago | 3 | All Maps","protocol":17,"map":"pl_upward","folder":"tf","game":"Team Fortress","app_id":440,"player_count":24,"max_players":24,"Bots":0,"server_type":"Dedicated","server_os":"Linux","password":true,"vac":true,"version":"7932396","steam_id":85568392924515191,"keywords":["nocrits","nodmgspread","payload","uncletopia"],"game_id":440,"stv_port":27036,"stv_name":"Uncletopia | Chicago | 3 | All Maps | STV","players":[{"user_id":216,"name":"scapegoat","steam_id":76561198188722751,"connected_time":3260000000000,"state":"active","ping":94},{"user_id":249,"name":"benjamator67","steam_id":76561198209002860,"connected_time":1376000000000,"state":"active","ping":48},{"user_id":225,"name":"bread","steam_id":76561198291298731,"connected_time":2997000000000,"state":"active","ping":65},{"user_id":214,"name":"luxin","steam_id":76561198399383047,"connected_time":3378000000000,"state":"active","ping":66},{"user_id":201,"name":"Scatman","steam_id":76561198322096569,"connected_time":4328000000000,"state":"active","ping":88},{"user_id":297,"name":"HOTA","steam_id":76561199002778841,"connected_time":583000000000,"state":"active","ping":72},{"user_id":250,"name":"Raptortastic","steam_id":76561198105613110,"connected_time":1357000000000,"state":"active","ping":48},{"user_id":235,"name":"turd ferguson","steam_id":76561198071620782,"connected_time":2275000000000,"state":"active","ping":82},{"user_id":203,"name":"Degree","steam_id":76561198059812393,"connected_time":4294000000000,"state":"active","ping":64},{"user_id":230,"name":"AlcoholicDad454","steam_id":76561198157414556,"connected_time":2702000000000,"state":"active","ping":83},{"user_id":245,"name":"fifteen22","steam_id":76561198138781868,"connected_time":1566000000000,"state":"active","ping":74},{"user_id":299,"name":"chuzzle deluxe","steam_id":76561198079416036,"connected_time":533000000000,"state":"active","ping":39},{"user_id":301,"name":"Yam Jazzy Jim","steam_id":76561198000788950,"connected_time":472000000000,"state":"active","ping":68},{"user_id":236,"name":"your neighbour's garden gnome","steam_id":76561199037050183,"connected_time":2274000000000,"state":"active","ping":86},{"user_id":303,"name":"sad boi","steam_id":76561198395577807,"connected_time":243000000000,"state":"active","ping":64},{"user_id":205,"name":"ElElliot","steam_id":76561198842278840,"connected_time":4284000000000,"state":"active","ping":67},{"user_id":251,"name":"ryder","steam_id":76561199230391346,"connected_time":1351000000000,"state":"active","ping":69},{"user_id":231,"name":"Why Am I So Tired","steam_id":76561198160335315,"connected_time":2701000000000,"state":"active","ping":42},{"user_id":208,"name":"Love","steam_id":76561199173445015,"connected_time":4123000000000,"state":"active","ping":57},{"user_id":293,"name":"B.B | peequalizer","steam_id":76561198049289869,"connected_time":724000000000,"state":"active","ping":72},{"user_id":296,"name":"zuma deluxe","steam_id":76561198249206656,"connected_time":712000000000,"state":"active","ping":59},{"user_id":233,"name":"Waddlehi","steam_id":76561198072553840,"connected_time":2359000000000,"state":"active","ping":59},{"user_id":247,"name":"Roguefluff","steam_id":76561198169269105,"connected_time":1541000000000,"state":"active","ping":64},{"user_id":218,"name":"AMU","steam_id":76561198092346231,"connected_time":3249000000000,"state":"active","ping":61}]},{"server_id":403,"name":"Uncletopia | Chicago | 4 | All Maps","name_short":"chi-4","host":"chi-1.us.uncletopia.com","port":27045,"enabled":true,"region":"us-central","cc":"us","latitude":41.881832,"longitude":-87.62318,"reserved":0,"last_update":"0001-01-01T00:00:00Z","name_a2s":"Uncletopia | Chicago | 4 | All Maps","protocol":17,"map":"pl_swiftwater_final1","folder":"tf","game":"Team Fortress","app_id":440,"player_count":3,"max_players":24,"Bots":0,"server_type":"Dedicated","server_os":"Linux","password":true,"vac":true,"version":"7932396","steam_id":85568392924515193,"keywords":["nocrits","nodmgspread","payload","uncletopia"],"game_id":440,"stv_port":27046,"stv_name":"Uncletopia | Chicago | 4 | All Maps | STV","players":[{"user_id":7,"name":"Matt.jpg","steam_id":76561198132469465,"connected_time":495000000000,"state":"active","ping":42},{"user_id":8,"name":"William Wallace","steam_id":76561199343316814,"connected_time":400000000000,"state":"active","ping":65},{"user_id":9,"name":"licker","steam_id":76561198159408497,"connected_time":119000000000,"state":"active","ping":56}]},{"server_id":36,"name":"Uncletopia | Chicago | 5 | All Maps","name_short":"chi-5","host":"chi-2.us.uncletopia.com","port":27015,"enabled":true,"region":"us-central","cc":"us","latitude":41.881832,"longitude":-87.62318,"reserved":0,"last_update":"0001-01-01T00:00:00Z","name_a2s":"Uncletopia | Chicago | 5 | All Maps","protocol":17,"map":"cp_dustbowl","folder":"tf","game":"Team Fortress","app_id":440,"player_count":2,"max_players":24,"Bots":0,"server_type":"Dedicated","server_os":"Linux","password":true,"vac":true,"version":"7932396","steam_id":85568392924866362,"keywords":["cp","nocrits","nodmgspread","uncletopia"],"game_id":440,"stv_port":27016,"stv_name":"Uncletopia | Chicago | 5 | All Maps | STV","players":[{"user_id":7,"name":"Meat Mans Meat","steam_id":76561198062149455,"connected_time":264000000000,"state":"active","ping":60},{"user_id":6,"name":"MellowBoy-2354","steam_id":76561199080630632,"connected_time":309000000000,"state":"active","ping":87}]},{"server_id":37,"name":"Uncletopia | Chicago | 6 | All Maps","name_short":"chi-6","host":"chi-2.us.uncletopia.com","port":27025,"enabled":true,"region":"us-central","cc":"us","latitude":41.881832,"longitude":-87.62318,"reserved":0,"last_update":"0001-01-01T00:00:00Z","name_a2s":"Uncletopia | Chicago | 6 | All Maps","protocol":17,"map":"koth_viaduct","folder":"tf","game":"Team Fortress","app_id":440,"player_count":0,"max_players":24,"Bots":0,"server_type":"Dedicated","server_os":"Linux","password":true,"vac":true,"version":"7932396","steam_id":85568392924866363,"keywords":["cp","nocrits","nodmgspread","uncletopia"],"game_id":440,"stv_port":27026,"stv_name":"Uncletopia | Chicago | 6 | All Maps | STV","players":null},{"server_id":38,"name":"Uncletopia | Chicago | 7 | Stopwatch Beta","name_short":"chi-7","host":"chi-2.us.uncletopia.com","port":27035,"enabled":true,"region":"us-central","cc":"us","latitude":41.881832,"longitude":-87.62318,"reserved":0,"last_update":"0001-01-01T00:00:00Z","name_a2s":"Uncletopia | Chicago | 7 | Stopwatch Beta","protocol":17,"map":"cp_snakewater_final1","folder":"tf","game":"Team Fortress","app_id":440,"player_count":0,"max_players":24,"Bots":0,"server_type":"Dedicated","server_os":"Linux","password":true,"vac":true,"version":"7932396","steam_id":85568392924866364,"keywords":["cp","nocrits","nodmgspread","uncletopia"],"game_id":440,"stv_port":27036,"stv_name":"Uncletopia | Chicago | 7 | Stopwatch Beta | STV","players":null},{"server_id":39,"name":"Uncletopia | Chicago | 8 | Community","name_short":"chi-8","host":"chi-2.us.uncletopia.com","port":27045,"enabled":true,"region":"us-central","cc":"us","latitude":41.881832,"longitude":-87.62318,"reserved":0,"last_update":"0001-01-01T00:00:00Z","name_a2s":"Uncletopia | Chicago | 8 | Community","protocol":17,"map":"workshop/cp_mannbase_rc2a.ugc1900737467","folder":"tf","game":"Team Fortress","app_id":440,"player_count":24,"max_players":24,"Bots":0,"server_type":"Dedicated","server_os":"Linux","password":true,"vac":true,"version":"7932396","steam_id":85568392924866365,"keywords":["cp","nocrits","nodmgspread","uncletopia"],"game_id":440,"stv_port":27046,"stv_name":"Uncletopia | Chicago | 8 | Community | STV","players":[{"user_id":244,"name":"Zixzs","steam_id":76561198055504126,"connected_time":593000000000,"state":"active","ping":59},{"user_id":245,"name":"Kyle H. McCloud","steam_id":76561198025050432,"connected_time":591000000000,"state":"active","ping":90},{"user_id":220,"name":"Hertz","steam_id":76561198310927351,"connected_time":2698000000000,"state":"active","ping":143},{"user_id":247,"name":"autumnal.messenger","steam_id":76561199345816635,"connected_time":535000000000,"state":"active","ping":102},{"user_id":248,"name":"Cedric","steam_id":76561198072090580,"connected_time":413000000000,"state":"active","ping":89},{"user_id":239,"name":"JadEDU","steam_id":76561198170648674,"connected_time":1052000000000,"state":"active","ping":70},{"user_id":229,"name":"Halibard","steam_id":76561198011239659,"connected_time":2022000000000,"state":"active","ping":69},{"user_id":206,"name":"Bogeyman","steam_id":76561198829294071,"connected_time":3613000000000,"state":"active","ping":74},{"user_id":188,"name":"YelloGoat","steam_id":76561198367174421,"connected_time":4486000000000,"state":"active","ping":49},{"user_id":199,"name":"Applesauce","steam_id":76561198047011689,"connected_time":3837000000000,"state":"active","ping":117},{"user_id":231,"name":"BobKnob","steam_id":76561198327333965,"connected_time":1875000000000,"state":"active","ping":143},{"user_id":241,"name":"coolplums","steam_id":76561198072154720,"connected_time":786000000000,"state":"active","ping":52},{"user_id":172,"name":"uncle 'ardboss","steam_id":76561198055490732,"connected_time":5846000000000,"state":"active","ping":111},{"user_id":213,"name":"[TSG] Turner's Chocolate Milk","steam_id":76561198058963288,"connected_time":3164000000000,"state":"active","ping":64},{"user_id":237,"name":"1001NinjaDucks","steam_id":76561198058169660,"connected_time":1226000000000,"state":"active","ping":62},{"user_id":240,"name":"Superman123389","steam_id":76561198267472539,"connected_time":893000000000,"state":"active","ping":85},{"user_id":233,"name":"Bee","steam_id":76561198074681324,"connected_time":1579000000000,"state":"active","ping":69},{"user_id":226,"name":"TATARA","steam_id":76561199098759517,"connected_time":2151000000000,"state":"active","ping":134},{"user_id":196,"name":"TheSquirrelofHuscurl","steam_id":76561198073379623,"connected_time":4009000000000,"state":"active","ping":92},{"user_id":232,"name":"Cube","steam_id":76561198156746320,"connected_time":1825000000000,"state":"active","ping":47},{"user_id":228,"name":"Wang of Wall St","steam_id":76561198047460598,"connected_time":2051000000000,"state":"active","ping":77},{"user_id":200,"name":"Engideer","steam_id":76561198145733164,"connected_time":3828000000000,"state":"active","ping":69},{"user_id":30,"name":"flagman21","steam_id":76561198036788143,"connected_time":16626000000000,"state":"active","ping":87},{"user_id":242,"name":"Killroy NQP ❤","steam_id":76561198006983771,"connected_time":764000000000,"state":"active","ping":77}]},{"server_id":8,"name":"Uncletopia | Dallas | 1 | All Maps","name_short":"dal-1","host":"dal-1.us.uncletopia.com","port":27015,"enabled":true,"region":"us-central","cc":"us","latitude":32.779167,"longitude":-96.80889,"reserved":0,"last_update":"0001-01-01T00:00:00Z","name_a2s":"Uncletopia | Dallas | 1 | All Maps","protocol":17,"map":"cp_mountainlab","folder":"tf","game":"Team Fortress","app_id":440,"player_count":24,"max_players":24,"Bots":0,"server_type":"Dedicated","server_os":"Linux","password":true,"vac":true,"version":"7932396","steam_id":85568392924469986,"keywords":["cp","nocrits","nodmgspread","uncletopia"],"game_id":440,"stv_port":27016,"stv_name":"Uncletopia | Dallas | 1 | All Maps | STV","players":[{"user_id":213,"name":"alset333","steam_id":76561198405345260,"connected_time":2585000000000,"state":"active","ping":76},{"user_id":234,"name":"FrostBurn","steam_id":76561198847259953,"connected_time":1510000000000,"state":"active","ping":76},{"user_id":210,"name":"Speeply","steam_id":76561198429538809,"connected_time":2646000000000,"state":"active","ping":131},{"user_id":239,"name":"Seshagrantch","steam_id":76561198112033660,"connected_time":497000000000,"state":"active","ping":60},{"user_id":241,"name":"Jango","steam_id":76561198084589742,"connected_time":472000000000,"state":"active","ping":58},{"user_id":226,"name":"Queen Frau the Round","steam_id":76561197999942134,"connected_time":2362000000000,"state":"active","ping":65},{"user_id":240,"name":"Solace","steam_id":76561199477418568,"connected_time":488000000000,"state":"active","ping":114},{"user_id":216,"name":"Sage","steam_id":76561198143101697,"connected_time":2553000000000,"state":"active","ping":115},{"user_id":179,"name":"Brown_Dream","steam_id":76561198975766145,"connected_time":4547000000000,"state":"active","ping":93},{"user_id":217,"name":"darktheif54","steam_id":76561198043650119,"connected_time":2514000000000,"state":"active","ping":72},{"user_id":237,"name":"General of Rage","steam_id":76561198363697555,"connected_time":688000000000,"state":"active","ping":73},{"user_id":242,"name":"SenseiJamesX","steam_id":76561198034259164,"connected_time":434000000000,"state":"active","ping":56},{"user_id":204,"name":"sir camara32","steam_id":76561199473344099,"connected_time":2867000000000,"state":"active","ping":185},{"user_id":243,"name":"Reflector","steam_id":76561198078999855,"connected_time":421000000000,"state":"active","ping":78},{"user_id":197,"name":"tydogzilla","steam_id":76561198054254518,"connected_time":3667000000000,"state":"active","ping":83},{"user_id":227,"name":"Real?","steam_id":76561198873307741,"connected_time":2337000000000,"state":"active","ping":89},{"user_id":232,"name":"Fuzzy","steam_id":76561199100612353,"connected_time":1619000000000,"state":"active","ping":81},{"user_id":246,"name":"Marc G","steam_id":76561198062650363,"connected_time":290000000000,"state":"active","ping":44},{"user_id":244,"name":"PileofPolygons","steam_id":76561199321343460,"connected_time":396000000000,"state":"active","ping":70},{"user_id":238,"name":"Shamrock Shake Oct.10.2020 @8pm","steam_id":76561198833313201,"connected_time":525000000000,"state":"active","ping":87},{"user_id":247,"name":"Strange Festive Medic Boyfriend","steam_id":76561198104086771,"connected_time":270000000000,"state":"active","ping":75},{"user_id":187,"name":"Bandit","steam_id":76561198285889962,"connected_time":4237000000000,"state":"active","ping":74},{"user_id":245,"name":"Panic Opossum","steam_id":76561198043838227,"connected_time":392000000000,"state":"active","ping":68},{"user_id":235,"name":"lyra","steam_id":76561198200002859,"connected_time":1487000000000,"state":"active","ping":62}]},{"server_id":108,"name":"Uncletopia | Dallas | 2 | All Maps","name_short":"dal-2","host":"dal-1.us.uncletopia.com","port":27025,"enabled":true,"region":"us-central","cc":"us","latitude":32.779167,"longitude":-96.80889,"reserved":0,"last_update":"0001-01-01T00:00:00Z","name_a2s":"Uncletopia | Dallas | 2 | All Maps","protocol":17,"map":"pl_barnblitz","folder":"tf","game":"Team Fortress","app_id":440,"player_count":24,"max_players":24,"Bots":0,"server_type":"Dedicated","server_os":"Linux","password":true,"vac":true,"version":"7932396","steam_id":85568392924469988,"keywords":["nocrits","nodmgspread","payload","uncletopia"],"game_id":440,"stv_port":27026,"stv_name":"Uncletopia | Dallas | 2 | All Maps | STV","players":[{"user_id":168,"name":"Yeghor4k (Ukr)","steam_id":76561199051355725,"connected_time":27000000000,"state":"spawning","ping":180},{"user_id":68,"name":"TheGFG","steam_id":76561198166150556,"connected_time":6739000000000,"state":"active","ping":58},{"user_id":151,"name":"milk","steam_id":76561198347660282,"connected_time":1486000000000,"state":"active","ping":105},{"user_id":120,"name":"jimmy skillet","steam_id":76561198067232126,"connected_time":3557000000000,"state":"active","ping":57},{"user_id":107,"name":"Phosu","steam_id":76561198180162801,"connected_time":4234000000000,"state":"active","ping":165},{"user_id":110,"name":"Spaceman","steam_id":76561198349305249,"connected_time":3962000000000,"state":"active","ping":117},{"user_id":155,"name":"Temujin","steam_id":76561198030936583,"connected_time":1085000000000,"state":"active","ping":61},{"user_id":157,"name":"Combatspok","steam_id":76561197971598115,"connected_time":1080000000000,"state":"active","ping":85},{"user_id":166,"name":"Hugh Mann","steam_id":76561198212049401,"connected_time":75000000000,"state":"active","ping":54},{"user_id":143,"name":"fish","steam_id":76561198194508197,"connected_time":2076000000000,"state":"active","ping":101},{"user_id":163,"name":"capeeKo","steam_id":76561197970346623,"connected_time":505000000000,"state":"active","ping":96},{"user_id":133,"name":"InvaderAlex","steam_id":76561198039232451,"connected_time":2889000000000,"state":"active","ping":62},{"user_id":159,"name":"Bin","steam_id":76561198042557767,"connected_time":1066000000000,"state":"active","ping":90},{"user_id":154,"name":"gundog","steam_id":76561198063240044,"connected_time":1141000000000,"state":"active","ping":60},{"user_id":77,"name":"Carrol","steam_id":76561198316384960,"connected_time":6416000000000,"state":"active","ping":99},{"user_id":96,"name":"pigfarmer.gov","steam_id":76561199071167548,"connected_time":5308000000000,"state":"active","ping":86},{"user_id":169,"name":"Isaac Clarke","steam_id":76561198317662346,"connected_time":16000000000,"state":"spawning","ping":75},{"user_id":167,"name":"Fox","steam_id":76561198210081927,"connected_time":68000000000,"state":"active","ping":74},{"user_id":134,"name":"mkl","steam_id":76561197986401685,"connected_time":2877000000000,"state":"active","ping":56},{"user_id":153,"name":"DMM","steam_id":76561198065426171,"connected_time":1189000000000,"state":"active","ping":54},{"user_id":160,"name":"Silver Cable","steam_id":76561198041366833,"connected_time":1052000000000,"state":"active","ping":82},{"user_id":131,"name":"Briatho","steam_id":76561198032187923,"connected_time":3034000000000,"state":"active","ping":75},{"user_id":161,"name":"FI LO","steam_id":76561198976530881,"connected_time":1035000000000,"state":"active","ping":62},{"user_id":165,"name":"Mister Mundy","steam_id":76561198145675134,"connected_time":110000000000,"state":"spawning","ping":61}]},{"server_id":5,"name":"Uncletopia | Frankfurt | 1 | All Maps","name_short":"frk-1","host":"frk-1.de.uncletopia.com","port":27015,"enabled":true,"region":"eu","cc":"de","latitude":50.110924,"longitude":8.682127,"reserved":0,"last_update":"0001-01-01T00:00:00Z","name_a2s":"Uncletopia | Frankfurt | 1 | All Maps","protocol":17,"map":"pl_upward","folder":"tf","game":"Team Fortress","app_id":440,"player_count":24,"max_players":24,"Bots":0,"server_type":"Dedicated","server_os":"Linux","password":true,"vac":true,"version":"7932396","steam_id":85568392924469989,"keywords":["nocrits","nodmgspread","payload","uncletopia"],"game_id":440,"stv_port":27016,"stv_name":"Uncletopia | Frankfurt | 1 | All Maps | STV","players":[{"user_id":269,"name":"Kepucz","steam_id":76561197977634244,"connected_time":3891000000000,"state":"active","ping":54},{"user_id":248,"name":"Proud Jojo Fan #TF2SP","steam_id":76561198847327216,"connected_time":5008000000000,"state":"active","ping":63},{"user_id":244,"name":"KNNTX","steam_id":76561198161313074,"connected_time":5235000000000,"state":"active","ping":109},{"user_id":249,"name":"Pierdu","steam_id":76561198028705770,"connected_time":4990000000000,"state":"active","ping":53},{"user_id":315,"name":"senior pomidor","steam_id":76561198123659806,"connected_time":448000000000,"state":"active","ping":92},{"user_id":278,"name":"walking plane","steam_id":76561198146779559,"connected_time":3259000000000,"state":"active","ping":75},{"user_id":311,"name":"fénix","steam_id":76561198083199151,"connected_time":970000000000,"state":"active","ping":61},{"user_id":297,"name":"rummy","steam_id":76561197997573379,"connected_time":1878000000000,"state":"active","ping":62},{"user_id":306,"name":"xiiski","steam_id":76561198152387747,"connected_time":1298000000000,"state":"active","ping":98},{"user_id":319,"name":"Jānis Aizups | LV","steam_id":76561198129947877,"connected_time":229000000000,"state":"active","ping":87},{"user_id":237,"name":"AleXandriX","steam_id":76561198035203950,"connected_time":5931000000000,"state":"active","ping":55},{"user_id":308,"name":"Simon Ekpa","steam_id":76561198853658163,"connected_time":1165000000000,"state":"active","ping":72},{"user_id":305,"name":"mesλ","steam_id":76561198324582918,"connected_time":1372000000000,"state":"active","ping":97},{"user_id":283,"name":"KindaStupid","steam_id":76561198080512339,"connected_time":2921000000000,"state":"active","ping":82},{"user_id":266,"name":"Floofaloo_","steam_id":76561198167257662,"connected_time":3926000000000,"state":"active","ping":98},{"user_id":310,"name":"SaltyCupcakes","steam_id":76561198256386417,"connected_time":1068000000000,"state":"active","ping":58},{"user_id":313,"name":"Fanshi","steam_id":76561198108478911,"connected_time":673000000000,"state":"active","ping":67},{"user_id":312,"name":"Popop","steam_id":76561198004793795,"connected_time":759000000000,"state":"active","ping":47},{"user_id":290,"name":"Raulca25","steam_id":76561199068256964,"connected_time":2078000000000,"state":"active","ping":83},{"user_id":272,"name":"QR code 78","steam_id":76561198073749509,"connected_time":3864000000000,"state":"active","ping":69},{"user_id":300,"name":"sex toilet","steam_id":76561198412197820,"connected_time":1846000000000,"state":"active","ping":85},{"user_id":317,"name":"Junkerqueen","steam_id":76561199390536110,"connected_time":361000000000,"state":"active","ping":63},{"user_id":301,"name":"JaneDoe","steam_id":76561198067081506,"connected_time":1811000000000,"state":"active","ping":88},{"user_id":273,"name":"Amoru","steam_id":76561198798161817,"connected_time":3859000000000,"state":"active","ping":84}]},{"server_id":110,"name":"Uncletopia | Frankfurt | 2 | All Maps","name_short":"frk-2","host":"frk-1.de.uncletopia.com","port":27025,"enabled":true,"region":"eu","cc":"de","latitude":50.110924,"longitude":8.682127,"reserved":0,"last_update":"0001-01-01T00:00:00Z","name_a2s":"Uncletopia | Frankfurt | 2 | All Maps","protocol":17,"map":"cp_dustbowl","folder":"tf","game":"Team Fortress","app_id":440,"player_count":24,"max_players":24,"Bots":0,"server_type":"Dedicated","server_os":"Linux","password":true,"vac":true,"version":"7932396","steam_id":85568392924469990,"keywords":["cp","nocrits","nodmgspread","uncletopia"],"game_id":440,"stv_port":27026,"stv_name":"Uncletopia | Frankfurt | 2 | All Maps | STV","players":[{"user_id":212,"name":"Kawai","steam_id":76561198422942348,"connected_time":1577000000000,"state":"active","ping":106},{"user_id":228,"name":"The Last Mac OS X Player","steam_id":76561198109246960,"connected_time":393000000000,"state":"active","ping":61},{"user_id":173,"name":"cuddles \u003c3","steam_id":76561198805181599,"connected_time":3753000000000,"state":"active","ping":60},{"user_id":227,"name":"Trollstoy","steam_id":76561198072017175,"connected_time":578000000000,"state":"active","ping":70},{"user_id":110,"name":"XL54M15Y","steam_id":76561198048250715,"connected_time":7057000000000,"state":"active","ping":51},{"user_id":230,"name":"First of all, I am Vegeta","steam_id":76561198880280287,"connected_time":296000000000,"state":"active","ping":172},{"user_id":197,"name":"Rohnus","steam_id":76561198074049934,"connected_time":2483000000000,"state":"active","ping":67},{"user_id":229,"name":"Swedish Vegan","steam_id":76561198042775020,"connected_time":375000000000,"state":"active","ping":74},{"user_id":181,"name":"_Shkoot","steam_id":76561198318170398,"connected_time":3129000000000,"state":"active","ping":128},{"user_id":231,"name":"Michal jordan","steam_id":76561199106262610,"connected_time":231000000000,"state":"active","ping":67},{"user_id":215,"name":"Moon","steam_id":76561198047535132,"connected_time":1551000000000,"state":"active","ping":65},{"user_id":232,"name":"Doggo225","steam_id":76561198166707002,"connected_time":163000000000,"state":"active","ping":46},{"user_id":214,"name":"Penis Contortionist","steam_id":76561198073663784,"connected_time":1565000000000,"state":"active","ping":48},{"user_id":152,"name":"Borat","steam_id":76561198122226417,"connected_time":5284000000000,"state":"active","ping":50},{"user_id":233,"name":"Fr1Zer","steam_id":76561198357086270,"connected_time":118000000000,"state":"active","ping":85},{"user_id":217,"name":"R0Z3","steam_id":76561199027065608,"connected_time":1499000000000,"state":"active","ping":70},{"user_id":201,"name":"Pablo","steam_id":76561198419583460,"connected_time":1982000000000,"state":"active","ping":54},{"user_id":194,"name":"Junk1e","steam_id":76561198031265942,"connected_time":2591000000000,"state":"active","ping":80},{"user_id":234,"name":"Messiah of Vibe","steam_id":76561198873411211,"connected_time":69000000000,"state":"spawning","ping":162},{"user_id":224,"name":"c4ctus","steam_id":76561198925655488,"connected_time":1193000000000,"state":"active","ping":86},{"user_id":225,"name":"Spurt","steam_id":76561198078523852,"connected_time":801000000000,"state":"active","ping":49},{"user_id":203,"name":"LiønHeart","steam_id":76561198081370704,"connected_time":1949000000000,"state":"active","ping":51},{"user_id":222,"name":"jhonny el sins","steam_id":76561198982787752,"connected_time":1252000000000,"state":"active","ping":59},{"user_id":117,"name":"Jon","steam_id":76561199380849468,"connected_time":6431000000000,"state":"active","ping":61}]},{"server_id":308,"name":"Uncletopia | Frankfurt | 3 | All Maps","name_short":"frk-3","host":"frk-1.de.uncletopia.com","port":27035,"enabled":true,"region":"eu","cc":"de","latitude":50.110924,"longitude":8.682127,"reserved":0,"last_update":"0001-01-01T00:00:00Z","name_a2s":"Uncletopia | Frankfurt | 3 | All Maps","protocol":17,"map":"koth_highpass","folder":"tf","game":"Team Fortress","app_id":440,"player_count":0,"max_players":24,"Bots":0,"server_type":"Dedicated","server_os":"Linux","password":true,"vac":true,"version":"7932396","steam_id":85568392924504274,"keywords":["cp","nocrits","nodmgspread","uncletopia"],"game_id":440,"stv_port":27036,"stv_name":"Uncletopia | Frankfurt | 3 | All Maps | STV","players":null},{"server_id":309,"name":"Uncletopia | Frankfurt | 4 | All Maps","name_short":"frk-4","host":"frk-1.de.uncletopia.com","port":27045,"enabled":true,"region":"eu","cc":"de","latitude":50.110924,"longitude":8.682127,"reserved":0,"last_update":"0001-01-01T00:00:00Z","name_a2s":"Uncletopia | Frankfurt | 4 | All Maps","protocol":17,"map":"pl_borneo","folder":"tf","game":"Team Fortress","app_id":440,"player_count":24,"max_players":24,"Bots":0,"server_type":"Dedicated","server_os":"Linux","password":true,"vac":true,"version":"7932396","steam_id":85568392924504275,"keywords":["nocrits","nodmgspread","payload","uncletopia"],"game_id":440,"stv_port":27046,"stv_name":"Uncletopia | Frankfurt | 4 | All Maps | STV","players":[{"user_id":94,"name":"Genesis","steam_id":76561198999652040,"connected_time":424000000000,"state":"active","ping":44},{"user_id":103,"name":"gardontar","steam_id":76561198169929053,"connected_time":74000000000,"state":"active","ping":49},{"user_id":100,"name":"After8","steam_id":76561198090750865,"connected_time":210000000000,"state":"active","ping":61},{"user_id":101,"name":"realness","steam_id":76561199129226935,"connected_time":113000000000,"state":"active","ping":105},{"user_id":97,"name":"Lorenzo Lovers","steam_id":76561198073973581,"connected_time":297000000000,"state":"active","ping":81},{"user_id":95,"name":"Toofy","steam_id":76561197989727907,"connected_time":370000000000,"state":"active","ping":50},{"user_id":63,"name":"Chucko Kokos","steam_id":76561198112553005,"connected_time":2509000000000,"state":"active","ping":68},{"user_id":102,"name":"AwterSix","steam_id":76561198042561678,"connected_time":103000000000,"state":"active","ping":56},{"user_id":57,"name":"SuntanPikachu","steam_id":76561198121242476,"connected_time":3054000000000,"state":"active","ping":68},{"user_id":73,"name":"EkkiHinrik","steam_id":76561198078791141,"connected_time":2120000000000,"state":"active","ping":100},{"user_id":92,"name":"Suetolog","steam_id":76561199053090212,"connected_time":588000000000,"state":"active","ping":55},{"user_id":87,"name":"KuningasKorppi","steam_id":76561199242992054,"connected_time":797000000000,"state":"active","ping":81},{"user_id":23,"name":"Pissyphus","steam_id":76561198439543536,"connected_time":5553000000000,"state":"active","ping":190},{"user_id":25,"name":"GuSkand","steam_id":76561198043775605,"connected_time":5487000000000,"state":"active","ping":84},{"user_id":104,"name":"tim","steam_id":76561198143626955,"connected_time":66000000000,"state":"active","ping":41},{"user_id":81,"name":"The One (and only)","steam_id":76561198827193499,"connected_time":1603000000000,"state":"active","ping":67},{"user_id":93,"name":"DJPNK","steam_id":76561197989948420,"connected_time":588000000000,"state":"active","ping":64},{"user_id":105,"name":"LivEssense","steam_id":76561198052476979,"connected_time":47000000000,"state":"active","ping":75},{"user_id":84,"name":"snsmac","steam_id":76561198082821185,"connected_time":970000000000,"state":"active","ping":48},{"user_id":37,"name":"Skeletros","steam_id":76561198130969152,"connected_time":4773000000000,"state":"active","ping":127},{"user_id":38,"name":"pizzaboob","steam_id":76561198097507847,"connected_time":4710000000000,"state":"active","ping":74},{"user_id":106,"name":"YuraGreek","steam_id":76561198050182252,"connected_time":31000000000,"state":"active","ping":74},{"user_id":99,"name":"I eat human babys","steam_id":76561199248584098,"connected_time":284000000000,"state":"active","ping":84},{"user_id":50,"name":"Cheshireycat","steam_id":76561198067204908,"connected_time":3882000000000,"state":"active","ping":71}]},{"server_id":310,"name":"Uncletopia | Frankfurt | 5 | All Maps","name_short":"frk-5","host":"frk-1.de.uncletopia.com","port":27055,"enabled":true,"region":"eu","cc":"de","latitude":50.110924,"longitude":8.682127,"reserved":0,"last_update":"0001-01-01T00:00:00Z","name_a2s":"Uncletopia | Frankfurt | 5 | All Maps","protocol":17,"map":"cp_mountainlab","folder":"tf","game":"Team Fortress","app_id":440,"player_count":24,"max_players":24,"Bots":0,"server_type":"Dedicated","server_os":"Linux","password":true,"vac":true,"version":"7932396","steam_id":85568392924504277,"keywords":["cp","nocrits","nodmgspread","uncletopia"],"game_id":440,"stv_port":27056,"stv_name":"Uncletopia | Frankfurt | 5 | All Maps | STV","players":[{"user_id":260,"name":"Bayoyo","steam_id":76561199069591774,"connected_time":991000000000,"state":"active","ping":74},{"user_id":244,"name":"TJ1212","steam_id":76561199013575313,"connected_time":1714000000000,"state":"active","ping":61},{"user_id":240,"name":"LemonLeCitron","steam_id":76561198215545267,"connected_time":2040000000000,"state":"active","ping":72},{"user_id":195,"name":"heavy TF2 live reaction","steam_id":76561198082502910,"connected_time":5026000000000,"state":"active","ping":47},{"user_id":258,"name":"Cathedra","steam_id":76561198430227030,"connected_time":1050000000000,"state":"active","ping":58},{"user_id":262,"name":"Worm","steam_id":76561198296497176,"connected_time":728000000000,"state":"active","ping":63},{"user_id":259,"name":"Mr.Duck","steam_id":76561197983710667,"connected_time":1009000000000,"state":"active","ping":75},{"user_id":263,"name":"WolfmanCZ","steam_id":76561199157141414,"connected_time":725000000000,"state":"active","ping":67},{"user_id":231,"name":"I.AM.THE.BOOP.WHICH.IS.APROACHI","steam_id":76561198049342507,"connected_time":3066000000000,"state":"active","ping":83},{"user_id":273,"name":"brtaba","steam_id":76561198796334790,"connected_time":97000000000,"state":"active","ping":55},{"user_id":251,"name":"Michał","steam_id":76561198320346362,"connected_time":1587000000000,"state":"active","ping":68},{"user_id":270,"name":"MDehh","steam_id":76561198057745208,"connected_time":382000000000,"state":"active","ping":59},{"user_id":238,"name":"Pico","steam_id":76561198063552545,"connected_time":2185000000000,"state":"active","ping":99},{"user_id":267,"name":"ScoutPilgrim","steam_id":76561198013007215,"connected_time":557000000000,"state":"active","ping":48},{"user_id":223,"name":"Silverstorm","steam_id":76561198118175267,"connected_time":3398000000000,"state":"active","ping":75},{"user_id":199,"name":"femboy sniper main","steam_id":76561198119210003,"connected_time":4919000000000,"state":"active","ping":91},{"user_id":266,"name":"aww yeah","steam_id":76561197992978878,"connected_time":568000000000,"state":"active","ping":79},{"user_id":201,"name":"Kamanie","steam_id":76561198135448255,"connected_time":4897000000000,"state":"active","ping":60},{"user_id":268,"name":"LODIRA","steam_id":76561198380918983,"connected_time":543000000000,"state":"active","ping":104},{"user_id":248,"name":"Sprite790856","steam_id":76561198440389325,"connected_time":1647000000000,"state":"active","ping":166},{"user_id":229,"name":"justajem101","steam_id":76561199228510573,"connected_time":3115000000000,"state":"active","ping":82},{"user_id":228,"name":"Hexagon","steam_id":76561198151205758,"connected_time":3133000000000,"state":"active","ping":57},{"user_id":271,"name":"help","steam_id":76561199056338917,"connected_time":343000000000,"state":"active","ping":177},{"user_id":256,"name":"Aquatical","steam_id":76561198097333170,"connected_time":1182000000000,"state":"active","ping":100}]},{"server_id":311,"name":"Uncletopia | Frankfurt | 6 | All Maps","name_short":"frk-6","host":"frk-1.de.uncletopia.com","port":27065,"enabled":true,"region":"eu","cc":"de","latitude":50.110924,"longitude":8.682127,"reserved":0,"last_update":"0001-01-01T00:00:00Z","name_a2s":"Uncletopia | Frankfurt | 6 | All Maps","protocol":17,"map":"pl_snowycoast","folder":"tf","game":"Team Fortress","app_id":440,"player_count":18,"max_players":24,"Bots":0,"server_type":"Dedicated","server_os":"Linux","password":true,"vac":true,"version":"7932396","steam_id":85568392924504278,"keywords":["nocrits","nodmgspread","payload","uncletopia"],"game_id":440,"stv_port":27066,"stv_name":"Uncletopia | Frankfurt | 6 | All Maps | STV","players":[{"user_id":119,"name":"rajAs | Aoeitalia.com","steam_id":76561198035928111,"connected_time":1133000000000,"state":"active","ping":73},{"user_id":76,"name":"Accident","steam_id":76561198115160396,"connected_time":3454000000000,"state":"active","ping":67},{"user_id":137,"name":"BROOMSTER","steam_id":76561198344833818,"connected_time":125000000000,"state":"active","ping":76},{"user_id":110,"name":"askulap","steam_id":76561197992018795,"connected_time":1844000000000,"state":"active","ping":76},{"user_id":132,"name":"Kestrel","steam_id":76561198144033005,"connected_time":558000000000,"state":"active","ping":63},{"user_id":120,"name":"ran is running","steam_id":76561199443185667,"connected_time":1011000000000,"state":"active","ping":134},{"user_id":121,"name":"Rask","steam_id":76561198052934944,"connected_time":964000000000,"state":"active","ping":91},{"user_id":136,"name":"Der_Milchmann","steam_id":76561198001417748,"connected_time":147000000000,"state":"active","ping":51},{"user_id":114,"name":"fl1p","steam_id":76561198148565659,"connected_time":1508000000000,"state":"active","ping":80},{"user_id":128,"name":"Dr. Feelgood","steam_id":76561199173885103,"connected_time":747000000000,"state":"active","ping":135},{"user_id":124,"name":"ricky pee pee","steam_id":76561198152620745,"connected_time":925000000000,"state":"active","ping":77},{"user_id":58,"name":"mèx","steam_id":76561197975951572,"connected_time":4323000000000,"state":"active","ping":59},{"user_id":134,"name":"ttv.PogHog1234","steam_id":76561199109713313,"connected_time":335000000000,"state":"active","ping":59},{"user_id":111,"name":"weird gamer","steam_id":76561198047749446,"connected_time":1815000000000,"state":"active","ping":49},{"user_id":82,"name":"primordialheath","steam_id":76561199386942638,"connected_time":3226000000000,"state":"active","ping":159},{"user_id":89,"name":"YourFavoriteMerc","steam_id":76561198883163744,"connected_time":2628000000000,"state":"active","ping":167},{"user_id":106,"name":"stonemonkey","steam_id":76561199478378377,"connected_time":2011000000000,"state":"active","ping":70},{"user_id":126,"name":"Sarahtonin","steam_id":76561197992144115,"connected_time":906000000000,"state":"active","ping":60}]},{"server_id":23,"name":"Uncletopia | Frankfurt | 7 | Stopwatch Beta","name_short":"frk-7","host":"frk-1.de.uncletopia.com","port":27075,"enabled":true,"region":"eu","cc":"de","latitude":50.110924,"longitude":8.682127,"reserved":0,"last_update":"0001-01-01T00:00:00Z","name_a2s":"Uncletopia | Frankfurt | 7 | Stopwatch Beta","protocol":17,"map":"pl_snowycoast","folder":"tf","game":"Team Fortress","app_id":440,"player_count":0,"max_players":24,"Bots":0,"server_type":"Dedicated","server_os":"Linux","password":true,"vac":true,"version":"7932396","steam_id":85568392924742827,"keywords":["nocrits","nodmgspread","payload","uncletopia"],"game_id":440,"stv_port":27076,"stv_name":"Uncletopia | Frankfurt | 7 | Stopwatch Beta | STV","players":null},{"server_id":24,"name":"Uncletopia | Frankfurt | 8 | Community","name_short":"frk-8","host":"frk-1.de.uncletopia.com","port":27085,"enabled":true,"region":"eu","cc":"de","latitude":50.110924,"longitude":8.682127,"reserved":0,"last_update":"0001-01-01T00:00:00Z","name_a2s":"Uncletopia | Frankfurt | 8 | Community","protocol":17,"map":"workshop/koth_trenchfoot_b1a.ugc731436616","folder":"tf","game":"Team Fortress","app_id":440,"player_count":0,"max_players":24,"Bots":0,"server_type":"Dedicated","server_os":"Linux","password":true,"vac":true,"version":"7932396","steam_id":85568392924742828,"keywords":["cp","nocrits","nodmgspread","uncletopia"],"game_id":440,"stv_port":27086,"stv_name":"Uncletopia | Frankfurt | 8 | Community | STV","players":null},{"server_id":202,"name":"Uncletopia | Hong Kong | 1 | All Maps","name_short":"hgk-1","host":"hgk-1.hk.uncletopia.com","port":27015,"enabled":true,"region":"asia","cc":"hk","latitude":22.302711,"longitude":114.177216,"reserved":0,"last_update":"0001-01-01T00:00:00Z","name_a2s":"Uncletopia | Hong Kong | 1 | All Maps","protocol":17,"map":"koth_viaduct","folder":"tf","game":"Team Fortress","app_id":440,"player_count":0,"max_players":24,"Bots":0,"server_type":"Dedicated","server_os":"Linux","password":true,"vac":true,"version":"7932396","steam_id":85568392924494504,"keywords":["cp","nocrits","nodmgspread","uncletopia"],"game_id":440,"stv_port":27016,"stv_name":"Uncletopia | Hong Kong | 1 | All Maps | STV","players":null},{"server_id":1,"name":"Uncletopia | Los Angeles | 1 | All Maps","name_short":"lax-1","host":"lax-1.us.uncletopia.com","port":27015,"enabled":true,"region":"us-west","cc":"us","latitude":33.94279,"longitude":-118.41004,"reserved":0,"last_update":"0001-01-01T00:00:00Z","name_a2s":"Uncletopia | Los Angeles | 1 | All Maps","protocol":17,"map":"pl_swiftwater_final1","folder":"tf","game":"Team Fortress","app_id":440,"player_count":0,"max_players":24,"Bots":0,"server_type":"Dedicated","server_os":"Linux","password":true,"vac":true,"version":"7932396","steam_id":85568392924469991,"keywords":["nocrits","nodmgspread","payload","uncletopia"],"game_id":440,"stv_port":27016,"stv_name":"Uncletopia | Los Angeles | 1 | All Maps | STV","players":null},{"server_id":112,"name":"Uncletopia | Los Angeles | 2 | All Maps","name_short":"lax-2","host":"lax-1.us.uncletopia.com","port":27025,"enabled":true,"region":"us-west","cc":"us","latitude":33.94279,"longitude":-118.41004,"reserved":0,"last_update":"0001-01-01T00:00:00Z","name_a2s":"Uncletopia | Los Angeles | 2 | All Maps","protocol":17,"map":"pl_badwater","folder":"tf","game":"Team Fortress","app_id":440,"player_count":0,"max_players":24,"Bots":0,"server_type":"Dedicated","server_os":"Linux","password":true,"vac":true,"version":"7932396","steam_id":85568392924469992,"keywords":["nocrits","nodmgspread","payload","uncletopia"],"game_id":440,"stv_port":27026,"stv_name":"Uncletopia | Los Angeles | 2 | All Maps | STV","players":null},{"server_id":324,"name":"Uncletopia | Los Angeles | 3 | All Maps","name_short":"lax-3","host":"lax-1.us.uncletopia.com","port":27035,"enabled":true,"region":"us-west","cc":"us","latitude":33.94279,"longitude":-118.41004,"reserved":0,"last_update":"0001-01-01T00:00:00Z","name_a2s":"Uncletopia | Los Angeles | 3 | All Maps","protocol":17,"map":"pl_snowycoast","folder":"tf","game":"Team Fortress","app_id":440,"player_count":21,"max_players":24,"Bots":0,"server_type":"Dedicated","server_os":"Linux","password":true,"vac":true,"version":"7932396","steam_id":85568392924510198,"keywords":["nocrits","nodmgspread","payload","uncletopia"],"game_id":440,"stv_port":27036,"stv_name":"Uncletopia | Los Angeles | 3 | All Maps | STV","players":[{"user_id":31,"name":"UnReLinked","steam_id":76561199366044663,"connected_time":3879000000000,"state":"active","ping":71},{"user_id":73,"name":"le batteur","steam_id":76561199078138661,"connected_time":1472000000000,"state":"active","ping":132},{"user_id":88,"name":"Anotherordinary1","steam_id":76561199258223335,"connected_time":47000000000,"state":"connecting","ping":46},{"user_id":70,"name":"De Monki","steam_id":76561198964210411,"connected_time":1540000000000,"state":"active","ping":60},{"user_id":11,"name":"cool beans","steam_id":76561198045758072,"connected_time":6120000000000,"state":"active","ping":47},{"user_id":37,"name":"NavyDinosaur","steam_id":76561198088459962,"connected_time":3410000000000,"state":"active","ping":57},{"user_id":44,"name":"Gyro Pyro Gaming","steam_id":76561198027321950,"connected_time":3145000000000,"state":"active","ping":68},{"user_id":75,"name":"magnanimity","steam_id":76561198242842394,"connected_time":1396000000000,"state":"active","ping":76},{"user_id":40,"name":"Powertron1","steam_id":76561198101957479,"connected_time":3307000000000,"state":"active","ping":116},{"user_id":85,"name":"EOAW","steam_id":76561198310451639,"connected_time":632000000000,"state":"active","ping":61},{"user_id":86,"name":"Your Favorite Fearless Hero","steam_id":76561199127590316,"connected_time":494000000000,"state":"active","ping":59},{"user_id":89,"name":"Ashes!","steam_id":76561197998475441,"connected_time":13000000000,"state":"active","ping":118},{"user_id":49,"name":"Tofu","steam_id":76561198083778611,"connected_time":2748000000000,"state":"active","ping":72},{"user_id":53,"name":"Xbox 360","steam_id":76561198090419068,"connected_time":2561000000000,"state":"active","ping":93},{"user_id":87,"name":"Brigadier Brownie","steam_id":76561198040852898,"connected_time":103000000000,"state":"active","ping":48},{"user_id":63,"name":"thebaconnator2016","steam_id":76561199100270424,"connected_time":2239000000000,"state":"active","ping":78},{"user_id":72,"name":"Aeonspassed","steam_id":76561198014016451,"connected_time":1514000000000,"state":"active","ping":108},{"user_id":74,"name":"bagsy","steam_id":76561198088778979,"connected_time":1446000000000,"state":"active","ping":82},{"user_id":77,"name":"stboncho","steam_id":76561198172275301,"connected_time":1310000000000,"state":"active","ping":57},{"user_id":79,"name":"..flop","steam_id":76561197989058876,"connected_time":1274000000000,"state":"active","ping":69},{"user_id":83,"name":"Big Jack","steam_id":76561198132755619,"connected_time":708000000000,"state":"active","ping":38}]},{"server_id":25,"name":"Uncletopia | Los Angeles | 4 | Stopwatch Beta","name_short":"lax-4","host":"lax-1.us.uncletopia.com","port":27045,"enabled":true,"region":"us-west","cc":"us","latitude":33.94279,"longitude":-118.41004,"reserved":0,"last_update":"0001-01-01T00:00:00Z","name_a2s":"Uncletopia | Los Angeles | 4 | Stopwatch Beta","protocol":17,"map":"cp_altitude","folder":"tf","game":"Team Fortress","app_id":440,"player_count":0,"max_players":24,"Bots":0,"server_type":"Dedicated","server_os":"Linux","password":true,"vac":true,"version":"7932396","steam_id":85568392924510199,"keywords":["cp","nocrits","nodmgspread","uncletopia"],"game_id":440,"stv_port":27046,"stv_name":"Uncletopia | Los Angeles | 4 | Stopwatch Beta | STV","players":null},{"server_id":11,"name":"Uncletopia | London | 1 | All Maps","name_short":"lon-1","host":"lon-1.uk.uncletopia.com","port":27015,"enabled":true,"region":"eu","cc":"gb","latitude":51.509865,"longitude":-0.118092,"reserved":0,"last_update":"0001-01-01T00:00:00Z","name_a2s":"Uncletopia | London | 1 | All Maps","protocol":17,"map":"cp_dustbowl","folder":"tf","game":"Team Fortress","app_id":440,"player_count":23,"max_players":24,"Bots":0,"server_type":"Dedicated","server_os":"Linux","password":true,"vac":true,"version":"7932396","steam_id":85568392924367362,"keywords":["cp","nocrits","nodmgspread","uncletopia"],"game_id":440,"stv_port":27016,"stv_name":"Uncletopia | London | 1 | All Maps | STV","players":[{"user_id":612,"name":"Mirage","steam_id":76561199013190566,"connected_time":123000000000,"state":"active","ping":55},{"user_id":613,"name":"mr beast","steam_id":76561199102090622,"connected_time":70000000000,"state":"active","ping":82},{"user_id":604,"name":"Gravy","steam_id":76561198029548074,"connected_time":781000000000,"state":"active","ping":47},{"user_id":587,"name":"jimmy bob","steam_id":76561198319583692,"connected_time":2136000000000,"state":"active","ping":61},{"user_id":502,"name":"pandillero gato","steam_id":76561198314381191,"connected_time":6613000000000,"state":"active","ping":103},{"user_id":586,"name":"t.tv/anguishjumps","steam_id":76561198086442571,"connected_time":2277000000000,"state":"active","ping":47},{"user_id":614,"name":"Wytchboy","steam_id":76561198342787966,"connected_time":41000000000,"state":"active","ping":55},{"user_id":616,"name":"leonioni","steam_id":76561198833825968,"connected_time":12000000000,"state":"spawning","ping":53},{"user_id":540,"name":"Francis","steam_id":76561199486493777,"connected_time":4658000000000,"state":"active","ping":44},{"user_id":617,"name":"♠ ♠ ♠ ♠ ♠ ♠ ♠ ♠","steam_id":76561198109815556,"connected_time":9000000000,"state":"spawning","ping":48},{"user_id":594,"name":"❤G a n K","steam_id":76561199125995565,"connected_time":1577000000000,"state":"active","ping":73},{"user_id":570,"name":"AAAAAAAAAAAAAAAAAAAAAAAAAAAAAAA","steam_id":76561198336492287,"connected_time":2877000000000,"state":"active","ping":63},{"user_id":575,"name":"Bred_Bone","steam_id":76561198179130475,"connected_time":2799000000000,"state":"active","ping":85},{"user_id":589,"name":"GrossViche","steam_id":76561198184620926,"connected_time":1881000000000,"state":"active","ping":56},{"user_id":603,"name":"Harry","steam_id":76561198046899720,"connected_time":830000000000,"state":"active","ping":50},{"user_id":598,"name":"Sixie","steam_id":76561198251675360,"connected_time":1030000000000,"state":"active","ping":44},{"user_id":606,"name":"Acbh","steam_id":76561198158271672,"connected_time":742000000000,"state":"active","ping":64},{"user_id":609,"name":"The Daniella","steam_id":76561198023075547,"connected_time":662000000000,"state":"active","ping":62},{"user_id":578,"name":"PASTAMAN!!!","steam_id":76561198995641765,"connected_time":2770000000000,"state":"active","ping":62},{"user_id":611,"name":"Evix","steam_id":76561198418450671,"connected_time":428000000000,"state":"active","ping":63},{"user_id":615,"name":"danielarmvt","steam_id":76561198799723201,"connected_time":34000000000,"state":"active","ping":177},{"user_id":545,"name":"remi, she wrote.","steam_id":76561198044045655,"connected_time":3928000000000,"state":"active","ping":69},{"user_id":601,"name":"Babu Frik","steam_id":76561198099823926,"connected_time":843000000000,"state":"active","ping":45}]},{"server_id":114,"name":"Uncletopia | London | 2 | All Maps","name_short":"lon-2","host":"lon-1.uk.uncletopia.com","port":27025,"enabled":true,"region":"eu","cc":"gb","latitude":51.509865,"longitude":-0.118092,"reserved":0,"last_update":"0001-01-01T00:00:00Z","name_a2s":"Uncletopia | London | 2 | All Maps","protocol":17,"map":"pl_frontier_final","folder":"tf","game":"Team Fortress","app_id":440,"player_count":24,"max_players":24,"Bots":0,"server_type":"Dedicated","server_os":"Linux","password":true,"vac":true,"version":"7932396","steam_id":85568392924470941,"keywords":["nocrits","nodmgspread","payload","uncletopia"],"game_id":440,"stv_port":27026,"stv_name":"Uncletopia | London | 2 | All Maps | STV","players":[{"user_id":140,"name":"SirSangoor","steam_id":76561198044462559,"connected_time":1386000000000,"state":"active","ping":115},{"user_id":135,"name":"Stranger in a Strange Land","steam_id":76561198049843671,"connected_time":1506000000000,"state":"active","ping":163},{"user_id":147,"name":"Hrrr","steam_id":76561198106920678,"connected_time":480000000000,"state":"active","ping":34},{"user_id":143,"name":"Frampoid","steam_id":76561197997137121,"connected_time":1269000000000,"state":"active","ping":64},{"user_id":94,"name":"la Torre","steam_id":76561198858568475,"connected_time":3007000000000,"state":"active","ping":78},{"user_id":131,"name":"sisto majesto","steam_id":76561198073532776,"connected_time":1536000000000,"state":"active","ping":95},{"user_id":145,"name":"Freedoomrocks","steam_id":76561198392511189,"connected_time":1083000000000,"state":"active","ping":75},{"user_id":146,"name":"Flight of the Blonde Giraffes","steam_id":76561198451585571,"connected_time":552000000000,"state":"active","ping":67},{"user_id":137,"name":"Lucker","steam_id":76561198079469430,"connected_time":1459000000000,"state":"active","ping":63},{"user_id":106,"name":"Bonkie","steam_id":76561198205701441,"connected_time":2474000000000,"state":"active","ping":50},{"user_id":144,"name":"Edusuh","steam_id":76561198877948244,"connected_time":1140000000000,"state":"active","ping":78},{"user_id":118,"name":"Combat Wombat","steam_id":76561197994720068,"connected_time":1776000000000,"state":"active","ping":64},{"user_id":129,"name":"margaret thatcher's girl power","steam_id":76561199401283123,"connected_time":1578000000000,"state":"active","ping":51},{"user_id":142,"name":"BonesJohnson","steam_id":76561198799169951,"connected_time":1335000000000,"state":"active","ping":50},{"user_id":116,"name":"monkeyraper","steam_id":76561197996798464,"connected_time":1851000000000,"state":"active","ping":83},{"user_id":134,"name":"Fallen Dog","steam_id":76561198851387188,"connected_time":1519000000000,"state":"active","ping":60},{"user_id":139,"name":"beurgeur","steam_id":76561198872426314,"connected_time":1423000000000,"state":"active","ping":44},{"user_id":100,"name":"it's ramadan","steam_id":76561199379159771,"connected_time":2948000000000,"state":"active","ping":154},{"user_id":59,"name":" Sir-Ignyr ","steam_id":76561198043828572,"connected_time":5319000000000,"state":"active","ping":43},{"user_id":126,"name":"Remizer","steam_id":76561198799755616,"connected_time":1626000000000,"state":"active","ping":69},{"user_id":127,"name":"TylowStar","steam_id":76561198357107806,"connected_time":1624000000000,"state":"active","ping":61},{"user_id":40,"name":"NO end to POOTIS","steam_id":76561198144879361,"connected_time":7366000000000,"state":"active","ping":129},{"user_id":96,"name":"AftiksPL","steam_id":76561198875182686,"connected_time":2980000000000,"state":"active","ping":110},{"user_id":133,"name":"profreshional cactus","steam_id":76561198837919828,"connected_time":1534000000000,"state":"active","ping":107}]},{"server_id":320,"name":"Uncletopia | London | 3 | All Maps","name_short":"lon-3","host":"lon-1.uk.uncletopia.com","port":27035,"enabled":true,"region":"eu","cc":"gb","latitude":51.509865,"longitude":-0.118092,"reserved":0,"last_update":"0001-01-01T00:00:00Z","name_a2s":"Uncletopia | London | 3 | All Maps","protocol":17,"map":"pl_frontier_final","folder":"tf","game":"Team Fortress","app_id":440,"player_count":24,"max_players":24,"Bots":0,"server_type":"Dedicated","server_os":"Linux","password":true,"vac":true,"version":"7932396","steam_id":85568392924510192,"keywords":["nocrits","nodmgspread","payload","uncletopia"],"game_id":440,"stv_port":27036,"stv_name":"Uncletopia | London | 3 | All Maps | STV","players":[{"user_id":428,"name":"Slavko Palii","steam_id":76561198404241941,"connected_time":1102000000000,"state":"active","ping":56},{"user_id":458,"name":"Kanny","steam_id":76561198058810184,"connected_time":98000000000,"state":"active","ping":45},{"user_id":455,"name":"Soaya","steam_id":76561199101510855,"connected_time":232000000000,"state":"active","ping":45},{"user_id":454,"name":"dakkafex","steam_id":76561198020254869,"connected_time":259000000000,"state":"active","ping":45},{"user_id":441,"name":"Maybe_Stunner","steam_id":76561199085822219,"connected_time":508000000000,"state":"active","ping":81},{"user_id":434,"name":"Soerlssoelssöen","steam_id":76561197993060585,"connected_time":986000000000,"state":"active","ping":82},{"user_id":409,"name":"Eke","steam_id":76561198105248922,"connected_time":2355000000000,"state":"active","ping":104},{"user_id":435,"name":"Astolfo","steam_id":76561198354584982,"connected_time":915000000000,"state":"active","ping":62},{"user_id":410,"name":"Jughead","steam_id":76561198000355410,"connected_time":2319000000000,"state":"active","ping":52},{"user_id":421,"name":"Seeeb420","steam_id":76561199062630322,"connected_time":1674000000000,"state":"active","ping":79},{"user_id":445,"name":"Logan","steam_id":76561199153519887,"connected_time":485000000000,"state":"active","ping":83},{"user_id":424,"name":"Bottle O' Scrumpy","steam_id":76561199244250562,"connected_time":1590000000000,"state":"active","ping":124},{"user_id":443,"name":"Gobhar","steam_id":76561198112689672,"connected_time":491000000000,"state":"active","ping":38},{"user_id":438,"name":"night.s","steam_id":76561198326287823,"connected_time":896000000000,"state":"active","ping":68},{"user_id":451,"name":"Nag","steam_id":76561197970488206,"connected_time":309000000000,"state":"active","ping":87},{"user_id":446,"name":"live funny joke reaction cam","steam_id":76561198346324423,"connected_time":479000000000,"state":"active","ping":114},{"user_id":430,"name":"Otminas","steam_id":76561198333681520,"connected_time":1071000000000,"state":"active","ping":78},{"user_id":411,"name":"ev1lboyo","steam_id":76561199199499453,"connected_time":2279000000000,"state":"active","ping":81},{"user_id":437,"name":"BenteBent","steam_id":76561198297920637,"connected_time":902000000000,"state":"active","ping":37},{"user_id":332,"name":"♂ Animan ♂ Studios ♂","steam_id":76561198308302932,"connected_time":6215000000000,"state":"active","ping":112},{"user_id":448,"name":"robu","steam_id":76561198113874116,"connected_time":452000000000,"state":"active","ping":87},{"user_id":433,"name":"Dr snuggles","steam_id":76561198151918102,"connected_time":1025000000000,"state":"active","ping":89},{"user_id":449,"name":"C.H.E.R.E.P.","steam_id":76561198026938595,"connected_time":407000000000,"state":"active","ping":75},{"user_id":453,"name":"Xariklhs Kolimpithras","steam_id":76561198165584544,"connected_time":278000000000,"state":"active","ping":106}]},{"server_id":321,"name":"Uncletopia | London | 4 | All Maps","name_short":"lon-4","host":"lon-1.uk.uncletopia.com","port":27045,"enabled":true,"region":"eu","cc":"gb","latitude":51.509865,"longitude":-0.118092,"reserved":0,"last_update":"0001-01-01T00:00:00Z","name_a2s":"Uncletopia | London | 4 | All Maps","protocol":17,"map":"cp_mountainlab","folder":"tf","game":"Team Fortress","app_id":440,"player_count":0,"max_players":24,"Bots":0,"server_type":"Dedicated","server_os":"Linux","password":true,"vac":true,"version":"7932396","steam_id":85568392924510193,"keywords":["cp","nocrits","nodmgspread","uncletopia"],"game_id":440,"stv_port":27046,"stv_name":"Uncletopia | London | 4 | All Maps | STV","players":null},{"server_id":21,"name":"Uncletopia | London | 5 | All Maps","name_short":"lon-5","host":"lon-1.uk.uncletopia.com","port":27055,"enabled":true,"region":"eu","cc":"gb","latitude":51.509865,"longitude":-0.118092,"reserved":0,"last_update":"0001-01-01T00:00:00Z","name_a2s":"Uncletopia | London | 5 | All Maps","protocol":17,"map":"pl_borneo","folder":"tf","game":"Team Fortress","app_id":440,"player_count":0,"max_players":24,"Bots":0,"server_type":"Dedicated","server_os":"Linux","password":true,"vac":true,"version":"7932396","steam_id":85568392924742829,"keywords":["nocrits","nodmgspread","payload","uncletopia"],"game_id":440,"stv_port":27056,"stv_name":"Uncletopia | London | 5 | All Maps | STV","players":null},{"server_id":22,"name":"Uncletopia | London | 6 | All Maps","name_short":"lon-6","host":"lon-1.uk.uncletopia.com","port":27065,"enabled":true,"region":"eu","cc":"gb","latitude":51.509865,"longitude":-0.118092,"reserved":0,"last_update":"0001-01-01T00:00:00Z","name_a2s":"Uncletopia | London | 6 | All Maps","protocol":17,"map":"cp_altitude","folder":"tf","game":"Team Fortress","app_id":440,"player_count":3,"max_players":24,"Bots":0,"server_type":"Dedicated","server_os":"Linux","password":true,"vac":true,"version":"7932396","steam_id":85568392924742830,"keywords":["cp","nocrits","nodmgspread","uncletopia"],"game_id":440,"stv_port":27066,"stv_name":"Uncletopia | London | 6 | All Maps | STV","players":[{"user_id":12,"name":"MisterLegitimate","steam_id":76561199198559715,"connected_time":706000000000,"state":"active","ping":57},{"user_id":13,"name":"Sir Sammie","steam_id":76561198329808137,"connected_time":662000000000,"state":"active","ping":45},{"user_id":15,"name":"Nyhde","steam_id":76561198012771416,"connected_time":150000000000,"state":"active","ping":107}]},{"server_id":40,"name":"Uncletopia | London | 7 | No Payload","name_short":"lon-7","host":"lon-1.uk.uncletopia.com","port":27075,"enabled":true,"region":"eu","cc":"gb","latitude":51.509865,"longitude":-0.118092,"reserved":0,"last_update":"0001-01-01T00:00:00Z","name_a2s":"Uncletopia | London | 7 | No Payload","protocol":17,"map":"cp_process_final","folder":"tf","game":"Team Fortress","app_id":440,"player_count":24,"max_players":24,"Bots":0,"server_type":"Dedicated","server_os":"Linux","password":true,"vac":true,"version":"7932396","steam_id":85568392924964314,"keywords":["cp","nocrits","nodmgspread","uncletopia"],"game_id":440,"stv_port":27076,"stv_name":"Uncletopia | London | 7 | No Payload | STV","players":[{"user_id":499,"name":"Bobirulez","steam_id":76561198009125458,"connected_time":486000000000,"state":"active","ping":71},{"user_id":502,"name":"curious femboy","steam_id":76561199199388221,"connected_time":410000000000,"state":"active","ping":57},{"user_id":493,"name":"WatermelonWill32","steam_id":76561198089478290,"connected_time":989000000000,"state":"active","ping":37},{"user_id":501,"name":"cof","steam_id":76561199128417805,"connected_time":423000000000,"state":"active","ping":58},{"user_id":486,"name":"Egor Pomidor","steam_id":76561199175688390,"connected_time":1912000000000,"state":"active","ping":84},{"user_id":498,"name":"HOI","steam_id":76561198061182117,"connected_time":529000000000,"state":"active","ping":55},{"user_id":492,"name":"Terrarian Outlaw","steam_id":76561198068315549,"connected_time":1015000000000,"state":"active","ping":40},{"user_id":485,"name":"Udinese Dion","steam_id":76561198067931573,"connected_time":2030000000000,"state":"active","ping":61},{"user_id":434,"name":"Fat Pigeon","steam_id":76561198817940142,"connected_time":7937000000000,"state":"active","ping":46},{"user_id":466,"name":"cansado","steam_id":76561198003898089,"connected_time":4334000000000,"state":"active","ping":69},{"user_id":504,"name":"Ineluctable Sex Predator","steam_id":76561197995971061,"connected_time":308000000000,"state":"active","ping":104},{"user_id":506,"name":"eepy man","steam_id":76561199001657140,"connected_time":211000000000,"state":"active","ping":99},{"user_id":454,"name":"Sky Tree","steam_id":76561198027103242,"connected_time":5619000000000,"state":"active","ping":105},{"user_id":497,"name":"elijah","steam_id":76561198093936708,"connected_time":564000000000,"state":"active","ping":60},{"user_id":500,"name":"pyromaniac","steam_id":76561198292781255,"connected_time":465000000000,"state":"active","ping":76},{"user_id":489,"name":"Cagnus Marlsen","steam_id":76561198077859721,"connected_time":1806000000000,"state":"active","ping":69},{"user_id":441,"name":"Suspicious Cabin","steam_id":76561198083261198,"connected_time":6549000000000,"state":"active","ping":51},{"user_id":503,"name":"Michael","steam_id":76561198003146906,"connected_time":387000000000,"state":"active","ping":41},{"user_id":458,"name":"Envy","steam_id":76561198132723219,"connected_time":5312000000000,"state":"active","ping":119},{"user_id":432,"name":"Martin.","steam_id":76561199487883321,"connected_time":8379000000000,"state":"active","ping":58},{"user_id":505,"name":"Elix","steam_id":76561199072306920,"connected_time":295000000000,"state":"active","ping":97},{"user_id":464,"name":"Phnx","steam_id":76561198049741167,"connected_time":4442000000000,"state":"active","ping":91},{"user_id":473,"name":"Bonca","steam_id":76561198137503531,"connected_time":3087000000000,"state":"active","ping":72},{"user_id":478,"name":"Whackyone5588","steam_id":76561198846242972,"connected_time":2711000000000,"state":"active","ping":221}]},{"server_id":41,"name":"Uncletopia | London | 8 | Community","name_short":"lon-8","host":"lon-1.uk.uncletopia.com","port":27085,"enabled":true,"region":"eu","cc":"gb","latitude":51.509865,"longitude":-0.118092,"reserved":0,"last_update":"0001-01-01T00:00:00Z","name_a2s":"Uncletopia | London | 8 | Community","protocol":17,"map":"workshop/cp_propaganda_b18.ugc1603743849","folder":"tf","game":"Team Fortress","app_id":440,"player_count":0,"max_players":24,"Bots":0,"server_type":"Dedicated","server_os":"Linux","password":true,"vac":true,"version":"7932396","steam_id":85568392924964315,"keywords":["cp","nocrits","nodmgspread","uncletopia"],"game_id":440,"stv_port":27086,"stv_name":"Uncletopia | London | 8 | Community | STV","players":null},{"server_id":300,"name":"Uncletopia | Montréal | 1 | All Maps","name_short":"mtl-1","host":"mtl-1.ca.uncletopia.com","port":27015,"enabled":true,"region":"us-east","cc":"ca","latitude":45.50889,"longitude":-73.56167,"reserved":0,"last_update":"0001-01-01T00:00:00Z","name_a2s":"Uncletopia | Montréal | 1 | All Maps","protocol":17,"map":"cp_altitude","folder":"tf","game":"Team Fortress","app_id":440,"player_count":0,"max_players":24,"Bots":0,"server_type":"Dedicated","server_os":"Linux","password":true,"vac":true,"version":"7932396","steam_id":85568392924500087,"keywords":["cp","nocrits","nodmgspread","uncletopia"],"game_id":440,"stv_port":27016,"stv_name":"Uncletopia | Montréal | 1 | All Maps | STV","players":null},{"server_id":301,"name":"Uncletopia | Montréal | 2 | All Maps","name_short":"mtl-2","host":"mtl-1.ca.uncletopia.com","port":27025,"enabled":true,"region":"us-east","cc":"ca","latitude":45.50889,"longitude":-73.56167,"reserved":0,"last_update":"0001-01-01T00:00:00Z","name_a2s":"Uncletopia | Montréal | 2 | All Maps","protocol":17,"map":"koth_lakeside_final","folder":"tf","game":"Team Fortress","app_id":440,"player_count":0,"max_players":24,"Bots":0,"server_type":"Dedicated","server_os":"Linux","password":true,"vac":true,"version":"7932396","steam_id":85568392924500088,"keywords":["cp","nocrits","nodmgspread","uncletopia"],"game_id":440,"stv_port":27026,"stv_name":"Uncletopia | Montréal | 2 | All Maps | STV","players":null},{"server_id":302,"name":"Uncletopia | Montréal | 3 | All Maps","name_short":"mtl-3","host":"mtl-1.ca.uncletopia.com","port":27035,"enabled":true,"region":"us-east","cc":"ca","latitude":45.50889,"longitude":-73.56167,"reserved":0,"last_update":"0001-01-01T00:00:00Z","name_a2s":"Uncletopia | Montréal | 3 | All Maps","protocol":17,"map":"cp_process_final","folder":"tf","game":"Team Fortress","app_id":440,"player_count":0,"max_players":24,"Bots":0,"server_type":"Dedicated","server_os":"Linux","password":true,"vac":true,"version":"7932396","steam_id":85568392924500089,"keywords":["cp","nocrits","nodmgspread","uncletopia"],"game_id":440,"stv_port":27036,"stv_name":"Uncletopia | Montréal | 3 | All Maps | STV","players":null},{"server_id":303,"name":"Uncletopia | Montréal | 4 | No Payload","name_short":"mtl-4","host":"mtl-1.ca.uncletopia.com","port":27045,"enabled":true,"region":"us-east","cc":"ca","latitude":45.50889,"longitude":-73.56167,"reserved":0,"last_update":"0001-01-01T00:00:00Z","name_a2s":"Uncletopia | Montréal | 4 | No Payload","protocol":17,"map":"cp_snakewater_final1","folder":"tf","game":"Team Fortress","app_id":440,"player_count":0,"max_players":24,"Bots":0,"server_type":"Dedicated","server_os":"Linux","password":true,"vac":true,"version":"7932396","steam_id":85568392924500090,"keywords":["cp","nocrits","nodmgspread","uncletopia"],"game_id":440,"stv_port":27046,"stv_name":"Uncletopia | Montréal | 4 | No Payload | STV","players":null},{"server_id":13,"name":"Uncletopia | New York City | 1 | All Maps","name_short":"nyc-1","host":"nyc-1.us.uncletopia.com","port":27015,"enabled":true,"region":"us-east","cc":"us","latitude":40.73061,"longitude":-73.93524,"reserved":0,"last_update":"0001-01-01T00:00:00Z","name_a2s":"Uncletopia | New York City | 1 | All Maps","protocol":17,"map":"koth_highpass","folder":"tf","game":"Team Fortress","app_id":440,"player_count":0,"max_players":24,"Bots":0,"server_type":"Dedicated","server_os":"Linux","password":true,"vac":true,"version":"7932396","steam_id":85568392924469993,"keywords":["cp","nocrits","nodmgspread","uncletopia"],"game_id":440,"stv_port":27016,"stv_name":"Uncletopia | New York City | 1 | All Maps | STV","players":null},{"server_id":14,"name":"Uncletopia | New York City | 2 | All Maps","name_short":"nyc-2","host":"nyc-1.us.uncletopia.com","port":27025,"enabled":true,"region":"us-east","cc":"us","latitude":40.73061,"longitude":-73.93524,"reserved":0,"last_update":"0001-01-01T00:00:00Z","name_a2s":"Uncletopia | New York City | 2 | All Maps","protocol":17,"map":"koth_lakeside_final","folder":"tf","game":"Team Fortress","app_id":440,"player_count":0,"max_players":24,"Bots":0,"server_type":"Dedicated","server_os":"Linux","password":true,"vac":true,"version":"7932396","steam_id":85568392924469994,"keywords":["cp","nocrits","nodmgspread","uncletopia"],"game_id":440,"stv_port":27026,"stv_name":"Uncletopia | New York City | 2 | All Maps | STV","players":null},{"server_id":15,"name":"Uncletopia | New York City | 3 | Stopwatch Beta","name_short":"nyc-3","host":"nyc-1.us.uncletopia.com","port":27035,"enabled":true,"region":"us-east","cc":"us","latitude":40.73061,"longitude":-73.93524,"reserved":0,"last_update":"0001-01-01T00:00:00Z","name_a2s":"Uncletopia | New York City | 3 | Stopwatch Beta","protocol":17,"map":"workshop/koth_ramjam_rc1.ugc459778887","folder":"tf","game":"Team Fortress","app_id":440,"player_count":0,"max_players":24,"Bots":0,"server_type":"Dedicated","server_os":"Linux","password":true,"vac":true,"version":"7932396","steam_id":85568392924742820,"keywords":["cp","nocrits","nodmgspread","uncletopia"],"game_id":440,"stv_port":27036,"stv_name":"Uncletopia | New York City | 3 | Stopwatch Beta | STV","players":null},{"server_id":16,"name":"Uncletopia | New York City | 4 | Community","name_short":"nyc-4","host":"nyc-1.us.uncletopia.com","port":27045,"enabled":true,"region":"us-east","cc":"us","latitude":40.73061,"longitude":-73.93524,"reserved":0,"last_update":"0001-01-01T00:00:00Z","name_a2s":"Uncletopia | New York City | 4 | Community","protocol":17,"map":"workshop/cp_overgrown_rc8.ugc503939302","folder":"tf","game":"Team Fortress","app_id":440,"player_count":21,"max_players":24,"Bots":0,"server_type":"Dedicated","server_os":"Linux","password":true,"vac":true,"version":"7932396","steam_id":85568392924742821,"keywords":["cp","nocrits","nodmgspread","uncletopia"],"game_id":440,"stv_port":27046,"stv_name":"Uncletopia | New York City | 4 | Community | STV","players":[{"user_id":38,"name":"Freeza","steam_id":76561198050341005,"connected_time":366000000000,"state":"active","ping":106},{"user_id":37,"name":"ECCO","steam_id":76561198002821513,"connected_time":369000000000,"state":"active","ping":69},{"user_id":15,"name":"put my hand in the cashregister","steam_id":76561198062991744,"connected_time":2378000000000,"state":"active","ping":53},{"user_id":21,"name":"J-Booty Rasengan","steam_id":76561198088854411,"connected_time":1546000000000,"state":"active","ping":51},{"user_id":16,"name":"Flippityflop","steam_id":76561198086692908,"connected_time":2018000000000,"state":"active","ping":71},{"user_id":17,"name":"Mattacam","steam_id":76561198862289471,"connected_time":1954000000000,"state":"active","ping":70},{"user_id":18,"name":"Dystro55","steam_id":76561199084981675,"connected_time":1786000000000,"state":"active","ping":145},{"user_id":40,"name":"mcjabba","steam_id":76561198019267806,"connected_time":311000000000,"state":"active","ping":126},{"user_id":28,"name":"jeDi","steam_id":76561197971438207,"connected_time":768000000000,"state":"active","ping":67},{"user_id":29,"name":"Schizophrenia Gaming","steam_id":76561198242118240,"connected_time":765000000000,"state":"active","ping":61},{"user_id":30,"name":"darkerogamer","steam_id":76561198341101156,"connected_time":757000000000,"state":"active","ping":139},{"user_id":31,"name":"arthurdpa [F2P] | blw.tf","steam_id":76561199035808894,"connected_time":713000000000,"state":"active","ping":191},{"user_id":32,"name":"name420","steam_id":76561198129374525,"connected_time":680000000000,"state":"active","ping":64},{"user_id":42,"name":"Guns Blazing","steam_id":76561198379461118,"connected_time":300000000000,"state":"active","ping":63},{"user_id":44,"name":"Freewave","steam_id":76561198156282541,"connected_time":233000000000,"state":"active","ping":59},{"user_id":35,"name":"Gues","steam_id":76561198058022955,"connected_time":638000000000,"state":"active","ping":60},{"user_id":43,"name":"Alan","steam_id":76561198977083959,"connected_time":264000000000,"state":"active","ping":113},{"user_id":45,"name":"ScrufflesMcGee","steam_id":76561198162326401,"connected_time":181000000000,"state":"active","ping":93},{"user_id":46,"name":"donatofina","steam_id":76561198353497885,"connected_time":166000000000,"state":"active","ping":182},{"user_id":47,"name":"Auto_Correct","steam_id":76561198254988078,"connected_time":145000000000,"state":"active","ping":62},{"user_id":48,"name":"tiredfisherman69","steam_id":76561199228963816,"connected_time":54000000000,"state":"active","ping":107}]},{"server_id":142,"name":"Uncletopia | São Paulo | 1 | All Maps","name_short":"sao-1","host":"sao-1.br.uncletopia.com","port":27015,"enabled":true,"region":"sa","cc":"br","latitude":-23.533773,"longitude":-46.62529,"reserved":0,"last_update":"0001-01-01T00:00:00Z","name_a2s":"Uncletopia | São Paulo | 1 | All Maps","protocol":17,"map":"cp_mountainlab","folder":"tf","game":"Team Fortress","app_id":440,"player_count":0,"max_players":24,"Bots":0,"server_type":"Dedicated","server_os":"Linux","password":true,"vac":true,"version":"7932396","steam_id":85568392924469996,"keywords":["cp","nocrits","nodmgspread","uncletopia"],"game_id":440,"stv_port":27016,"stv_name":"Uncletopia | São Paulo | 1 | All Maps | STV","players":null},{"server_id":143,"name":"Uncletopia | São Paulo | 2 | All Maps","name_short":"sao-2","host":"sao-2.br.uncletopia.com","port":27015,"enabled":true,"region":"sa","cc":"br","latitude":-23.533773,"longitude":-46.62529,"reserved":0,"last_update":"0001-01-01T00:00:00Z","name_a2s":"Uncletopia | São Paulo | 2 | All Maps","protocol":17,"map":"koth_lakeside_final","folder":"tf","game":"Team Fortress","app_id":440,"player_count":0,"max_players":24,"Bots":0,"server_type":"Dedicated","server_os":"Linux","password":true,"vac":true,"version":"7932396","steam_id":85568392924485349,"keywords":["cp","nocrits","nodmgspread","uncletopia"],"game_id":440,"stv_port":27016,"stv_name":"Uncletopia | São Paulo | 2 | All Maps | STV","players":null},{"server_id":7,"name":"Uncletopia | Seattle | 1 | All Maps","name_short":"sea-1","host":"sea-1.us.uncletopia.com","port":27015,"enabled":true,"region":"us-west","cc":"us","latitude":47.608013,"longitude":-122.33517,"reserved":0,"last_update":"0001-01-01T00:00:00Z","name_a2s":"Uncletopia | Seattle | 1 | All Maps","protocol":17,"map":"koth_viaduct","folder":"tf","game":"Team Fortress","app_id":440,"player_count":24,"max_players":24,"Bots":0,"server_type":"Dedicated","server_os":"Linux","password":true,"vac":true,"version":"7932396","steam_id":85568392924469997,"keywords":["cp","nocrits","nodmgspread","uncletopia"],"game_id":440,"stv_port":27016,"stv_name":"Uncletopia | Seattle | 1 | All Maps | STV","players":[{"user_id":271,"name":"mr. nine","steam_id":76561198097599414,"connected_time":1055000000000,"state":"active","ping":84},{"user_id":286,"name":"N'wah","steam_id":76561198066297673,"connected_time":88000000000,"state":"active","ping":41},{"user_id":239,"name":"Lucas","steam_id":76561198399704604,"connected_time":3027000000000,"state":"active","ping":91},{"user_id":278,"name":"A Very Fancy Pangolin","steam_id":76561198348081817,"connected_time":753000000000,"state":"active","ping":61},{"user_id":280,"name":"Hobojack","steam_id":76561198016598144,"connected_time":749000000000,"state":"active","ping":38},{"user_id":265,"name":"frank","steam_id":76561198045499333,"connected_time":1849000000000,"state":"active","ping":101},{"user_id":160,"name":"Bug","steam_id":76561198279239047,"connected_time":9262000000000,"state":"active","ping":110},{"user_id":268,"name":"fwoov","steam_id":76561198129166260,"connected_time":1617000000000,"state":"active","ping":75},{"user_id":276,"name":"boss penguin","steam_id":76561198365103424,"connected_time":772000000000,"state":"active","ping":47},{"user_id":275,"name":"Darakrish","steam_id":76561198133126686,"connected_time":788000000000,"state":"active","ping":114},{"user_id":270,"name":"Arkell","steam_id":76561198135884882,"connected_time":1536000000000,"state":"active","ping":41},{"user_id":253,"name":"MayaBon","steam_id":76561198797968261,"connected_time":2385000000000,"state":"active","ping":68},{"user_id":284,"name":"gloobern","steam_id":76561198341190679,"connected_time":437000000000,"state":"active","ping":66},{"user_id":188,"name":"no vc no c","steam_id":76561197989503095,"connected_time":7084000000000,"state":"active","ping":151},{"user_id":274,"name":"Distraction","steam_id":76561199445895882,"connected_time":846000000000,"state":"active","ping":81},{"user_id":264,"name":"AttackCommander","steam_id":76561198111522679,"connected_time":1927000000000,"state":"active","ping":103},{"user_id":215,"name":"johnifer","steam_id":76561198872316133,"connected_time":5280000000000,"state":"active","ping":60},{"user_id":232,"name":"secio5","steam_id":76561198189746963,"connected_time":3506000000000,"state":"active","ping":45},{"user_id":281,"name":"Hound_","steam_id":76561199389781834,"connected_time":740000000000,"state":"active","ping":85},{"user_id":260,"name":"ｐｒｏｆｅ ｉｓａ","steam_id":76561198106966849,"connected_time":2307000000000,"state":"active","ping":119},{"user_id":212,"name":"hemo goblin›","steam_id":76561198048007844,"connected_time":5340000000000,"state":"active","ping":68},{"user_id":285,"name":"Rabblerouser","steam_id":76561198127930963,"connected_time":224000000000,"state":"active","ping":60},{"user_id":213,"name":"Straightest Original User","steam_id":76561198353064375,"connected_time":5331000000000,"state":"active","ping":114},{"user_id":272,"name":"Tyler\u0026Fingers","steam_id":76561198085154485,"connected_time":932000000000,"state":"active","ping":139}]},{"server_id":119,"name":"Uncletopia | Seattle | 2 | All Maps","name_short":"sea-2","host":"sea-1.us.uncletopia.com","port":27025,"enabled":true,"region":"us-west","cc":"us","latitude":47.608013,"longitude":-122.33517,"reserved":0,"last_update":"0001-01-01T00:00:00Z","name_a2s":"Uncletopia | Seattle | 2 | All Maps","protocol":17,"map":"cp_dustbowl","folder":"tf","game":"Team Fortress","app_id":440,"player_count":0,"max_players":24,"Bots":0,"server_type":"Dedicated","server_os":"Linux","password":true,"vac":true,"version":"7932396","steam_id":85568392924469998,"keywords":["cp","nocrits","nodmgspread","uncletopia"],"game_id":440,"stv_port":27026,"stv_name":"Uncletopia | Seattle | 2 | All Maps | STV","players":null},{"server_id":406,"name":"Uncletopia | Seattle | 3 | Stopwatch Beta","name_short":"sea-3","host":"sea-1.us.uncletopia.com","port":27035,"enabled":true,"region":"us-west","cc":"us","latitude":47.608013,"longitude":-122.33517,"reserved":0,"last_update":"0001-01-01T00:00:00Z","name_a2s":"Uncletopia | Seattle | 3 | Stopwatch Beta","protocol":17,"map":"cp_mountainlab","folder":"tf","game":"Team Fortress","app_id":440,"player_count":0,"max_players":24,"Bots":0,"server_type":"Dedicated","server_os":"Linux","password":true,"vac":true,"version":"7932396","steam_id":85568392924515217,"keywords":["cp","nocrits","nodmgspread","uncletopia"],"game_id":440,"stv_port":27036,"stv_name":"Uncletopia | Seattle | 3 | Stopwatch Beta | STV","players":null},{"server_id":17,"name":"Uncletopia | San Francisco | 1 | All Maps","name_short":"sfo-1","host":"sfo-1.us.uncletopia.com","port":27015,"enabled":true,"region":"us-west","cc":"us","latitude":37.77397,"longitude":-122.4313,"reserved":0,"last_update":"0001-01-01T00:00:00Z","name_a2s":"Uncletopia | San Francisco | 1 | All Maps","protocol":17,"map":"plr_pipeline","folder":"tf","game":"Team Fortress","app_id":440,"player_count":0,"max_players":24,"Bots":0,"server_type":"Dedicated","server_os":"Linux","password":true,"vac":true,"version":"7932396","steam_id":85568392924469999,"keywords":["nocrits","nodmgspread","payload","uncletopia"],"game_id":440,"stv_port":27016,"stv_name":"Uncletopia | San Francisco | 1 | All Maps | STV","players":null},{"server_id":18,"name":"Uncletopia | San Francisco | 2 | All Maps","name_short":"sfo-2","host":"sfo-1.us.uncletopia.com","port":27025,"enabled":true,"region":"us-west","cc":"us","latitude":37.77397,"longitude":-122.4313,"reserved":0,"last_update":"0001-01-01T00:00:00Z","name_a2s":"Uncletopia | San Francisco | 2 | All Maps","protocol":17,"map":"pl_snowycoast","folder":"tf","game":"Team Fortress","app_id":440,"player_count":0,"max_players":24,"Bots":0,"server_type":"Dedicated","server_os":"Linux","password":true,"vac":true,"version":"7932396","steam_id":85568392924470000,"keywords":["nocrits","nodmgspread","payload","uncletopia"],"game_id":440,"stv_port":27026,"stv_name":"Uncletopia | San Francisco | 2 | All Maps | STV","players":null},{"server_id":19,"name":"Uncletopia | San Francisco | 3 | Stopwatch Beta","name_short":"sfo-3","host":"sfo-1.us.uncletopia.com","port":27035,"enabled":true,"region":"us-west","cc":"us","latitude":37.77397,"longitude":-122.4313,"reserved":0,"last_update":"0001-01-01T00:00:00Z","name_a2s":"Uncletopia | San Francisco | 3 | Stopwatch Beta","protocol":17,"map":"koth_lakeside_final","folder":"tf","game":"Team Fortress","app_id":440,"player_count":0,"max_players":24,"Bots":0,"server_type":"Dedicated","server_os":"Linux","password":true,"vac":true,"version":"7932396","steam_id":85568392924742824,"keywords":["cp","nocrits","nodmgspread","uncletopia"],"game_id":440,"stv_port":27036,"stv_name":"Uncletopia | San Francisco | 3 | Stopwatch Beta | STV","players":null},{"server_id":20,"name":"Uncletopia | San Francisco | 4 | Community","name_short":"sfo-4","host":"sfo-1.us.uncletopia.com","port":27045,"enabled":true,"region":"us-west","cc":"us","latitude":37.77397,"longitude":-122.4313,"reserved":0,"last_update":"0001-01-01T00:00:00Z","name_a2s":"Uncletopia | San Francisco | 4 | Community","protocol":17,"map":"pl_borneo","folder":"tf","game":"Team Fortress","app_id":440,"player_count":0,"max_players":24,"Bots":0,"server_type":"Dedicated","server_os":"Linux","password":true,"vac":true,"version":"7932396","steam_id":85568392924742826,"keywords":["nocrits","nodmgspread","payload","uncletopia"],"game_id":440,"stv_port":27046,"stv_name":"Uncletopia | San Francisco | 4 | Community | STV","players":null},{"server_id":141,"name":"Uncletopia | Sydney | 1 | All Maps","name_short":"syd-1","host":"syd-1.au.uncletopia.com","port":27015,"enabled":true,"region":"au","cc":"au","latitude":-33.865143,"longitude":151.2099,"reserved":0,"last_update":"0001-01-01T00:00:00Z","name_a2s":"Uncletopia | Sydney | 1 | All Maps","protocol":17,"map":"koth_viaduct","folder":"tf","game":"Team Fortress","app_id":440,"player_count":0,"max_players":24,"Bots":0,"server_type":"Dedicated","server_os":"Linux","password":true,"vac":true,"version":"7932396","steam_id":85568392924470001,"keywords":["cp","nocrits","nodmgspread","uncletopia"],"game_id":440,"stv_port":27016,"stv_name":"Uncletopia | Sydney | 1 | All Maps | STV","players":null},{"server_id":123,"name":"Uncletopia | Sydney | 2 | All Maps","name_short":"syd-2","host":"syd-1.au.uncletopia.com","port":27025,"enabled":true,"region":"au","cc":"au","latitude":-33.865143,"longitude":151.2099,"reserved":0,"last_update":"0001-01-01T00:00:00Z","name_a2s":"Uncletopia | Sydney | 2 | All Maps","protocol":17,"map":"pl_swiftwater_final1","folder":"tf","game":"Team Fortress","app_id":440,"player_count":0,"max_players":24,"Bots":0,"server_type":"Dedicated","server_os":"Linux","password":true,"vac":true,"version":"7932396","steam_id":85568392924470002,"keywords":["nocrits","nodmgspread","payload","uncletopia"],"game_id":440,"stv_port":27026,"stv_name":"Uncletopia | Sydney | 2 | All Maps | STV","players":null},{"server_id":395,"name":"Uncletopia | Sydney | 3 | All Maps","name_short":"syd-3","host":"syd-1.au.uncletopia.com","port":27035,"enabled":true,"region":"au","cc":"au","latitude":-33.865143,"longitude":151.2099,"reserved":0,"last_update":"0001-01-01T00:00:00Z","name_a2s":"Uncletopia | Sydney | 3 | All Maps","protocol":17,"map":"koth_highpass","folder":"tf","game":"Team Fortress","app_id":440,"player_count":0,"max_players":24,"Bots":0,"server_type":"Dedicated","server_os":"Linux","password":true,"vac":true,"version":"7932396","steam_id":85568392925194467,"keywords":["cp","nocrits","nodmgspread","uncletopia"],"game_id":440,"stv_port":27036,"stv_name":"Uncletopia | Sydney | 3 | All Maps | STV","players":null},{"server_id":396,"name":"Uncletopia | Sydney | 4 | All Maps","name_short":"syd-4","host":"syd-1.au.uncletopia.com","port":27045,"enabled":true,"region":"au","cc":"au","latitude":-33.865143,"longitude":151.2099,"reserved":0,"last_update":"0001-01-01T00:00:00Z","name_a2s":"Uncletopia | Sydney | 4 | All Maps","protocol":17,"map":"koth_viaduct","folder":"tf","game":"Team Fortress","app_id":440,"player_count":0,"max_players":24,"Bots":0,"server_type":"Dedicated","server_os":"Linux","password":true,"vac":true,"version":"7932396","steam_id":85568392925397958,"keywords":["cp","nocrits","nodmgspread","uncletopia"],"game_id":440,"stv_port":27046,"stv_name":"Uncletopia | Sydney | 4 | All Maps | STV","players":null},{"server_id":58,"name":"Uncletopia | Sydney | 5 | Stopwatch Beta","name_short":"syd-5","host":"syd-1.au.uncletopia.com","port":27055,"enabled":true,"region":"au","cc":"au","latitude":-33.865143,"longitude":151.2099,"reserved":0,"last_update":"0001-01-01T00:00:00Z","name_a2s":"Uncletopia | Sydney | 5 | Stopwatch Beta","protocol":17,"map":"pl_borneo","folder":"tf","game":"Team Fortress","app_id":440,"player_count":0,"max_players":24,"Bots":0,"server_type":"Dedicated","server_os":"Linux","password":true,"vac":true,"version":"7932396","steam_id":85568392925397959,"keywords":["nocrits","nodmgspread","payload","uncletopia"],"game_id":440,"stv_port":27056,"stv_name":"Uncletopia | Sydney | 5 | Stopwatch Beta | STV","players":null},{"server_id":59,"name":"Uncletopia | Sydney | 6 | Community","name_short":"syd-6","host":"syd-1.au.uncletopia.com","port":27065,"enabled":true,"region":"au","cc":"au","latitude":-33.865143,"longitude":151.2099,"reserved":0,"last_update":"0001-01-01T00:00:00Z","name_a2s":"Uncletopia | Sydney | 6 | Community","protocol":17,"map":"workshop/pl_fifthcurve_rc1.ugc648227046","folder":"tf","game":"Team Fortress","app_id":440,"player_count":0,"max_players":24,"Bots":0,"server_type":"Dedicated","server_os":"Linux","password":true,"vac":true,"version":"7932396","steam_id":85568392925397960,"keywords":["nocrits","nodmgspread","payload","uncletopia"],"game_id":440,"stv_port":27066,"stv_name":"Uncletopia | Sydney | 6 | Community | STV","players":null},{"server_id":49,"name":"Uncletopia | Warsaw | 1 | All Maps","name_short":"waw-1","host":"waw-1.pl.uncletopia.com","port":27015,"enabled":true,"region":"eu","cc":"pl","latitude":52.2297,"longitude":21.017532,"reserved":0,"last_update":"0001-01-01T00:00:00Z","name_a2s":"","protocol":0,"map":"","folder":"","game":"","app_id":0,"player_count":0,"max_players":0,"Bots":0,"server_type":"","server_os":"","password":false,"vac":false,"version":"","steam_id":0,"keywords":null,"game_id":0,"stv_port":0,"stv_name":"","players":null},{"server_id":50,"name":"Uncletopia | Warsaw | 2 | All Maps","name_short":"waw-2","host":"waw-1.pl.uncletopia.com","port":27025,"enabled":true,"region":"eu","cc":"pl","latitude":52.2297,"longitude":21.017532,"reserved":0,"last_update":"0001-01-01T00:00:00Z","name_a2s":"Uncletopia | Warsaw | 2 | All Maps","protocol":17,"map":"pl_upward","folder":"tf","game":"Team Fortress","app_id":440,"player_count":24,"max_players":24,"Bots":0,"server_type":"Dedicated","server_os":"Linux","password":true,"vac":true,"version":"7932396","steam_id":85568392925397851,"keywords":["nocrits","nodmgspread","payload","uncletopia"],"game_id":440,"stv_port":27026,"stv_name":"Uncletopia | Warsaw | 2 | All Maps | STV","players":[{"user_id":134,"name":"Pebel","steam_id":76561198128639471,"connected_time":3931000000000,"state":"active","ping":80},{"user_id":168,"name":"Gene Takovic","steam_id":76561198202990635,"connected_time":1330000000000,"state":"active","ping":35},{"user_id":109,"name":"Ran33","steam_id":76561197991474499,"connected_time":6464000000000,"state":"active","ping":105},{"user_id":181,"name":"Iqyax","steam_id":76561198439831782,"connected_time":469000000000,"state":"active","ping":83},{"user_id":187,"name":"Tywhip","steam_id":76561199207545191,"connected_time":86000000000,"state":"active","ping":67},{"user_id":165,"name":"atomic_6urrito","steam_id":76561198197235882,"connected_time":1675000000000,"state":"active","ping":84},{"user_id":131,"name":"Lesbos Maximus","steam_id":76561198090160890,"connected_time":4042000000000,"state":"active","ping":78},{"user_id":183,"name":"A Blåhaj Fan","steam_id":76561199029212388,"connected_time":364000000000,"state":"active","ping":38},{"user_id":145,"name":"LuckLuster","steam_id":76561198092986647,"connected_time":3564000000000,"state":"active","ping":88},{"user_id":178,"name":"2003 Volkswagen passat 1.6 tdi","steam_id":76561199148666369,"connected_time":615000000000,"state":"active","ping":57},{"user_id":184,"name":"lore","steam_id":76561198120984188,"connected_time":270000000000,"state":"active","ping":81},{"user_id":112,"name":"FirePenguin","steam_id":76561198151468340,"connected_time":6381000000000,"state":"active","ping":68},{"user_id":138,"name":"Flying skyhigh","steam_id":76561198372971096,"connected_time":3836000000000,"state":"active","ping":102},{"user_id":113,"name":"TazerMonkey55","steam_id":76561198151547551,"connected_time":6377000000000,"state":"active","ping":86},{"user_id":185,"name":"Good Vibes","steam_id":76561197985206513,"connected_time":241000000000,"state":"active","ping":158},{"user_id":158,"name":"God","steam_id":76561199049925843,"connected_time":2277000000000,"state":"active","ping":123},{"user_id":171,"name":"Carter","steam_id":76561198005243938,"connected_time":1233000000000,"state":"active","ping":102},{"user_id":127,"name":"LOBZIK","steam_id":76561198114830120,"connected_time":4762000000000,"state":"active","ping":59},{"user_id":156,"name":"pajer0","steam_id":76561198002913482,"connected_time":2742000000000,"state":"active","ping":123},{"user_id":176,"name":"Fish 'n' Chips","steam_id":76561198033476886,"connected_time":786000000000,"state":"active","ping":61},{"user_id":180,"name":"высрал казаха","steam_id":76561198863805733,"connected_time":577000000000,"state":"active","ping":111},{"user_id":141,"name":"TrollSechsMann1941","steam_id":76561198150569669,"connected_time":3758000000000,"state":"active","ping":105},{"user_id":142,"name":"ANGELFISH","steam_id":76561198027536466,"connected_time":3735000000000,"state":"active","ping":106},{"user_id":186,"name":"Jail Cell Romance","steam_id":76561198971285292,"connected_time":223000000000,"state":"active","ping":166}]},{"server_id":51,"name":"Uncletopia | Warsaw | 3 | All Maps","name_short":"waw-3","host":"waw-1.pl.uncletopia.com","port":27035,"enabled":true,"region":"eu","cc":"pl","latitude":52.2297,"longitude":21.017532,"reserved":0,"last_update":"0001-01-01T00:00:00Z","name_a2s":"Uncletopia | Warsaw | 3 | All Maps","protocol":17,"map":"cp_mountainlab","folder":"tf","game":"Team Fortress","app_id":440,"player_count":0,"max_players":24,"Bots":0,"server_type":"Dedicated","server_os":"Linux","password":true,"vac":true,"version":"7932396","steam_id":85568392925397852,"keywords":["cp","nocrits","nodmgspread","uncletopia"],"game_id":440,"stv_port":27036,"stv_name":"Uncletopia | Warsaw | 3 | All Maps | STV","players":null},{"server_id":52,"name":"Uncletopia | Warsaw | 4 | All Maps","name_short":"waw-4","host":"waw-1.pl.uncletopia.com","port":27045,"enabled":true,"region":"eu","cc":"pl","latitude":52.2297,"longitude":21.017532,"reserved":0,"last_update":"0001-01-01T00:00:00Z","name_a2s":"Uncletopia | Warsaw | 4 | All Maps","protocol":17,"map":"pl_swiftwater_final1","folder":"tf","game":"Team Fortress","app_id":440,"player_count":0,"max_players":24,"Bots":0,"server_type":"Dedicated","server_os":"Linux","password":true,"vac":true,"version":"7932396","steam_id":85568392925397853,"keywords":["nocrits","nodmgspread","payload","uncletopia"],"game_id":440,"stv_port":27046,"stv_name":"Uncletopia | Warsaw | 4 | All Maps | STV","players":null},{"server_id":53,"name":"Uncletopia | Warsaw | 5 | Stopwatch Beta","name_short":"waw-5","host":"waw-1.pl.uncletopia.com","port":27055,"enabled":true,"region":"eu","cc":"pl","latitude":52.2297,"longitude":21.017532,"reserved":0,"last_update":"0001-01-01T00:00:00Z","name_a2s":"Uncletopia | Warsaw | 5 | Stopwatch Beta","protocol":17,"map":"koth_highpass","folder":"tf","game":"Team Fortress","app_id":440,"player_count":0,"max_players":24,"Bots":0,"server_type":"Dedicated","server_os":"Linux","password":true,"vac":true,"version":"7932396","steam_id":85568392925397854,"keywords":["cp","nocrits","nodmgspread","uncletopia"],"game_id":440,"stv_port":27056,"stv_name":"Uncletopia | Warsaw | 5 | Stopwatch Beta | STV","players":null},{"server_id":54,"name":"Uncletopia | Warsaw | 6 | Community","name_short":"waw-6","host":"waw-1.pl.uncletopia.com","port":27065,"enabled":true,"region":"eu","cc":"pl","latitude":52.2297,"longitude":21.017532,"reserved":0,"last_update":"0001-01-01T00:00:00Z","name_a2s":"Uncletopia | Warsaw | 6 | Community","protocol":17,"map":"pl_upward","folder":"tf","game":"Team Fortress","app_id":440,"player_count":0,"max_players":24,"Bots":0,"server_type":"Dedicated","server_os":"Linux","password":true,"vac":true,"version":"7932396","steam_id":85568392925397856,"keywords":["nocrits","nodmgspread","payload","uncletopia"],"game_id":440,"stv_port":27066,"stv_name":"Uncletopia | Warsaw | 6 | Community | STV","players":null}]}