{"status":true,"message":"","result":[{"server_id":9,"name":"Uncletopia | Atlanta | 1 | All Maps","name_short":"atl-1","host":"atl-1.us.uncletopia.com","port":27015,"enabled":true,"region":"us-east","cc":"us","latitude":33.753746,"longitude":-84.38633,"reserved":0,"last_update":"0001-01-01T00:00:00Z","name_a2s":"Uncletopia | Atlanta | 1 | All Maps","protocol":17,"map":"pl_badwater","folder":"tf","game":"Team Fortress","app_id":440,"player_count":24,"max_players":24,"Bots":0,"server_type":"Dedicated","server_os":"Linux","password":true,"vac":true,"version":"7757534","steam_id":85568392924469982,"keywords":["nocrits","nodmgspread","payload","uncletopia"],"game_id":440,"stv_port":27016,"stv_name":"Uncletopia | Atlanta | 1 | All Maps | STV","players":[{"user_id":207,"name":"Ashes!","steam_id":76561197998475441,"connected_time":794000000000,"state":"active","ping":86},{"user_id":191,"name":"Oxyclean","steam_id":76561198042954813,"connected_time":2935000000000,"state":"active","ping":72},{"user_id":213,"name":"bogginwater","steam_id":76561198155547142,"connected_time":86000000000,"state":"active","ping":63},{"user_id":158,"name":"knotsofunny","steam_id":76561198071336304,"connected_time":6466000000000,"state":"active","ping":71},{"user_id":160,"name":"Boop","steam_id":76561198376703875,"connected_time":5713000000000,"state":"active","ping":61},{"user_id":175,"name":"Eins","steam_id":76561199030343810,"connected_time":4320000000000,"state":"active","ping":47},{"user_id":200,"name":"fart","steam_id":76561198046405072,"connected_time":1937000000000,"state":"active","ping":75},{"user_id":201,"name":"MyamE","steam_id":76561198133278462,"connected_time":1931000000000,"state":"active","ping":70},{"user_id":193,"name":"HarryjusttHarry","steam_id":76561198982810452,"connected_time":2573000000000,"state":"active","ping":66},{"user_id":203,"name":"smile","steam_id":76561198166710027,"connected_time":1413000000000,"state":"active","ping":61},{"user_id":194,"name":"wife","steam_id":76561198141795632,"connected_time":2475000000000,"state":"active","ping":61},{"user_id":196,"name":"RED1 | Le4n!!!","steam_id":76561198045522596,"connected_time":2352000000000,"state":"active","ping":70},{"user_id":197,"name":"ATL1 | Bandicario","steam_id":76561198432036026,"connected_time":2251000000000,"state":"active","ping":50},{"user_id":187,"name":"trilobita","steam_id":76561198428215606,"connected_time":3668000000000,"state":"active","ping":82},{"user_id":85,"name":"Karma","steam_id":76561198030565234,"connected_time":11929000000000,"state":"active","ping":70},{"user_id":147,"name":"mothsprings","steam_id":76561198928604937,"connected_time":7264000000000,"state":"active","ping":70},{"user_id":212,"name":"Devilkid","steam_id":76561199082474364,"connected_time":334000000000,"state":"active","ping":74},{"user_id":198,"name":"slasha2900","steam_id":76561199239168878,"connected_time":2099000000000,"state":"active","ping":98},{"user_id":204,"name":"yomo","steam_id":76561198063175935,"connected_time":1380000000000,"state":"active","ping":58},{"user_id":180,"name":"RED1 | p4ka","steam_id":76561198315291317,"connected_time":3979000000000,"state":"active","ping":71},{"user_id":209,"name":"¿Qué pasa?","steam_id":76561199228153088,"connected_time":539000000000,"state":"active","ping":81},{"user_id":211,"name":"radiation","steam_id":76561198001157602,"connected_time":504000000000,"state":"active","ping":55},{"user_id":208,"name":"ELO truundrscr","steam_id":76561198213525809,"connected_time":551000000000,"state":"active","ping":120},{"user_id":199,"name":"lil hog","steam_id":76561199230929836,"connected_time":2051000000000,"state":"active","ping":74}]},{"server_id":400,"name":"Uncletopia | Atlanta | 3 | Community","name_short":"atl-3","host":"atl-1.us.uncletopia.com","port":27035,"enabled":true,"region":"us-east","cc":"us","latitude":33.753746,"longitude":-84.38633,"reserved":0,"last_update":"0001-01-01T00:00:00Z","name_a2s":"Uncletopia | Atlanta | 3 | Community","protocol":17,"map":"workshop/pl_divulgence_b4b.ugc2884808746","folder":"tf","game":"Team Fortress","app_id":440,"player_count":0,"max_players":24,"Bots":0,"server_type":"Dedicated","server_os":"Linux","password":true,"vac":true,"version":"7757534","steam_id":85568392924515187,"keywords":["nocrits","nodmgspread","payload","uncletopia"],"game_id":440,"stv_port":27036,"stv_name":"Uncletopia | Atlanta | 3 | Community | STV","players":null},{"server_id":401,"name":"Uncletopia | Atlanta | 4 | No Payload","name_short":"atl-4","host":"atl-1.us.uncletopia.com","port":27045,"enabled":true,"region":"us-east","cc":"us","latitude":33.753746,"longitude":-84.38633,"reserved":0,"last_update":"0001-01-01T00:00:00Z","name_a2s":"","protocol":0,"map":"","folder":"","game":"","app_id":0,"player_count":0,"max_players":0,"Bots":0,"server_type":"","server_os":"","password":false,"vac":false,"version":"","steam_id":0,"keywords":null,"game_id":0,"stv_port":0,"stv_name":"","players":null},{"server_id":2,"name":"Uncletopia | Chicago | 1 | All Maps","name_short":"chi-1","host":"chi-1.us.uncletopia.com","port":27015,"enabled":true,"region":"us-central","cc":"us","latitude":41.881832,"longitude":-87.62318,"reserved":0,"last_update":"0001-01-01T00:00:00Z","name_a2s":"Uncletopia | Chicago | 1 | All Maps","protocol":17,"map":"pl_pier","folder":"tf","game":"Team Fortress","app_id":440,"player_count":24,"max_players":24,"Bots":0,"server_type":"Dedicated","server_os":"Linux","password":true,"vac":true,"version":"7757534","steam_id":85568392924469984,"keywords":["nocrits","nodmgspread","payload","uncletopia"],"game_id":440,"stv_port":27016,"stv_name":"Uncletopia | Chicago | 1 | All Maps | STV","players":[{"user_id":442,"name":"PrimePickle","steam_id":76561199470598716,"connected_time":408000000000,"state":"active","ping":93},{"user_id":438,"name":"the deadliest pyroshark","steam_id":76561198374227766,"connected_time":756000000000,"state":"active","ping":70},{"user_id":364,"name":"Raniel Dicciardo","steam_id":76561198053859538,"connected_time":4778000000000,"state":"active","ping":69},{"user_id":400,"name":"Hazardblade","steam_id":76561197993610803,"connected_time":3291000000000,"state":"active","ping":68},{"user_id":439,"name":"Big Phony","steam_id":76561199092395311,"connected_time":744000000000,"state":"active","ping":60},{"user_id":428,"name":"PKBEAST_7","steam_id":76561198177136537,"connected_time":1515000000000,"state":"active","ping":87},{"user_id":395,"name":"A Pyro Main","steam_id":76561198421760112,"connected_time":3391000000000,"state":"active","ping":53},{"user_id":443,"name":"caption cool","steam_id":76561197990612056,"connected_time":345000000000,"state":"active","ping":47},{"user_id":413,"name":"Snugboo","steam_id":76561198147970327,"connected_time":2428000000000,"state":"active","ping":59},{"user_id":440,"name":"Dealyo","steam_id":76561198282395338,"connected_time":735000000000,"state":"active","ping":76},{"user_id":351,"name":"Bread Slice","steam_id":76561199075936060,"connected_time":6364000000000,"state":"active","ping":61},{"user_id":405,"name":"moe","steam_id":76561198929586245,"connected_time":3153000000000,"state":"active","ping":90},{"user_id":414,"name":"the","steam_id":76561198311446636,"connected_time":2409000000000,"state":"active","ping":57},{"user_id":433,"name":"Mightythor","steam_id":76561199162355715,"connected_time":1075000000000,"state":"active","ping":109},{"user_id":348,"name":"McGangBang","steam_id":76561198862379865,"connected_time":6419000000000,"state":"active","ping":60},{"user_id":431,"name":"Silly Scientist","steam_id":76561199199886079,"connected_time":1164000000000,"state":"active","ping":72},{"user_id":445,"name":"e.bass68","steam_id":76561198354108114,"connected_time":303000000000,"state":"active","ping":81},{"user_id":305,"name":"defs98","steam_id":76561198134813102,"connected_time":10606000000000,"state":"active","ping":58},{"user_id":435,"name":"jrdoran","steam_id":76561197984753094,"connected_time":1005000000000,"state":"active","ping":58},{"user_id":434,"name":"sebjzy","steam_id":76561198009959034,"connected_time":1040000000000,"state":"active","ping":78},{"user_id":402,"name":"ROGUE-PLANET","steam_id":76561198116023052,"connected_time":3248000000000,"state":"active","ping":73},{"user_id":417,"name":"drugger. (cochlear implant)","steam_id":76561198353463585,"connected_time":2401000000000,"state":"active","ping":78},{"user_id":418,"name":"Plonker","steam_id":76561198272961376,"connected_time":2366000000000,"state":"active","ping":85},{"user_id":437,"name":"bary","steam_id":76561197988317087,"connected_time":897000000000,"state":"active","ping":68}]},{"server_id":106,"name":"Uncletopia | Chicago | 2 | All Maps","name_short":"chi-2","host":"chi-1.us.uncletopia.com","port":27025,"enabled":true,"region":"us-central","cc":"us","latitude":41.881832,"longitude":-87.62318,"reserved":0,"last_update":"0001-01-01T00:00:00Z","name_a2s":"Uncletopia | Chicago | 2 | All Maps","protocol":17,"map":"plr_bananabay","folder":"tf","game":"Team Fortress","app_id":440,"player_count":24,"max_players":24,"Bots":0,"server_type":"Dedicated","server_os":"Linux","password":true,"vac":true,"version":"7757534","steam_id":85568392924469985,"keywords":["nocrits","nodmgspread","payload","uncletopia"],"game_id":440,"stv_port":27026,"stv_name":"Uncletopia | Chicago | 2 | All Maps | STV","players":[{"user_id":321,"name":"dwnkins","steam_id":76561198856016840,"connected_time":770000000000,"state":"active","ping":74},{"user_id":334,"name":"Stagred","steam_id":76561198055973266,"connected_time":262000000000,"state":"active","ping":68},{"user_id":332,"name":"Bumbo Blast","steam_id":76561198061498882,"connected_time":561000000000,"state":"active","ping":60},{"user_id":298,"name":"Kase","steam_id":76561198055510230,"connected_time":2366000000000,"state":"active","ping":61},{"user_id":326,"name":"emily","steam_id":76561198051872256,"connected_time":666000000000,"state":"active","ping":65},{"user_id":294,"name":"D4DE","steam_id":76561199077954761,"connected_time":2454000000000,"state":"active","ping":179},{"user_id":319,"name":"no","steam_id":76561198248853140,"connected_time":1001000000000,"state":"active","ping":47},{"user_id":333,"name":"floppy muppet","steam_id":76561198003076261,"connected_time":483000000000,"state":"active","ping":82},{"user_id":324,"name":"Bird","steam_id":76561198027102552,"connected_time":685000000000,"state":"active","ping":110},{"user_id":313,"name":"ccat","steam_id":76561198281773224,"connected_time":1712000000000,"state":"active","ping":86},{"user_id":315,"name":"Schwagz","steam_id":76561198038330649,"connected_time":1314000000000,"state":"active","ping":81},{"user_id":314,"name":"Mani","steam_id":76561198139428711,"connected_time":1459000000000,"state":"active","ping":59},{"user_id":320,"name":"Try Gardening","steam_id":76561198120311340,"connected_time":871000000000,"state":"active","ping":47},{"user_id":335,"name":"zigeon12","steam_id":76561199370536274,"connected_time":110000000000,"state":"active","ping":77},{"user_id":318,"name":"Stew Eater","steam_id":76561198978307159,"connected_time":1014000000000,"state":"active","ping":68},{"user_id":331,"name":"Buttons :)","steam_id":76561198139478534,"connected_time":580000000000,"state":"active","ping":112},{"user_id":283,"name":"Morgster","steam_id":76561198131697761,"connected_time":3109000000000,"state":"active","ping":86},{"user_id":325,"name":"Bloop","steam_id":76561198965341064,"connected_time":683000000000,"state":"active","ping":111},{"user_id":300,"name":"Every death is 10 squats","steam_id":76561198162170585,"connected_time":2356000000000,"state":"active","ping":102},{"user_id":303,"name":"auby","steam_id":76561198088024854,"connected_time":2246000000000,"state":"active","ping":82},{"user_id":311,"name":"Caulfield","steam_id":76561198128418566,"connected_time":1906000000000,"state":"active","ping":68},{"user_id":328,"name":"Keeby Moment","steam_id":76561198172792271,"connected_time":654000000000,"state":"active","ping":87},{"user_id":329,"name":"MaxTheRetroGuy","steam_id":76561198845344731,"connected_time":651000000000,"state":"active","ping":63},{"user_id":330,"name":"Trube, dube!™","steam_id":76561198965187780,"connected_time":629000000000,"state":"active","ping":79}]},{"server_id":402,"name":"Uncletopia | Chicago | 3 | All Maps","name_short":"chi-3","host":"chi-1.us.uncletopia.com","port":27035,"enabled":true,"region":"us-central","cc":"us","latitude":41.881832,"longitude":-87.62318,"reserved":0,"last_update":"0001-01-01T00:00:00Z","name_a2s":"Uncletopia | Chicago | 3 | All Maps","protocol":17,"map":"cp_dustbowl","folder":"tf","game":"Team Fortress","app_id":440,"player_count":7,"max_players":24,"Bots":0,"server_type":"Dedicated","server_os":"Linux","password":true,"vac":true,"version":"7757534","steam_id":85568392924515191,"keywords":["cp","nocrits","nodmgspread","uncletopia"],"game_id":440,"stv_port":27036,"stv_name":"Uncletopia | Chicago | 3 | All Maps | STV","players":[{"user_id":24,"name":"wuffle","steam_id":76561198995689714,"connected_time":954000000000,"state":"active","ping":43},{"user_id":25,"name":"Dinosaur","steam_id":76561198854695804,"connected_time":692000000000,"state":"active","ping":71},{"user_id":28,"name":"social_hermit_crab","steam_id":76561198891624827,"connected_time":204000000000,"state":"active","ping":59},{"user_id":27,"name":"the fart","steam_id":76561198073176682,"connected_time":319000000000,"state":"active","ping":42},{"user_id":29,"name":"ComicHarbor","steam_id":76561199122073033,"connected_time":137000000000,"state":"active","ping":75},{"user_id":31,"name":"Bonniefan712","steam_id":76561199289809788,"connected_time":15000000000,"state":"active","ping":111},{"user_id":32,"name":"Zero","steam_id":76561199383267408,"connected_time":8000000000,"state":"spawning","ping":67}]},{"server_id":403,"name":"Uncletopia | Chicago | 4 | All Maps","name_short":"chi-4","host":"chi-1.us.uncletopia.com","port":27045,"enabled":true,"region":"us-central","cc":"us","latitude":41.881832,"longitude":-87.62318,"reserved":0,"last_update":"0001-01-01T00:00:00Z","name_a2s":"Uncletopia | Chicago | 4 | All Maps","protocol":17,"map":"cp_badlands","folder":"tf","game":"Team Fortress","app_id":440,"player_count":20,"max_players":24,"Bots":0,"server_type":"Dedicated","server_os":"Linux","password":true,"vac":true,"version":"7757534","steam_id":85568392924515193,"keywords":["cp","nocrits","nodmgspread","uncletopia"],"game_id":440,"stv_port":27046,"stv_name":"Uncletopia | Chicago | 4 | All Maps | STV","players":[{"user_id":123,"name":"Zee","steam_id":76561199229870438,"connected_time":888000000000,"state":"connecting","ping":105},{"user_id":64,"name":"shokie","steam_id":76561197997961542,"connected_time":4653000000000,"state":"connecting","ping":95},{"user_id":134,"name":"Post nut clarity","steam_id":76561198060246831,"connected_time":19000000000,"state":"connecting","ping":104},{"user_id":117,"name":"Borfie","steam_id":76561198118600664,"connected_time":1141000000000,"state":"connecting","ping":107},{"user_id":135,"name":"Micro Plastics","steam_id":76561198165774711,"connected_time":2000000000,"state":"connecting","ping":150},{"user_id":65,"name":"washy","steam_id":76561198046622670,"connected_time":4598000000000,"state":"connecting","ping":85},{"user_id":136,"name":"giant_dork","steam_id":76561199105606956,"connected_time":2000000000,"state":"connecting","ping":199},{"user_id":101,"name":"The Alien","steam_id":76561198185817713,"connected_time":2538000000000,"state":"connecting","ping":103},{"user_id":98,"name":"Chase McCain","steam_id":76561198314538469,"connected_time":2562000000000,"state":"connecting","ping":72},{"user_id":49,"name":"Kedata","steam_id":76561198047750050,"connected_time":5601000000000,"state":"connecting","ping":39},{"user_id":83,"name":"Mervous Thrifty","steam_id":76561198063250819,"connected_time":3022000000000,"state":"connecting","ping":50},{"user_id":128,"name":"Pug Warfare","steam_id":76561198072559015,"connected_time":643000000000,"state":"connecting","ping":152},{"user_id":112,"name":"king dedede","steam_id":76561198965562679,"connected_time":1360000000000,"state":"connecting","ping":87},{"user_id":125,"name":"IPlayGamez","steam_id":76561198041387508,"connected_time":860000000000,"state":"connecting","ping":72},{"user_id":129,"name":"Jimmy","steam_id":76561198023563786,"connected_time":597000000000,"state":"connecting","ping":174},{"user_id":108,"name":"Swifgz","steam_id":76561198162875756,"connected_time":2031000000000,"state":"connecting","ping":77},{"user_id":106,"name":"M249 | Spectre","steam_id":76561198118334485,"connected_time":2331000000000,"state":"connecting","ping":81},{"user_id":130,"name":"Kretim","steam_id":76561199204273483,"connected_time":592000000000,"state":"connecting","ping":78},{"user_id":114,"name":"Mowse","steam_id":76561198045808227,"connected_time":1186000000000,"state":"connecting","ping":75},{"user_id":126,"name":"Wwaz","steam_id":76561198000240092,"connected_time":834000000000,"state":"connecting","ping":63}]},{"server_id":36,"name":"Uncletopia | Chicago | 5 | All Maps","name_short":"chi-5","host":"chi-2.us.uncletopia.com","port":27015,"enabled":true,"region":"us-central","cc":"us","latitude":41.881832,"longitude":-87.62318,"reserved":0,"last_update":"0001-01-01T00:00:00Z","name_a2s":"Uncletopia | Chicago | 5 | All Maps","protocol":17,"map":"cp_metalworks","folder":"tf","game":"Team Fortress","app_id":440,"player_count":24,"max_players":24,"Bots":0,"server_type":"Dedicated","server_os":"Linux","password":true,"vac":true,"version":"7757534","steam_id":85568392924866362,"keywords":["cp","nocrits","nodmgspread","uncletopia"],"game_id":440,"stv_port":27016,"stv_name":"Uncletopia | Chicago | 5 | All Maps | STV","players":[{"user_id":171,"name":"NUt","steam_id":76561198031007966,"connected_time":1961000000000,"state":"active","ping":71},{"user_id":148,"name":"teaf","steam_id":76561198406252824,"connected_time":3013000000000,"state":"active","ping":106},{"user_id":186,"name":"John Dungus (the real one)","steam_id":76561198049191027,"connected_time":1527000000000,"state":"active","ping":79},{"user_id":18,"name":"Fresh Lychee","steam_id":76561198045399559,"connected_time":11836000000000,"state":"active","ping":55},{"user_id":189,"name":"Scita","steam_id":76561198066861559,"connected_time":1239000000000,"state":"active","ping":75},{"user_id":172,"name":"sus!","steam_id":76561198202152448,"connected_time":1950000000000,"state":"active","ping":60},{"user_id":197,"name":"North","steam_id":76561199173696836,"connected_time":49000000000,"state":"active","ping":84},{"user_id":198,"name":"PokemonMaster_Ryan2010","steam_id":76561198305758852,"connected_time":33000000000,"state":"active","ping":60},{"user_id":143,"name":"sean","steam_id":76561198354473513,"connected_time":3407000000000,"state":"active","ping":47},{"user_id":159,"name":"The World's Softest Sandwich","steam_id":76561198015577707,"connected_time":2821000000000,"state":"active","ping":81},{"user_id":196,"name":"Snimca","steam_id":76561198453519709,"connected_time":97000000000,"state":"active","ping":67},{"user_id":188,"name":"Fear LFT 6s IM Roamer","steam_id":76561198063170079,"connected_time":1380000000000,"state":"active","ping":63},{"user_id":190,"name":"Forgotten Lands","steam_id":76561198104330300,"connected_time":1229000000000,"state":"active","ping":74},{"user_id":199,"name":"Blasterus","steam_id":76561198859486814,"connected_time":30000000000,"state":"active","ping":70},{"user_id":195,"name":"Zicky Nee","steam_id":76561198042601111,"connected_time":108000000000,"state":"active","ping":71},{"user_id":140,"name":"hilarious dinglebat","steam_id":76561198170840838,"connected_time":3894000000000,"state":"active","ping":86},{"user_id":187,"name":"Errrmmett","steam_id":76561198041314051,"connected_time":1476000000000,"state":"active","ping":71},{"user_id":200,"name":"The destroyer of foreskin","steam_id":76561198135275966,"connected_time":22000000000,"state":"active","ping":82},{"user_id":201,"name":"yes","steam_id":76561198012566405,"connected_time":9000000000,"state":"spawning","ping":61},{"user_id":192,"name":"mio","steam_id":76561198239286750,"connected_time":588000000000,"state":"active","ping":66},{"user_id":202,"name":"Shoe","steam_id":76561198951926312,"connected_time":7000000000,"state":"active","ping":126},{"user_id":191,"name":"dick bubkis","steam_id":76561198057374871,"connected_time":1207000000000,"state":"active","ping":61},{"user_id":135,"name":"Bozanimal","steam_id":76561198044096897,"connected_time":4343000000000,"state":"active","ping":50},{"user_id":185,"name":"anonpain","steam_id":76561198081317092,"connected_time":1612000000000,"state":"active","ping":49}]},{"server_id":37,"name":"Uncletopia | Chicago | 6 | All Maps","name_short":"chi-6","host":"chi-2.us.uncletopia.com","port":27025,"enabled":true,"region":"us-central","cc":"us","latitude":41.881832,"longitude":-87.62318,"reserved":0,"last_update":"0001-01-01T00:00:00Z","name_a2s":"Uncletopia | Chicago | 6 | All Maps","protocol":17,"map":"pl_upward","folder":"tf","game":"Team Fortress","app_id":440,"player_count":24,"max_players":24,"Bots":0,"server_type":"Dedicated","server_os":"Linux","password":true,"vac":true,"version":"7757534","steam_id":85568392924866363,"keywords":["nocrits","nodmgspread","payload","uncletopia"],"game_id":440,"stv_port":27026,"stv_name":"Uncletopia | Chicago | 6 | All Maps | STV","players":[{"user_id":292,"name":"Cthuluhoop","steam_id":76561198412891629,"connected_time":188000000000,"state":"active","ping":116},{"user_id":247,"name":"Billosky Time Lord","steam_id":76561199159626560,"connected_time":2718000000000,"state":"active","ping":163},{"user_id":290,"name":"Matches_                       ","steam_id":76561198048925904,"connected_time":457000000000,"state":"active","ping":109},{"user_id":258,"name":"Just_Bad","steam_id":76561198145153093,"connected_time":1508000000000,"state":"active","ping":50},{"user_id":281,"name":"Glory","steam_id":76561198013975080,"connected_time":577000000000,"state":"active","ping":73},{"user_id":279,"name":"Romo","steam_id":76561198243101572,"connected_time":752000000000,"state":"active","ping":89},{"user_id":293,"name":"Pi Guy","steam_id":76561199071784224,"connected_time":120000000000,"state":"active","ping":70},{"user_id":254,"name":"Stock Medic","steam_id":76561198065479730,"connected_time":1790000000000,"state":"active","ping":44},{"user_id":255,"name":"garry","steam_id":76561199091007559,"connected_time":1681000000000,"state":"active","ping":115},{"user_id":235,"name":"SenTreats","steam_id":76561198085835841,"connected_time":3243000000000,"state":"active","ping":113},{"user_id":284,"name":"Lewmen","steam_id":76561198863521458,"connected_time":533000000000,"state":"active","ping":86},{"user_id":291,"name":"The Wise Guy","steam_id":76561198031080216,"connected_time":279000000000,"state":"active","ping":74},{"user_id":261,"name":"PileofPolygons","steam_id":76561199321343460,"connected_time":1395000000000,"state":"active","ping":71},{"user_id":282,"name":"Aztea","steam_id":76561198982089893,"connected_time":567000000000,"state":"active","ping":96},{"user_id":283,"name":"Ike Yard","steam_id":76561197998954523,"connected_time":566000000000,"state":"active","ping":71},{"user_id":285,"name":"Final_MarioXD","steam_id":76561199184862419,"connected_time":529000000000,"state":"active","ping":96},{"user_id":271,"name":"Lord GabeN","steam_id":76561198140862723,"connected_time":1163000000000,"state":"active","ping":66},{"user_id":272,"name":"$3.99 Shrimps","steam_id":76561198077272494,"connected_time":1159000000000,"state":"active","ping":53},{"user_id":265,"name":"hummus in my tummus","steam_id":76561199438698036,"connected_time":1326000000000,"state":"active","ping":71},{"user_id":280,"name":"mountain","steam_id":76561198078395002,"connected_time":717000000000,"state":"active","ping":62},{"user_id":227,"name":"juhg, koop","steam_id":76561198388955908,"connected_time":3513000000000,"state":"active","ping":72},{"user_id":269,"name":"gasparmx","steam_id":76561197998611994,"connected_time":1250000000000,"state":"active","ping":112},{"user_id":229,"name":"Wug","steam_id":76561198084112264,"connected_time":3487000000000,"state":"active","ping":81},{"user_id":288,"name":"john","steam_id":76561197967066490,"connected_time":486000000000,"state":"active","ping":47}]},{"server_id":38,"name":"Uncletopia | Chicago | 7 | Stopwatch Beta","name_short":"chi-7","host":"chi-2.us.uncletopia.com","port":27035,"enabled":true,"region":"us-central","cc":"us","latitude":41.881832,"longitude":-87.62318,"reserved":0,"last_update":"0001-01-01T00:00:00Z","name_a2s":"Uncletopia | Chicago | 7 | Stopwatch Beta","protocol":17,"map":"pl_upward","folder":"tf","game":"Team Fortress","app_id":440,"player_count":0,"max_players":24,"Bots":0,"server_type":"Dedicated","server_os":"Linux","password":true,"vac":true,"version":"7757534","steam_id":85568392924866364,"keywords":["nocrits","nodmgspread","payload","uncletopia"],"game_id":440,"stv_port":27036,"stv_name":"Uncletopia | Chicago | 7 | Stopwatch Beta | STV","players":null},{"server_id":39,"name":"Uncletopia | Chicago | 8 | Community","name_short":"chi-8","host":"chi-2.us.uncletopia.com","port":27045,"enabled":true,"region":"us-central","cc":"us","latitude":41.881832,"longitude":-87.62318,"reserved":0,"last_update":"0001-01-01T00:00:00Z","name_a2s":"Uncletopia | Chicago | 8 | Community","protocol":17,"map":"workshop/cp_propaganda_b18.ugc1603743849","folder":"tf","game":"Team Fortress","app_id":440,"player_count":4,"max_players":24,"Bots":0,"server_type":"Dedicated","server_os":"Linux","password":true,"vac":true,"version":"7757534","steam_id":85568392924866365,"keywords":["cp","nocrits","nodmgspread","uncletopia"],"game_id":440,"stv_port":27046,"stv_name":"Uncletopia | Chicago | 8 | Community | STV","players":[{"user_id":34,"name":"Serene Salamander","steam_id":76561198001094770,"connected_time":383000000000,"state":"active","ping":114},{"user_id":33,"name":"Yayifications","steam_id":76561198066227208,"connected_time":568000000000,"state":"active","ping":58},{"user_id":35,"name":"Nerd Pacman Meme 10 Hours","steam_id":76561197979090955,"connected_time":273000000000,"state":"active","ping":90},{"user_id":30,"name":"Slitherywriter1","steam_id":76561198284357754,"connected_time":825000000000,"state":"active","ping":57}]},{"server_id":8,"name":"Uncletopia | Dallas | 1 | All Maps","name_short":"dal-1","host":"dal-1.us.uncletopia.com","port":27015,"enabled":true,"region":"us-central","cc":"us","latitude":32.779167,"longitude":-96.80889,"reserved":0,"last_update":"0001-01-01T00:00:00Z","name_a2s":"Uncletopia | Dallas | 1 | All Maps","protocol":17,"map":"pl_badwater","folder":"tf","game":"Team Fortress","app_id":440,"player_count":24,"max_players":24,"Bots":0,"server_type":"Dedicated","server_os":"Linux","password":true,"vac":true,"version":"7757534","steam_id":85568392924469986,"keywords":["nocrits","nodmgspread","payload","uncletopia"],"game_id":440,"stv_port":27016,"stv_name":"Uncletopia | Dallas | 1 | All Maps | STV","players":[{"user_id":204,"name":"dr4gon","steam_id":76561198847749278,"connected_time":3161000000000,"state":"active","ping":32},{"user_id":240,"name":"Quandale Dingle","steam_id":76561198055068244,"connected_time":778000000000,"state":"active","ping":56},{"user_id":245,"name":"KyePerson","steam_id":76561198145597212,"connected_time":219000000000,"state":"active","ping":81},{"user_id":231,"name":"Dr. Bobo","steam_id":76561198271696761,"connected_time":1823000000000,"state":"active","ping":71},{"user_id":238,"name":"the zoo","steam_id":76561198013732450,"connected_time":950000000000,"state":"active","ping":65},{"user_id":232,"name":"the_1895bigboy | velk.ca","steam_id":76561198403985418,"connected_time":1699000000000,"state":"active","ping":80},{"user_id":188,"name":"notquiteblue","steam_id":76561198838382205,"connected_time":4831000000000,"state":"active","ping":85},{"user_id":242,"name":"Geloman","steam_id":76561198005501322,"connected_time":266000000000,"state":"active","ping":87},{"user_id":197,"name":"Brass beast heavy","steam_id":76561198274197623,"connected_time":4038000000000,"state":"active","ping":163},{"user_id":222,"name":"Krow","steam_id":76561198010392099,"connected_time":2547000000000,"state":"active","ping":56},{"user_id":208,"name":"DocDankDandy","steam_id":76561197999440195,"connected_time":3131000000000,"state":"active","ping":62},{"user_id":225,"name":"Viennetta","steam_id":76561198044088335,"connected_time":1961000000000,"state":"active","ping":98},{"user_id":239,"name":"TrainTheSizeOfTheChryslerBuildi","steam_id":76561198053730310,"connected_time":933000000000,"state":"active","ping":73},{"user_id":209,"name":"Antknee","steam_id":76561198263793809,"connected_time":3116000000000,"state":"active","ping":76},{"user_id":154,"name":"LegendaryMister151","steam_id":76561198064890524,"connected_time":7341000000000,"state":"active","ping":94},{"user_id":235,"name":"Idiot on his Keyboard","steam_id":76561198217662787,"connected_time":1420000000000,"state":"active","ping":115},{"user_id":234,"name":"Tribute","steam_id":76561198081594043,"connected_time":1566000000000,"state":"active","ping":57},{"user_id":243,"name":"Wallem","steam_id":76561198052361822,"connected_time":263000000000,"state":"active","ping":101},{"user_id":217,"name":"vastrobotmax","steam_id":76561198417110724,"connected_time":3021000000000,"state":"active","ping":99},{"user_id":236,"name":"Brian","steam_id":76561198089908485,"connected_time":1417000000000,"state":"active","ping":96},{"user_id":156,"name":"wiiblob","steam_id":76561198109106242,"connected_time":6971000000000,"state":"active","ping":151},{"user_id":227,"name":"Meh but good","steam_id":76561199005772246,"connected_time":1951000000000,"state":"active","ping":71},{"user_id":220,"name":"gps","steam_id":76561198067492304,"connected_time":2801000000000,"state":"active","ping":58},{"user_id":244,"name":"darkjustin54","steam_id":76561198060056280,"connected_time":256000000000,"state":"active","ping":62}]},{"server_id":108,"name":"Uncletopia | Dallas | 2 | All Maps","name_short":"dal-2","host":"dal-1.us.uncletopia.com","port":27025,"enabled":true,"region":"us-central","cc":"us","latitude":32.779167,"longitude":-96.80889,"reserved":0,"last_update":"0001-01-01T00:00:00Z","name_a2s":"Uncletopia | Dallas | 2 | All Maps","protocol":17,"map":"pl_upward","folder":"tf","game":"Team Fortress","app_id":440,"player_count":23,"max_players":24,"Bots":0,"server_type":"Dedicated","server_os":"Linux","password":true,"vac":true,"version":"7757534","steam_id":85568392924469988,"keywords":["nocrits","nodmgspread","payload","uncletopia"],"game_id":440,"stv_port":27026,"stv_name":"Uncletopia | Dallas | 2 | All Maps | STV","players":[{"user_id":327,"name":"B0b-1","steam_id":76561198093902432,"connected_time":2209000000000,"state":"active","ping":66},{"user_id":351,"name":"mata","steam_id":76561198083884120,"connected_time":1159000000000,"state":"active","ping":67},{"user_id":352,"name":"turtle","steam_id":76561198356794512,"connected_time":1062000000000,"state":"active","ping":64},{"user_id":355,"name":"Literally a Trans Woman","steam_id":76561198054639925,"connected_time":956000000000,"state":"active","ping":92},{"user_id":367,"name":"OMG!!!!","steam_id":76561198069600113,"connected_time":120000000000,"state":"active","ping":74},{"user_id":358,"name":"TheSaltRobot","steam_id":76561198839739497,"connected_time":885000000000,"state":"active","ping":58},{"user_id":364,"name":"A Pack of Traffic Greens","steam_id":76561198111866305,"connected_time":691000000000,"state":"active","ping":77},{"user_id":328,"name":"Justis","steam_id":76561197963835016,"connected_time":2204000000000,"state":"active","ping":100},{"user_id":309,"name":"crip or blood? diabetic.","steam_id":76561198806505791,"connected_time":3494000000000,"state":"active","ping":91},{"user_id":346,"name":"i am clinically insane","steam_id":76561199013323529,"connected_time":1315000000000,"state":"active","ping":97},{"user_id":368,"name":"Ì̴̺̅͜͝†̷̲̜̀̒ï̵̋","steam_id":76561198883431447,"connected_time":20000000000,"state":"active","ping":92},{"user_id":363,"name":"The Weatherman is fucking dying","steam_id":76561198000445420,"connected_time":714000000000,"state":"active","ping":89},{"user_id":331,"name":"Unban Level Eater (She/They)","steam_id":76561198823616667,"connected_time":2071000000000,"state":"active","ping":53},{"user_id":306,"name":"MK","steam_id":76561198044764469,"connected_time":3681000000000,"state":"active","ping":63},{"user_id":354,"name":"i eat sawdust","steam_id":76561199153238395,"connected_time":1039000000000,"state":"active","ping":100},{"user_id":356,"name":"Rin \"Hindwing\" Redtail","steam_id":76561199074865638,"connected_time":912000000000,"state":"active","ping":48},{"user_id":333,"name":"BlazeHX","steam_id":76561198827408017,"connected_time":2054000000000,"state":"active","ping":88},{"user_id":357,"name":"Socialism Enjoyer","steam_id":76561197991817974,"connected_time":911000000000,"state":"active","ping":94},{"user_id":347,"name":"mikey | I'm Burning Bright!","steam_id":76561198985847893,"connected_time":1303000000000,"state":"active","ping":47},{"user_id":348,"name":"DANETOPIA PIG","steam_id":76561198059500571,"connected_time":1295000000000,"state":"active","ping":56},{"user_id":343,"name":"sockman","steam_id":76561198306826566,"connected_time":1405000000000,"state":"active","ping":79},{"user_id":361,"name":"BeerDrinker49000000000","steam_id":76561198846515168,"connected_time":741000000000,"state":"active","ping":73},{"user_id":366,"name":"FaZ eairbud shotty ttv","steam_id":76561198360335866,"connected_time":474000000000,"state":"active","ping":69}]},{"server_id":5,"name":"Uncletopia | Frankfurt | 1 | All Maps","name_short":"frk-1","host":"frk-1.de.uncletopia.com","port":27015,"enabled":true,"region":"eu","cc":"de","latitude":50.110924,"longitude":8.682127,"reserved":0,"last_update":"0001-01-01T00:00:00Z","name_a2s":"Uncletopia | Frankfurt | 1 | All Maps","protocol":17,"map":"pl_snowycoast","folder":"tf","game":"Team Fortress","app_id":440,"player_count":24,"max_players":24,"Bots":0,"server_type":"Dedicated","server_os":"Linux","password":true,"vac":true,"version":"7757534","steam_id":85568392924469989,"keywords":["nocrits","nodmgspread","payload","uncletopia"],"game_id":440,"stv_port":27016,"stv_name":"Uncletopia | Frankfurt | 1 | All Maps | STV","players":[{"user_id":368,"name":"Better Call Medic","steam_id":76561198939711234,"connected_time":1253000000000,"state":"active","ping":104},{"user_id":364,"name":"LarsInABox","steam_id":76561198028329262,"connected_time":1838000000000,"state":"active","ping":74},{"user_id":365,"name":"Mach |=|20BB|)","steam_id":76561198952487564,"connected_time":1773000000000,"state":"active","ping":88},{"user_id":395,"name":"deVychu","steam_id":76561198078032019,"connected_time":786000000000,"state":"active","ping":75},{"user_id":408,"name":"Serton♝","steam_id":76561198011061126,"connected_time":39000000000,"state":"spawning","ping":100},{"user_id":373,"name":"SHADESAVE","steam_id":76561198034881430,"connected_time":1119000000000,"state":"active","ping":139},{"user_id":401,"name":"thebananabomb00","steam_id":76561198296409283,"connected_time":638000000000,"state":"active","ping":73},{"user_id":376,"name":"Foreskin Gamer","steam_id":76561198283106341,"connected_time":1044000000000,"state":"active","ping":75},{"user_id":402,"name":"Enforcer02","steam_id":76561197966045944,"connected_time":633000000000,"state":"active","ping":53},{"user_id":403,"name":"Rubi","steam_id":76561198139410003,"connected_time":545000000000,"state":"active","ping":74},{"user_id":379,"name":"DrauconeTMDS","steam_id":76561198083510257,"connected_time":1005000000000,"state":"active","ping":40},{"user_id":387,"name":"toust","steam_id":76561199103417422,"connected_time":886000000000,"state":"active","ping":53},{"user_id":381,"name":"jovi_","steam_id":76561198449280552,"connected_time":980000000000,"state":"active","ping":62},{"user_id":389,"name":"jestermaxxing whimsypill","steam_id":76561198104896547,"connected_time":880000000000,"state":"active","ping":72},{"user_id":383,"name":"Baron","steam_id":76561198021901783,"connected_time":950000000000,"state":"active","ping":71},{"user_id":398,"name":"minn","steam_id":76561198099101232,"connected_time":652000000000,"state":"active","ping":69},{"user_id":385,"name":"Teecho","steam_id":76561197995269610,"connected_time":942000000000,"state":"active","ping":67},{"user_id":386,"name":"ShiftingMind","steam_id":76561198448975127,"connected_time":917000000000,"state":"active","ping":59},{"user_id":404,"name":"Pyrolander","steam_id":76561198050785450,"connected_time":473000000000,"state":"active","ping":46},{"user_id":399,"name":"Äärik ♣","steam_id":76561198131871737,"connected_time":649000000000,"state":"active","ping":49},{"user_id":309,"name":"Mr. Panny","steam_id":76561198412524704,"connected_time":3375000000000,"state":"active","ping":59},{"user_id":393,"name":"The Stig","steam_id":76561198103908668,"connected_time":862000000000,"state":"active","ping":64},{"user_id":394,"name":"Mr.Schnittlauch","steam_id":76561198295868113,"connected_time":847000000000,"state":"active","ping":63},{"user_id":406,"name":"Bruschetta","steam_id":76561198251927162,"connected_time":429000000000,"state":"active","ping":56}]},{"server_id":110,"name":"Uncletopia | Frankfurt | 2 | All Maps","name_short":"frk-2","host":"frk-1.de.uncletopia.com","port":27025,"enabled":true,"region":"eu","cc":"de","latitude":50.110924,"longitude":8.682127,"reserved":0,"last_update":"0001-01-01T00:00:00Z","name_a2s":"Uncletopia | Frankfurt | 2 | All Maps","protocol":17,"map":"ctf_2fort","folder":"tf","game":"Team Fortress","app_id":440,"player_count":11,"max_players":24,"Bots":0,"server_type":"Dedicated","server_os":"Linux","password":true,"vac":true,"version":"7757534","steam_id":85568392924469990,"keywords":["ctf","nocrits","nodmgspread","uncletopia"],"game_id":440,"stv_port":27026,"stv_name":"Uncletopia | Frankfurt | 2 | All Maps | STV","players":[{"user_id":510,"name":"pansexual","steam_id":76561198047778351,"connected_time":3036000000000,"state":"active","ping":60},{"user_id":500,"name":"Festive Erma","steam_id":76561198038718342,"connected_time":3616000000000,"state":"active","ping":84},{"user_id":550,"name":"Caro-Kann","steam_id":76561198065506317,"connected_time":315000000000,"state":"active","ping":66},{"user_id":544,"name":"Videogamer","steam_id":76561198106012909,"connected_time":594000000000,"state":"active","ping":69},{"user_id":546,"name":"mesoni","steam_id":76561199141290973,"connected_time":436000000000,"state":"active","ping":82},{"user_id":547,"name":"No, Why?","steam_id":76561198888755969,"connected_time":377000000000,"state":"active","ping":72},{"user_id":549,"name":"aimee","steam_id":76561198834309212,"connected_time":343000000000,"state":"active","ping":146},{"user_id":551,"name":"Mr. Mracni","steam_id":76561198976456740,"connected_time":297000000000,"state":"active","ping":79},{"user_id":540,"name":"Kevin","steam_id":76561198035625423,"connected_time":906000000000,"state":"active","ping":94},{"user_id":534,"name":"pezza","steam_id":76561197995173247,"connected_time":1551000000000,"state":"active","ping":67},{"user_id":539,"name":"Baspla","steam_id":76561198066260876,"connected_time":1036000000000,"state":"active","ping":55}]},{"server_id":308,"name":"Uncletopia | Frankfurt | 3 | All Maps","name_short":"frk-3","host":"frk-1.de.uncletopia.com","port":27035,"enabled":true,"region":"eu","cc":"de","latitude":50.110924,"longitude":8.682127,"reserved":0,"last_update":"0001-01-01T00:00:00Z","name_a2s":"Uncletopia | Frankfurt | 3 | All Maps","protocol":17,"map":"cp_process_final","folder":"tf","game":"Team Fortress","app_id":440,"player_count":24,"max_players":24,"Bots":0,"server_type":"Dedicated","server_os":"Linux","password":true,"vac":true,"version":"7757534","steam_id":85568392924504274,"keywords":["cp","nocrits","nodmgspread","uncletopia"],"game_id":440,"stv_port":27036,"stv_name":"Uncletopia | Frankfurt | 3 | All Maps | STV","players":[{"user_id":214,"name":"!!!!!!!!!!!!!!!!!!!!!!!!!!!!!!!","steam_id":76561198069649097,"connected_time":4890000000000,"state":"active","ping":60},{"user_id":278,"name":"Dean Craig Pelton From Communit","steam_id":76561198155010055,"connected_time":1703000000000,"state":"active","ping":120},{"user_id":257,"name":"Bajas","steam_id":76561198179339326,"connected_time":2247000000000,"state":"active","ping":75},{"user_id":279,"name":"Dachowiec","steam_id":76561198195408281,"connected_time":1659000000000,"state":"active","ping":61},{"user_id":287,"name":"akakez","steam_id":76561198095432821,"connected_time":762000000000,"state":"active","ping":117},{"user_id":258,"name":"Mi Manchi","steam_id":76561198171573129,"connected_time":2221000000000,"state":"active","ping":60},{"user_id":295,"name":"Pilaarius","steam_id":76561198120273212,"connected_time":505000000000,"state":"active","ping":97},{"user_id":284,"name":"Vershal Smershal","steam_id":76561198116223995,"connected_time":796000000000,"state":"active","ping":61},{"user_id":277,"name":"Jonathan","steam_id":76561198087988880,"connected_time":1735000000000,"state":"active","ping":52},{"user_id":297,"name":"Volcyy","steam_id":76561198063979124,"connected_time":229000000000,"state":"active","ping":41},{"user_id":223,"name":"Malok","steam_id":76561198371117880,"connected_time":4335000000000,"state":"active","ping":57},{"user_id":273,"name":"Dragon","steam_id":76561198163255365,"connected_time":1980000000000,"state":"active","ping":105},{"user_id":272,"name":"stickyspaghetti45","steam_id":76561199418489332,"connected_time":2000000000000,"state":"active","ping":60},{"user_id":285,"name":"hungry little man","steam_id":76561199229110612,"connected_time":794000000000,"state":"active","ping":75},{"user_id":288,"name":"cloud","steam_id":76561198179768931,"connected_time":713000000000,"state":"active","ping":60},{"user_id":265,"name":"Waddlesworth","steam_id":76561198059889435,"connected_time":2116000000000,"state":"active","ping":80},{"user_id":292,"name":"Spycrab101","steam_id":76561198141836805,"connected_time":570000000000,"state":"active","ping":61},{"user_id":299,"name":"Mysteryred12","steam_id":76561199206772814,"connected_time":56000000000,"state":"spawning","ping":200},{"user_id":296,"name":"@_@","steam_id":76561198076494034,"connected_time":296000000000,"state":"active","ping":55},{"user_id":290,"name":"rabbitface26","steam_id":76561198327540113,"connected_time":639000000000,"state":"active","ping":56},{"user_id":293,"name":"tealoverr.190","steam_id":76561199028497703,"connected_time":560000000000,"state":"active","ping":104},{"user_id":294,"name":"Nikola","steam_id":76561197993300020,"connected_time":547000000000,"state":"active","ping":68},{"user_id":271,"name":"Udinese Dion","steam_id":76561198067931573,"connected_time":2050000000000,"state":"active","ping":47},{"user_id":274,"name":"leibhéalfaidh mé thú","steam_id":76561198078484073,"connected_time":1965000000000,"state":"active","ping":76}]},{"server_id":309,"name":"Uncletopia | Frankfurt | 4 | All Maps","name_short":"frk-4","host":"frk-1.de.uncletopia.com","port":27045,"enabled":true,"region":"eu","cc":"de","latitude":50.110924,"longitude":8.682127,"reserved":0,"last_update":"0001-01-01T00:00:00Z","name_a2s":"Uncletopia | Frankfurt | 4 | All Maps","protocol":17,"map":"pl_pier","folder":"tf","game":"Team Fortress","app_id":440,"player_count":20,"max_players":24,"Bots":0,"server_type":"Dedicated","server_os":"Linux","password":true,"vac":true,"version":"7757534","steam_id":85568392924504275,"keywords":["nocrits","nodmgspread","payload","uncletopia"],"game_id":440,"stv_port":27046,"stv_name":"Uncletopia | Frankfurt | 4 | All Maps | STV","players":[{"user_id":197,"name":"CruelGospel","steam_id":76561197990884259,"connected_time":713000000000,"state":"active","ping":84},{"user_id":129,"name":"marlbruh","steam_id":76561198023211417,"connected_time":5526000000000,"state":"active","ping":60},{"user_id":105,"name":"Cippo95","steam_id":76561198255311582,"connected_time":7080000000000,"state":"active","ping":62},{"user_id":128,"name":"tm","steam_id":76561198256619964,"connected_time":5544000000000,"state":"active","ping":76},{"user_id":205,"name":"Acanda","steam_id":76561198123246537,"connected_time":6000000000,"state":"spawning","ping":42},{"user_id":202,"name":"earl","steam_id":76561199004370870,"connected_time":63000000000,"state":"active","ping":78},{"user_id":186,"name":"Sylbar","steam_id":76561198065379590,"connected_time":2020000000000,"state":"active","ping":60},{"user_id":203,"name":"zinzyk","steam_id":76561198128011822,"connected_time":40000000000,"state":"active","ping":47},{"user_id":204,"name":"Vinnidict","steam_id":76561198037087000,"connected_time":39000000000,"state":"active","ping":71},{"user_id":206,"name":"Leituga","steam_id":76561198051127598,"connected_time":3000000000,"state":"spawning","ping":103},{"user_id":191,"name":"Zero (Orbital Gear Mastermind)","steam_id":76561198017416816,"connected_time":1508000000000,"state":"active","ping":59},{"user_id":207,"name":"snowii","steam_id":76561198836246326,"connected_time":2000000000,"state":"spawning","ping":90},{"user_id":195,"name":"LadyMissfit","steam_id":76561198042236349,"connected_time":923000000000,"state":"active","ping":73},{"user_id":120,"name":"itsTay","steam_id":76561198202990635,"connected_time":5867000000000,"state":"active","ping":63},{"user_id":190,"name":"kotamine","steam_id":76561198068907991,"connected_time":1778000000000,"state":"active","ping":62},{"user_id":172,"name":"another stale meme","steam_id":76561198163244605,"connected_time":3696000000000,"state":"active","ping":62},{"user_id":194,"name":"Major Tom","steam_id":76561198117525443,"connected_time":997000000000,"state":"active","ping":56},{"user_id":174,"name":"Arcweld","steam_id":76561198816060720,"connected_time":3357000000000,"state":"active","ping":78},{"user_id":196,"name":"Mlanky","steam_id":76561198047796778,"connected_time":917000000000,"state":"active","ping":47},{"user_id":179,"name":"KeanuCheems","steam_id":76561198145580689,"connected_time":2544000000000,"state":"active","ping":73}]},{"server_id":310,"name":"Uncletopia | Frankfurt | 5 | All Maps","name_short":"frk-5","host":"frk-1.de.uncletopia.com","port":27055,"enabled":true,"region":"eu","cc":"de","latitude":50.110924,"longitude":8.682127,"reserved":0,"last_update":"0001-01-01T00:00:00Z","name_a2s":"Uncletopia | Frankfurt | 5 | All Maps","protocol":17,"map":"cp_dustbowl","folder":"tf","game":"Team Fortress","app_id":440,"player_count":1,"max_players":24,"Bots":0,"server_type":"Dedicated","server_os":"Linux","password":true,"vac":true,"version":"7757534","steam_id":85568392924504277,"keywords":["cp","nocrits","nodmgspread","uncletopia"],"game_id":440,"stv_port":27056,"stv_name":"Uncletopia | Frankfurt | 5 | All Maps | STV","players":[{"user_id":494,"name":"Digio","steam_id":76561199065101964,"connected_time":3520000000000,"state":"active","ping":80}]},{"server_id":311,"name":"Uncletopia | Frankfurt | 6 | All Maps","name_short":"frk-6","host":"frk-1.de.uncletopia.com","port":27065,"enabled":true,"region":"eu","cc":"de","latitude":50.110924,"longitude":8.682127,"reserved":0,"last_update":"0001-01-01T00:00:00Z","name_a2s":"Uncletopia | Frankfurt | 6 | All Maps","protocol":17,"map":"pl_badwater","folder":"tf","game":"Team Fortress","app_id":440,"player_count":24,"max_players":24,"Bots":0,"server_type":"Dedicated","server_os":"Linux","password":true,"vac":true,"version":"7757534","steam_id":85568392924504278,"keywords":["nocrits","nodmgspread","payload","uncletopia"],"game_id":440,"stv_port":27066,"stv_name":"Uncletopia | Frankfurt | 6 | All Maps | STV","players":[{"user_id":209,"name":"Kawa inka","steam_id":76561198055900955,"connected_time":1754000000000,"state":"active","ping":67},{"user_id":82,"name":"WAP assassin","steam_id":76561198133532980,"connected_time":6385000000000,"state":"active","ping":60},{"user_id":215,"name":"Silent Person","steam_id":76561198107763537,"connected_time":156000000000,"state":"active","ping":67},{"user_id":86,"name":"LynxRecruit","steam_id":76561198086568235,"connected_time":6152000000000,"state":"active","ping":61},{"user_id":217,"name":"o_o","steam_id":76561198113045011,"connected_time":110000000000,"state":"active","ping":86},{"user_id":202,"name":"dootsuit","steam_id":76561198178298931,"connected_time":2094000000000,"state":"active","ping":51},{"user_id":81,"name":"Сладкий Пупсик","steam_id":76561199138260473,"connected_time":6497000000000,"state":"active","ping":73},{"user_id":184,"name":"sv_opor 13123","steam_id":76561198002229612,"connected_time":2914000000000,"state":"active","ping":71},{"user_id":185,"name":"Mor'du","steam_id":76561198274105878,"connected_time":2896000000000,"state":"active","ping":87},{"user_id":208,"name":"dunduu","steam_id":76561198875240717,"connected_time":1851000000000,"state":"active","ping":63},{"user_id":210,"name":"dirty","steam_id":76561197995572935,"connected_time":1262000000000,"state":"active","ping":83},{"user_id":218,"name":"alcoholics anonymous","steam_id":76561198274114551,"connected_time":89000000000,"state":"active","ping":115},{"user_id":214,"name":"Searching...","steam_id":76561198191078771,"connected_time":170000000000,"state":"active","ping":79},{"user_id":216,"name":"nynon","steam_id":76561197998432126,"connected_time":156000000000,"state":"active","ping":89},{"user_id":203,"name":"HelwiiHill","steam_id":76561198066730552,"connected_time":2088000000000,"state":"active","ping":97},{"user_id":219,"name":"todd","steam_id":76561198041660675,"connected_time":61000000000,"state":"active","ping":76},{"user_id":206,"name":"Raven","steam_id":76561198087296188,"connected_time":1934000000000,"state":"active","ping":75},{"user_id":54,"name":"mishka.*","steam_id":76561198040003628,"connected_time":8153000000000,"state":"active","ping":70},{"user_id":179,"name":"Retrograde_","steam_id":76561198155371354,"connected_time":2946000000000,"state":"active","ping":70},{"user_id":205,"name":"LoboPaciente","steam_id":76561198088870962,"connected_time":1966000000000,"state":"active","ping":72},{"user_id":199,"name":"Motley_","steam_id":76561198116057976,"connected_time":2459000000000,"state":"active","ping":49},{"user_id":207,"name":"Zelmor","steam_id":76561197997708311,"connected_time":1915000000000,"state":"active","ping":55},{"user_id":167,"name":"Szymekc","steam_id":76561198009541119,"connected_time":4063000000000,"state":"active","ping":72},{"user_id":220,"name":"Dispenser (Lopata)","steam_id":76561198820264239,"connected_time":45000000000,"state":"active","ping":192}]},{"server_id":23,"name":"Uncletopia | Frankfurt | 7 | Stopwatch Beta","name_short":"frk-7","host":"frk-1.de.uncletopia.com","port":27075,"enabled":true,"region":"eu","cc":"de","latitude":50.110924,"longitude":8.682127,"reserved":0,"last_update":"0001-01-01T00:00:00Z","name_a2s":"Uncletopia | Frankfurt | 7 | Stopwatch Beta","protocol":17,"map":"pl_frontier_final","folder":"tf","game":"Team Fortress","app_id":440,"player_count":0,"max_players":24,"Bots":0,"server_type":"Dedicated","server_os":"Linux","password":true,"vac":true,"version":"7757534","steam_id":85568392924742827,"keywords":["nocrits","nodmgspread","payload","uncletopia"],"game_id":440,"stv_port":27076,"stv_name":"Uncletopia | Frankfurt | 7 | Stopwatch Beta | STV","players":null},{"server_id":24,"name":"Uncletopia | Frankfurt | 8 | Community","name_short":"frk-8","host":"frk-1.de.uncletopia.com","port":27085,"enabled":true,"region":"eu","cc":"de","latitude":50.110924,"longitude":8.682127,"reserved":0,"last_update":"0001-01-01T00:00:00Z","name_a2s":"Uncletopia | Frankfurt | 8 | Community","protocol":17,"map":"workshop/koth_product_final.ugc454272353","folder":"tf","game":"Team Fortress","app_id":440,"player_count":2,"max_players":24,"Bots":0,"server_type":"Dedicated","server_os":"Linux","password":true,"vac":true,"version":"7757534","steam_id":85568392924742828,"keywords":["cp","nocrits","nodmgspread","uncletopia"],"game_id":440,"stv_port":27086,"stv_name":"Uncletopia | Frankfurt | 8 | Community | STV","players":[{"user_id":20,"name":"Wojowniczek.pl","steam_id":76561199228645329,"connected_time":1568000000000,"state":"active","ping":89},{"user_id":21,"name":"DominikDob12","steam_id":76561199116536199,"connected_time":1195000000000,"state":"active","ping":82}]},{"server_id":202,"name":"Uncletopia | Hong Kong | 1 | All Maps","name_short":"hgk-1","host":"hgk-1.hk.uncletopia.com","port":27015,"enabled":true,"region":"asia","cc":"hk","latitude":22.302711,"longitude":114.177216,"reserved":0,"last_update":"0001-01-01T00:00:00Z","name_a2s":"Uncletopia | Hong Kong | 1 | All Maps","protocol":17,"map":"koth_lakeside_final","folder":"tf","game":"Team Fortress","app_id":440,"player_count":0,"max_players":24,"Bots":0,"server_type":"Dedicated","server_os":"Linux","password":true,"vac":true,"version":"7757534","steam_id":85568392924494504,"keywords":["cp","nocrits","nodmgspread","uncletopia"],"game_id":440,"stv_port":27016,"stv_name":"Uncletopia | Hong Kong | 1 | All Maps | STV","players":null},{"server_id":1,"name":"Uncletopia | Los Angeles | 1 | All Maps","name_short":"lax-1","host":"lax-1.us.uncletopia.com","port":27015,"enabled":true,"region":"us-west","cc":"us","latitude":33.94279,"longitude":-118.41004,"reserved":0,"last_update":"0001-01-01T00:00:00Z","name_a2s":"Uncletopia | Los Angeles | 1 | All Maps","protocol":17,"map":"koth_cascade","folder":"tf","game":"Team Fortress","app_id":440,"player_count":0,"max_players":24,"Bots":0,"server_type":"Dedicated","server_os":"Linux","password":true,"vac":true,"version":"7757534","steam_id":85568392924469991,"keywords":["cp","nocrits","nodmgspread","uncletopia"],"game_id":440,"stv_port":27016,"stv_name":"Uncletopia | Los Angeles | 1 | All Maps | STV","players":null},{"server_id":112,"name":"Uncletopia | Los Angeles | 2 | All Maps","name_short":"lax-2","host":"lax-1.us.uncletopia.com","port":27025,"enabled":true,"region":"us-west","cc":"us","latitude":33.94279,"longitude":-118.41004,"reserved":0,"last_update":"0001-01-01T00:00:00Z","name_a2s":"Uncletopia | Los Angeles | 2 | All Maps","protocol":17,"map":"koth_cascade","folder":"tf","game":"Team Fortress","app_id":440,"player_count":0,"max_players":24,"Bots":0,"server_type":"Dedicated","server_os":"Linux","password":true,"vac":true,"version":"7757534","steam_id":85568392924469992,"keywords":["cp","nocrits","nodmgspread","uncletopia"],"game_id":440,"stv_port":27026,"stv_name":"Uncletopia | Los Angeles | 2 | All Maps | STV","players":null},{"server_id":324,"name":"Uncletopia | Los Angeles | 3 | All Maps","name_short":"lax-3","host":"lax-1.us.uncletopia.com","port":27035,"enabled":true,"region":"us-west","cc":"us","latitude":33.94279,"longitude":-118.41004,"reserved":0,"last_update":"0001-01-01T00:00:00Z","name_a2s":"Uncletopia | Los Angeles | 3 | All Maps","protocol":17,"map":"cp_snakewater_final1","folder":"tf","game":"Team Fortress","app_id":440,"player_count":24,"max_players":24,"Bots":0,"server_type":"Dedicated","server_os":"Linux","password":true,"vac":true,"version":"7757534","steam_id":85568392924510198,"keywords":["cp","nocrits","nodmgspread","uncletopia"],"game_id":440,"stv_port":27036,"stv_name":"Uncletopia | Los Angeles | 3 | All Maps | STV","players":[{"user_id":37,"name":"Webber da spooder","steam_id":76561198967010561,"connected_time":2394000000000,"state":"active","ping":109},{"user_id":88,"name":"MrDashell","steam_id":76561199099664349,"connected_time":283000000000,"state":"active","ping":122},{"user_id":26,"name":"sock","steam_id":76561199117597830,"connected_time":2723000000000,"state":"active","ping":80},{"user_id":12,"name":"aoka","steam_id":76561198838294547,"connected_time":3537000000000,"state":"active","ping":88},{"user_id":91,"name":"cam","steam_id":76561198073426718,"connected_time":147000000000,"state":"active","ping":45},{"user_id":63,"name":"finman","steam_id":76561198127639913,"connected_time":1056000000000,"state":"active","ping":44},{"user_id":17,"name":"dane","steam_id":76561198354081121,"connected_time":3319000000000,"state":"active","ping":109},{"user_id":64,"name":"Superman123389","steam_id":76561198267472539,"connected_time":1055000000000,"state":"active","ping":85},{"user_id":81,"name":"Barack Obama Gaming","steam_id":76561198129242016,"connected_time":654000000000,"state":"active","ping":69},{"user_id":84,"name":"potty trained","steam_id":76561198141557766,"connected_time":347000000000,"state":"active","ping":118},{"user_id":41,"name":"The Admiralty","steam_id":76561198839398708,"connected_time":2325000000000,"state":"active","ping":67},{"user_id":70,"name":"O bez","steam_id":76561198841579939,"connected_time":860000000000,"state":"active","ping":64},{"user_id":67,"name":"elgorro","steam_id":76561199178622703,"connected_time":963000000000,"state":"active","ping":63},{"user_id":85,"name":"All Tomorrow's Parties","steam_id":76561197995936212,"connected_time":342000000000,"state":"active","ping":75},{"user_id":40,"name":"INFINITY","steam_id":76561199104514098,"connected_time":2374000000000,"state":"active","ping":150},{"user_id":86,"name":"Bly","steam_id":76561198824691581,"connected_time":335000000000,"state":"active","ping":122},{"user_id":89,"name":"SonicTheHedgehogEpicGamer2013","steam_id":76561199229577594,"connected_time":216000000000,"state":"active","ping":63},{"user_id":77,"name":"squaggles!","steam_id":76561197994995011,"connected_time":706000000000,"state":"active","ping":75},{"user_id":87,"name":"gravy","steam_id":76561198089644778,"connected_time":308000000000,"state":"active","ping":55},{"user_id":74,"name":"MintyPawz","steam_id":76561198111430103,"connected_time":762000000000,"state":"active","ping":87},{"user_id":90,"name":"Nicoarn121","steam_id":76561198156297440,"connected_time":179000000000,"state":"active","ping":96},{"user_id":75,"name":"FightyPNW","steam_id":76561198981808810,"connected_time":745000000000,"state":"active","ping":81},{"user_id":83,"name":"Berd The Bard 𝅘𝅥𝅮","steam_id":76561198067340391,"connected_time":574000000000,"state":"active","ping":101}]},{"server_id":25,"name":"Uncletopia | Los Angeles | 4 | Stopwatch Beta","name_short":"lax-4","host":"lax-1.us.uncletopia.com","port":27045,"enabled":true,"region":"us-west","cc":"us","latitude":33.94279,"longitude":-118.41004,"reserved":0,"last_update":"0001-01-01T00:00:00Z","name_a2s":"Uncletopia | Los Angeles | 4 | Stopwatch Beta","protocol":17,"map":"pl_frontier_final","folder":"tf","game":"Team Fortress","app_id":440,"player_count":0,"max_players":24,"Bots":0,"server_type":"Dedicated","server_os":"Linux","password":true,"vac":true,"version":"7757534","steam_id":85568392924510199,"keywords":["nocrits","nodmgspread","payload","uncletopia"],"game_id":440,"stv_port":27046,"stv_name":"Uncletopia | Los Angeles | 4 | Stopwatch Beta | STV","players":null},{"server_id":11,"name":"Uncletopia | London | 1 | All Maps","name_short":"lon-1","host":"lon-1.uk.uncletopia.com","port":27015,"enabled":true,"region":"eu","cc":"gb","latitude":51.509865,"longitude":-0.118092,"reserved":0,"last_update":"0001-01-01T00:00:00Z","name_a2s":"Uncletopia | London | 1 | All Maps","protocol":17,"map":"pl_upward","folder":"tf","game":"Team Fortress","app_id":440,"player_count":24,"max_players":24,"Bots":0,"server_type":"Dedicated","server_os":"Linux","password":true,"vac":true,"version":"7757534","steam_id":85568392924367362,"keywords":["nocrits","nodmgspread","payload","uncletopia"],"game_id":440,"stv_port":27016,"stv_name":"Uncletopia | London | 1 | All Maps | STV","players":[{"user_id":701,"name":"Jampine","steam_id":76561198040419080,"connected_time":391000000000,"state":"active","ping":63},{"user_id":705,"name":"Hot Beverage Enjoyer","steam_id":76561198060638325,"connected_time":78000000000,"state":"active","ping":52},{"user_id":669,"name":"loveless","steam_id":76561198142256651,"connected_time":1896000000000,"state":"active","ping":89},{"user_id":685,"name":"I Don't Know","steam_id":76561198841011430,"connected_time":1159000000000,"state":"active","ping":82},{"user_id":648,"name":"subway vergil","steam_id":76561199110064166,"connected_time":3275000000000,"state":"active","ping":67},{"user_id":690,"name":"caps.","steam_id":76561198116528817,"connected_time":736000000000,"state":"active","ping":51},{"user_id":688,"name":"Westmancoat","steam_id":76561198045275243,"connected_time":1043000000000,"state":"active","ping":73},{"user_id":650,"name":"Majami","steam_id":76561198054365738,"connected_time":3264000000000,"state":"active","ping":95},{"user_id":704,"name":"garthag","steam_id":76561198042039318,"connected_time":141000000000,"state":"active","ping":34},{"user_id":638,"name":"Kris","steam_id":76561198240638652,"connected_time":4101000000000,"state":"active","ping":44},{"user_id":671,"name":"Duke","steam_id":76561198046536854,"connected_time":1882000000000,"state":"active","ping":67},{"user_id":634,"name":"ciliorkun18","steam_id":76561198228942500,"connected_time":4199000000000,"state":"active","ping":90},{"user_id":703,"name":"FilipeLuk","steam_id":76561198150675438,"connected_time":220000000000,"state":"active","ping":66},{"user_id":645,"name":"trite","steam_id":76561197983765323,"connected_time":3511000000000,"state":"active","ping":49},{"user_id":700,"name":"I do hate crime","steam_id":76561198102420849,"connected_time":420000000000,"state":"active","ping":67},{"user_id":698,"name":"trexwithlasereyes 🥚","steam_id":76561198417276908,"connected_time":462000000000,"state":"active","ping":104},{"user_id":636,"name":"Vitamin Weee","steam_id":76561199183937747,"connected_time":4180000000000,"state":"active","ping":98},{"user_id":672,"name":"Farao Ramses II","steam_id":76561198078722712,"connected_time":1882000000000,"state":"active","ping":45},{"user_id":707,"name":"D-Girl Fights God","steam_id":76561198062937822,"connected_time":48000000000,"state":"active","ping":120},{"user_id":692,"name":"Leobaker202","steam_id":76561198117884710,"connected_time":541000000000,"state":"active","ping":152},{"user_id":683,"name":"Katie","steam_id":76561198056193753,"connected_time":1424000000000,"state":"active","ping":51},{"user_id":706,"name":"N","steam_id":76561198154394182,"connected_time":78000000000,"state":"active","ping":100},{"user_id":691,"name":"Camo Leaf","steam_id":76561197999456575,"connected_time":703000000000,"state":"active","ping":64},{"user_id":699,"name":"Giovine Killjoy","steam_id":76561198059375315,"connected_time":459000000000,"state":"active","ping":81}]},{"server_id":114,"name":"Uncletopia | London | 2 | All Maps","name_short":"lon-2","host":"lon-1.uk.uncletopia.com","port":27025,"enabled":true,"region":"eu","cc":"gb","latitude":51.509865,"longitude":-0.118092,"reserved":0,"last_update":"0001-01-01T00:00:00Z","name_a2s":"Uncletopia | London | 2 | All Maps","protocol":17,"map":"pl_barnblitz","folder":"tf","game":"Team Fortress","app_id":440,"player_count":23,"max_players":24,"Bots":0,"server_type":"Dedicated","server_os":"Linux","password":true,"vac":true,"version":"7757534","steam_id":85568392924470941,"keywords":["nocrits","nodmgspread","payload","uncletopia"],"game_id":440,"stv_port":27026,"stv_name":"Uncletopia | London | 2 | All Maps | STV","players":[{"user_id":544,"name":"Ged","steam_id":76561198079288943,"connected_time":227000000000,"state":"active","ping":130},{"user_id":524,"name":"Thalgorock","steam_id":76561198195315022,"connected_time":1397000000000,"state":"active","ping":68},{"user_id":514,"name":"Boil em mash em","steam_id":76561198026508026,"connected_time":2066000000000,"state":"active","ping":68},{"user_id":483,"name":"KittyKate ❤","steam_id":76561198116340817,"connected_time":3940000000000,"state":"active","ping":63},{"user_id":542,"name":"Rezkey","steam_id":76561198206079048,"connected_time":238000000000,"state":"active","ping":55},{"user_id":536,"name":"Daud","steam_id":76561199177668753,"connected_time":700000000000,"state":"active","ping":86},{"user_id":535,"name":"ComradeKat(Air/Fryer)","steam_id":76561198157138895,"connected_time":745000000000,"state":"active","ping":72},{"user_id":499,"name":"ellie","steam_id":76561198134650962,"connected_time":2914000000000,"state":"active","ping":45},{"user_id":474,"name":"BuzzBees ❤","steam_id":76561198101502273,"connected_time":4208000000000,"state":"active","ping":45},{"user_id":537,"name":"Jaggy Snake","steam_id":76561197972779231,"connected_time":684000000000,"state":"active","ping":42},{"user_id":545,"name":"BeefHammer","steam_id":76561198078426223,"connected_time":225000000000,"state":"active","ping":91},{"user_id":546,"name":"pizza time","steam_id":76561199015899793,"connected_time":221000000000,"state":"active","ping":50},{"user_id":540,"name":"butts","steam_id":76561198060105180,"connected_time":403000000000,"state":"active","ping":61},{"user_id":548,"name":"Ready Rice™","steam_id":76561198091969871,"connected_time":187000000000,"state":"active","ping":82},{"user_id":547,"name":"FishD.ck_47","steam_id":76561198114773103,"connected_time":219000000000,"state":"active","ping":76},{"user_id":501,"name":"gwen","steam_id":76561198006680814,"connected_time":2894000000000,"state":"active","ping":43},{"user_id":435,"name":"_zipfile","steam_id":76561198066133808,"connected_time":6889000000000,"state":"active","ping":71},{"user_id":510,"name":"MAKENTAKEN","steam_id":76561199127359587,"connected_time":2245000000000,"state":"active","ping":105},{"user_id":532,"name":"Laurie","steam_id":76561198082951750,"connected_time":937000000000,"state":"active","ping":53},{"user_id":526,"name":"rez777ka","steam_id":76561198107605938,"connected_time":1385000000000,"state":"active","ping":98},{"user_id":507,"name":"meat.png","steam_id":76561197966572171,"connected_time":2569000000000,"state":"active","ping":57},{"user_id":503,"name":"benibachi","steam_id":76561198190816499,"connected_time":2848000000000,"state":"active","ping":75},{"user_id":541,"name":"Xie Xil Ling","steam_id":76561198053394831,"connected_time":381000000000,"state":"active","ping":60}]},{"server_id":320,"name":"Uncletopia | London | 3 | All Maps","name_short":"lon-3","host":"lon-1.uk.uncletopia.com","port":27035,"enabled":true,"region":"eu","cc":"gb","latitude":51.509865,"longitude":-0.118092,"reserved":0,"last_update":"0001-01-01T00:00:00Z","name_a2s":"Uncletopia | London | 3 | All Maps","protocol":17,"map":"pl_upward","folder":"tf","game":"Team Fortress","app_id":440,"player_count":24,"max_players":24,"Bots":0,"server_type":"Dedicated","server_os":"Linux","password":true,"vac":true,"version":"7757534","steam_id":85568392924510192,"keywords":["nocrits","nodmgspread","payload","uncletopia"],"game_id":440,"stv_port":27036,"stv_name":"Uncletopia | London | 3 | All Maps | STV","players":[{"user_id":486,"name":"Semtilion","steam_id":76561198107642445,"connected_time":276000000000,"state":"active","ping":104},{"user_id":483,"name":"shr1mple","steam_id":76561198173537027,"connected_time":907000000000,"state":"active","ping":55},{"user_id":474,"name":"teddy_!","steam_id":76561198396274438,"connected_time":1008000000000,"state":"active","ping":45},{"user_id":491,"name":"Mafew","steam_id":76561198119993886,"connected_time":89000000000,"state":"active","ping":56},{"user_id":487,"name":"Dispenser Gaming","steam_id":76561198855333841,"connected_time":269000000000,"state":"active","ping":75},{"user_id":443,"name":"no. 1 lucki fan","steam_id":76561198022382969,"connected_time":2828000000000,"state":"active","ping":75},{"user_id":458,"name":"jabar7","steam_id":76561198055137986,"connected_time":2327000000000,"state":"active","ping":66},{"user_id":477,"name":"Sheepgurl","steam_id":76561197981149859,"connected_time":970000000000,"state":"active","ping":95},{"user_id":490,"name":"iPhone 4S","steam_id":76561198281913312,"connected_time":221000000000,"state":"active","ping":69},{"user_id":470,"name":"BΣNZOIC","steam_id":76561198875665995,"connected_time":1502000000000,"state":"active","ping":79},{"user_id":459,"name":"EGirlGang","steam_id":76561198257435792,"connected_time":2313000000000,"state":"active","ping":85},{"user_id":485,"name":"scarecrow jones","steam_id":76561198258267182,"connected_time":522000000000,"state":"active","ping":162},{"user_id":452,"name":"irlgary","steam_id":76561198127407079,"connected_time":2502000000000,"state":"active","ping":43},{"user_id":478,"name":"Rasmusson [29th ID]","steam_id":76561198191451713,"connected_time":964000000000,"state":"active","ping":99},{"user_id":492,"name":"mothra","steam_id":76561198028444359,"connected_time":17000000000,"state":"active","ping":54},{"user_id":468,"name":"Pussy Piazza","steam_id":76561198914610283,"connected_time":2146000000000,"state":"active","ping":80},{"user_id":489,"name":"❤ Sparx ❤","steam_id":76561198095009261,"connected_time":233000000000,"state":"active","ping":153},{"user_id":437,"name":"Thors","steam_id":76561197968739075,"connected_time":3189000000000,"state":"active","ping":45},{"user_id":414,"name":"Wc Biere","steam_id":76561198200886539,"connected_time":5067000000000,"state":"active","ping":120},{"user_id":445,"name":"Rey","steam_id":76561198153358463,"connected_time":2802000000000,"state":"active","ping":40},{"user_id":462,"name":"training my gator","steam_id":76561198259668029,"connected_time":2270000000000,"state":"active","ping":47},{"user_id":469,"name":"WW2 Untamed Gorilla Ass","steam_id":76561198423902979,"connected_time":1607000000000,"state":"active","ping":53},{"user_id":481,"name":"Lyra","steam_id":76561198043601838,"connected_time":950000000000,"state":"active","ping":73},{"user_id":482,"name":"SynthBox3","steam_id":76561199094075745,"connected_time":941000000000,"state":"active","ping":107}]},{"server_id":321,"name":"Uncletopia | London | 4 | All Maps","name_short":"lon-4","host":"lon-1.uk.uncletopia.com","port":27045,"enabled":true,"region":"eu","cc":"gb","latitude":51.509865,"longitude":-0.118092,"reserved":0,"last_update":"0001-01-01T00:00:00Z","name_a2s":"Uncletopia | London | 4 | All Maps","protocol":17,"map":"pl_snowycoast","folder":"tf","game":"Team Fortress","app_id":440,"player_count":24,"max_players":24,"Bots":0,"server_type":"Dedicated","server_os":"Linux","password":true,"vac":true,"version":"7757534","steam_id":85568392924510193,"keywords":["nocrits","nodmgspread","payload","uncletopia"],"game_id":440,"stv_port":27046,"stv_name":"Uncletopia | London | 4 | All Maps | STV","players":[{"user_id":266,"name":"Harrison256","steam_id":76561198078975210,"connected_time":591000000000,"state":"active","ping":54},{"user_id":163,"name":"tqla","steam_id":76561198073092585,"connected_time":6279000000000,"state":"active","ping":118},{"user_id":183,"name":"Charles Darwin","steam_id":76561197973496139,"connected_time":5453000000000,"state":"active","ping":62},{"user_id":248,"name":"Space Rimmer","steam_id":76561198069243201,"connected_time":920000000000,"state":"active","ping":46},{"user_id":258,"name":":)","steam_id":76561198103988618,"connected_time":815000000000,"state":"active","ping":60},{"user_id":251,"name":"Roe Jogan","steam_id":76561198871991529,"connected_time":893000000000,"state":"active","ping":64},{"user_id":214,"name":"VioBeeyo ♥","steam_id":76561198066258544,"connected_time":3594000000000,"state":"active","ping":60},{"user_id":247,"name":"majora's boostio","steam_id":76561198392628642,"connected_time":929000000000,"state":"active","ping":43},{"user_id":235,"name":"makiverem","steam_id":76561198425866216,"connected_time":1974000000000,"state":"active","ping":85},{"user_id":229,"name":"Regan","steam_id":76561198100631086,"connected_time":2171000000000,"state":"active","ping":55},{"user_id":252,"name":"FairlyFatFungus","steam_id":76561199152828854,"connected_time":890000000000,"state":"active","ping":54},{"user_id":253,"name":"=flashpoint=","steam_id":76561197976774456,"connected_time":889000000000,"state":"active","ping":44},{"user_id":254,"name":"PASTAMANIA!","steam_id":76561197967858558,"connected_time":878000000000,"state":"active","ping":44},{"user_id":224,"name":"UnknownTM","steam_id":76561198262728330,"connected_time":2428000000000,"state":"active","ping":64},{"user_id":243,"name":"Sultan Mohammad Süleyman II.","steam_id":76561198124568025,"connected_time":1333000000000,"state":"active","ping":60},{"user_id":255,"name":"Stoneley","steam_id":76561199182443625,"connected_time":867000000000,"state":"active","ping":62},{"user_id":256,"name":"Sketchthekiller91","steam_id":76561197972578692,"connected_time":865000000000,"state":"active","ping":45},{"user_id":237,"name":"cazador","steam_id":76561198123096922,"connected_time":1833000000000,"state":"active","ping":98},{"user_id":234,"name":"Badass49","steam_id":76561198903969123,"connected_time":2007000000000,"state":"active","ping":77},{"user_id":226,"name":"Amiriki","steam_id":76561198005050734,"connected_time":2424000000000,"state":"active","ping":53},{"user_id":257,"name":"UnusualBrit","steam_id":76561198255679838,"connected_time":837000000000,"state":"active","ping":55},{"user_id":261,"name":"Mark 'The Beast' Labbett","steam_id":76561198118892116,"connected_time":785000000000,"state":"active","ping":52},{"user_id":260,"name":"Stümpy","steam_id":76561198255904077,"connected_time":792000000000,"state":"active","ping":77},{"user_id":262,"name":"Umbro","steam_id":76561198087930438,"connected_time":683000000000,"state":"active","ping":83}]},{"server_id":21,"name":"Uncletopia | London | 5 | All Maps","name_short":"lon-5","host":"lon-1.uk.uncletopia.com","port":27055,"enabled":true,"region":"eu","cc":"gb","latitude":51.509865,"longitude":-0.118092,"reserved":0,"last_update":"0001-01-01T00:00:00Z","name_a2s":"Uncletopia | London | 5 | All Maps","protocol":17,"map":"plr_nightfall_final","folder":"tf","game":"Team Fortress","app_id":440,"player_count":24,"max_players":24,"Bots":0,"server_type":"Dedicated","server_os":"Linux","password":true,"vac":true,"version":"7757534","steam_id":85568392924742829,"keywords":["nocrits","nodmgspread","payload","uncletopia"],"game_id":440,"stv_port":27056,"stv_name":"Uncletopia | London | 5 | All Maps | STV","players":[{"user_id":292,"name":"Lone Stranger","steam_id":76561198994639500,"connected_time":2445000000000,"state":"active","ping":94},{"user_id":335,"name":"Cahl","steam_id":76561198980863125,"connected_time":4000000000,"state":"spawning","ping":44},{"user_id":323,"name":"Kvark025","steam_id":76561198090487473,"connected_time":1336000000000,"state":"active","ping":90},{"user_id":296,"name":"RussianPingLord","steam_id":76561199055517485,"connected_time":2214000000000,"state":"active","ping":161},{"user_id":301,"name":"K.V. #RemoveRandomCrits","steam_id":76561197994832993,"connected_time":2034000000000,"state":"active","ping":77},{"user_id":293,"name":"StarFins","steam_id":76561199026540529,"connected_time":2439000000000,"state":"active","ping":75},{"user_id":327,"name":"Sixten the Pale","steam_id":76561197981806008,"connected_time":869000000000,"state":"active","ping":68},{"user_id":319,"name":"XXDANTEFANXX","steam_id":76561198197910725,"connected_time":1646000000000,"state":"active","ping":59},{"user_id":333,"name":"Priceybay","steam_id":76561198055389492,"connected_time":305000000000,"state":"active","ping":41},{"user_id":230,"name":"Laxslow","steam_id":76561198065361846,"connected_time":6825000000000,"state":"active","ping":65},{"user_id":325,"name":"Balenciaga StarWars TShirt Owne","steam_id":76561198283409788,"connected_time":1269000000000,"state":"active","ping":52},{"user_id":331,"name":"Vaari-Markkainen","steam_id":76561198004364672,"connected_time":515000000000,"state":"active","ping":97},{"user_id":305,"name":"purplecan","steam_id":76561199208283508,"connected_time":1968000000000,"state":"active","ping":75},{"user_id":303,"name":"feed","steam_id":76561198311512285,"connected_time":2019000000000,"state":"active","ping":118},{"user_id":307,"name":"WHUSSKEY","steam_id":76561198137827441,"connected_time":1911000000000,"state":"active","ping":80},{"user_id":312,"name":"Guy","steam_id":76561199032279809,"connected_time":1811000000000,"state":"active","ping":92},{"user_id":309,"name":"Дикий Дюк","steam_id":76561197997181706,"connected_time":1860000000000,"state":"active","ping":138},{"user_id":310,"name":"lilia_dallas","steam_id":76561198795401565,"connected_time":1844000000000,"state":"active","ping":135},{"user_id":313,"name":"Mario","steam_id":76561198053838936,"connected_time":1805000000000,"state":"active","ping":90},{"user_id":314,"name":"Kaia","steam_id":76561198294109951,"connected_time":1801000000000,"state":"active","ping":104},{"user_id":328,"name":"kikor8454","steam_id":76561199229716536,"connected_time":727000000000,"state":"active","ping":125},{"user_id":316,"name":"Finnsan","steam_id":76561198080345272,"connected_time":1778000000000,"state":"active","ping":103},{"user_id":330,"name":"JugoTopia","steam_id":76561197996067209,"connected_time":584000000000,"state":"active","ping":117},{"user_id":326,"name":"Kigg","steam_id":76561198094581524,"connected_time":1266000000000,"state":"active","ping":55}]},{"server_id":22,"name":"Uncletopia | London | 6 | All Maps","name_short":"lon-6","host":"lon-1.uk.uncletopia.com","port":27065,"enabled":true,"region":"eu","cc":"gb","latitude":51.509865,"longitude":-0.118092,"reserved":0,"last_update":"0001-01-01T00:00:00Z","name_a2s":"Uncletopia | London | 6 | All Maps","protocol":17,"map":"pl_borneo","folder":"tf","game":"Team Fortress","app_id":440,"player_count":24,"max_players":24,"Bots":0,"server_type":"Dedicated","server_os":"Linux","password":true,"vac":true,"version":"7757534","steam_id":85568392924742830,"keywords":["nocrits","nodmgspread","payload","uncletopia"],"game_id":440,"stv_port":27066,"stv_name":"Uncletopia | London | 6 | All Maps | STV","players":[{"user_id":375,"name":"Sandvich Enthusiast","steam_id":76561198241275578,"connected_time":1284000000000,"state":"active","ping":54},{"user_id":383,"name":"average f2p","steam_id":76561199136308055,"connected_time":627000000000,"state":"active","ping":52},{"user_id":307,"name":"Truegr","steam_id":76561198811912339,"connected_time":6200000000000,"state":"active","ping":57},{"user_id":378,"name":"BSantos57","steam_id":76561198000597094,"connected_time":709000000000,"state":"active","ping":94},{"user_id":384,"name":"Yaire","steam_id":76561198017343510,"connected_time":622000000000,"state":"active","ping":59},{"user_id":381,"name":"AxeGeddon","steam_id":76561198145365762,"connected_time":672000000000,"state":"active","ping":74},{"user_id":385,"name":"Johnny Cockroach","steam_id":76561198049648277,"connected_time":603000000000,"state":"active","ping":104},{"user_id":268,"name":"Mr. Mundy","steam_id":76561198132008918,"connected_time":10029000000000,"state":"active","ping":85},{"user_id":386,"name":"When Life gives you Lemons","steam_id":76561198318290663,"connected_time":599000000000,"state":"active","ping":50},{"user_id":395,"name":"ANKARA MESSI","steam_id":76561198083249161,"connected_time":177000000000,"state":"active","ping":55},{"user_id":343,"name":"etc","steam_id":76561197998394797,"connected_time":3678000000000,"state":"active","ping":51},{"user_id":392,"name":"Rainlamp @SaveTF2","steam_id":76561198007394958,"connected_time":405000000000,"state":"active","ping":60},{"user_id":345,"name":"E","steam_id":76561198166340115,"connected_time":3533000000000,"state":"active","ping":65},{"user_id":393,"name":"Wsupp","steam_id":76561198826654763,"connected_time":404000000000,"state":"active","ping":76},{"user_id":389,"name":"eeeeee","steam_id":76561198017786875,"connected_time":521000000000,"state":"active","ping":71},{"user_id":288,"name":"Hexagon","steam_id":76561198151205758,"connected_time":8028000000000,"state":"active","ping":58},{"user_id":390,"name":"Carrotcracker","steam_id":76561198034862396,"connected_time":512000000000,"state":"active","ping":82},{"user_id":391,"name":"TylowStar","steam_id":76561198357107806,"connected_time":480000000000,"state":"active","ping":76},{"user_id":394,"name":"Ass Clappicus","steam_id":76561198851157897,"connected_time":359000000000,"state":"active","ping":65},{"user_id":370,"name":"silly","steam_id":76561199052017231,"connected_time":1623000000000,"state":"active","ping":65},{"user_id":356,"name":"Shlongulator","steam_id":76561198149779201,"connected_time":3327000000000,"state":"active","ping":53},{"user_id":366,"name":"Danipp","steam_id":76561198027147377,"connected_time":1839000000000,"state":"active","ping":76},{"user_id":354,"name":"Whoopi Goldberg","steam_id":76561199378865926,"connected_time":3428000000000,"state":"active","ping":83},{"user_id":374,"name":"Nomer","steam_id":76561198016808857,"connected_time":1451000000000,"state":"active","ping":88}]},{"server_id":40,"name":"Uncletopia | London | 7 | No Payload","name_short":"lon-7","host":"lon-1.uk.uncletopia.com","port":27075,"enabled":true,"region":"eu","cc":"gb","latitude":51.509865,"longitude":-0.118092,"reserved":0,"last_update":"0001-01-01T00:00:00Z","name_a2s":"Uncletopia | London | 7 | No Payload","protocol":17,"map":"koth_badlands","folder":"tf","game":"Team Fortress","app_id":440,"player_count":0,"max_players":24,"Bots":0,"server_type":"Dedicated","server_os":"Linux","password":true,"vac":true,"version":"7757534","steam_id":85568392924964314,"keywords":["cp","nocrits","nodmgspread","uncletopia"],"game_id":440,"stv_port":27076,"stv_name":"Uncletopia | London | 7 | No Payload | STV","players":null},{"server_id":41,"name":"Uncletopia | London | 8 | Community","name_short":"lon-8","host":"lon-1.uk.uncletopia.com","port":27085,"enabled":true,"region":"eu","cc":"gb","latitude":51.509865,"longitude":-0.118092,"reserved":0,"last_update":"0001-01-01T00:00:00Z","name_a2s":"Uncletopia | London | 8 | Community","protocol":17,"map":"workshop/pl_corrode_rc2.ugc546577989","folder":"tf","game":"Team Fortress","app_id":440,"player_count":0,"max_players":24,"Bots":0,"server_type":"Dedicated","server_os":"Linux","password":true,"vac":true,"version":"7757534","steam_id":85568392924964315,"keywords":["nocrits","nodmgspread","payload","uncletopia"],"game_id":440,"stv_port":27086,"stv_name":"Uncletopia | London | 8 | Community | STV","players":null},{"server_id":300,"name":"Uncletopia | Montréal | 1 | All Maps","name_short":"mtl-1","host":"mtl-1.ca.uncletopia.com","port":27015,"enabled":true,"region":"us-east","cc":"ca","latitude":45.50889,"longitude":-73.56167,"reserved":0,"last_update":"0001-01-01T00:00:00Z","name_a2s":"Uncletopia | Montréal | 1 | All Maps","protocol":17,"map":"pl_snowycoast","folder":"tf","game":"Team Fortress","app_id":440,"player_count":0,"max_players":24,"Bots":0,"server_type":"Dedicated","server_os":"Linux","password":true,"vac":true,"version":"7757534","steam_id":85568392924500087,"keywords":["nocrits","nodmgspread","payload","uncletopia"],"game_id":440,"stv_port":27016,"stv_name":"Uncletopia | Montréal | 1 | All Maps | STV","players":null},{"server_id":301,"name":"Uncletopia | Montréal | 2 | All Maps","name_short":"mtl-2","host":"mtl-1.ca.uncletopia.com","port":27025,"enabled":true,"region":"us-east","cc":"ca","latitude":45.50889,"longitude":-73.56167,"reserved":0,"last_update":"0001-01-01T00:00:00Z","name_a2s":"Uncletopia | Montréal | 2 | All Maps","protocol":17,"map":"pl_snowycoast","folder":"tf","game":"Team Fortress","app_id":440,"player_count":0,"max_players":24,"Bots":0,"server_type":"Dedicated","server_os":"Linux","password":true,"vac":true,"version":"7757534","steam_id":85568392924500088,"keywords":["nocrits","nodmgspread","payload","uncletopia"],"game_id":440,"stv_port":27026,"stv_name":"Uncletopia | Montréal | 2 | All Maps | STV","players":null},{"server_id":302,"name":"Uncletopia | Montréal | 3 | All Maps","name_short":"mtl-3","host":"mtl-1.ca.uncletopia.com","port":27035,"enabled":true,"region":"us-east","cc":"ca","latitude":45.50889,"longitude":-73.56167,"reserved":0,"last_update":"0001-01-01T00:00:00Z","name_a2s":"Uncletopia | Montréal | 3 | All Maps","protocol":17,"map":"pl_swiftwater_final1","folder":"tf","game":"Team Fortress","app_id":440,"player_count":0,"max_players":24,"Bots":0,"server_type":"Dedicated","server_os":"Linux","password":true,"vac":true,"version":"7757534","steam_id":85568392924500089,"keywords":["nocrits","nodmgspread","payload","uncletopia"],"game_id":440,"stv_port":27036,"stv_name":"Uncletopia | Montréal | 3 | All Maps | STV","players":null},{"server_id":303,"name":"Uncletopia | Montréal | 4 | No Payload","name_short":"mtl-4","host":"mtl-1.ca.uncletopia.com","port":27045,"enabled":true,"region":"us-east","cc":"ca","latitude":45.50889,"longitude":-73.56167,"reserved":0,"last_update":"0001-01-01T00:00:00Z","name_a2s":"Uncletopia | Montréal | 4 | No Payload","protocol":17,"map":"koth_brazil","folder":"tf","game":"Team Fortress","app_id":440,"player_count":0,"max_players":24,"Bots":0,"server_type":"Dedicated","server_os":"Linux","password":true,"vac":true,"version":"7757534","steam_id":85568392924500090,"keywords":["cp","nocrits","nodmgspread","uncletopia"],"game_id":440,"stv_port":27046,"stv_name":"Uncletopia | Montréal | 4 | No Payload | STV","players":null},{"server_id":13,"name":"Uncletopia | New York City | 1 | All Maps","name_short":"nyc-1","host":"nyc-1.us.uncletopia.com","port":27015,"enabled":true,"region":"us-east","cc":"us","latitude":40.73061,"longitude":-73.93524,"reserved":0,"last_update":"0001-01-01T00:00:00Z","name_a2s":"Uncletopia | New York City | 1 | All Maps","protocol":17,"map":"pl_barnblitz","folder":"tf","game":"Team Fortress","app_id":440,"player_count":24,"max_players":24,"Bots":0,"server_type":"Dedicated","server_os":"Linux","password":true,"vac":true,"version":"7757534","steam_id":85568392924469993,"keywords":["nocrits","nodmgspread","payload","uncletopia"],"game_id":440,"stv_port":27016,"stv_name":"Uncletopia | New York City | 1 | All Maps | STV","players":[{"user_id":373,"name":"you like kissing boys don't you","steam_id":76561198953970191,"connected_time":451000000000,"state":"active","ping":75},{"user_id":365,"name":"M3AT","steam_id":76561198392990646,"connected_time":1783000000000,"state":"active","ping":79},{"user_id":381,"name":"Do Moose go Moo?","steam_id":76561198073550620,"connected_time":215000000000,"state":"active","ping":64},{"user_id":374,"name":"FellowGamer","steam_id":76561198089600392,"connected_time":447000000000,"state":"active","ping":66},{"user_id":314,"name":"Cerabond","steam_id":76561199230915333,"connected_time":4789000000000,"state":"active","ping":67},{"user_id":377,"name":"Captain Zyrin","steam_id":76561197983121824,"connected_time":424000000000,"state":"active","ping":84},{"user_id":303,"name":"Sodemo","steam_id":76561198074987146,"connected_time":5262000000000,"state":"active","ping":72},{"user_id":339,"name":"tom fool","steam_id":76561198311704368,"connected_time":3121000000000,"state":"active","ping":63},{"user_id":378,"name":"Yoga","steam_id":76561198307415093,"connected_time":414000000000,"state":"active","ping":60},{"user_id":333,"name":"Pancetta's vore window","steam_id":76561198428086758,"connected_time":3683000000000,"state":"active","ping":105},{"user_id":380,"name":"Ursus Ludius","steam_id":76561198025470722,"connected_time":265000000000,"state":"active","ping":74},{"user_id":338,"name":"grind","steam_id":76561198801214349,"connected_time":3163000000000,"state":"active","ping":69},{"user_id":366,"name":"Yonn","steam_id":76561198274242643,"connected_time":1547000000000,"state":"active","ping":60},{"user_id":368,"name":"MetaKrakalaka","steam_id":76561199095316646,"connected_time":527000000000,"state":"active","ping":55},{"user_id":364,"name":"thomasdee725","steam_id":76561199189526173,"connected_time":2029000000000,"state":"active","ping":69},{"user_id":354,"name":"roo the observer","steam_id":76561198120684348,"connected_time":2385000000000,"state":"active","ping":72},{"user_id":311,"name":"yellow gatorade","steam_id":76561198413125750,"connected_time":4830000000000,"state":"active","ping":49},{"user_id":344,"name":"Prinz Eugen","steam_id":76561198129154766,"connected_time":3040000000000,"state":"active","ping":128},{"user_id":346,"name":"Skullypoo","steam_id":76561198067912022,"connected_time":3001000000000,"state":"active","ping":75},{"user_id":360,"name":"LuBzEur0b3ats","steam_id":76561199041041574,"connected_time":2188000000000,"state":"active","ping":60},{"user_id":369,"name":"Chambersite","steam_id":76561198197022399,"connected_time":476000000000,"state":"active","ping":150},{"user_id":330,"name":"The Fog","steam_id":76561198129302416,"connected_time":3845000000000,"state":"active","ping":60},{"user_id":320,"name":"The Evil Gnome","steam_id":76561198251672386,"connected_time":3993000000000,"state":"active","ping":69},{"user_id":370,"name":"DapperCrab","steam_id":76561198259054766,"connected_time":476000000000,"state":"active","ping":82}]},{"server_id":14,"name":"Uncletopia | New York City | 2 | All Maps","name_short":"nyc-2","host":"nyc-1.us.uncletopia.com","port":27025,"enabled":true,"region":"us-east","cc":"us","latitude":40.73061,"longitude":-73.93524,"reserved":0,"last_update":"0001-01-01T00:00:00Z","name_a2s":"Uncletopia | New York City | 2 | All Maps","protocol":17,"map":"cp_powerhouse","folder":"tf","game":"Team Fortress","app_id":440,"player_count":24,"max_players":24,"Bots":0,"server_type":"Dedicated","server_os":"Linux","password":true,"vac":true,"version":"7757534","steam_id":85568392924469994,"keywords":["cp","nocrits","nodmgspread","uncletopia"],"game_id":440,"stv_port":27026,"stv_name":"Uncletopia | New York City | 2 | All Maps | STV","players":[{"user_id":228,"name":"WhistlingFox04","steam_id":76561198381509938,"connected_time":77000000000,"state":"active","ping":128},{"user_id":157,"name":"Chemo","steam_id":76561197961308370,"connected_time":4349000000000,"state":"active","ping":52},{"user_id":204,"name":"bro like stop it","steam_id":76561198065928600,"connected_time":1205000000000,"state":"active","ping":119},{"user_id":120,"name":"Myn","steam_id":76561198055438857,"connected_time":6638000000000,"state":"active","ping":65},{"user_id":205,"name":"Philip Screwdriver","steam_id":76561198073874193,"connected_time":1202000000000,"state":"active","ping":60},{"user_id":206,"name":"holy moly","steam_id":76561198954734348,"connected_time":1195000000000,"state":"active","ping":112},{"user_id":197,"name":"Jill the Owl","steam_id":76561197999210583,"connected_time":2294000000000,"state":"active","ping":56},{"user_id":161,"name":"BuhByeFalecia","steam_id":76561198364710587,"connected_time":4235000000000,"state":"active","ping":99},{"user_id":174,"name":"Dong-A-Tron 28.0","steam_id":76561198082202698,"connected_time":3028000000000,"state":"active","ping":59},{"user_id":222,"name":"you forgot the sauce","steam_id":76561198387016713,"connected_time":327000000000,"state":"active","ping":60},{"user_id":217,"name":"The Horselords and Animal Gods","steam_id":76561197975094050,"connected_time":640000000000,"state":"active","ping":126},{"user_id":44,"name":"AmirKhaan","steam_id":76561198992403254,"connected_time":12347000000000,"state":"active","ping":69},{"user_id":221,"name":"Tyler\u0026Fingers","steam_id":76561198085154485,"connected_time":461000000000,"state":"active","ping":91},{"user_id":226,"name":"innisfree","steam_id":76561198109065124,"connected_time":213000000000,"state":"active","ping":56},{"user_id":208,"name":"Nespreco","steam_id":76561198252035336,"connected_time":1164000000000,"state":"active","ping":61},{"user_id":223,"name":"James","steam_id":76561198055687973,"connected_time":312000000000,"state":"active","ping":62},{"user_id":225,"name":"IdiotDogchild","steam_id":76561198036274872,"connected_time":284000000000,"state":"active","ping":49},{"user_id":210,"name":"D9","steam_id":76561197999151357,"connected_time":1114000000000,"state":"active","ping":94},{"user_id":224,"name":"❥Shinru","steam_id":76561198285951918,"connected_time":310000000000,"state":"active","ping":178},{"user_id":211,"name":"Mitsurugii","steam_id":76561198258543709,"connected_time":1100000000000,"state":"active","ping":70},{"user_id":216,"name":"SpinetinglingToast","steam_id":76561198099470670,"connected_time":920000000000,"state":"active","ping":55},{"user_id":218,"name":"brk","steam_id":76561198079634017,"connected_time":606000000000,"state":"active","ping":119},{"user_id":219,"name":"MoonBright","steam_id":76561198195798634,"connected_time":595000000000,"state":"active","ping":58},{"user_id":214,"name":"Dog Deodorant","steam_id":76561199225832228,"connected_time":1030000000000,"state":"active","ping":114}]},{"server_id":15,"name":"Uncletopia | New York City | 3 | Stopwatch Beta","name_short":"nyc-3","host":"nyc-1.us.uncletopia.com","port":27035,"enabled":true,"region":"us-east","cc":"us","latitude":40.73061,"longitude":-73.93524,"reserved":0,"last_update":"0001-01-01T00:00:00Z","name_a2s":"Uncletopia | New York City | 3 | Stopwatch Beta","protocol":17,"map":"pl_swiftwater_final1","folder":"tf","game":"Team Fortress","app_id":440,"player_count":0,"max_players":24,"Bots":0,"server_type":"Dedicated","server_os":"Linux","password":true,"vac":true,"version":"7757534","steam_id":85568392924742820,"keywords":["nocrits","nodmgspread","payload","uncletopia"],"game_id":440,"stv_port":27036,"stv_name":"Uncletopia | New York City | 3 | Stopwatch Beta | STV","players":null},{"server_id":16,"name":"Uncletopia | New York City | 4 | Community","name_short":"nyc-4","host":"nyc-1.us.uncletopia.com","port":27045,"enabled":true,"region":"us-east","cc":"us","latitude":40.73061,"longitude":-73.93524,"reserved":0,"last_update":"0001-01-01T00:00:00Z","name_a2s":"Uncletopia | New York City | 4 | Community","protocol":17,"map":"workshop/cp_kalinka_rc6a.ugc1272700588","folder":"tf","game":"Team Fortress","app_id":440,"player_count":0,"max_players":24,"Bots":0,"server_type":"Dedicated","server_os":"Linux","password":true,"vac":true,"version":"7757534","steam_id":85568392924742821,"keywords":["cp","nocrits","nodmgspread","uncletopia"],"game_id":440,"stv_port":27046,"stv_name":"Uncletopia | New York City | 4 | Community | STV","players":null},{"server_id":142,"name":"Uncletopia | São Paulo | 1 | All Maps","name_short":"sao-1","host":"sao-1.br.uncletopia.com","port":27015,"enabled":true,"region":"sa","cc":"br","latitude":-23.533773,"longitude":-46.62529,"reserved":0,"last_update":"0001-01-01T00:00:00Z","name_a2s":"Uncletopia | São Paulo | 1 | All Maps","protocol":17,"map":"pl_badwater","folder":"tf","game":"Team Fortress","app_id":440,"player_count":0,"max_players":24,"Bots":0,"server_type":"Dedicated","server_os":"Linux","password":true,"vac":true,"version":"7757534","steam_id":85568392924469996,"keywords":["nocrits","nodmgspread","payload","uncletopia"],"game_id":440,"stv_port":27016,"stv_name":"Uncletopia | São Paulo | 1 | All Maps | STV","players":null},{"server_id":143,"name":"Uncletopia | São Paulo | 2 | All Maps","name_short":"sao-2","host":"sao-2.br.uncletopia.com","port":27015,"enabled":true,"region":"sa","cc":"br","latitude":-23.533773,"longitude":-46.62529,"reserved":0,"last_update":"0001-01-01T00:00:00Z","name_a2s":"Uncletopia | São Paulo | 2 | All Maps","protocol":17,"map":"cp_sunshine","folder":"tf","game":"Team Fortress","app_id":440,"player_count":0,"max_players":24,"Bots":0,"server_type":"Dedicated","server_os":"Linux","password":true,"vac":true,"version":"7757534","steam_id":85568392924485349,"keywords":["cp","nocrits","nodmgspread","uncletopia"],"game_id":440,"stv_port":27016,"stv_name":"Uncletopia | São Paulo | 2 | All Maps | STV","players":null},{"server_id":7,"name":"Uncletopia | Seattle | 1 | All Maps","name_short":"sea-1","host":"sea-1.us.uncletopia.com","port":27015,"enabled":true,"region":"us-west","cc":"us","latitude":47.608013,"longitude":-122.33517,"reserved":0,"last_update":"0001-01-01T00:00:00Z","name_a2s":"Uncletopia | Seattle | 1 | All Maps","protocol":17,"map":"pl_snowycoast","folder":"tf","game":"Team Fortress","app_id":440,"player_count":24,"max_players":24,"Bots":0,"server_type":"Dedicated","server_os":"Linux","password":true,"vac":true,"version":"7757534","steam_id":85568392924469997,"keywords":["nocrits","nodmgspread","payload","uncletopia"],"game_id":440,"stv_port":27016,"stv_name":"Uncletopia | Seattle | 1 | All Maps | STV","players":[{"user_id":316,"name":"APOTATO","steam_id":76561198118199858,"connected_time":2743000000000,"state":"active","ping":83},{"user_id":348,"name":"shiadyne","steam_id":76561198271939793,"connected_time":1758000000000,"state":"active","ping":45},{"user_id":364,"name":"girl (evil)","steam_id":76561198010361897,"connected_time":588000000000,"state":"active","ping":64},{"user_id":340,"name":"GreenPepper47","steam_id":76561199016038752,"connected_time":2167000000000,"state":"active","ping":82},{"user_id":350,"name":"No Sound","steam_id":76561198011675372,"connected_time":1686000000000,"state":"active","ping":60},{"user_id":338,"name":"charm quark","steam_id":76561198098770777,"connected_time":2259000000000,"state":"active","ping":59},{"user_id":321,"name":"Google","steam_id":76561198857237473,"connected_time":2655000000000,"state":"active","ping":47},{"user_id":331,"name":"dom","steam_id":76561198066114874,"connected_time":2429000000000,"state":"active","ping":60},{"user_id":310,"name":"Void","steam_id":76561198308290211,"connected_time":3571000000000,"state":"active","ping":89},{"user_id":270,"name":"Julien","steam_id":76561199389584938,"connected_time":6345000000000,"state":"active","ping":45},{"user_id":362,"name":"jacix3 [gay wolfgirl]{she/it}","steam_id":76561198205004165,"connected_time":874000000000,"state":"active","ping":63},{"user_id":344,"name":"Tom","steam_id":76561198070630154,"connected_time":1897000000000,"state":"active","ping":82},{"user_id":322,"name":"TheCowledWiz","steam_id":76561198016735868,"connected_time":2623000000000,"state":"active","ping":48},{"user_id":346,"name":"Wolf with a needle","steam_id":76561197999816472,"connected_time":1799000000000,"state":"active","ping":89},{"user_id":351,"name":"Neoplix","steam_id":76561199012756422,"connected_time":1607000000000,"state":"active","ping":133},{"user_id":359,"name":"DK360","steam_id":76561198796783094,"connected_time":1292000000000,"state":"active","ping":59},{"user_id":361,"name":"Danny Fentanyl","steam_id":76561197970791798,"connected_time":1200000000000,"state":"active","ping":44},{"user_id":306,"name":"Winter the Witchie","steam_id":76561198151971178,"connected_time":3878000000000,"state":"active","ping":98},{"user_id":355,"name":"Saturn's Ring","steam_id":76561198173267015,"connected_time":1437000000000,"state":"active","ping":87},{"user_id":332,"name":"tabris","steam_id":76561198137096044,"connected_time":2424000000000,"state":"active","ping":92},{"user_id":357,"name":"hosewater","steam_id":76561198023383126,"connected_time":1358000000000,"state":"active","ping":52},{"user_id":334,"name":"Backside540","steam_id":76561197960602545,"connected_time":2404000000000,"state":"active","ping":111},{"user_id":360,"name":"〣dust〣 -she/her-","steam_id":76561198045218909,"connected_time":1246000000000,"state":"active","ping":45},{"user_id":363,"name":"shane","steam_id":76561198060491451,"connected_time":733000000000,"state":"active","ping":94}]},{"server_id":119,"name":"Uncletopia | Seattle | 2 | All Maps","name_short":"sea-2","host":"sea-1.us.uncletopia.com","port":27025,"enabled":true,"region":"us-west","cc":"us","latitude":47.608013,"longitude":-122.33517,"reserved":0,"last_update":"0001-01-01T00:00:00Z","name_a2s":"Uncletopia | Seattle | 2 | All Maps","protocol":17,"map":"pl_pier","folder":"tf","game":"Team Fortress","app_id":440,"player_count":24,"max_players":24,"Bots":0,"server_type":"Dedicated","server_os":"Linux","password":true,"vac":true,"version":"7757534","steam_id":85568392924469998,"keywords":["nocrits","nodmgspread","payload","uncletopia"],"game_id":440,"stv_port":27026,"stv_name":"Uncletopia | Seattle | 2 | All Maps | STV","players":[{"user_id":85,"name":"ImFr0sty","steam_id":76561199441249487,"connected_time":2188000000000,"state":"active","ping":123},{"user_id":16,"name":"Belmore","steam_id":76561198009355231,"connected_time":5984000000000,"state":"active","ping":78},{"user_id":17,"name":"༘ ⋆˚🎧Caffeine☕*˖°","steam_id":76561199259309294,"connected_time":5983000000000,"state":"active","ping":119},{"user_id":81,"name":"+1 but awesome","steam_id":76561198159933043,"connected_time":2592000000000,"state":"active","ping":66},{"user_id":82,"name":"Sloppy John (Extra Sauce)","steam_id":76561198359703432,"connected_time":2580000000000,"state":"active","ping":75},{"user_id":83,"name":"Lord Scrubling","steam_id":76561198263744445,"connected_time":2559000000000,"state":"active","ping":94},{"user_id":77,"name":"Algibruh","steam_id":76561199221599415,"connected_time":3057000000000,"state":"active","ping":61},{"user_id":79,"name":"Goat","steam_id":76561198130683707,"connected_time":2633000000000,"state":"active","ping":75},{"user_id":89,"name":"V!CT!M","steam_id":76561198962721502,"connected_time":1451000000000,"state":"active","ping":121},{"user_id":76,"name":"Cooki","steam_id":76561198051705314,"connected_time":3376000000000,"state":"active","ping":115},{"user_id":34,"name":"SlitherDoodle","steam_id":76561198000275473,"connected_time":5113000000000,"state":"active","ping":46},{"user_id":98,"name":"jello","steam_id":76561198149683030,"connected_time":1047000000000,"state":"active","ping":64},{"user_id":86,"name":"--_Cook_--","steam_id":76561198080855748,"connected_time":2132000000000,"state":"active","ping":106},{"user_id":97,"name":"Thicc Boi","steam_id":76561199163799116,"connected_time":1225000000000,"state":"active","ping":105},{"user_id":91,"name":"Coolshroomish","steam_id":76561199109440924,"connected_time":1403000000000,"state":"active","ping":47},{"user_id":92,"name":"Bobby","steam_id":76561198164004939,"connected_time":1375000000000,"state":"active","ping":87},{"user_id":41,"name":"mmmBoyo","steam_id":76561198821360261,"connected_time":5055000000000,"state":"active","ping":66},{"user_id":102,"name":"Village","steam_id":76561198402089732,"connected_time":712000000000,"state":"active","ping":76},{"user_id":80,"name":"Ash!❤","steam_id":76561198070398840,"connected_time":2617000000000,"state":"active","ping":75},{"user_id":101,"name":"C papi","steam_id":76561198027779564,"connected_time":852000000000,"state":"active","ping":120},{"user_id":100,"name":"Pinkfluffycorn","steam_id":76561198374135155,"connected_time":925000000000,"state":"active","ping":99},{"user_id":63,"name":"Chrisscar","steam_id":76561198086298130,"connected_time":4183000000000,"state":"active","ping":81},{"user_id":51,"name":"Quon Grene for Vice Prez","steam_id":76561198127545817,"connected_time":4932000000000,"state":"active","ping":76},{"user_id":104,"name":"Meepster","steam_id":76561198146305159,"connected_time":104000000000,"state":"active","ping":71}]},{"server_id":406,"name":"Uncletopia | Seattle | 3 | Stopwatch Beta","name_short":"sea-3","host":"sea-1.us.uncletopia.com","port":27035,"enabled":true,"region":"us-west","cc":"us","latitude":47.608013,"longitude":-122.33517,"reserved":0,"last_update":"0001-01-01T00:00:00Z","name_a2s":"Uncletopia | Seattle | 3 | Stopwatch Beta","protocol":17,"map":"pl_barnblitz","folder":"tf","game":"Team Fortress","app_id":440,"player_count":0,"max_players":24,"Bots":0,"server_type":"Dedicated","server_os":"Linux","password":true,"vac":true,"version":"7757534","steam_id":85568392924515217,"keywords":["nocrits","nodmgspread","payload","uncletopia"],"game_id":440,"stv_port":27036,"stv_name":"Uncletopia | Seattle | 3 | Stopwatch Beta | STV","players":null},{"server_id":17,"name":"Uncletopia | San Francisco | 1 | All Maps","name_short":"sfo-1","host":"sfo-1.us.uncletopia.com","port":27015,"enabled":true,"region":"us-west","cc":"us","latitude":37.77397,"longitude":-122.4313,"reserved":0,"last_update":"0001-01-01T00:00:00Z","name_a2s":"Uncletopia | San Francisco | 1 | All Maps","protocol":17,"map":"pl_pier","folder":"tf","game":"Team Fortress","app_id":440,"player_count":24,"max_players":24,"Bots":0,"server_type":"Dedicated","server_os":"Linux","password":true,"vac":true,"version":"7757534","steam_id":85568392924469999,"keywords":["nocrits","nodmgspread","payload","uncletopia"],"game_id":440,"stv_port":27016,"stv_name":"Uncletopia | San Francisco | 1 | All Maps | STV","players":[{"user_id":190,"name":"BIGWELDFROMROBOTS","steam_id":76561199275349806,"connected_time":1938000000000,"state":"active","ping":90},{"user_id":231,"name":"Dr. Enforcicle (real)","steam_id":76561198964471859,"connected_time":489000000000,"state":"active","ping":132},{"user_id":232,"name":"BreadGod","steam_id":76561198050665205,"connected_time":470000000000,"state":"active","ping":105},{"user_id":169,"name":"Ellis","steam_id":76561198993634489,"connected_time":4587000000000,"state":"active","ping":54},{"user_id":233,"name":"supcupman","steam_id":76561198051513866,"connected_time":464000000000,"state":"active","ping":60},{"user_id":234,"name":"Leapinglionz11","steam_id":76561199216740065,"connected_time":457000000000,"state":"active","ping":139},{"user_id":194,"name":"james may","steam_id":76561198043857339,"connected_time":1763000000000,"state":"active","ping":60},{"user_id":176,"name":"marcus smart","steam_id":76561198178912403,"connected_time":3457000000000,"state":"active","ping":127},{"user_id":230,"name":"Reaper","steam_id":76561198435826103,"connected_time":536000000000,"state":"active","ping":98},{"user_id":235,"name":"Maid 'n' China","steam_id":76561198423392976,"connected_time":423000000000,"state":"active","ping":54},{"user_id":236,"name":"Dragonsofdra","steam_id":76561198253369292,"connected_time":419000000000,"state":"active","ping":62},{"user_id":219,"name":"Ghoster","steam_id":76561198329367716,"connected_time":785000000000,"state":"active","ping":66},{"user_id":237,"name":"reverie","steam_id":76561198168158637,"connected_time":412000000000,"state":"active","ping":59},{"user_id":201,"name":"BLNKT","steam_id":76561198004481006,"connected_time":1566000000000,"state":"active","ping":52},{"user_id":195,"name":"Local","steam_id":76561198069537437,"connected_time":1744000000000,"state":"active","ping":70},{"user_id":180,"name":"zedisgone","steam_id":76561199174794563,"connected_time":3345000000000,"state":"active","ping":57},{"user_id":196,"name":"TheTruthOfTheCessationOfDukkha","steam_id":76561198214370515,"connected_time":1740000000000,"state":"active","ping":120},{"user_id":239,"name":"Piss Champion","steam_id":76561198059362878,"connected_time":304000000000,"state":"active","ping":105},{"user_id":206,"name":"xx_.zeroskullldogg_.xxXD","steam_id":76561198825658971,"connected_time":1211000000000,"state":"active","ping":60},{"user_id":238,"name":"live4teaching","steam_id":76561198976290051,"connected_time":401000000000,"state":"active","ping":119},{"user_id":208,"name":"Klopo","steam_id":76561198871108633,"connected_time":1109000000000,"state":"active","ping":33},{"user_id":205,"name":"bottom pride burger","steam_id":76561198322247602,"connected_time":1374000000000,"state":"active","ping":61},{"user_id":204,"name":"Alunatic14","steam_id":76561198309321593,"connected_time":1477000000000,"state":"active","ping":130},{"user_id":240,"name":"Room","steam_id":76561199174579733,"connected_time":183000000000,"state":"active","ping":119}]},{"server_id":18,"name":"Uncletopia | San Francisco | 2 | All Maps","name_short":"sfo-2","host":"sfo-1.us.uncletopia.com","port":27025,"enabled":true,"region":"us-west","cc":"us","latitude":37.77397,"longitude":-122.4313,"reserved":0,"last_update":"0001-01-01T00:00:00Z","name_a2s":"Uncletopia | San Francisco | 2 | All Maps","protocol":17,"map":"cp_mountainlab","folder":"tf","game":"Team Fortress","app_id":440,"player_count":0,"max_players":24,"Bots":0,"server_type":"Dedicated","server_os":"Linux","password":true,"vac":true,"version":"7757534","steam_id":85568392924470000,"keywords":["cp","nocrits","nodmgspread","uncletopia"],"game_id":440,"stv_port":27026,"stv_name":"Uncletopia | San Francisco | 2 | All Maps | STV","players":null},{"server_id":19,"name":"Uncletopia | San Francisco | 3 | Stopwatch Beta","name_short":"sfo-3","host":"sfo-1.us.uncletopia.com","port":27035,"enabled":true,"region":"us-west","cc":"us","latitude":37.77397,"longitude":-122.4313,"reserved":0,"last_update":"0001-01-01T00:00:00Z","name_a2s":"Uncletopia | San Francisco | 3 | Stopwatch Beta","protocol":17,"map":"pl_borneo","folder":"tf","game":"Team Fortress","app_id":440,"player_count":0,"max_players":24,"Bots":0,"server_type":"Dedicated","server_os":"Linux","password":true,"vac":true,"version":"7757534","steam_id":85568392924742824,"keywords":["nocrits","nodmgspread","payload","uncletopia"],"game_id":440,"stv_port":27036,"stv_name":"Uncletopia | San Francisco | 3 | Stopwatch Beta | STV","players":null},{"server_id":20,"name":"Uncletopia | San Francisco | 4 | Community","name_short":"sfo-4","host":"sfo-1.us.uncletopia.com","port":27045,"enabled":true,"region":"us-west","cc":"us","latitude":37.77397,"longitude":-122.4313,"reserved":0,"last_update":"0001-01-01T00:00:00Z","name_a2s":"Uncletopia | San Francisco | 4 | Community","protocol":17,"map":"workshop/koth_ramjam_rc1.ugc459778887","folder":"tf","game":"Team Fortress","app_id":440,"player_count":0,"max_players":24,"Bots":0,"server_type":"Dedicated","server_os":"Linux","password":true,"vac":true,"version":"7757534","steam_id":85568392924742826,"keywords":["cp","nocrits","nodmgspread","uncletopia"],"game_id":440,"stv_port":27046,"stv_name":"Uncletopia | San Francisco | 4 | Community | STV","players":null},{"server_id":141,"name":"Uncletopia | Sydney | 1 | All Maps","name_short":"syd-1","host":"syd-1.au.uncletopia.com","port":27015,"enabled":true,"region":"au","cc":"au","latitude":-33.865143,"longitude":151.2099,"reserved":0,"last_update":"0001-01-01T00:00:00Z","name_a2s":"Uncletopia | Sydney | 1 | All Maps","protocol":17,"map":"cp_process_final","folder":"tf","game":"Team Fortress","app_id":440,"player_count":0,"max_players":24,"Bots":0,"server_type":"Dedicated","server_os":"Linux","password":true,"vac":true,"version":"7757534","steam_id":85568392924470001,"keywords":["cp","nocrits","nodmgspread","uncletopia"],"game_id":440,"stv_port":27016,"stv_name":"Uncletopia | Sydney | 1 | All Maps | STV","players":null},{"server_id":123,"name":"Uncletopia | Sydney | 2 | All Maps","name_short":"syd-2","host":"syd-1.au.uncletopia.com","port":27025,"enabled":true,"region":"au","cc":"au","latitude":-33.865143,"longitude":151.2099,"reserved":0,"last_update":"0001-01-01T00:00:00Z","name_a2s":"Uncletopia | Sydney | 2 | All Maps","protocol":17,"map":"koth_viaduct","folder":"tf","game":"Team Fortress","app_id":440,"player_count":0,"max_players":24,"Bots":0,"server_type":"Dedicated","server_os":"Linux","password":true,"vac":true,"version":"7757534","steam_id":85568392924470002,"keywords":["cp","nocrits","nodmgspread","uncletopia"],"game_id":440,"stv_port":27026,"stv_name":"Uncletopia | Sydney | 2 | All Maps | STV","players":null},{"server_id":395,"name":"Uncletopia | Sydney | 3 | All Maps","name_short":"syd-3","host":"syd-1.au.uncletopia.com","port":27035,"enabled":true,"region":"au","cc":"au","latitude":-33.865143,"longitude":151.2099,"reserved":0,"last_update":"0001-01-01T00:00:00Z","name_a2s":"Uncletopia | Sydney | 3 | All Maps","protocol":17,"map":"pl_upward","folder":"tf","game":"Team Fortress","app_id":440,"player_count":0,"max_players":24,"Bots":0,"server_type":"Dedicated","server_os":"Linux","password":true,"vac":true,"version":"7757534","steam_id":85568392925194467,"keywords":["nocrits","nodmgspread","payload","uncletopia"],"game_id":440,"stv_port":27036,"stv_name":"Uncletopia | Sydney | 3 | All Maps | STV","players":null},{"server_id":396,"name":"Uncletopia | Sydney | 4 | All Maps","name_short":"syd-4","host":"syd-1.au.uncletopia.com","port":27045,"enabled":true,"region":"au","cc":"au","latitude":-33.865143,"longitude":151.2099,"reserved":0,"last_update":"0001-01-01T00:00:00Z","name_a2s":"Uncletopia | Sydney | 4 | All Maps","protocol":17,"map":"koth_lakeside_final","folder":"tf","game":"Team Fortress","app_id":440,"player_count":0,"max_players":24,"Bots":0,"server_type":"Dedicated","server_os":"Linux","password":true,"vac":true,"version":"7757534","steam_id":85568392925397958,"keywords":["cp","nocrits","nodmgspread","uncletopia"],"game_id":440,"stv_port":27046,"stv_name":"Uncletopia | Sydney | 4 | All Maps | STV","players":null},{"server_id":58,"name":"Uncletopia | Sydney | 5 | Stopwatch Beta","name_short":"syd-5","host":"syd-1.au.uncletopia.com","port":27055,"enabled":true,"region":"au","cc":"au","latitude":-33.865143,"longitude":151.2099,"reserved":0,"last_update":"0001-01-01T00:00:00Z","name_a2s":"Uncletopia | Sydney | 5 | Stopwatch Beta","protocol":17,"map":"koth_highpass","folder":"tf","game":"Team Fortress","app_id":440,"player_count":0,"max_players":24,"Bots":0,"server_type":"Dedicated","server_os":"Linux","password":true,"vac":true,"version":"7757534","steam_id":85568392925397959,"keywords":["cp","nocrits","nodmgspread","uncletopia"],"game_id":440,"stv_port":27056,"stv_name":"Uncletopia | Sydney | 5 | Stopwatch Beta | STV","players":null},{"server_id":59,"name":"Uncletopia | Sydney | 6 | Community","name_short":"syd-6","host":"syd-1.au.uncletopia.com","port":27065,"enabled":true,"region":"au","cc":"au","latitude":-33.865143,"longitude":151.2099,"reserved":0,"last_update":"0001-01-01T00:00:00Z","name_a2s":"Uncletopia | Sydney | 6 | Community","protocol":17,"map":"workshop/koth_synthetic_rc6a.ugc1549817316","folder":"tf","game":"Team Fortress","app_id":440,"player_count":0,"max_players":24,"Bots":0,"server_type":"Dedicated","server_os":"Linux","password":true,"vac":true,"version":"7757534","steam_id":85568392925397960,"keywords":["cp","nocrits","nodmgspread","uncletopia"],"game_id":440,"stv_port":27066,"stv_name":"Uncletopia | Sydney | 6 | Community | STV","players":null},{"server_id":49,"name":"Uncletopia | Warsaw | 1 | All Maps","name_short":"waw-1","host":"waw-1.pl.uncletopia.com","port":27015,"enabled":true,"region":"eu","cc":"pl","latitude":52.2297,"longitude":21.017532,"reserved":0,"last_update":"0001-01-01T00:00:00Z","name_a2s":"","protocol":0,"map":"","folder":"","game":"","app_id":0,"player_count":0,"max_players":0,"Bots":0,"server_type":"","server_os":"","password":false,"vac":false,"version":"","steam_id":0,"keywords":null,"game_id":0,"stv_port":0,"stv_name":"","players":null},{"server_id":50,"name":"Uncletopia | Warsaw | 2 | All Maps","name_short":"waw-2","host":"waw-1.pl.uncletopia.com","port":27025,"enabled":true,"region":"eu","cc":"pl","latitude":52.2297,"longitude":21.017532,"reserved":0,"last_update":"0001-01-01T00:00:00Z","name_a2s":"Uncletopia | Warsaw | 2 | All Maps","protocol":17,"map":"pl_barnblitz","folder":"tf","game":"Team Fortress","app_id":440,"player_count":0,"max_players":24,"Bots":0,"server_type":"Dedicated","server_os":"Linux","password":true,"vac":true,"version":"7757534","steam_id":85568392925397851,"keywords":["nocrits","nodmgspread","payload","uncletopia"],"game_id":440,"stv_port":27026,"stv_name":"Uncletopia | Warsaw | 2 | All Maps | STV","players":null},{"server_id":51,"name":"Uncletopia | Warsaw | 3 | All Maps","name_short":"waw-3","host":"waw-1.pl.uncletopia.com","port":27035,"enabled":true,"region":"eu","cc":"pl","latitude":52.2297,"longitude":21.017532,"reserved":0,"last_update":"0001-01-01T00:00:00Z","name_a2s":"Uncletopia | Warsaw | 3 | All Maps","protocol":17,"map":"pl_pier","folder":"tf","game":"Team Fortress","app_id":440,"player_count":0,"max_players":24,"Bots":0,"server_type":"Dedicated","server_os":"Linux","password":true,"vac":true,"version":"7757534","steam_id":85568392925397852,"keywords":["nocrits","nodmgspread","payload","uncletopia"],"game_id":440,"stv_port":27036,"stv_name":"Uncletopia | Warsaw | 3 | All Maps | STV","players":null},{"server_id":52,"name":"Uncletopia | Warsaw | 4 | All Maps","name_short":"waw-4","host":"waw-1.pl.uncletopia.com","port":27045,"enabled":true,"region":"eu","cc":"pl","latitude":52.2297,"longitude":21.017532,"reserved":0,"last_update":"0001-01-01T00:00:00Z","name_a2s":"Uncletopia | Warsaw | 4 | All Maps","protocol":17,"map":"koth_cascade","folder":"tf","game":"Team Fortress","app_id":440,"player_count":0,"max_players":24,"Bots":0,"server_type":"Dedicated","server_os":"Linux","password":true,"vac":true,"version":"7757534","steam_id":85568392925397853,"keywords":["cp","nocrits","nodmgspread","uncletopia"],"game_id":440,"stv_port":27046,"stv_name":"Uncletopia | Warsaw | 4 | All Maps | STV","players":null},{"server_id":53,"name":"Uncletopia | Warsaw | 5 | Stopwatch Beta","name_short":"waw-5","host":"waw-1.pl.uncletopia.com","port":27055,"enabled":true,"region":"eu","cc":"pl","latitude":52.2297,"longitude":21.017532,"reserved":0,"last_update":"0001-01-01T00:00:00Z","name_a2s":"Uncletopia | Warsaw | 5 | Stopwatch Beta","protocol":17,"map":"pl_barnblitz","folder":"tf","game":"Team Fortress","app_id":440,"player_count":0,"max_players":24,"Bots":0,"server_type":"Dedicated","server_os":"Linux","password":true,"vac":true,"version":"7757534","steam_id":85568392925397854,"keywords":["nocrits","nodmgspread","payload","uncletopia"],"game_id":440,"stv_port":27056,"stv_name":"Uncletopia | Warsaw | 5 | Stopwatch Beta | STV","players":null},{"server_id":54,"name":"Uncletopia | Warsaw | 6 | Community","name_short":"waw-6","host":"waw-1.pl.uncletopia.com","port":27065,"enabled":true,"region":"eu","cc":"pl","latitude":52.2297,"longitude":21.017532,"reserved":0,"last_update":"0001-01-01T00:00:00Z","name_a2s":"Uncletopia | Warsaw | 6 | Community","protocol":17,"map":"workshop/cp_bruhstbowl_b5.ugc2878604990","folder":"tf","game":"Team Fortress","app_id":440,"player_count":0,"max_players":24,"Bots":0,"server_type":"Dedicated","server_os":"Linux","password":true,"vac":true,"version":"7757534","steam_id":85568392925397856,"keywords":["cp","nocrits","nodmgspread","uncletopia"],"game_id":440,"stv_port":27066,"stv_name":"Uncletopia | Warsaw | 6 | Community | STV","players":null}]}