{"status":true,"message":"","result":[{"server_id":2,"name":"Uncletopia | Chicago | 1 | All Maps","name_short":"chi-1","host":"chi-1.us.uncletopia.com","port":27015,"enabled":true,"region":"us-central","cc":"us","latitude":41.881832,"longitude":-87.62318,"reserved":0,"last_update":"0001-01-01T00:00:00Z","name_a2s":"Uncletopia | Chicago | 1 | All Maps","protocol":17,"map":"koth_viaduct","folder":"tf","game":"Team Fortress","app_id":440,"player_count":24,"max_players":24,"Bots":0,"server_type":"Dedicated","server_os":"Linux","password":true,"vac":true,"version":"7932396","steam_id":85568392924469984,"keywords":["cp","nocrits","nodmgspread","uncletopia"],"game_id":440,"stv_port":27016,"stv_name":"Uncletopia | Chicago | 1 | All Maps | STV","players":[{"user_id":727,"name":"domkey","steam_id":76561198066114874,"connected_time":252000000000,"state":"active","ping":102},{"user_id":695,"name":"itznotnomi","steam_id":76561199247761405,"connected_time":2806000000000,"state":"active","ping":67},{"user_id":689,"name":"Shadoe","steam_id":76561198218577281,"connected_time":3021000000000,"state":"active","ping":81},{"user_id":720,"name":"Muse","steam_id":76561198142146625,"connected_time":1097000000000,"state":"active","ping":84},{"user_id":705,"name":"vadim_kotler","steam_id":76561199016634369,"connected_time":2072000000000,"state":"active","ping":195},{"user_id":691,"name":"mans got the mouse katool","steam_id":76561198073103529,"connected_time":2960000000000,"state":"active","ping":72},{"user_id":711,"name":"Jerry Bondle","steam_id":76561198337512213,"connected_time":1749000000000,"state":"active","ping":70},{"user_id":722,"name":"kiizio","steam_id":76561198110566439,"connected_time":1055000000000,"state":"active","ping":69},{"user_id":664,"name":"Freddie Mercury's Ghost","steam_id":76561198140320704,"connected_time":4772000000000,"state":"active","ping":60},{"user_id":708,"name":"Slowpoke Rodriguez","steam_id":76561198079296657,"connected_time":1951000000000,"state":"active","ping":51},{"user_id":693,"name":"violet","steam_id":76561198248461754,"connected_time":2879000000000,"state":"active","ping":104},{"user_id":725,"name":"nikeshoe92","steam_id":76561197973093864,"connected_time":976000000000,"state":"active","ping":71},{"user_id":699,"name":"Mush","steam_id":76561198393461065,"connected_time":2649000000000,"state":"active","ping":72},{"user_id":649,"name":"Ludcmorais","steam_id":76561198359217809,"connected_time":5778000000000,"state":"active","ping":181},{"user_id":665,"name":"Kenny","steam_id":76561198031540741,"connected_time":4770000000000,"state":"active","ping":95},{"user_id":714,"name":"stew","steam_id":76561198220665819,"connected_time":1421000000000,"state":"active","ping":159},{"user_id":666,"name":"Silver","steam_id":76561197994217357,"connected_time":4765000000000,"state":"active","ping":101},{"user_id":728,"name":"üï±Roi","steam_id":76561198043237194,"connected_time":238000000000,"state":"active","ping":75},{"user_id":706,"name":"Rya‚ò∫","steam_id":76561198370128860,"connected_time":2032000000000,"state":"active","ping":91},{"user_id":694,"name":"‚Ä¢ Homeless Soldier ‚Ä¢","steam_id":76561198124067921,"connected_time":2878000000000,"state":"active","ping":60},{"user_id":696,"name":"jspin","steam_id":76561198167467344,"connected_time":2793000000000,"state":"active","ping":69},{"user_id":729,"name":"Mank","steam_id":76561198189421005,"connected_time":65000000000,"state":"active","ping":59},{"user_id":726,"name":"bluefoxx118","steam_id":76561198182884975,"connected_time":407000000000,"state":"active","ping":59},{"user_id":719,"name":"Mozz","steam_id":76561198132892873,"connected_time":1116000000000,"state":"active","ping":98}]},{"server_id":106,"name":"Uncletopia | Chicago | 2 | All Maps","name_short":"chi-2","host":"chi-1.us.uncletopia.com","port":27025,"enabled":true,"region":"us-central","cc":"us","latitude":41.881832,"longitude":-87.62318,"reserved":0,"last_update":"0001-01-01T00:00:00Z","name_a2s":"Uncletopia | Chicago | 2 | All Maps","protocol":17,"map":"cp_snakewater_final1","folder":"tf","game":"Team Fortress","app_id":440,"player_count":0,"max_players":24,"Bots":0,"server_type":"Dedicated","server_os":"Linux","password":true,"vac":true,"version":"7932396","steam_id":85568392924469985,"keywords":["cp","nocrits","nodmgspread","uncletopia"],"game_id":440,"stv_port":27026,"stv_name":"Uncletopia | Chicago | 2 | All Maps | STV","players":null},{"server_id":402,"name":"Uncletopia | Chicago | 3 | All Maps","name_short":"chi-3","host":"chi-1.us.uncletopia.com","port":27035,"enabled":true,"region":"us-central","cc":"us","latitude":41.881832,"longitude":-87.62318,"reserved":0,"last_update":"0001-01-01T00:00:00Z","name_a2s":"Uncletopia | Chicago | 3 | All Maps","protocol":17,"map":"pl_barnblitz","folder":"tf","game":"Team Fortress","app_id":440,"player_count":0,"max_players":24,"Bots":0,"server_type":"Dedicated","server_os":"Linux","password":true,"vac":true,"version":"7932396","steam_id":85568392924515191,"keywords":["nocrits","nodmgspread","payload","uncletopia"],"game_id":440,"stv_port":27036,"stv_name":"Uncletopia | Chicago | 3 | All Maps | STV","players":null},{"server_id":403,"name":"Uncletopia | Chicago | 4 | All Maps","name_short":"chi-4","host":"chi-1.us.uncletopia.com","port":27045,"enabled":true,"region":"us-central","cc":"us","latitude":41.881832,"longitude":-87.62318,"reserved":0,"last_update":"0001-01-01T00:00:00Z","name_a2s":"Uncletopia | Chicago | 4 | All Maps","protocol":17,"map":"pl_barnblitz","folder":"tf","game":"Team Fortress","app_id":440,"player_count":16,"max_players":24,"Bots":0,"server_type":"Dedicated","server_os":"Linux","password":true,"vac":true,"version":"7932396","steam_id":85568392924515193,"keywords":["nocrits","nodmgspread","payload","uncletopia"],"game_id":440,"stv_port":27046,"stv_name":"Uncletopia | Chicago | 4 | All Maps | STV","players":[{"user_id":709,"name":"‚òÜShinyMew112","steam_id":76561198042820161,"connected_time":446000000000,"state":"active","ping":46},{"user_id":665,"name":"resh!","steam_id":76561198066619792,"connected_time":3728000000000,"state":"active","ping":63},{"user_id":711,"name":"aleksei.fi","steam_id":76561199061380038,"connected_time":369000000000,"state":"active","ping":60},{"user_id":700,"name":"BIG HOG","steam_id":76561198079923652,"connected_time":1322000000000,"state":"active","ping":75},{"user_id":714,"name":"Mr Bones","steam_id":76561198148667535,"connected_time":244000000000,"state":"active","ping":92},{"user_id":716,"name":"twitch.tv/fynndiloocurry.","steam_id":76561198285591983,"connected_time":144000000000,"state":"active","ping":187},{"user_id":717,"name":"Yummy Kabobz","steam_id":76561198067661705,"connected_time":70000000000,"state":"active","ping":68},{"user_id":704,"name":"wightwarlock","steam_id":76561198126735218,"connected_time":1052000000000,"state":"active","ping":50},{"user_id":624,"name":"doug demodome","steam_id":76561198048882285,"connected_time":7481000000000,"state":"active","ping":65},{"user_id":706,"name":"Kritzburgh","steam_id":76561198149466938,"connected_time":812000000000,"state":"active","ping":63},{"user_id":609,"name":"üÖúüÖîüÖîüÖöüÖ¢üÖ£üÖî\ufffd\ufffd\ufffd","steam_id":76561197999748343,"connected_time":9326000000000,"state":"active","ping":61},{"user_id":684,"name":"Toastee","steam_id":76561198085410969,"connected_time":2814000000000,"state":"active","ping":40},{"user_id":685,"name":"i need cock goku","steam_id":76561198154449875,"connected_time":2801000000000,"state":"active","ping":103},{"user_id":688,"name":"marcelwellmann","steam_id":76561198868282827,"connected_time":2211000000000,"state":"active","ping":173},{"user_id":701,"name":"Lerny_Bander69","steam_id":76561199467619936,"connected_time":1172000000000,"state":"active","ping":118},{"user_id":686,"name":"machine embodiment","steam_id":76561199081837220,"connected_time":2751000000000,"state":"active","ping":80}]},{"server_id":36,"name":"Uncletopia | Chicago | 5 | All Maps","name_short":"chi-5","host":"chi-2.us.uncletopia.com","port":27015,"enabled":true,"region":"us-central","cc":"us","latitude":41.881832,"longitude":-87.62318,"reserved":0,"last_update":"0001-01-01T00:00:00Z","name_a2s":"Uncletopia | Chicago | 5 | All Maps","protocol":17,"map":"cp_mountainlab","folder":"tf","game":"Team Fortress","app_id":440,"player_count":0,"max_players":24,"Bots":0,"server_type":"Dedicated","server_os":"Linux","password":true,"vac":true,"version":"7932396","steam_id":85568392924866362,"keywords":["cp","nocrits","nodmgspread","uncletopia"],"game_id":440,"stv_port":27016,"stv_name":"Uncletopia | Chicago | 5 | All Maps | STV","players":null},{"server_id":37,"name":"Uncletopia | Chicago | 6 | All Maps","name_short":"chi-6","host":"chi-2.us.uncletopia.com","port":27025,"enabled":true,"region":"us-central","cc":"us","latitude":41.881832,"longitude":-87.62318,"reserved":0,"last_update":"0001-01-01T00:00:00Z","name_a2s":"Uncletopia | Chicago | 6 | All Maps","protocol":17,"map":"koth_cascade","folder":"tf","game":"Team Fortress","app_id":440,"player_count":0,"max_players":24,"Bots":0,"server_type":"Dedicated","server_os":"Linux","password":true,"vac":true,"version":"7932396","steam_id":85568392924866363,"keywords":["cp","nocrits","nodmgspread","uncletopia"],"game_id":440,"stv_port":27026,"stv_name":"Uncletopia | Chicago | 6 | All Maps | STV","players":null},{"server_id":38,"name":"Uncletopia | Chicago | 7 | Stopwatch Beta","name_short":"chi-7","host":"chi-2.us.uncletopia.com","port":27035,"enabled":true,"region":"us-central","cc":"us","latitude":41.881832,"longitude":-87.62318,"reserved":0,"last_update":"0001-01-01T00:00:00Z","name_a2s":"Uncletopia | Chicago | 7 | Stopwatch Beta","protocol":17,"map":"workshop/pl_summercoast_rc8e.ugc1761528829","folder":"tf","game":"Team Fortress","app_id":440,"player_count":0,"max_players":24,"Bots":0,"server_type":"Dedicated","server_os":"Linux","password":true,"vac":true,"version":"7932396","steam_id":85568392924866364,"keywords":["nocrits","nodmgspread","payload","uncletopia"],"game_id":440,"stv_port":27036,"stv_name":"Uncletopia | Chicago | 7 | Stopwatch Beta | STV","players":null},{"server_id":39,"name":"Uncletopia | Chicago | 8 | Community","name_short":"chi-8","host":"chi-2.us.uncletopia.com","port":27045,"enabled":true,"region":"us-central","cc":"us","latitude":41.881832,"longitude":-87.62318,"reserved":0,"last_update":"0001-01-01T00:00:00Z","name_a2s":"Uncletopia | Chicago | 8 | Community","protocol":17,"map":"workshop/koth_slaughter_rc1.ugc1712845210","folder":"tf","game":"Team Fortress","app_id":440,"player_count":0,"max_players":24,"Bots":0,"server_type":"Dedicated","server_os":"Linux","password":true,"vac":true,"version":"7932396","steam_id":85568392924866365,"keywords":["cp","nocrits","nodmgspread","uncletopia"],"game_id":440,"stv_port":27046,"stv_name":"Uncletopia | Chicago | 8 | Community | STV","players":null},{"server_id":8,"name":"Uncletopia | Dallas | 1 | All Maps","name_short":"dal-1","host":"dal-1.us.uncletopia.com","port":27015,"enabled":true,"region":"us-central","cc":"us","latitude":32.779167,"longitude":-96.80889,"reserved":0,"last_update":"0001-01-01T00:00:00Z","name_a2s":"Uncletopia | Dallas | 1 | All Maps","protocol":17,"map":"cp_dustbowl","folder":"tf","game":"Team Fortress","app_id":440,"player_count":22,"max_players":24,"Bots":0,"server_type":"Dedicated","server_os":"Linux","password":true,"vac":true,"version":"7932396","steam_id":85568392924469986,"keywords":["cp","nocrits","nodmgspread","uncletopia"],"game_id":440,"stv_port":27016,"stv_name":"Uncletopia | Dallas | 1 | All Maps | STV","players":[{"user_id":1036,"name":"pudl","steam_id":76561198043726592,"connected_time":2824000000000,"state":"active","ping":43},{"user_id":1079,"name":"Shitter","steam_id":76561198152570304,"connected_time":49000000000,"state":"active","ping":89},{"user_id":1023,"name":"squidpunk1312","steam_id":76561198202274248,"connected_time":5528000000000,"state":"active","ping":61},{"user_id":1061,"name":"Epiknezz","steam_id":76561198040397776,"connected_time":748000000000,"state":"active","ping":81},{"user_id":1080,"name":"—Ç–µ–º–∏—Ä-—á–µ–±—É—Ä–∞—à–∫–∞","steam_id":76561198088646018,"connected_time":15000000000,"state":"spawning","ping":269},{"user_id":1045,"name":"MithStyck","steam_id":76561198071538489,"connected_time":1453000000000,"state":"active","ping":49},{"user_id":1046,"name":"FI LO","steam_id":76561198976530881,"connected_time":1388000000000,"state":"active","ping":63},{"user_id":1063,"name":"Numb Knot","steam_id":76561198333078151,"connected_time":698000000000,"state":"active","ping":82},{"user_id":1048,"name":"basilthenasa","steam_id":76561199388111764,"connected_time":1211000000000,"state":"active","ping":120},{"user_id":1049,"name":"wugmup","steam_id":76561199096287734,"connected_time":1159000000000,"state":"active","ping":98},{"user_id":1051,"name":"VixianUwU","steam_id":76561198948815060,"connected_time":1104000000000,"state":"active","ping":92},{"user_id":1062,"name":"Jeff The Clown","steam_id":76561198071123791,"connected_time":731000000000,"state":"active","ping":73},{"user_id":1064,"name":"Masticatedux","steam_id":76561198068323286,"connected_time":613000000000,"state":"active","ping":86},{"user_id":1065,"name":"littlesack","steam_id":76561197960270526,"connected_time":576000000000,"state":"active","ping":81},{"user_id":1071,"name":"God","steam_id":76561198843055417,"connected_time":397000000000,"state":"active","ping":60},{"user_id":1067,"name":"DoubleTee","steam_id":76561198018980347,"connected_time":514000000000,"state":"active","ping":95},{"user_id":1070,"name":"Sail","steam_id":76561199489440704,"connected_time":462000000000,"state":"active","ping":57},{"user_id":1074,"name":"HellaCopter","steam_id":76561198062313698,"connected_time":254000000000,"state":"active","ping":98},{"user_id":1075,"name":"...","steam_id":76561198374495631,"connected_time":222000000000,"state":"active","ping":64},{"user_id":1078,"name":"cypherzero","steam_id":76561199182960322,"connected_time":103000000000,"state":"active","ping":56},{"user_id":1024,"name":"Yoshimelon","steam_id":76561198253054325,"connected_time":5524000000000,"state":"active","ping":44},{"user_id":993,"name":"transgender fortress 2","steam_id":76561198062263639,"connected_time":7140000000000,"state":"active","ping":49}]},{"server_id":108,"name":"Uncletopia | Dallas | 2 | All Maps","name_short":"dal-2","host":"dal-1.us.uncletopia.com","port":27025,"enabled":true,"region":"us-central","cc":"us","latitude":32.779167,"longitude":-96.80889,"reserved":0,"last_update":"0001-01-01T00:00:00Z","name_a2s":"Uncletopia | Dallas | 2 | All Maps","protocol":17,"map":"cp_process_final","folder":"tf","game":"Team Fortress","app_id":440,"player_count":16,"max_players":24,"Bots":0,"server_type":"Dedicated","server_os":"Linux","password":true,"vac":true,"version":"7932396","steam_id":85568392924469988,"keywords":["cp","nocrits","nodmgspread","uncletopia"],"game_id":440,"stv_port":27026,"stv_name":"Uncletopia | Dallas | 2 | All Maps | STV","players":[{"user_id":696,"name":"mastistino72","steam_id":76561198060346050,"connected_time":1709000000000,"state":"active","ping":166},{"user_id":702,"name":"Gundam Guy","steam_id":76561198178453993,"connected_time":695000000000,"state":"active","ping":82},{"user_id":703,"name":"Brook","steam_id":76561198066617702,"connected_time":685000000000,"state":"active","ping":94},{"user_id":706,"name":"Spydah","steam_id":76561198864453204,"connected_time":524000000000,"state":"active","ping":42},{"user_id":690,"name":"Dank Ghost","steam_id":76561198400690889,"connected_time":2232000000000,"state":"active","ping":85},{"user_id":708,"name":"Drama","steam_id":76561198059996399,"connected_time":259000000000,"state":"active","ping":113},{"user_id":618,"name":"PsyKe","steam_id":76561198055486345,"connected_time":9657000000000,"state":"active","ping":94},{"user_id":700,"name":"Rasputia","steam_id":76561198132051047,"connected_time":842000000000,"state":"active","ping":105},{"user_id":658,"name":"Save","steam_id":76561198032740584,"connected_time":4973000000000,"state":"active","ping":95},{"user_id":704,"name":"Tony Tony Choppa","steam_id":76561198926443232,"connected_time":671000000000,"state":"active","ping":92},{"user_id":606,"name":"Sonic Mania 2 [100 Real Leaked","steam_id":76561198062764039,"connected_time":10634000000000,"state":"active","ping":65},{"user_id":705,"name":"SQbuilder","steam_id":76561198076473375,"connected_time":663000000000,"state":"active","ping":77},{"user_id":669,"name":"tsz","steam_id":76561199246231090,"connected_time":4262000000000,"state":"active","ping":99},{"user_id":710,"name":"WHITEDAWN","steam_id":76561199210002358,"connected_time":137000000000,"state":"active","ping":77},{"user_id":699,"name":"skegeton","steam_id":76561198095581099,"connected_time":990000000000,"state":"active","ping":57},{"user_id":621,"name":"STAROID","steam_id":76561198069740897,"connected_time":9573000000000,"state":"active","ping":88}]},{"server_id":5,"name":"Uncletopia | Frankfurt | 1 | All Maps","name_short":"frk-1","host":"frk-1.de.uncletopia.com","port":27015,"enabled":true,"region":"eu","cc":"de","latitude":50.110924,"longitude":8.682127,"reserved":0,"last_update":"0001-01-01T00:00:00Z","name_a2s":"Uncletopia | Frankfurt | 1 | All Maps","protocol":17,"map":"pl_upward","folder":"tf","game":"Team Fortress","app_id":440,"player_count":24,"max_players":24,"Bots":0,"server_type":"Dedicated","server_os":"Linux","password":true,"vac":true,"version":"7932396","steam_id":85568392924469989,"keywords":["nocrits","nodmgspread","payload","uncletopia"],"game_id":440,"stv_port":27016,"stv_name":"Uncletopia | Frankfurt | 1 | All Maps | STV","players":[{"user_id":37,"name":".nine","steam_id":76561198144430577,"connected_time":162000000000,"state":"active","ping":65},{"user_id":5,"name":"K-Kauppa","steam_id":76561198944072942,"connected_time":1790000000000,"state":"active","ping":79},{"user_id":6,"name":"ShanahanG17","steam_id":76561199420591083,"connected_time":1765000000000,"state":"active","ping":188},{"user_id":17,"name":"Ê±üÊà∏Â∑ù‰π±Ê≠©","steam_id":76561199071710430,"connected_time":830000000000,"state":"active","ping":103},{"user_id":11,"name":"UnusualCatamaran21","steam_id":76561198983022965,"connected_time":1471000000000,"state":"active","ping":84},{"user_id":10,"name":"poopoocum","steam_id":76561198180641206,"connected_time":1505000000000,"state":"active","ping":65},{"user_id":28,"name":"Zirom","steam_id":76561198132532365,"connected_time":585000000000,"state":"active","ping":55},{"user_id":13,"name":"Alex","steam_id":76561198347493826,"connected_time":1314000000000,"state":"active","ping":109},{"user_id":14,"name":"Azirion22","steam_id":76561198269489470,"connected_time":1250000000000,"state":"active","ping":70},{"user_id":15,"name":"Niko","steam_id":76561199006295285,"connected_time":1184000000000,"state":"active","ping":68},{"user_id":40,"name":"Sgt Anthony.","steam_id":76561199130031516,"connected_time":76000000000,"state":"active","ping":79},{"user_id":19,"name":"—á—ë –≤—ã","steam_id":76561198275235668,"connected_time":820000000000,"state":"active","ping":115},{"user_id":36,"name":"S E X P R E S I D E N T","steam_id":76561198139714370,"connected_time":320000000000,"state":"active","ping":75},{"user_id":21,"name":"tompp","steam_id":76561198143529110,"connected_time":787000000000,"state":"active","ping":47},{"user_id":41,"name":"PASTAMANIA!","steam_id":76561197967858558,"connected_time":18000000000,"state":"active","ping":55},{"user_id":23,"name":"zek","steam_id":76561198862763731,"connected_time":731000000000,"state":"active","ping":60},{"user_id":24,"name":"hayley ‚ô•","steam_id":76561198093125555,"connected_time":727000000000,"state":"active","ping":62},{"user_id":33,"name":"poorchel","steam_id":76561198056905953,"connected_time":397000000000,"state":"active","ping":120},{"user_id":27,"name":"iq drops","steam_id":76561198035795130,"connected_time":623000000000,"state":"active","ping":70},{"user_id":29,"name":"ninjacat424","steam_id":76561198339467815,"connected_time":520000000000,"state":"active","ping":76},{"user_id":35,"name":"Scoped Idiot","steam_id":76561198254254506,"connected_time":333000000000,"state":"active","ping":74},{"user_id":31,"name":"Dolcelatte","steam_id":76561198038501770,"connected_time":467000000000,"state":"active","ping":59},{"user_id":32,"name":"q47tx","steam_id":76561199181333933,"connected_time":434000000000,"state":"active","ping":98},{"user_id":34,"name":"mr. halal mode","steam_id":76561199227541378,"connected_time":354000000000,"state":"active","ping":189}]},{"server_id":110,"name":"Uncletopia | Frankfurt | 2 | All Maps","name_short":"frk-2","host":"frk-1.de.uncletopia.com","port":27025,"enabled":true,"region":"eu","cc":"de","latitude":50.110924,"longitude":8.682127,"reserved":0,"last_update":"0001-01-01T00:00:00Z","name_a2s":"Uncletopia | Frankfurt | 2 | All Maps","protocol":17,"map":"pl_borneo","folder":"tf","game":"Team Fortress","app_id":440,"player_count":0,"max_players":24,"Bots":0,"server_type":"Dedicated","server_os":"Linux","password":true,"vac":true,"version":"7932396","steam_id":85568392924469990,"keywords":["nocrits","nodmgspread","payload","uncletopia"],"game_id":440,"stv_port":27026,"stv_name":"Uncletopia | Frankfurt | 2 | All Maps | STV","players":null},{"server_id":308,"name":"Uncletopia | Frankfurt | 3 | All Maps","name_short":"frk-3","host":"frk-1.de.uncletopia.com","port":27035,"enabled":true,"region":"eu","cc":"de","latitude":50.110924,"longitude":8.682127,"reserved":0,"last_update":"0001-01-01T00:00:00Z","name_a2s":"Uncletopia | Frankfurt | 3 | All Maps","protocol":17,"map":"pl_badwater","folder":"tf","game":"Team Fortress","app_id":440,"player_count":0,"max_players":24,"Bots":0,"server_type":"Dedicated","server_os":"Linux","password":true,"vac":true,"version":"7932396","steam_id":85568392924504274,"keywords":["nocrits","nodmgspread","payload","uncletopia"],"game_id":440,"stv_port":27036,"stv_name":"Uncletopia | Frankfurt | 3 | All Maps | STV","players":null},{"server_id":309,"name":"Uncletopia | Frankfurt | 4 | All Maps","name_short":"frk-4","host":"frk-1.de.uncletopia.com","port":27045,"enabled":true,"region":"eu","cc":"de","latitude":50.110924,"longitude":8.682127,"reserved":0,"last_update":"0001-01-01T00:00:00Z","name_a2s":"Uncletopia | Frankfurt | 4 | All Maps","protocol":17,"map":"pl_upward","folder":"tf","game":"Team Fortress","app_id":440,"player_count":0,"max_players":24,"Bots":0,"server_type":"Dedicated","server_os":"Linux","password":true,"vac":true,"version":"7932396","steam_id":85568392924504275,"keywords":["nocrits","nodmgspread","payload","uncletopia"],"game_id":440,"stv_port":27046,"stv_name":"Uncletopia | Frankfurt | 4 | All Maps | STV","players":null},{"server_id":310,"name":"Uncletopia | Frankfurt | 5 | All Maps","name_short":"frk-5","host":"frk-1.de.uncletopia.com","port":27055,"enabled":true,"region":"eu","cc":"de","latitude":50.110924,"longitude":8.682127,"reserved":0,"last_update":"0001-01-01T00:00:00Z","name_a2s":"Uncletopia | Frankfurt | 5 | All Maps","protocol":17,"map":"pl_badwater","folder":"tf","game":"Team Fortress","app_id":440,"player_count":0,"max_players":24,"Bots":0,"server_type":"Dedicated","server_os":"Linux","password":true,"vac":true,"version":"7932396","steam_id":85568392924504277,"keywords":["nocrits","nodmgspread","payload","uncletopia"],"game_id":440,"stv_port":27056,"stv_name":"Uncletopia | Frankfurt | 5 | All Maps | STV","players":null},{"server_id":311,"name":"Uncletopia | Frankfurt | 6 | All Maps","name_short":"frk-6","host":"frk-1.de.uncletopia.com","port":27065,"enabled":true,"region":"eu","cc":"de","latitude":50.110924,"longitude":8.682127,"reserved":0,"last_update":"0001-01-01T00:00:00Z","name_a2s":"Uncletopia | Frankfurt | 6 | All Maps","protocol":17,"map":"koth_viaduct","folder":"tf","game":"Team Fortress","app_id":440,"player_count":0,"max_players":24,"Bots":0,"server_type":"Dedicated","server_os":"Linux","password":true,"vac":true,"version":"7932396","steam_id":85568392924504278,"keywords":["cp","nocrits","nodmgspread","uncletopia"],"game_id":440,"stv_port":27066,"stv_name":"Uncletopia | Frankfurt | 6 | All Maps | STV","players":null},{"server_id":23,"name":"Uncletopia | Frankfurt | 7 | Stopwatch Beta","name_short":"frk-7","host":"frk-1.de.uncletopia.com","port":27075,"enabled":true,"region":"eu","cc":"de","latitude":50.110924,"longitude":8.682127,"reserved":0,"last_update":"0001-01-01T00:00:00Z","name_a2s":"Uncletopia | Frankfurt | 7 | Stopwatch Beta","protocol":17,"map":"pl_snowycoast","folder":"tf","game":"Team Fortress","app_id":440,"player_count":0,"max_players":24,"Bots":0,"server_type":"Dedicated","server_os":"Linux","password":true,"vac":true,"version":"7932396","steam_id":85568392924742827,"keywords":["nocrits","nodmgspread","payload","uncletopia"],"game_id":440,"stv_port":27076,"stv_name":"Uncletopia | Frankfurt | 7 | Stopwatch Beta | STV","players":null},{"server_id":24,"name":"Uncletopia | Frankfurt | 8 | Community","name_short":"frk-8","host":"frk-1.de.uncletopia.com","port":27085,"enabled":true,"region":"eu","cc":"de","latitude":50.110924,"longitude":8.682127,"reserved":0,"last_update":"0001-01-01T00:00:00Z","name_a2s":"Uncletopia | Frankfurt | 8 | Community","protocol":17,"map":"pl_barnblitz","folder":"tf","game":"Team Fortress","app_id":440,"player_count":0,"max_players":24,"Bots":0,"server_type":"Dedicated","server_os":"Linux","password":true,"vac":true,"version":"7932396","steam_id":85568392924742828,"keywords":["nocrits","nodmgspread","payload","uncletopia"],"game_id":440,"stv_port":27086,"stv_name":"Uncletopia | Frankfurt | 8 | Community | STV","players":null},{"server_id":202,"name":"Uncletopia | Hong Kong | 1 | All Maps","name_short":"hgk-1","host":"hgk-1.hk.uncletopia.com","port":27015,"enabled":true,"region":"asia","cc":"hk","latitude":22.302711,"longitude":114.177216,"reserved":0,"last_update":"0001-01-01T00:00:00Z","name_a2s":"Uncletopia | Hong Kong | 1 | All Maps","protocol":17,"map":"cp_dustbowl","folder":"tf","game":"Team Fortress","app_id":440,"player_count":9,"max_players":24,"Bots":0,"server_type":"Dedicated","server_os":"Linux","password":true,"vac":true,"version":"7932396","steam_id":85568392924494504,"keywords":["cp","nocrits","nodmgspread","uncletopia"],"game_id":440,"stv_port":27016,"stv_name":"Uncletopia | Hong Kong | 1 | All Maps | STV","players":[{"user_id":138,"name":"FORGETFULGAMER","steam_id":76561199265087343,"connected_time":383000000000,"state":"active","ping":137},{"user_id":132,"name":"p1st0n","steam_id":76561198992723983,"connected_time":1709000000000,"state":"active","ping":92},{"user_id":137,"name":"aeross","steam_id":76561198834445483,"connected_time":481000000000,"state":"active","ping":69},{"user_id":139,"name":"Bad Leky","steam_id":76561198045824759,"connected_time":218000000000,"state":"active","ping":80},{"user_id":112,"name":"Box Standard","steam_id":76561198312001455,"connected_time":2980000000000,"state":"active","ping":114},{"user_id":106,"name":"Mystery cheese üßÄ","steam_id":76561198304002409,"connected_time":3373000000000,"state":"active","ping":80},{"user_id":121,"name":"Med","steam_id":76561199087727164,"connected_time":2637000000000,"state":"active","ping":89},{"user_id":130,"name":"Green","steam_id":76561198391718463,"connected_time":2110000000000,"state":"active","ping":51},{"user_id":69,"name":"ÂñÑËâØ„ÅÆÂ¢®","steam_id":76561199102754539,"connected_time":5611000000000,"state":"active","ping":256}]},{"server_id":1,"name":"Uncletopia | Los Angeles | 1 | All Maps","name_short":"lax-1","host":"lax-1.us.uncletopia.com","port":27015,"enabled":true,"region":"us-west","cc":"us","latitude":33.94279,"longitude":-118.41004,"reserved":0,"last_update":"0001-01-01T00:00:00Z","name_a2s":"Uncletopia | Los Angeles | 1 | All Maps","protocol":17,"map":"pl_swiftwater_final1","folder":"tf","game":"Team Fortress","app_id":440,"player_count":0,"max_players":24,"Bots":0,"server_type":"Dedicated","server_os":"Linux","password":true,"vac":true,"version":"7932396","steam_id":85568392924469991,"keywords":["nocrits","nodmgspread","payload","uncletopia"],"game_id":440,"stv_port":27016,"stv_name":"Uncletopia | Los Angeles | 1 | All Maps | STV","players":null},{"server_id":112,"name":"Uncletopia | Los Angeles | 2 | All Maps","name_short":"lax-2","host":"lax-1.us.uncletopia.com","port":27025,"enabled":true,"region":"us-west","cc":"us","latitude":33.94279,"longitude":-118.41004,"reserved":0,"last_update":"0001-01-01T00:00:00Z","name_a2s":"Uncletopia | Los Angeles | 2 | All Maps","protocol":17,"map":"pl_pier","folder":"tf","game":"Team Fortress","app_id":440,"player_count":24,"max_players":24,"Bots":0,"server_type":"Dedicated","server_os":"Linux","password":true,"vac":true,"version":"7932396","steam_id":85568392924469992,"keywords":["nocrits","nodmgspread","payload","uncletopia"],"game_id":440,"stv_port":27026,"stv_name":"Uncletopia | Los Angeles | 2 | All Maps | STV","players":[{"user_id":785,"name":"StealthGirl","steam_id":76561198024760666,"connected_time":507000000000,"state":"active","ping":90},{"user_id":774,"name":"Monsignor Martinez","steam_id":76561198004472558,"connected_time":904000000000,"state":"active","ping":46},{"user_id":772,"name":"Justin","steam_id":76561198110865423,"connected_time":1090000000000,"state":"active","ping":43},{"user_id":775,"name":"vulcan nightclub pon farr night","steam_id":76561197974283797,"connected_time":880000000000,"state":"active","ping":107},{"user_id":705,"name":"Nitro","steam_id":76561198044877244,"connected_time":7800000000000,"state":"active","ping":93},{"user_id":777,"name":"KonJac","steam_id":76561198027812652,"connected_time":826000000000,"state":"active","ping":58},{"user_id":722,"name":"yungevilbruh","steam_id":76561198127631900,"connected_time":5807000000000,"state":"active","ping":47},{"user_id":783,"name":"SpudBrain","steam_id":76561199236708672,"connected_time":601000000000,"state":"active","ping":70},{"user_id":770,"name":"A bendy straw in disguise","steam_id":76561198257743986,"connected_time":1841000000000,"state":"active","ping":125},{"user_id":767,"name":"what is completely unfappable?","steam_id":76561198032259680,"connected_time":2321000000000,"state":"active","ping":114},{"user_id":736,"name":"June","steam_id":76561198141803658,"connected_time":4524000000000,"state":"active","ping":47},{"user_id":733,"name":"FireQuiz","steam_id":76561198107357249,"connected_time":4618000000000,"state":"active","ping":71},{"user_id":776,"name":"Fiendish Frog","steam_id":76561198029478821,"connected_time":860000000000,"state":"active","ping":117},{"user_id":753,"name":"Terminal Brain Rot","steam_id":76561198112594672,"connected_time":3400000000000,"state":"active","ping":97},{"user_id":766,"name":"Mocha Josie","steam_id":76561198066452726,"connected_time":2507000000000,"state":"active","ping":53},{"user_id":764,"name":"PirateJet","steam_id":76561198050858744,"connected_time":2695000000000,"state":"active","ping":55},{"user_id":763,"name":"Fgtfv567","steam_id":76561198071022525,"connected_time":2845000000000,"state":"active","ping":64},{"user_id":768,"name":"Thrasher","steam_id":76561198133599977,"connected_time":2249000000000,"state":"active","ping":97},{"user_id":778,"name":"pixeldelic","steam_id":76561198947553781,"connected_time":816000000000,"state":"active","ping":125},{"user_id":781,"name":"Blows","steam_id":76561198065349185,"connected_time":798000000000,"state":"active","ping":47},{"user_id":786,"name":"Zombi3Johnny","steam_id":76561198273553661,"connected_time":286000000000,"state":"active","ping":85},{"user_id":769,"name":"erf","steam_id":76561198078203677,"connected_time":2172000000000,"state":"active","ping":112},{"user_id":721,"name":"chocolat3823","steam_id":76561199249875689,"connected_time":5814000000000,"state":"active","ping":51},{"user_id":633,"name":"Joe ELO From Progressive","steam_id":76561198336597038,"connected_time":14013000000000,"state":"active","ping":48}]},{"server_id":324,"name":"Uncletopia | Los Angeles | 3 | All Maps","name_short":"lax-3","host":"lax-1.us.uncletopia.com","port":27035,"enabled":true,"region":"us-west","cc":"us","latitude":33.94279,"longitude":-118.41004,"reserved":0,"last_update":"0001-01-01T00:00:00Z","name_a2s":"Uncletopia | Los Angeles | 3 | All Maps","protocol":17,"map":"koth_lakeside_final","folder":"tf","game":"Team Fortress","app_id":440,"player_count":0,"max_players":24,"Bots":0,"server_type":"Dedicated","server_os":"Linux","password":true,"vac":true,"version":"7932396","steam_id":85568392924510198,"keywords":["cp","nocrits","nodmgspread","uncletopia"],"game_id":440,"stv_port":27036,"stv_name":"Uncletopia | Los Angeles | 3 | All Maps | STV","players":null},{"server_id":25,"name":"Uncletopia | Los Angeles | 4 | Stopwatch Beta","name_short":"lax-4","host":"lax-1.us.uncletopia.com","port":27045,"enabled":true,"region":"us-west","cc":"us","latitude":33.94279,"longitude":-118.41004,"reserved":0,"last_update":"0001-01-01T00:00:00Z","name_a2s":"Uncletopia | Los Angeles | 4 | Stopwatch Beta","protocol":17,"map":"workshop/koth_clearcut_b15.ugc2107050255","folder":"tf","game":"Team Fortress","app_id":440,"player_count":0,"max_players":24,"Bots":0,"server_type":"Dedicated","server_os":"Linux","password":true,"vac":true,"version":"7932396","steam_id":85568392924510199,"keywords":["cp","nocrits","nodmgspread","uncletopia"],"game_id":440,"stv_port":27046,"stv_name":"Uncletopia | Los Angeles | 4 | Stopwatch Beta | STV","players":null},{"server_id":11,"name":"Uncletopia | London | 1 | All Maps","name_short":"lon-1","host":"lon-1.uk.uncletopia.com","port":27015,"enabled":true,"region":"eu","cc":"gb","latitude":51.509865,"longitude":-0.118092,"reserved":0,"last_update":"0001-01-01T00:00:00Z","name_a2s":"Uncletopia | London | 1 | All Maps","protocol":17,"map":"pl_borneo","folder":"tf","game":"Team Fortress","app_id":440,"player_count":0,"max_players":24,"Bots":0,"server_type":"Dedicated","server_os":"Linux","password":true,"vac":true,"version":"7932396","steam_id":85568392924367362,"keywords":["nocrits","nodmgspread","payload","uncletopia"],"game_id":440,"stv_port":27016,"stv_name":"Uncletopia | London | 1 | All Maps | STV","players":null},{"server_id":114,"name":"Uncletopia | London | 2 | All Maps","name_short":"lon-2","host":"lon-1.uk.uncletopia.com","port":27025,"enabled":true,"region":"eu","cc":"gb","latitude":51.509865,"longitude":-0.118092,"reserved":0,"last_update":"0001-01-01T00:00:00Z","name_a2s":"Uncletopia | London | 2 | All Maps","protocol":17,"map":"koth_highpass","folder":"tf","game":"Team Fortress","app_id":440,"player_count":0,"max_players":24,"Bots":0,"server_type":"Dedicated","server_os":"Linux","password":true,"vac":true,"version":"7932396","steam_id":85568392924470941,"keywords":["cp","nocrits","nodmgspread","uncletopia"],"game_id":440,"stv_port":27026,"stv_name":"Uncletopia | London | 2 | All Maps | STV","players":null},{"server_id":320,"name":"Uncletopia | London | 3 | All Maps","name_short":"lon-3","host":"lon-1.uk.uncletopia.com","port":27035,"enabled":true,"region":"eu","cc":"gb","latitude":51.509865,"longitude":-0.118092,"reserved":0,"last_update":"0001-01-01T00:00:00Z","name_a2s":"Uncletopia | London | 3 | All Maps","protocol":17,"map":"cp_altitude","folder":"tf","game":"Team Fortress","app_id":440,"player_count":0,"max_players":24,"Bots":0,"server_type":"Dedicated","server_os":"Linux","password":true,"vac":true,"version":"7932396","steam_id":85568392924510192,"keywords":["cp","nocrits","nodmgspread","uncletopia"],"game_id":440,"stv_port":27036,"stv_name":"Uncletopia | London | 3 | All Maps | STV","players":null},{"server_id":321,"name":"Uncletopia | London | 4 | All Maps","name_short":"lon-4","host":"lon-1.uk.uncletopia.com","port":27045,"enabled":true,"region":"eu","cc":"gb","latitude":51.509865,"longitude":-0.118092,"reserved":0,"last_update":"0001-01-01T00:00:00Z","name_a2s":"Uncletopia | London | 4 | All Maps","protocol":17,"map":"cp_snakewater_final1","folder":"tf","game":"Team Fortress","app_id":440,"player_count":0,"max_players":24,"Bots":0,"server_type":"Dedicated","server_os":"Linux","password":true,"vac":true,"version":"7932396","steam_id":85568392924510193,"keywords":["cp","nocrits","nodmgspread","uncletopia"],"game_id":440,"stv_port":27046,"stv_name":"Uncletopia | London | 4 | All Maps | STV","players":null},{"server_id":21,"name":"Uncletopia | London | 5 | All Maps","name_short":"lon-5","host":"lon-1.uk.uncletopia.com","port":27055,"enabled":true,"region":"eu","cc":"gb","latitude":51.509865,"longitude":-0.118092,"reserved":0,"last_update":"0001-01-01T00:00:00Z","name_a2s":"Uncletopia | London | 5 | All Maps","protocol":17,"map":"pl_borneo","folder":"tf","game":"Team Fortress","app_id":440,"player_count":0,"max_players":24,"Bots":0,"server_type":"Dedicated","server_os":"Linux","password":true,"vac":true,"version":"7932396","steam_id":85568392924742829,"keywords":["nocrits","nodmgspread","payload","uncletopia"],"game_id":440,"stv_port":27056,"stv_name":"Uncletopia | London | 5 | All Maps | STV","players":null},{"server_id":22,"name":"Uncletopia | London | 6 | All Maps","name_short":"lon-6","host":"lon-1.uk.uncletopia.com","port":27065,"enabled":true,"region":"eu","cc":"gb","latitude":51.509865,"longitude":-0.118092,"reserved":0,"last_update":"0001-01-01T00:00:00Z","name_a2s":"Uncletopia | London | 6 | All Maps","protocol":17,"map":"cp_steel","folder":"tf","game":"Team Fortress","app_id":440,"player_count":24,"max_players":24,"Bots":0,"server_type":"Dedicated","server_os":"Linux","password":true,"vac":true,"version":"7932396","steam_id":85568392924742830,"keywords":["cp","nocrits","nodmgspread","uncletopia"],"game_id":440,"stv_port":27066,"stv_name":"Uncletopia | London | 6 | All Maps | STV","players":[{"user_id":90,"name":"Holo","steam_id":76561198348567663,"connected_time":6508000000000,"state":"active","ping":79},{"user_id":124,"name":"i'm 14 hours past my bedtime","steam_id":76561198078434681,"connected_time":2236000000000,"state":"active","ping":48},{"user_id":121,"name":"Cookies and Bakies","steam_id":76561198017442928,"connected_time":2778000000000,"state":"active","ping":91},{"user_id":131,"name":"ambiwalentna","steam_id":76561199010825303,"connected_time":1761000000000,"state":"active","ping":80},{"user_id":145,"name":"kfc manager","steam_id":76561198147495474,"connected_time":327000000000,"state":"active","ping":40},{"user_id":141,"name":"Sylvanas","steam_id":76561198154904165,"connected_time":384000000000,"state":"active","ping":106},{"user_id":146,"name":"Harpy Eagle","steam_id":76561198819755999,"connected_time":325000000000,"state":"active","ping":65},{"user_id":150,"name":"Ruth(-less bitch)","steam_id":76561198150006573,"connected_time":102000000000,"state":"active","ping":53},{"user_id":102,"name":"Bun","steam_id":76561197989239999,"connected_time":5166000000000,"state":"active","ping":59},{"user_id":70,"name":"Perpetual Pub Push","steam_id":76561198256714846,"connected_time":8977000000000,"state":"active","ping":32},{"user_id":138,"name":"Spinya","steam_id":76561198086653667,"connected_time":1109000000000,"state":"active","ping":58},{"user_id":112,"name":"PP_master69420","steam_id":76561199019913910,"connected_time":3091000000000,"state":"active","ping":92},{"user_id":125,"name":"lemon pene","steam_id":76561198206954985,"connected_time":2234000000000,"state":"active","ping":115},{"user_id":139,"name":"WaDIP","steam_id":76561198010270494,"connected_time":1059000000000,"state":"active","ping":110},{"user_id":149,"name":"png.png","steam_id":76561198444446521,"connected_time":161000000000,"state":"active","ping":108},{"user_id":142,"name":"val","steam_id":76561198324316160,"connected_time":359000000000,"state":"active","ping":55},{"user_id":143,"name":"Green","steam_id":76561198063046552,"connected_time":341000000000,"state":"active","ping":76},{"user_id":126,"name":"BlinkedUp","steam_id":76561198249985618,"connected_time":2201000000000,"state":"active","ping":66},{"user_id":41,"name":"regimiro","steam_id":76561198120457008,"connected_time":11894000000000,"state":"active","ping":54},{"user_id":136,"name":"rosepinkyfuzz","steam_id":76561198018546334,"connected_time":1160000000000,"state":"active","ping":76},{"user_id":140,"name":"Umbro","steam_id":76561198087930438,"connected_time":936000000000,"state":"active","ping":75},{"user_id":144,"name":"Pitpit","steam_id":76561198005342133,"connected_time":341000000000,"state":"active","ping":37},{"user_id":151,"name":"The Mask...","steam_id":76561198052402891,"connected_time":80000000000,"state":"active","ping":46},{"user_id":96,"name":"beebo","steam_id":76561199120277007,"connected_time":5890000000000,"state":"active","ping":39}]},{"server_id":40,"name":"Uncletopia | London | 7 | No Payload","name_short":"lon-7","host":"lon-1.uk.uncletopia.com","port":27075,"enabled":true,"region":"eu","cc":"gb","latitude":51.509865,"longitude":-0.118092,"reserved":0,"last_update":"0001-01-01T00:00:00Z","name_a2s":"Uncletopia | London | 7 | No Payload","protocol":17,"map":"pl_snowycoast","folder":"tf","game":"Team Fortress","app_id":440,"player_count":0,"max_players":24,"Bots":0,"server_type":"Dedicated","server_os":"Linux","password":true,"vac":true,"version":"7932396","steam_id":85568392924964314,"keywords":["nocrits","nodmgspread","payload","uncletopia"],"game_id":440,"stv_port":27076,"stv_name":"Uncletopia | London | 7 | No Payload | STV","players":null},{"server_id":41,"name":"Uncletopia | London | 8 | Community","name_short":"lon-8","host":"lon-1.uk.uncletopia.com","port":27085,"enabled":true,"region":"eu","cc":"gb","latitude":51.509865,"longitude":-0.118092,"reserved":0,"last_update":"0001-01-01T00:00:00Z","name_a2s":"Uncletopia | London | 8 | Community","protocol":17,"map":"pl_barnblitz","folder":"tf","game":"Team Fortress","app_id":440,"player_count":0,"max_players":24,"Bots":0,"server_type":"Dedicated","server_os":"Linux","password":true,"vac":true,"version":"7932396","steam_id":85568392924964315,"keywords":["nocrits","nodmgspread","payload","uncletopia"],"game_id":440,"stv_port":27086,"stv_name":"Uncletopia | London | 8 | Community | STV","players":null},{"server_id":300,"name":"Uncletopia | Montr√©al | 1 | All Maps","name_short":"mtl-1","host":"mtl-1.ca.uncletopia.com","port":27015,"enabled":true,"region":"us-east","cc":"ca","latitude":45.50889,"longitude":-73.56167,"reserved":0,"last_update":"0001-01-01T00:00:00Z","name_a2s":"Uncletopia | Montr√©al | 1 | All Maps","protocol":17,"map":"cp_altitude","folder":"tf","game":"Team Fortress","app_id":440,"player_count":0,"max_players":24,"Bots":0,"server_type":"Dedicated","server_os":"Linux","password":true,"vac":true,"version":"7932396","steam_id":85568392924500087,"keywords":["cp","nocrits","nodmgspread","uncletopia"],"game_id":440,"stv_port":27016,"stv_name":"Uncletopia | Montr√©al | 1 | All Maps | STV","players":null},{"server_id":301,"name":"Uncletopia | Montr√©al | 2 | All Maps","name_short":"mtl-2","host":"mtl-1.ca.uncletopia.com","port":27025,"enabled":true,"region":"us-east","cc":"ca","latitude":45.50889,"longitude":-73.56167,"reserved":0,"last_update":"0001-01-01T00:00:00Z","name_a2s":"Uncletopia | Montr√©al | 2 | All Maps","protocol":17,"map":"koth_king","folder":"tf","game":"Team Fortress","app_id":440,"player_count":0,"max_players":24,"Bots":0,"server_type":"Dedicated","server_os":"Linux","password":true,"vac":true,"version":"7932396","steam_id":85568392924500088,"keywords":["cp","nocrits","nodmgspread","uncletopia"],"game_id":440,"stv_port":27026,"stv_name":"Uncletopia | Montr√©al | 2 | All Maps | STV","players":null},{"server_id":302,"name":"Uncletopia | Montr√©al | 3 | All Maps","name_short":"mtl-3","host":"mtl-1.ca.uncletopia.com","port":27035,"enabled":true,"region":"us-east","cc":"ca","latitude":45.50889,"longitude":-73.56167,"reserved":0,"last_update":"0001-01-01T00:00:00Z","name_a2s":"Uncletopia | Montr√©al | 3 | All Maps","protocol":17,"map":"pl_snowycoast","folder":"tf","game":"Team Fortress","app_id":440,"player_count":0,"max_players":24,"Bots":0,"server_type":"Dedicated","server_os":"Linux","password":true,"vac":true,"version":"7932396","steam_id":85568392924500089,"keywords":["nocrits","nodmgspread","payload","uncletopia"],"game_id":440,"stv_port":27036,"stv_name":"Uncletopia | Montr√©al | 3 | All Maps | STV","players":null},{"server_id":303,"name":"Uncletopia | Montr√©al | 4 | No Payload","name_short":"mtl-4","host":"mtl-1.ca.uncletopia.com","port":27045,"enabled":true,"region":"us-east","cc":"ca","latitude":45.50889,"longitude":-73.56167,"reserved":0,"last_update":"0001-01-01T00:00:00Z","name_a2s":"Uncletopia | Montr√©al | 4 | No Payload","protocol":17,"map":"koth_king","folder":"tf","game":"Team Fortress","app_id":440,"player_count":0,"max_players":24,"Bots":0,"server_type":"Dedicated","server_os":"Linux","password":true,"vac":true,"version":"7932396","steam_id":85568392924500090,"keywords":["cp","nocrits","nodmgspread","uncletopia"],"game_id":440,"stv_port":27046,"stv_name":"Uncletopia | Montr√©al | 4 | No Payload | STV","players":null},{"server_id":13,"name":"Uncletopia | New York City | 1 | All Maps","name_short":"nyc-1","host":"nyc-1.us.uncletopia.com","port":27015,"enabled":true,"region":"us-east","cc":"us","latitude":40.73061,"longitude":-73.93524,"reserved":0,"last_update":"0001-01-01T00:00:00Z","name_a2s":"Uncletopia | New York City | 1 | All Maps","protocol":17,"map":"koth_highpass","folder":"tf","game":"Team Fortress","app_id":440,"player_count":0,"max_players":24,"Bots":0,"server_type":"Dedicated","server_os":"Linux","password":true,"vac":true,"version":"7932396","steam_id":85568392924469993,"keywords":["cp","nocrits","nodmgspread","uncletopia"],"game_id":440,"stv_port":27016,"stv_name":"Uncletopia | New York City | 1 | All Maps | STV","players":null},{"server_id":14,"name":"Uncletopia | New York City | 2 | All Maps","name_short":"nyc-2","host":"nyc-1.us.uncletopia.com","port":27025,"enabled":true,"region":"us-east","cc":"us","latitude":40.73061,"longitude":-73.93524,"reserved":0,"last_update":"0001-01-01T00:00:00Z","name_a2s":"Uncletopia | New York City | 2 | All Maps","protocol":17,"map":"cp_altitude","folder":"tf","game":"Team Fortress","app_id":440,"player_count":0,"max_players":24,"Bots":0,"server_type":"Dedicated","server_os":"Linux","password":true,"vac":true,"version":"7932396","steam_id":85568392924469994,"keywords":["cp","nocrits","nodmgspread","uncletopia"],"game_id":440,"stv_port":27026,"stv_name":"Uncletopia | New York City | 2 | All Maps | STV","players":null},{"server_id":15,"name":"Uncletopia | New York City | 3 | Stopwatch Beta","name_short":"nyc-3","host":"nyc-1.us.uncletopia.com","port":27035,"enabled":true,"region":"us-east","cc":"us","latitude":40.73061,"longitude":-73.93524,"reserved":0,"last_update":"0001-01-01T00:00:00Z","name_a2s":"Uncletopia | New York City | 3 | Stopwatch Beta","protocol":17,"map":"koth_lakeside_final","folder":"tf","game":"Team Fortress","app_id":440,"player_count":0,"max_players":24,"Bots":0,"server_type":"Dedicated","server_os":"Linux","password":true,"vac":true,"version":"7932396","steam_id":85568392924742820,"keywords":["cp","nocrits","nodmgspread","uncletopia"],"game_id":440,"stv_port":27036,"stv_name":"Uncletopia | New York City | 3 | Stopwatch Beta | STV","players":null},{"server_id":16,"name":"Uncletopia | New York City | 4 | Community","name_short":"nyc-4","host":"nyc-1.us.uncletopia.com","port":27045,"enabled":true,"region":"us-east","cc":"us","latitude":40.73061,"longitude":-73.93524,"reserved":0,"last_update":"0001-01-01T00:00:00Z","name_a2s":"Uncletopia | New York City | 4 | Community","protocol":17,"map":"workshop/cp_indulge.ugc528106646","folder":"tf","game":"Team Fortress","app_id":440,"player_count":0,"max_players":24,"Bots":0,"server_type":"Dedicated","server_os":"Linux","password":true,"vac":true,"version":"7932396","steam_id":85568392924742821,"keywords":["cp","nocrits","nodmgspread","uncletopia"],"game_id":440,"stv_port":27046,"stv_name":"Uncletopia | New York City | 4 | Community | STV","players":null},{"server_id":142,"name":"Uncletopia | S√£o Paulo | 1 | All Maps","name_short":"sao-1","host":"sao-1.br.uncletopia.com","port":27015,"enabled":true,"region":"sa","cc":"br","latitude":-23.533773,"longitude":-46.62529,"reserved":0,"last_update":"0001-01-01T00:00:00Z","name_a2s":"Uncletopia | S√£o Paulo | 1 | All Maps","protocol":17,"map":"pl_barnblitz","folder":"tf","game":"Team Fortress","app_id":440,"player_count":0,"max_players":24,"Bots":0,"server_type":"Dedicated","server_os":"Linux","password":true,"vac":true,"version":"7932396","steam_id":85568392924469996,"keywords":["nocrits","nodmgspread","payload","uncletopia"],"game_id":440,"stv_port":27016,"stv_name":"Uncletopia | S√£o Paulo | 1 | All Maps | STV","players":null},{"server_id":143,"name":"Uncletopia | S√£o Paulo | 2 | All Maps","name_short":"sao-2","host":"sao-2.br.uncletopia.com","port":27015,"enabled":true,"region":"sa","cc":"br","latitude":-23.533773,"longitude":-46.62529,"reserved":0,"last_update":"0001-01-01T00:00:00Z","name_a2s":"Uncletopia | S√£o Paulo | 2 | All Maps","protocol":17,"map":"koth_cascade","folder":"tf","game":"Team Fortress","app_id":440,"player_count":0,"max_players":24,"Bots":0,"server_type":"Dedicated","server_os":"Linux","password":true,"vac":true,"version":"7932396","steam_id":85568392924485349,"keywords":["cp","nocrits","nodmgspread","uncletopia"],"game_id":440,"stv_port":27016,"stv_name":"Uncletopia | S√£o Paulo | 2 | All Maps | STV","players":null},{"server_id":7,"name":"Uncletopia | Seattle | 1 | All Maps","name_short":"sea-1","host":"sea-1.us.uncletopia.com","port":27015,"enabled":true,"region":"us-west","cc":"us","latitude":47.608013,"longitude":-122.33517,"reserved":0,"last_update":"0001-01-01T00:00:00Z","name_a2s":"Uncletopia | Seattle | 1 | All Maps","protocol":17,"map":"pl_badwater","folder":"tf","game":"Team Fortress","app_id":440,"player_count":24,"max_players":24,"Bots":0,"server_type":"Dedicated","server_os":"Linux","password":true,"vac":true,"version":"7932396","steam_id":85568392924469997,"keywords":["nocrits","nodmgspread","payload","uncletopia"],"game_id":440,"stv_port":27016,"stv_name":"Uncletopia | Seattle | 1 | All Maps | STV","players":[{"user_id":650,"name":"cracky","steam_id":76561197971365444,"connected_time":1579000000000,"state":"active","ping":46},{"user_id":583,"name":"delight","steam_id":76561197980280272,"connected_time":9491000000000,"state":"active","ping":45},{"user_id":640,"name":"Closed.","steam_id":76561198212598967,"connected_time":2512000000000,"state":"active","ping":73},{"user_id":672,"name":"cringo","steam_id":76561198971667687,"connected_time":746000000000,"state":"active","ping":135},{"user_id":614,"name":"oil","steam_id":76561198099980149,"connected_time":4533000000000,"state":"active","ping":76},{"user_id":641,"name":"mike, 2.4 GPA","steam_id":76561198225411004,"connected_time":2458000000000,"state":"active","ping":70},{"user_id":578,"name":"Doctor‚Ñ¢","steam_id":76561198134309750,"connected_time":9967000000000,"state":"active","ping":106},{"user_id":639,"name":"gorlab","steam_id":76561198025089694,"connected_time":2785000000000,"state":"active","ping":62},{"user_id":682,"name":"Distraction","steam_id":76561199445895882,"connected_time":630000000000,"state":"active","ping":53},{"user_id":648,"name":"DIPLODOCUS","steam_id":76561198034786581,"connected_time":2137000000000,"state":"active","ping":84},{"user_id":629,"name":"MEDTheProtogen","steam_id":76561198863984364,"connected_time":3334000000000,"state":"active","ping":91},{"user_id":653,"name":"·≤º ·≤º","steam_id":76561198149443710,"connected_time":1325000000000,"state":"active","ping":107},{"user_id":654,"name":"Captain Underbelly","steam_id":76561198811270935,"connected_time":1264000000000,"state":"active","ping":92},{"user_id":645,"name":" û…íb∆ßA„Öã úœÖ ûi…í…íUH á","steam_id":76561199489544881,"connected_time":2215000000000,"state":"active","ping":159},{"user_id":655,"name":"okokok1031","steam_id":76561198047813960,"connected_time":1151000000000,"state":"active","ping":36},{"user_id":673,"name":"seats","steam_id":76561197998756039,"connected_time":743000000000,"state":"active","ping":105},{"user_id":544,"name":"NEBULA","steam_id":76561198086878595,"connected_time":12755000000000,"state":"active","ping":71},{"user_id":664,"name":"ether","steam_id":76561198064711665,"connected_time":1000000000000,"state":"active","ping":107},{"user_id":612,"name":"orbisg","steam_id":76561198004133638,"connected_time":5533000000000,"state":"active","ping":82},{"user_id":689,"name":"Callahan","steam_id":76561197976928457,"connected_time":392000000000,"state":"active","ping":51},{"user_id":623,"name":"dzcreeper","steam_id":76561198072250723,"connected_time":3869000000000,"state":"active","ping":96},{"user_id":598,"name":"jorts","steam_id":76561199041179985,"connected_time":8443000000000,"state":"active","ping":58},{"user_id":675,"name":"/!\\ ZOLASKI /!\\ trade.tf","steam_id":76561198101096707,"connected_time":724000000000,"state":"active","ping":155},{"user_id":652,"name":"rorywashere /·ê† - Àï -„Éû ‚≥ä","steam_id":76561198065825165,"connected_time":1485000000000,"state":"active","ping":108}]},{"server_id":119,"name":"Uncletopia | Seattle | 2 | All Maps","name_short":"sea-2","host":"sea-1.us.uncletopia.com","port":27025,"enabled":true,"region":"us-west","cc":"us","latitude":47.608013,"longitude":-122.33517,"reserved":0,"last_update":"0001-01-01T00:00:00Z","name_a2s":"Uncletopia | Seattle | 2 | All Maps","protocol":17,"map":"pl_borneo","folder":"tf","game":"Team Fortress","app_id":440,"player_count":9,"max_players":24,"Bots":0,"server_type":"Dedicated","server_os":"Linux","password":true,"vac":true,"version":"7932396","steam_id":85568392924469998,"keywords":["nocrits","nodmgspread","payload","uncletopia"],"game_id":440,"stv_port":27026,"stv_name":"Uncletopia | Seattle | 2 | All Maps | STV","players":[{"user_id":1065,"name":"vchsjc","steam_id":76561199209967082,"connected_time":722000000000,"state":"active","ping":294},{"user_id":1072,"name":"finman","steam_id":76561198127639913,"connected_time":316000000000,"state":"active","ping":76},{"user_id":1056,"name":"BadTad","steam_id":76561198947252709,"connected_time":1562000000000,"state":"active","ping":118},{"user_id":1068,"name":"Sarah D she\\her","steam_id":76561199376578224,"connected_time":431000000000,"state":"active","ping":47},{"user_id":1075,"name":"lilypad\u003c/3","steam_id":76561198094140669,"connected_time":7000000000,"state":"spawning","ping":65},{"user_id":1050,"name":"tindog42","steam_id":76561198066256697,"connected_time":1928000000000,"state":"active","ping":121},{"user_id":1061,"name":"slugmundo","steam_id":76561198073549508,"connected_time":1113000000000,"state":"active","ping":67},{"user_id":1069,"name":"MF Scuttle","steam_id":76561198276310307,"connected_time":360000000000,"state":"active","ping":74},{"user_id":1045,"name":"Cool Dakota - Lesbian Supreme","steam_id":76561198094892479,"connected_time":2873000000000,"state":"active","ping":124}]},{"server_id":406,"name":"Uncletopia | Seattle | 3 | Stopwatch Beta","name_short":"sea-3","host":"sea-1.us.uncletopia.com","port":27035,"enabled":true,"region":"us-west","cc":"us","latitude":47.608013,"longitude":-122.33517,"reserved":0,"last_update":"0001-01-01T00:00:00Z","name_a2s":"Uncletopia | Seattle | 3 | Stopwatch Beta","protocol":17,"map":"workshop/koth_clearcut_b15.ugc2107050255","folder":"tf","game":"Team Fortress","app_id":440,"player_count":0,"max_players":24,"Bots":0,"server_type":"Dedicated","server_os":"Linux","password":true,"vac":true,"version":"7932396","steam_id":85568392924515217,"keywords":["cp","nocrits","nodmgspread","uncletopia"],"game_id":440,"stv_port":27036,"stv_name":"Uncletopia | Seattle | 3 | Stopwatch Beta | STV","players":null},{"server_id":17,"name":"Uncletopia | San Francisco | 1 | All Maps","name_short":"sfo-1","host":"sfo-1.us.uncletopia.com","port":27015,"enabled":true,"region":"us-west","cc":"us","latitude":37.77397,"longitude":-122.4313,"reserved":0,"last_update":"0001-01-01T00:00:00Z","name_a2s":"Uncletopia | San Francisco | 1 | All Maps","protocol":17,"map":"koth_highpass","folder":"tf","game":"Team Fortress","app_id":440,"player_count":0,"max_players":24,"Bots":0,"server_type":"Dedicated","server_os":"Linux","password":true,"vac":true,"version":"7932396","steam_id":85568392924469999,"keywords":["cp","nocrits","nodmgspread","uncletopia"],"game_id":440,"stv_port":27016,"stv_name":"Uncletopia | San Francisco | 1 | All Maps | STV","players":null},{"server_id":18,"name":"Uncletopia | San Francisco | 2 | All Maps","name_short":"sfo-2","host":"sfo-1.us.uncletopia.com","port":27025,"enabled":true,"region":"us-west","cc":"us","latitude":37.77397,"longitude":-122.4313,"reserved":0,"last_update":"0001-01-01T00:00:00Z","name_a2s":"Uncletopia | San Francisco | 2 | All Maps","protocol":17,"map":"cp_altitude","folder":"tf","game":"Team Fortress","app_id":440,"player_count":0,"max_players":24,"Bots":0,"server_type":"Dedicated","server_os":"Linux","password":true,"vac":true,"version":"7932396","steam_id":85568392924470000,"keywords":["cp","nocrits","nodmgspread","uncletopia"],"game_id":440,"stv_port":27026,"stv_name":"Uncletopia | San Francisco | 2 | All Maps | STV","players":null},{"server_id":19,"name":"Uncletopia | San Francisco | 3 | Stopwatch Beta","name_short":"sfo-3","host":"sfo-1.us.uncletopia.com","port":27035,"enabled":true,"region":"us-west","cc":"us","latitude":37.77397,"longitude":-122.4313,"reserved":0,"last_update":"0001-01-01T00:00:00Z","name_a2s":"Uncletopia | San Francisco | 3 | Stopwatch Beta","protocol":17,"map":"workshop/pl_badwater_pro_v12.ugc2142942074","folder":"tf","game":"Team Fortress","app_id":440,"player_count":0,"max_players":24,"Bots":0,"server_type":"Dedicated","server_os":"Linux","password":true,"vac":true,"version":"7932396","steam_id":85568392924742824,"keywords":["nocrits","nodmgspread","payload","uncletopia"],"game_id":440,"stv_port":27036,"stv_name":"Uncletopia | San Francisco | 3 | Stopwatch Beta | STV","players":null},{"server_id":20,"name":"Uncletopia | San Francisco | 4 | Community","name_short":"sfo-4","host":"sfo-1.us.uncletopia.com","port":27045,"enabled":true,"region":"us-west","cc":"us","latitude":37.77397,"longitude":-122.4313,"reserved":0,"last_update":"0001-01-01T00:00:00Z","name_a2s":"Uncletopia | San Francisco | 4 | Community","protocol":17,"map":"workshop/koth_trenchfoot_b1a.ugc731436616","folder":"tf","game":"Team Fortress","app_id":440,"player_count":0,"max_players":24,"Bots":0,"server_type":"Dedicated","server_os":"Linux","password":true,"vac":true,"version":"7932396","steam_id":85568392924742826,"keywords":["cp","nocrits","nodmgspread","uncletopia"],"game_id":440,"stv_port":27046,"stv_name":"Uncletopia | San Francisco | 4 | Community | STV","players":null},{"server_id":141,"name":"Uncletopia | Sydney | 1 | All Maps","name_short":"syd-1","host":"syd-1.au.uncletopia.com","port":27015,"enabled":true,"region":"au","cc":"au","latitude":-33.865143,"longitude":151.2099,"reserved":0,"last_update":"0001-01-01T00:00:00Z","name_a2s":"Uncletopia | Sydney | 1 | All Maps","protocol":17,"map":"koth_highpass","folder":"tf","game":"Team Fortress","app_id":440,"player_count":3,"max_players":24,"Bots":0,"server_type":"Dedicated","server_os":"Linux","password":true,"vac":true,"version":"7932396","steam_id":85568392924470001,"keywords":["cp","nocrits","nodmgspread","uncletopia"],"game_id":440,"stv_port":27016,"stv_name":"Uncletopia | Sydney | 1 | All Maps | STV","players":[{"user_id":124,"name":"Bdizzle","steam_id":76561199120263412,"connected_time":609000000000,"state":"active","ping":56},{"user_id":125,"name":"Detona","steam_id":76561199256351639,"connected_time":574000000000,"state":"active","ping":50},{"user_id":126,"name":"Dolly_xD","steam_id":76561199387422316,"connected_time":539000000000,"state":"active","ping":47}]},{"server_id":123,"name":"Uncletopia | Sydney | 2 | All Maps","name_short":"syd-2","host":"syd-1.au.uncletopia.com","port":27025,"enabled":true,"region":"au","cc":"au","latitude":-33.865143,"longitude":151.2099,"reserved":0,"last_update":"0001-01-01T00:00:00Z","name_a2s":"Uncletopia | Sydney | 2 | All Maps","protocol":17,"map":"pl_barnblitz","folder":"tf","game":"Team Fortress","app_id":440,"player_count":0,"max_players":24,"Bots":0,"server_type":"Dedicated","server_os":"Linux","password":true,"vac":true,"version":"7932396","steam_id":85568392924470002,"keywords":["nocrits","nodmgspread","payload","uncletopia"],"game_id":440,"stv_port":27026,"stv_name":"Uncletopia | Sydney | 2 | All Maps | STV","players":null},{"server_id":395,"name":"Uncletopia | Sydney | 3 | All Maps","name_short":"syd-3","host":"syd-1.au.uncletopia.com","port":27035,"enabled":true,"region":"au","cc":"au","latitude":-33.865143,"longitude":151.2099,"reserved":0,"last_update":"0001-01-01T00:00:00Z","name_a2s":"Uncletopia | Sydney | 3 | All Maps","protocol":17,"map":"plr_pipeline","folder":"tf","game":"Team Fortress","app_id":440,"player_count":16,"max_players":24,"Bots":0,"server_type":"Dedicated","server_os":"Linux","password":true,"vac":true,"version":"7932396","steam_id":85568392925194467,"keywords":["nocrits","nodmgspread","payload","uncletopia"],"game_id":440,"stv_port":27036,"stv_name":"Uncletopia | Sydney | 3 | All Maps | STV","players":[{"user_id":5,"name":"Empol√©","steam_id":76561198363939040,"connected_time":13182000000000,"state":"active","ping":79},{"user_id":161,"name":"dreamydoggy","steam_id":76561198448243169,"connected_time":1433000000000,"state":"active","ping":56},{"user_id":185,"name":"tom :D","steam_id":76561198073393715,"connected_time":316000000000,"state":"active","ping":111},{"user_id":131,"name":"Frog Friend","steam_id":76561198054505772,"connected_time":3103000000000,"state":"active","ping":63},{"user_id":193,"name":"Original Glazed (Krispy/Kreme)","steam_id":76561197997362731,"connected_time":14000000000,"state":"active","ping":44},{"user_id":179,"name":"Jetfire","steam_id":76561198047370036,"connected_time":532000000000,"state":"active","ping":67},{"user_id":191,"name":"Rat Enthusiast","steam_id":76561199011637121,"connected_time":99000000000,"state":"active","ping":88},{"user_id":182,"name":"Sammy","steam_id":76561199199672451,"connected_time":372000000000,"state":"active","ping":91},{"user_id":150,"name":"DIY Miracle","steam_id":76561198046228152,"connected_time":2065000000000,"state":"active","ping":71},{"user_id":186,"name":"squrrel","steam_id":76561198083429611,"connected_time":297000000000,"state":"active","ping":68},{"user_id":192,"name":"calski","steam_id":76561198058375270,"connected_time":92000000000,"state":"active","ping":45},{"user_id":183,"name":"4-Star Yelp Review","steam_id":76561197995258180,"connected_time":351000000000,"state":"active","ping":53},{"user_id":174,"name":"cool38","steam_id":76561198288970258,"connected_time":729000000000,"state":"active","ping":53},{"user_id":82,"name":"badmn","steam_id":76561198056462343,"connected_time":5725000000000,"state":"active","ping":59},{"user_id":171,"name":"BigLadBoyga","steam_id":76561198985263763,"connected_time":916000000000,"state":"active","ping":78},{"user_id":167,"name":"Lace","steam_id":76561198290993506,"connected_time":1268000000000,"state":"active","ping":59}]},{"server_id":396,"name":"Uncletopia | Sydney | 4 | All Maps","name_short":"syd-4","host":"syd-1.au.uncletopia.com","port":27045,"enabled":true,"region":"au","cc":"au","latitude":-33.865143,"longitude":151.2099,"reserved":0,"last_update":"0001-01-01T00:00:00Z","name_a2s":"Uncletopia | Sydney | 4 | All Maps","protocol":17,"map":"koth_lakeside_final","folder":"tf","game":"Team Fortress","app_id":440,"player_count":0,"max_players":24,"Bots":0,"server_type":"Dedicated","server_os":"Linux","password":true,"vac":true,"version":"7932396","steam_id":85568392925397958,"keywords":["cp","nocrits","nodmgspread","uncletopia"],"game_id":440,"stv_port":27046,"stv_name":"Uncletopia | Sydney | 4 | All Maps | STV","players":null},{"server_id":58,"name":"Uncletopia | Sydney | 5 | Stopwatch Beta","name_short":"syd-5","host":"syd-1.au.uncletopia.com","port":27055,"enabled":true,"region":"au","cc":"au","latitude":-33.865143,"longitude":151.2099,"reserved":0,"last_update":"0001-01-01T00:00:00Z","name_a2s":"Uncletopia | Sydney | 5 | Stopwatch Beta","protocol":17,"map":"pl_borneo","folder":"tf","game":"Team Fortress","app_id":440,"player_count":0,"max_players":24,"Bots":0,"server_type":"Dedicated","server_os":"Linux","password":true,"vac":true,"version":"7932396","steam_id":85568392925397959,"keywords":["nocrits","nodmgspread","payload","uncletopia"],"game_id":440,"stv_port":27056,"stv_name":"Uncletopia | Sydney | 5 | Stopwatch Beta | STV","players":null},{"server_id":59,"name":"Uncletopia | Sydney | 6 | Community","name_short":"syd-6","host":"syd-1.au.uncletopia.com","port":27065,"enabled":true,"region":"au","cc":"au","latitude":-33.865143,"longitude":151.2099,"reserved":0,"last_update":"0001-01-01T00:00:00Z","name_a2s":"Uncletopia | Sydney | 6 | Community","protocol":17,"map":"workshop/pl_divulgence_b4b.ugc2884808746","folder":"tf","game":"Team Fortress","app_id":440,"player_count":0,"max_players":24,"Bots":0,"server_type":"Dedicated","server_os":"Linux","password":true,"vac":true,"version":"7932396","steam_id":85568392925397960,"keywords":["nocrits","nodmgspread","payload","uncletopia"],"game_id":440,"stv_port":27066,"stv_name":"Uncletopia | Sydney | 6 | Community | STV","players":null},{"server_id":49,"name":"Uncletopia | Warsaw | 1 | All Maps","name_short":"waw-1","host":"waw-1.pl.uncletopia.com","port":27015,"enabled":true,"region":"eu","cc":"pl","latitude":52.2297,"longitude":21.017532,"reserved":0,"last_update":"0001-01-01T00:00:00Z","name_a2s":"","protocol":0,"map":"","folder":"","game":"","app_id":0,"player_count":0,"max_players":0,"Bots":0,"server_type":"","server_os":"","password":false,"vac":false,"version":"","steam_id":0,"keywords":null,"game_id":0,"stv_port":0,"stv_name":"","players":null},{"server_id":50,"name":"Uncletopia | Warsaw | 2 | All Maps","name_short":"waw-2","host":"waw-1.pl.uncletopia.com","port":27025,"enabled":true,"region":"eu","cc":"pl","latitude":52.2297,"longitude":21.017532,"reserved":0,"last_update":"0001-01-01T00:00:00Z","name_a2s":"Uncletopia | Warsaw | 2 | All Maps","protocol":17,"map":"koth_cascade","folder":"tf","game":"Team Fortress","app_id":440,"player_count":0,"max_players":24,"Bots":0,"server_type":"Dedicated","server_os":"Linux","password":true,"vac":true,"version":"7932396","steam_id":85568392925397851,"keywords":["cp","nocrits","nodmgspread","uncletopia"],"game_id":440,"stv_port":27026,"stv_name":"Uncletopia | Warsaw | 2 | All Maps | STV","players":null},{"server_id":51,"name":"Uncletopia | Warsaw | 3 | All Maps","name_short":"waw-3","host":"waw-1.pl.uncletopia.com","port":27035,"enabled":true,"region":"eu","cc":"pl","latitude":52.2297,"longitude":21.017532,"reserved":0,"last_update":"0001-01-01T00:00:00Z","name_a2s":"Uncletopia | Warsaw | 3 | All Maps","protocol":17,"map":"koth_lakeside_final","folder":"tf","game":"Team Fortress","app_id":440,"player_count":0,"max_players":24,"Bots":0,"server_type":"Dedicated","server_os":"Linux","password":true,"vac":true,"version":"7932396","steam_id":85568392925397852,"keywords":["cp","nocrits","nodmgspread","uncletopia"],"game_id":440,"stv_port":27036,"stv_name":"Uncletopia | Warsaw | 3 | All Maps | STV","players":null},{"server_id":52,"name":"Uncletopia | Warsaw | 4 | All Maps","name_short":"waw-4","host":"waw-1.pl.uncletopia.com","port":27045,"enabled":true,"region":"eu","cc":"pl","latitude":52.2297,"longitude":21.017532,"reserved":0,"last_update":"0001-01-01T00:00:00Z","name_a2s":"Uncletopia | Warsaw | 4 | All Maps","protocol":17,"map":"pl_swiftwater_final1","folder":"tf","game":"Team Fortress","app_id":440,"player_count":0,"max_players":24,"Bots":0,"server_type":"Dedicated","server_os":"Linux","password":true,"vac":true,"version":"7932396","steam_id":85568392925397853,"keywords":["nocrits","nodmgspread","payload","uncletopia"],"game_id":440,"stv_port":27046,"stv_name":"Uncletopia | Warsaw | 4 | All Maps | STV","players":null},{"server_id":53,"name":"Uncletopia | Warsaw | 5 | Stopwatch Beta","name_short":"waw-5","host":"waw-1.pl.uncletopia.com","port":27055,"enabled":true,"region":"eu","cc":"pl","latitude":52.2297,"longitude":21.017532,"reserved":0,"last_update":"0001-01-01T00:00:00Z","name_a2s":"Uncletopia | Warsaw | 5 | Stopwatch Beta","protocol":17,"map":"koth_highpass","folder":"tf","game":"Team Fortress","app_id":440,"player_count":0,"max_players":24,"Bots":0,"server_type":"Dedicated","server_os":"Linux","password":true,"vac":true,"version":"7932396","steam_id":85568392925397854,"keywords":["cp","nocrits","nodmgspread","uncletopia"],"game_id":440,"stv_port":27056,"stv_name":"Uncletopia | Warsaw | 5 | Stopwatch Beta | STV","players":null},{"server_id":54,"name":"Uncletopia | Warsaw | 6 | Community","name_short":"waw-6","host":"waw-1.pl.uncletopia.com","port":27065,"enabled":true,"region":"eu","cc":"pl","latitude":52.2297,"longitude":21.017532,"reserved":0,"last_update":"0001-01-01T00:00:00Z","name_a2s":"Uncletopia | Warsaw | 6 | Community","protocol":17,"map":"pl_upward","folder":"tf","game":"Team Fortress","app_id":440,"player_count":0,"max_players":24,"Bots":0,"server_type":"Dedicated","server_os":"Linux","password":true,"vac":true,"version":"7932396","steam_id":85568392925397856,"keywords":["nocrits","nodmgspread","payload","uncletopia"],"game_id":440,"stv_port":27066,"stv_name":"Uncletopia | Warsaw | 6 | Community | STV","players":null}]}