{"status":true,"message":"","result":[{"server_id":9,"name":"Uncletopia | Atlanta | 1 | All Maps","name_short":"atl-1","host":"atl-1.us.uncletopia.com","port":27015,"enabled":true,"region":"us-east","cc":"us","latitude":33.753746,"longitude":-84.38633,"reserved":0,"last_update":"0001-01-01T00:00:00Z","name_a2s":"Uncletopia | Atlanta | 1 | All Maps","protocol":17,"map":"pl_snowycoast","folder":"tf","game":"Team Fortress","app_id":440,"player_count":0,"max_players":24,"Bots":0,"server_type":"Dedicated","server_os":"Linux","password":true,"vac":true,"version":"7742253","steam_id":85568392924469982,"keywords":["nocrits","nodmgspread","payload","uncletopia"],"game_id":440,"stv_port":27016,"stv_name":"Uncletopia | Atlanta | 1 | All Maps | STV","players":null},{"server_id":400,"name":"Uncletopia | Atlanta | 3 | Stopwatch Beta","name_short":"atl-3","host":"atl-1.us.uncletopia.com","port":27035,"enabled":true,"region":"us-east","cc":"us","latitude":33.753746,"longitude":-84.38633,"reserved":0,"last_update":"0001-01-01T00:00:00Z","name_a2s":"Uncletopia | Atlanta | 3 | Stopwatch Beta","protocol":17,"map":"pl_pier","folder":"tf","game":"Team Fortress","app_id":440,"player_count":0,"max_players":24,"Bots":0,"server_type":"Dedicated","server_os":"Linux","password":true,"vac":true,"version":"7742253","steam_id":85568392924515187,"keywords":["nocrits","nodmgspread","payload","uncletopia"],"game_id":440,"stv_port":27036,"stv_name":"Uncletopia | Atlanta | 3 | Stopwatch Beta | STV","players":null},{"server_id":401,"name":"Uncletopia | Atlanta | 4 | No Payload","name_short":"atl-4","host":"atl-1.us.uncletopia.com","port":27045,"enabled":true,"region":"us-east","cc":"us","latitude":33.753746,"longitude":-84.38633,"reserved":0,"last_update":"0001-01-01T00:00:00Z","name_a2s":"Uncletopia | Atlanta | 4 | No Payload","protocol":17,"map":"pl_pier","folder":"tf","game":"Team Fortress","app_id":440,"player_count":0,"max_players":24,"Bots":0,"server_type":"Dedicated","server_os":"Linux","password":true,"vac":true,"version":"7723704","steam_id":85568392924515188,"keywords":["nocrits","nodmgspread","payload","uncletopia"],"game_id":440,"stv_port":27046,"stv_name":"Uncletopia | Atlanta | 4 | No Payload | STV","players":null},{"server_id":2,"name":"Uncletopia | Chicago | 1 | All Maps","name_short":"chi-1","host":"chi-1.us.uncletopia.com","port":27015,"enabled":true,"region":"us-central","cc":"us","latitude":41.881832,"longitude":-87.62318,"reserved":0,"last_update":"0001-01-01T00:00:00Z","name_a2s":"Uncletopia | Chicago | 1 | All Maps","protocol":17,"map":"koth_viaduct","folder":"tf","game":"Team Fortress","app_id":440,"player_count":0,"max_players":24,"Bots":0,"server_type":"Dedicated","server_os":"Linux","password":true,"vac":true,"version":"7742253","steam_id":85568392924469984,"keywords":["cp","nocrits","nodmgspread","uncletopia"],"game_id":440,"stv_port":27016,"stv_name":"Uncletopia | Chicago | 1 | All Maps | STV","players":null},{"server_id":106,"name":"Uncletopia | Chicago | 2 | All Maps","name_short":"chi-2","host":"chi-1.us.uncletopia.com","port":27025,"enabled":true,"region":"us-central","cc":"us","latitude":41.881832,"longitude":-87.62318,"reserved":0,"last_update":"0001-01-01T00:00:00Z","name_a2s":"Uncletopia | Chicago | 2 | All Maps","protocol":17,"map":"pl_borneo","folder":"tf","game":"Team Fortress","app_id":440,"player_count":0,"max_players":24,"Bots":0,"server_type":"Dedicated","server_os":"Linux","password":true,"vac":true,"version":"7742253","steam_id":85568392924469985,"keywords":["nocrits","nodmgspread","payload","uncletopia"],"game_id":440,"stv_port":27026,"stv_name":"Uncletopia | Chicago | 2 | All Maps | STV","players":null},{"server_id":402,"name":"Uncletopia | Chicago | 3 | All Maps","name_short":"chi-3","host":"chi-1.us.uncletopia.com","port":27035,"enabled":true,"region":"us-central","cc":"us","latitude":41.881832,"longitude":-87.62318,"reserved":0,"last_update":"0001-01-01T00:00:00Z","name_a2s":"Uncletopia | Chicago | 3 | All Maps","protocol":17,"map":"koth_cascade","folder":"tf","game":"Team Fortress","app_id":440,"player_count":0,"max_players":24,"Bots":0,"server_type":"Dedicated","server_os":"Linux","password":true,"vac":true,"version":"7742253","steam_id":85568392924515191,"keywords":["cp","nocrits","nodmgspread","uncletopia"],"game_id":440,"stv_port":27036,"stv_name":"Uncletopia | Chicago | 3 | All Maps | STV","players":null},{"server_id":403,"name":"Uncletopia | Chicago | 4 | All Maps","name_short":"chi-4","host":"chi-1.us.uncletopia.com","port":27045,"enabled":true,"region":"us-central","cc":"us","latitude":41.881832,"longitude":-87.62318,"reserved":0,"last_update":"0001-01-01T00:00:00Z","name_a2s":"Uncletopia | Chicago | 4 | All Maps","protocol":17,"map":"cp_junction_final","folder":"tf","game":"Team Fortress","app_id":440,"player_count":0,"max_players":24,"Bots":0,"server_type":"Dedicated","server_os":"Linux","password":true,"vac":true,"version":"7742253","steam_id":85568392924515193,"keywords":["cp","nocrits","nodmgspread","uncletopia"],"game_id":440,"stv_port":27046,"stv_name":"Uncletopia | Chicago | 4 | All Maps | STV","players":null},{"server_id":36,"name":"Uncletopia | Chicago | 5 | All Maps","name_short":"chi-5","host":"chi-2.us.uncletopia.com","port":27015,"enabled":true,"region":"us-central","cc":"us","latitude":41.881832,"longitude":-87.62318,"reserved":0,"last_update":"0001-01-01T00:00:00Z","name_a2s":"Uncletopia | Chicago | 5 | All Maps","protocol":17,"map":"pl_borneo","folder":"tf","game":"Team Fortress","app_id":440,"player_count":17,"max_players":24,"Bots":0,"server_type":"Dedicated","server_os":"Linux","password":true,"vac":true,"version":"7742253","steam_id":85568392924866362,"keywords":["nocrits","nodmgspread","payload","uncletopia"],"game_id":440,"stv_port":27016,"stv_name":"Uncletopia | Chicago | 5 | All Maps | STV","players":[{"user_id":453,"name":"kezia","steam_id":76561198059815894,"connected_time":847000000000,"state":"active","ping":46},{"user_id":398,"name":"Am I Good At The Video Game?","steam_id":76561198046053281,"connected_time":5105000000000,"state":"active","ping":75},{"user_id":450,"name":"potateking","steam_id":76561198066579830,"connected_time":1433000000000,"state":"active","ping":165},{"user_id":409,"name":"twitch.tv/ladyloki_ch","steam_id":76561198280150602,"connected_time":4367000000000,"state":"active","ping":108},{"user_id":451,"name":"Souper Scott","steam_id":76561198045518926,"connected_time":1381000000000,"state":"active","ping":53},{"user_id":446,"name":"Bonk Nickeltoon","steam_id":76561198027738883,"connected_time":1871000000000,"state":"active","ping":50},{"user_id":458,"name":"Kritzburgh","steam_id":76561198149466938,"connected_time":379000000000,"state":"active","ping":67},{"user_id":456,"name":"yellow","steam_id":76561198366474647,"connected_time":420000000000,"state":"active","ping":84},{"user_id":378,"name":"cheese (?)","steam_id":76561198232500756,"connected_time":7023000000000,"state":"active","ping":77},{"user_id":416,"name":"Warzard","steam_id":76561199154051413,"connected_time":4057000000000,"state":"active","ping":99},{"user_id":437,"name":"Ta5K","steam_id":76561198939558155,"connected_time":2585000000000,"state":"active","ping":45},{"user_id":444,"name":"Blargh","steam_id":76561198044095816,"connected_time":1962000000000,"state":"active","ping":60},{"user_id":441,"name":"da rotten orange","steam_id":76561198064374380,"connected_time":2338000000000,"state":"active","ping":109},{"user_id":442,"name":"Flacko","steam_id":76561198018565211,"connected_time":2325000000000,"state":"active","ping":104},{"user_id":448,"name":"ONETAPMAN","steam_id":76561198195996071,"connected_time":1651000000000,"state":"active","ping":60},{"user_id":457,"name":"RelatableiLLness","steam_id":76561198441669772,"connected_time":398000000000,"state":"active","ping":83},{"user_id":459,"name":"El Viejo Paulino","steam_id":76561198211944169,"connected_time":258000000000,"state":"active","ping":92}]},{"server_id":37,"name":"Uncletopia | Chicago | 6 | All Maps","name_short":"chi-6","host":"chi-2.us.uncletopia.com","port":27025,"enabled":true,"region":"us-central","cc":"us","latitude":41.881832,"longitude":-87.62318,"reserved":0,"last_update":"0001-01-01T00:00:00Z","name_a2s":"Uncletopia | Chicago | 6 | All Maps","protocol":17,"map":"cp_steel","folder":"tf","game":"Team Fortress","app_id":440,"player_count":24,"max_players":24,"Bots":0,"server_type":"Dedicated","server_os":"Linux","password":true,"vac":true,"version":"7742253","steam_id":85568392924866363,"keywords":["cp","nocrits","nodmgspread","uncletopia"],"game_id":440,"stv_port":27026,"stv_name":"Uncletopia | Chicago | 6 | All Maps | STV","players":[{"user_id":722,"name":"gwendolyn","steam_id":76561198154719104,"connected_time":5016000000000,"state":"active","ping":74},{"user_id":774,"name":"viedoamegs","steam_id":76561198025295263,"connected_time":400000000000,"state":"active","ping":74},{"user_id":777,"name":"MaybeMars","steam_id":76561198084736804,"connected_time":190000000000,"state":"active","ping":75},{"user_id":778,"name":"ZBaldTop","steam_id":76561199396318132,"connected_time":146000000000,"state":"active","ping":73},{"user_id":758,"name":"Lemonty","steam_id":76561198163812778,"connected_time":1299000000000,"state":"active","ping":62},{"user_id":662,"name":"MisterDanny8","steam_id":76561198048847182,"connected_time":9511000000000,"state":"active","ping":61},{"user_id":742,"name":"a mi manera","steam_id":76561198195141221,"connected_time":2231000000000,"state":"active","ping":82},{"user_id":779,"name":"deez ratz","steam_id":76561198864572366,"connected_time":113000000000,"state":"active","ping":104},{"user_id":759,"name":"Antreuse","steam_id":76561198219721132,"connected_time":1262000000000,"state":"active","ping":114},{"user_id":736,"name":"Xx_TNTRED_xX","steam_id":76561198357704703,"connected_time":3315000000000,"state":"active","ping":670},{"user_id":741,"name":"conductor i have a problem","steam_id":76561198140231083,"connected_time":2462000000000,"state":"active","ping":109},{"user_id":706,"name":"Snazzi","steam_id":76561198085208276,"connected_time":6195000000000,"state":"active","ping":80},{"user_id":735,"name":"yumyum","steam_id":76561198150567198,"connected_time":3402000000000,"state":"active","ping":62},{"user_id":781,"name":"Soap Man","steam_id":76561198000490235,"connected_time":48000000000,"state":"active","ping":117},{"user_id":782,"name":"mr detective","steam_id":76561198079892116,"connected_time":31000000000,"state":"active","ping":48},{"user_id":761,"name":"Gibus Enjoyer","steam_id":76561199158508890,"connected_time":1185000000000,"state":"active","ping":62},{"user_id":767,"name":"A Pair of Candy Canes","steam_id":76561198052239472,"connected_time":895000000000,"state":"active","ping":105},{"user_id":768,"name":"later aligater","steam_id":76561198021609442,"connected_time":889000000000,"state":"active","ping":57},{"user_id":783,"name":"fire up the jack machine","steam_id":76561199224443704,"connected_time":5000000000,"state":"spawning","ping":118},{"user_id":770,"name":"twitch.tv/Yoshi21 | TF2Pugs.com","steam_id":76561198002516729,"connected_time":822000000000,"state":"active","ping":70},{"user_id":708,"name":"febfowl","steam_id":76561198023888890,"connected_time":6147000000000,"state":"active","ping":90},{"user_id":717,"name":"marilyn","steam_id":76561198096738991,"connected_time":5866000000000,"state":"active","ping":81},{"user_id":784,"name":"Nexus","steam_id":76561198187929865,"connected_time":2000000000,"state":"spawning","ping":57},{"user_id":772,"name":"Carnivore","steam_id":76561198170160875,"connected_time":718000000000,"state":"active","ping":63}]},{"server_id":38,"name":"Uncletopia | Chicago | 7 | Stopwatch Beta","name_short":"chi-7","host":"chi-2.us.uncletopia.com","port":27035,"enabled":true,"region":"us-central","cc":"us","latitude":41.881832,"longitude":-87.62318,"reserved":0,"last_update":"0001-01-01T00:00:00Z","name_a2s":"Uncletopia | Chicago | 7 | Stopwatch Beta","protocol":17,"map":"pl_upward","folder":"tf","game":"Team Fortress","app_id":440,"player_count":0,"max_players":24,"Bots":0,"server_type":"Dedicated","server_os":"Linux","password":true,"vac":true,"version":"7742253","steam_id":85568392924866364,"keywords":["nocrits","nodmgspread","payload","uncletopia"],"game_id":440,"stv_port":27036,"stv_name":"Uncletopia | Chicago | 7 | Stopwatch Beta | STV","players":null},{"server_id":39,"name":"Uncletopia | Chicago | 8 | Community","name_short":"chi-8","host":"chi-2.us.uncletopia.com","port":27045,"enabled":true,"region":"us-central","cc":"us","latitude":41.881832,"longitude":-87.62318,"reserved":0,"last_update":"0001-01-01T00:00:00Z","name_a2s":"Uncletopia | Chicago | 8 | Community","protocol":17,"map":"workshop/koth_product_final.ugc454272353","folder":"tf","game":"Team Fortress","app_id":440,"player_count":0,"max_players":24,"Bots":0,"server_type":"Dedicated","server_os":"Linux","password":true,"vac":true,"version":"7742253","steam_id":85568392924866365,"keywords":["cp","nocrits","nodmgspread","uncletopia"],"game_id":440,"stv_port":27046,"stv_name":"Uncletopia | Chicago | 8 | Community | STV","players":null},{"server_id":8,"name":"Uncletopia | Dallas | 1 | All Maps","name_short":"dal-1","host":"dal-1.us.uncletopia.com","port":27015,"enabled":true,"region":"us-central","cc":"us","latitude":32.779167,"longitude":-96.80889,"reserved":0,"last_update":"0001-01-01T00:00:00Z","name_a2s":"Uncletopia | Dallas | 1 | All Maps","protocol":17,"map":"cp_sunshine","folder":"tf","game":"Team Fortress","app_id":440,"player_count":0,"max_players":24,"Bots":0,"server_type":"Dedicated","server_os":"Linux","password":true,"vac":true,"version":"7742253","steam_id":85568392924469986,"keywords":["cp","nocrits","nodmgspread","uncletopia"],"game_id":440,"stv_port":27016,"stv_name":"Uncletopia | Dallas | 1 | All Maps | STV","players":null},{"server_id":108,"name":"Uncletopia | Dallas | 2 | All Maps","name_short":"dal-2","host":"dal-1.us.uncletopia.com","port":27025,"enabled":true,"region":"us-central","cc":"us","latitude":32.779167,"longitude":-96.80889,"reserved":0,"last_update":"0001-01-01T00:00:00Z","name_a2s":"Uncletopia | Dallas | 2 | All Maps","protocol":17,"map":"cp_process_final","folder":"tf","game":"Team Fortress","app_id":440,"player_count":0,"max_players":24,"Bots":0,"server_type":"Dedicated","server_os":"Linux","password":true,"vac":true,"version":"7742253","steam_id":85568392924469988,"keywords":["cp","nocrits","nodmgspread","uncletopia"],"game_id":440,"stv_port":27026,"stv_name":"Uncletopia | Dallas | 2 | All Maps | STV","players":null},{"server_id":5,"name":"Uncletopia | Frankfurt | 1 | All Maps","name_short":"frk-1","host":"frk-1.de.uncletopia.com","port":27015,"enabled":true,"region":"eu","cc":"de","latitude":50.110924,"longitude":8.682127,"reserved":0,"last_update":"0001-01-01T00:00:00Z","name_a2s":"Uncletopia | Frankfurt | 1 | All Maps","protocol":17,"map":"pl_badwater","folder":"tf","game":"Team Fortress","app_id":440,"player_count":24,"max_players":24,"Bots":0,"server_type":"Dedicated","server_os":"Linux","password":true,"vac":true,"version":"7742253","steam_id":85568392924469989,"keywords":["nocrits","nodmgspread","payload","uncletopia"],"game_id":440,"stv_port":27016,"stv_name":"Uncletopia | Frankfurt | 1 | All Maps | STV","players":[{"user_id":106,"name":"Gibus_","steam_id":76561198333699233,"connected_time":565000000000,"state":"active","ping":67},{"user_id":107,"name":"Iva","steam_id":76561198254963150,"connected_time":160000000000,"state":"active","ping":46},{"user_id":104,"name":"Johnny","steam_id":76561198880265246,"connected_time":746000000000,"state":"active","ping":91},{"user_id":86,"name":"potestas subversae","steam_id":76561198417999443,"connected_time":1987000000000,"state":"active","ping":94},{"user_id":96,"name":"Oxitocin","steam_id":76561198119542899,"connected_time":1061000000000,"state":"active","ping":73},{"user_id":90,"name":"Platform666","steam_id":76561198314266851,"connected_time":1415000000000,"state":"active","ping":88},{"user_id":109,"name":"vikingo12","steam_id":76561198205392996,"connected_time":121000000000,"state":"active","ping":86},{"user_id":68,"name":"Virgil","steam_id":76561198248786778,"connected_time":2970000000000,"state":"active","ping":116},{"user_id":97,"name":"Mr. Potato the 11th","steam_id":76561198163246758,"connected_time":1052000000000,"state":"active","ping":46},{"user_id":105,"name":"dick cheese","steam_id":76561197996692535,"connected_time":599000000000,"state":"active","ping":63},{"user_id":102,"name":"Taekio","steam_id":76561198158934992,"connected_time":803000000000,"state":"active","ping":74},{"user_id":87,"name":"black queer santa","steam_id":76561198040241299,"connected_time":1665000000000,"state":"active","ping":62},{"user_id":48,"name":"TTV/pablo_ricco","steam_id":76561198279839318,"connected_time":3374000000000,"state":"active","ping":81},{"user_id":75,"name":"beurgeur","steam_id":76561198872426314,"connected_time":2823000000000,"state":"active","ping":45},{"user_id":63,"name":"Rezkey","steam_id":76561198206079048,"connected_time":3053000000000,"state":"active","ping":59},{"user_id":72,"name":"Salmiakki","steam_id":76561198061510276,"connected_time":2894000000000,"state":"active","ping":71},{"user_id":94,"name":"HwK!","steam_id":76561198287835588,"connected_time":1163000000000,"state":"active","ping":84},{"user_id":103,"name":"Fa1S","steam_id":76561198317509779,"connected_time":792000000000,"state":"active","ping":103},{"user_id":101,"name":"Rops","steam_id":76561198031608011,"connected_time":889000000000,"state":"active","ping":78},{"user_id":92,"name":"Pyr0s_Fx","steam_id":76561198057201503,"connected_time":1320000000000,"state":"active","ping":53},{"user_id":74,"name":"yasser","steam_id":76561198103973320,"connected_time":2851000000000,"state":"active","ping":107},{"user_id":108,"name":"duster cat","steam_id":76561198832231975,"connected_time":157000000000,"state":"active","ping":88},{"user_id":99,"name":"joe fishington","steam_id":76561198261250961,"connected_time":1030000000000,"state":"active","ping":98},{"user_id":100,"name":"Taewinzer","steam_id":76561198261820803,"connected_time":1030000000000,"state":"active","ping":66}]},{"server_id":110,"name":"Uncletopia | Frankfurt | 2 | All Maps","name_short":"frk-2","host":"frk-1.de.uncletopia.com","port":27025,"enabled":true,"region":"eu","cc":"de","latitude":50.110924,"longitude":8.682127,"reserved":0,"last_update":"0001-01-01T00:00:00Z","name_a2s":"Uncletopia | Frankfurt | 2 | All Maps","protocol":17,"map":"pl_swiftwater_final1","folder":"tf","game":"Team Fortress","app_id":440,"player_count":24,"max_players":24,"Bots":0,"server_type":"Dedicated","server_os":"Linux","password":true,"vac":true,"version":"7742253","steam_id":85568392924469990,"keywords":["nocrits","nodmgspread","payload","uncletopia"],"game_id":440,"stv_port":27026,"stv_name":"Uncletopia | Frankfurt | 2 | All Maps | STV","players":[{"user_id":4,"name":"tree__dude","steam_id":76561198975762241,"connected_time":1795000000000,"state":"active","ping":110},{"user_id":33,"name":"Patrick Bateman","steam_id":76561198408829424,"connected_time":316000000000,"state":"active","ping":72},{"user_id":9,"name":"steel_v41","steam_id":76561199014781716,"connected_time":1477000000000,"state":"active","ping":66},{"user_id":7,"name":"fried","steam_id":76561198307522022,"connected_time":1621000000000,"state":"active","ping":58},{"user_id":8,"name":"randomoneye","steam_id":76561199380157176,"connected_time":1545000000000,"state":"active","ping":66},{"user_id":17,"name":"ImABush","steam_id":76561198304471896,"connected_time":1014000000000,"state":"active","ping":48},{"user_id":18,"name":"Filleman","steam_id":76561198159386946,"connected_time":884000000000,"state":"active","ping":54},{"user_id":12,"name":"ɘƚɒ⅃ɘƚɒ⅃ /./ =)(= \\.\\","steam_id":76561198053339372,"connected_time":1314000000000,"state":"active","ping":57},{"user_id":34,"name":"night.s","steam_id":76561198326287823,"connected_time":29000000000,"state":"active","ping":73},{"user_id":14,"name":"dogwater69","steam_id":76561198058366676,"connected_time":1239000000000,"state":"active","ping":68},{"user_id":15,"name":"JohnTraveltime","steam_id":76561199244281754,"connected_time":1224000000000,"state":"active","ping":77},{"user_id":19,"name":"Lord Odment","steam_id":76561198044354976,"connected_time":863000000000,"state":"active","ping":102},{"user_id":20,"name":"fmdi","steam_id":76561199433879329,"connected_time":812000000000,"state":"active","ping":68},{"user_id":21,"name":"hulluheppu1","steam_id":76561198093458326,"connected_time":705000000000,"state":"active","ping":65},{"user_id":22,"name":"delta man","steam_id":76561198204491245,"connected_time":630000000000,"state":"active","ping":138},{"user_id":23,"name":"henoadam","steam_id":76561198151350377,"connected_time":625000000000,"state":"active","ping":57},{"user_id":24,"name":"Your friend (maybe)","steam_id":76561198240278328,"connected_time":596000000000,"state":"active","ping":68},{"user_id":32,"name":"Williamzas","steam_id":76561198035728623,"connected_time":388000000000,"state":"active","ping":72},{"user_id":26,"name":"DOMAIN","steam_id":76561199095640319,"connected_time":553000000000,"state":"active","ping":75},{"user_id":27,"name":"Metalingus","steam_id":76561198170032210,"connected_time":549000000000,"state":"active","ping":93},{"user_id":28,"name":"I am dry man","steam_id":76561198039209685,"connected_time":486000000000,"state":"active","ping":57},{"user_id":29,"name":"alcha","steam_id":76561198248628176,"connected_time":470000000000,"state":"active","ping":64},{"user_id":30,"name":"WUNNA","steam_id":76561198999848273,"connected_time":464000000000,"state":"active","ping":76},{"user_id":31,"name":"Avoonix","steam_id":76561198186954897,"connected_time":462000000000,"state":"active","ping":68}]},{"server_id":308,"name":"Uncletopia | Frankfurt | 3 | All Maps","name_short":"frk-3","host":"frk-1.de.uncletopia.com","port":27035,"enabled":true,"region":"eu","cc":"de","latitude":50.110924,"longitude":8.682127,"reserved":0,"last_update":"0001-01-01T00:00:00Z","name_a2s":"Uncletopia | Frankfurt | 3 | All Maps","protocol":17,"map":"pl_upward","folder":"tf","game":"Team Fortress","app_id":440,"player_count":0,"max_players":24,"Bots":0,"server_type":"Dedicated","server_os":"Linux","password":true,"vac":true,"version":"7742253","steam_id":85568392924504274,"keywords":["nocrits","nodmgspread","payload","uncletopia"],"game_id":440,"stv_port":27036,"stv_name":"Uncletopia | Frankfurt | 3 | All Maps | STV","players":null},{"server_id":309,"name":"Uncletopia | Frankfurt | 4 | All Maps","name_short":"frk-4","host":"frk-1.de.uncletopia.com","port":27045,"enabled":true,"region":"eu","cc":"de","latitude":50.110924,"longitude":8.682127,"reserved":0,"last_update":"0001-01-01T00:00:00Z","name_a2s":"Uncletopia | Frankfurt | 4 | All Maps","protocol":17,"map":"koth_cascade","folder":"tf","game":"Team Fortress","app_id":440,"player_count":0,"max_players":24,"Bots":0,"server_type":"Dedicated","server_os":"Linux","password":true,"vac":true,"version":"7742253","steam_id":85568392924504275,"keywords":["cp","nocrits","nodmgspread","uncletopia"],"game_id":440,"stv_port":27046,"stv_name":"Uncletopia | Frankfurt | 4 | All Maps | STV","players":null},{"server_id":310,"name":"Uncletopia | Frankfurt | 5 | All Maps","name_short":"frk-5","host":"frk-1.de.uncletopia.com","port":27055,"enabled":true,"region":"eu","cc":"de","latitude":50.110924,"longitude":8.682127,"reserved":0,"last_update":"0001-01-01T00:00:00Z","name_a2s":"Uncletopia | Frankfurt | 5 | All Maps","protocol":17,"map":"cp_sunshine","folder":"tf","game":"Team Fortress","app_id":440,"player_count":0,"max_players":24,"Bots":0,"server_type":"Dedicated","server_os":"Linux","password":true,"vac":true,"version":"7742253","steam_id":85568392924504277,"keywords":["cp","nocrits","nodmgspread","uncletopia"],"game_id":440,"stv_port":27056,"stv_name":"Uncletopia | Frankfurt | 5 | All Maps | STV","players":null},{"server_id":311,"name":"Uncletopia | Frankfurt | 6 | All Maps","name_short":"frk-6","host":"frk-1.de.uncletopia.com","port":27065,"enabled":true,"region":"eu","cc":"de","latitude":50.110924,"longitude":8.682127,"reserved":0,"last_update":"0001-01-01T00:00:00Z","name_a2s":"Uncletopia | Frankfurt | 6 | All Maps","protocol":17,"map":"koth_lakeside_final","folder":"tf","game":"Team Fortress","app_id":440,"player_count":0,"max_players":24,"Bots":0,"server_type":"Dedicated","server_os":"Linux","password":true,"vac":true,"version":"7742253","steam_id":85568392924504278,"keywords":["cp","nocrits","nodmgspread","uncletopia"],"game_id":440,"stv_port":27066,"stv_name":"Uncletopia | Frankfurt | 6 | All Maps | STV","players":null},{"server_id":23,"name":"Uncletopia | Frankfurt | 7 | Stopwatch Beta","name_short":"frk-7","host":"frk-1.de.uncletopia.com","port":27075,"enabled":true,"region":"eu","cc":"de","latitude":50.110924,"longitude":8.682127,"reserved":0,"last_update":"0001-01-01T00:00:00Z","name_a2s":"Uncletopia | Frankfurt | 7 | Stopwatch Beta","protocol":17,"map":"pl_badwater","folder":"tf","game":"Team Fortress","app_id":440,"player_count":0,"max_players":24,"Bots":0,"server_type":"Dedicated","server_os":"Linux","password":true,"vac":true,"version":"7742253","steam_id":85568392924742827,"keywords":["nocrits","nodmgspread","payload","uncletopia"],"game_id":440,"stv_port":27076,"stv_name":"Uncletopia | Frankfurt | 7 | Stopwatch Beta | STV","players":null},{"server_id":24,"name":"Uncletopia | Frankfurt | 8 | Community","name_short":"frk-8","host":"frk-1.de.uncletopia.com","port":27085,"enabled":true,"region":"eu","cc":"de","latitude":50.110924,"longitude":8.682127,"reserved":0,"last_update":"0001-01-01T00:00:00Z","name_a2s":"Uncletopia | Frankfurt | 8 | Community","protocol":17,"map":"koth_cascade","folder":"tf","game":"Team Fortress","app_id":440,"player_count":0,"max_players":24,"Bots":0,"server_type":"Dedicated","server_os":"Linux","password":true,"vac":true,"version":"7742253","steam_id":85568392924742828,"keywords":["cp","nocrits","nodmgspread","uncletopia"],"game_id":440,"stv_port":27086,"stv_name":"Uncletopia | Frankfurt | 8 | Community | STV","players":null},{"server_id":202,"name":"Uncletopia | Hong Kong | 1 | All Maps","name_short":"hgk-1","host":"hgk-1.hk.uncletopia.com","port":27015,"enabled":true,"region":"asia","cc":"hk","latitude":22.302711,"longitude":114.177216,"reserved":0,"last_update":"0001-01-01T00:00:00Z","name_a2s":"Uncletopia | Hong Kong | 1 | All Maps","protocol":17,"map":"pl_borneo","folder":"tf","game":"Team Fortress","app_id":440,"player_count":21,"max_players":24,"Bots":0,"server_type":"Dedicated","server_os":"Linux","password":true,"vac":true,"version":"7742253","steam_id":85568392924494504,"keywords":["nocrits","nodmgspread","payload","uncletopia"],"game_id":440,"stv_port":27016,"stv_name":"Uncletopia | Hong Kong | 1 | All Maps | STV","players":[{"user_id":438,"name":"MR. BUTTER","steam_id":76561198329902657,"connected_time":1707000000000,"state":"active","ping":104},{"user_id":441,"name":"CRépuscule","steam_id":76561199379223866,"connected_time":1510000000000,"state":"active","ping":84},{"user_id":456,"name":"bingbong","steam_id":76561199294237074,"connected_time":854000000000,"state":"active","ping":140},{"user_id":320,"name":"brizzard","steam_id":76561198048438653,"connected_time":7823000000000,"state":"active","ping":45},{"user_id":466,"name":"Lyds","steam_id":76561199005908018,"connected_time":463000000000,"state":"active","ping":133},{"user_id":469,"name":"62","steam_id":76561199125040367,"connected_time":24000000000,"state":"active","ping":51},{"user_id":468,"name":"UltraFat","steam_id":76561198253918132,"connected_time":224000000000,"state":"active","ping":73},{"user_id":464,"name":"Gazzor","steam_id":76561199081356069,"connected_time":584000000000,"state":"active","ping":131},{"user_id":443,"name":"juan233","steam_id":76561198867566247,"connected_time":1420000000000,"state":"active","ping":116},{"user_id":452,"name":"no vc no c","steam_id":76561197989503095,"connected_time":1098000000000,"state":"active","ping":98},{"user_id":436,"name":"Koishi","steam_id":76561198212114601,"connected_time":1836000000000,"state":"active","ping":82},{"user_id":444,"name":"dumb exoc","steam_id":76561198966151288,"connected_time":1418000000000,"state":"active","ping":63},{"user_id":344,"name":"Rephex","steam_id":76561198308185574,"connected_time":6185000000000,"state":"active","ping":144},{"user_id":467,"name":":)","steam_id":76561198437941450,"connected_time":393000000000,"state":"active","ping":79},{"user_id":453,"name":"vielvladimir","steam_id":76561198170299341,"connected_time":1036000000000,"state":"active","ping":149},{"user_id":448,"name":"apollo","steam_id":76561198823374287,"connected_time":1232000000000,"state":"active","ping":74},{"user_id":449,"name":"bad at everything(f2p)","steam_id":76561199378524169,"connected_time":1228000000000,"state":"active","ping":182},{"user_id":457,"name":"cjjakeypaul","steam_id":76561199126245431,"connected_time":803000000000,"state":"active","ping":121},{"user_id":400,"name":"corpse_cadaver","steam_id":76561199225360457,"connected_time":3377000000000,"state":"active","ping":63},{"user_id":458,"name":"Jimmy Neutron","steam_id":76561199090796146,"connected_time":799000000000,"state":"active","ping":61},{"user_id":465,"name":"cellum95","steam_id":76561198172146871,"connected_time":516000000000,"state":"active","ping":74}]},{"server_id":1,"name":"Uncletopia | Los Angeles | 1 | All Maps","name_short":"lax-1","host":"lax-1.us.uncletopia.com","port":27015,"enabled":true,"region":"us-west","cc":"us","latitude":33.94279,"longitude":-118.41004,"reserved":0,"last_update":"0001-01-01T00:00:00Z","name_a2s":"Uncletopia | Los Angeles | 1 | All Maps","protocol":17,"map":"koth_viaduct","folder":"tf","game":"Team Fortress","app_id":440,"player_count":0,"max_players":24,"Bots":0,"server_type":"Dedicated","server_os":"Linux","password":true,"vac":true,"version":"7742253","steam_id":85568392924469991,"keywords":["cp","nocrits","nodmgspread","uncletopia"],"game_id":440,"stv_port":27016,"stv_name":"Uncletopia | Los Angeles | 1 | All Maps | STV","players":null},{"server_id":112,"name":"Uncletopia | Los Angeles | 2 | All Maps","name_short":"lax-2","host":"lax-1.us.uncletopia.com","port":27025,"enabled":true,"region":"us-west","cc":"us","latitude":33.94279,"longitude":-118.41004,"reserved":0,"last_update":"0001-01-01T00:00:00Z","name_a2s":"Uncletopia | Los Angeles | 2 | All Maps","protocol":17,"map":"koth_viaduct","folder":"tf","game":"Team Fortress","app_id":440,"player_count":0,"max_players":24,"Bots":0,"server_type":"Dedicated","server_os":"Linux","password":true,"vac":true,"version":"7742253","steam_id":85568392924469992,"keywords":["cp","nocrits","nodmgspread","uncletopia"],"game_id":440,"stv_port":27026,"stv_name":"Uncletopia | Los Angeles | 2 | All Maps | STV","players":null},{"server_id":324,"name":"Uncletopia | Los Angeles | 3 | All Maps","name_short":"lax-3","host":"lax-1.us.uncletopia.com","port":27035,"enabled":true,"region":"us-west","cc":"us","latitude":33.94279,"longitude":-118.41004,"reserved":0,"last_update":"0001-01-01T00:00:00Z","name_a2s":"Uncletopia | Los Angeles | 3 | All Maps","protocol":17,"map":"cp_altitude","folder":"tf","game":"Team Fortress","app_id":440,"player_count":0,"max_players":24,"Bots":0,"server_type":"Dedicated","server_os":"Linux","password":true,"vac":true,"version":"7742253","steam_id":85568392924510198,"keywords":["cp","nocrits","nodmgspread","uncletopia"],"game_id":440,"stv_port":27036,"stv_name":"Uncletopia | Los Angeles | 3 | All Maps | STV","players":null},{"server_id":25,"name":"Uncletopia | Los Angeles | 4 | Stopwatch Beta","name_short":"lax-4","host":"lax-1.us.uncletopia.com","port":27045,"enabled":true,"region":"us-west","cc":"us","latitude":33.94279,"longitude":-118.41004,"reserved":0,"last_update":"0001-01-01T00:00:00Z","name_a2s":"Uncletopia | Los Angeles | 4 | Stopwatch Beta","protocol":17,"map":"workshop/koth_product_final.ugc454272353","folder":"tf","game":"Team Fortress","app_id":440,"player_count":0,"max_players":24,"Bots":0,"server_type":"Dedicated","server_os":"Linux","password":true,"vac":true,"version":"7742253","steam_id":85568392924510199,"keywords":["cp","nocrits","nodmgspread","uncletopia"],"game_id":440,"stv_port":27046,"stv_name":"Uncletopia | Los Angeles | 4 | Stopwatch Beta | STV","players":null},{"server_id":11,"name":"Uncletopia | London | 1 | All Maps","name_short":"lon-1","host":"lon-1.uk.uncletopia.com","port":27015,"enabled":true,"region":"eu","cc":"gb","latitude":51.509865,"longitude":-0.118092,"reserved":0,"last_update":"0001-01-01T00:00:00Z","name_a2s":"Uncletopia | London | 1 | All Maps","protocol":17,"map":"koth_viaduct","folder":"tf","game":"Team Fortress","app_id":440,"player_count":24,"max_players":24,"Bots":0,"server_type":"Dedicated","server_os":"Linux","password":true,"vac":true,"version":"7742253","steam_id":85568392924367362,"keywords":["cp","nocrits","nodmgspread","uncletopia"],"game_id":440,"stv_port":27016,"stv_name":"Uncletopia | London | 1 | All Maps | STV","players":[{"user_id":6,"name":"Mika","steam_id":76561199183780280,"connected_time":2351000000000,"state":"active","ping":56},{"user_id":37,"name":"desoo","steam_id":76561198052878585,"connected_time":300000000000,"state":"active","ping":132},{"user_id":44,"name":"Jeff","steam_id":76561198949174773,"connected_time":113000000000,"state":"active","ping":73},{"user_id":9,"name":"Milk","steam_id":76561198125876588,"connected_time":2194000000000,"state":"active","ping":42},{"user_id":14,"name":"Mandel","steam_id":76561199183213205,"connected_time":1495000000000,"state":"active","ping":68},{"user_id":39,"name":"Bottomless Crop Top","steam_id":76561198090052000,"connected_time":277000000000,"state":"active","ping":133},{"user_id":38,"name":"Tam","steam_id":76561199039394252,"connected_time":300000000000,"state":"active","ping":143},{"user_id":33,"name":"Chill Spirit","steam_id":76561198845001725,"connected_time":358000000000,"state":"active","ping":53},{"user_id":16,"name":"sigma female","steam_id":76561198298576765,"connected_time":1166000000000,"state":"active","ping":62},{"user_id":17,"name":"lant420","steam_id":76561198206673920,"connected_time":1015000000000,"state":"active","ping":93},{"user_id":34,"name":"OevLex","steam_id":76561198367557357,"connected_time":343000000000,"state":"active","ping":79},{"user_id":19,"name":"Artock","steam_id":76561198808599713,"connected_time":901000000000,"state":"active","ping":81},{"user_id":27,"name":"Syd","steam_id":76561198020515027,"connected_time":665000000000,"state":"active","ping":68},{"user_id":43,"name":"ThomasLovesJesus","steam_id":76561199229679343,"connected_time":173000000000,"state":"active","ping":45},{"user_id":23,"name":"Мы с Украиной","steam_id":76561198022402155,"connected_time":791000000000,"state":"active","ping":31},{"user_id":28,"name":"Dieu-Sama","steam_id":76561198002075862,"connected_time":614000000000,"state":"active","ping":51},{"user_id":31,"name":"EZPK","steam_id":76561197987474355,"connected_time":464000000000,"state":"active","ping":59},{"user_id":32,"name":"toe eater","steam_id":76561199272782484,"connected_time":394000000000,"state":"active","ping":102},{"user_id":29,"name":"D-boi","steam_id":76561199001837576,"connected_time":605000000000,"state":"active","ping":45},{"user_id":45,"name":"Echo of Abyss","steam_id":76561198981841782,"connected_time":67000000000,"state":"active","ping":72},{"user_id":36,"name":":Average Furry Sniper","steam_id":76561199259837426,"connected_time":316000000000,"state":"active","ping":60},{"user_id":40,"name":"Cupid","steam_id":76561198188478227,"connected_time":254000000000,"state":"active","ping":112},{"user_id":41,"name":"Dark ^^","steam_id":76561198036241064,"connected_time":241000000000,"state":"active","ping":70},{"user_id":42,"name":"テイルス","steam_id":76561198022403271,"connected_time":223000000000,"state":"active","ping":49}]},{"server_id":114,"name":"Uncletopia | London | 2 | All Maps","name_short":"lon-2","host":"lon-1.uk.uncletopia.com","port":27025,"enabled":true,"region":"eu","cc":"gb","latitude":51.509865,"longitude":-0.118092,"reserved":0,"last_update":"0001-01-01T00:00:00Z","name_a2s":"Uncletopia | London | 2 | All Maps","protocol":17,"map":"pl_borneo","folder":"tf","game":"Team Fortress","app_id":440,"player_count":0,"max_players":24,"Bots":0,"server_type":"Dedicated","server_os":"Linux","password":true,"vac":true,"version":"7742253","steam_id":85568392924470941,"keywords":["nocrits","nodmgspread","payload","uncletopia"],"game_id":440,"stv_port":27026,"stv_name":"Uncletopia | London | 2 | All Maps | STV","players":null},{"server_id":320,"name":"Uncletopia | London | 3 | All Maps","name_short":"lon-3","host":"lon-1.uk.uncletopia.com","port":27035,"enabled":true,"region":"eu","cc":"gb","latitude":51.509865,"longitude":-0.118092,"reserved":0,"last_update":"0001-01-01T00:00:00Z","name_a2s":"Uncletopia | London | 3 | All Maps","protocol":17,"map":"pl_badwater","folder":"tf","game":"Team Fortress","app_id":440,"player_count":22,"max_players":24,"Bots":0,"server_type":"Dedicated","server_os":"Linux","password":true,"vac":true,"version":"7742253","steam_id":85568392924510192,"keywords":["nocrits","nodmgspread","payload","uncletopia"],"game_id":440,"stv_port":27036,"stv_name":"Uncletopia | London | 3 | All Maps | STV","players":[{"user_id":97,"name":"Lemmy","steam_id":76561199038870751,"connected_time":10726000000000,"state":"active","ping":58},{"user_id":240,"name":"pekoraali","steam_id":76561198112012468,"connected_time":437000000000,"state":"active","ping":84},{"user_id":251,"name":"Akira Yamaoka Fan","steam_id":76561198146194820,"connected_time":104000000000,"state":"active","ping":52},{"user_id":237,"name":"Fr33StYl3R","steam_id":76561198043187070,"connected_time":723000000000,"state":"active","ping":81},{"user_id":230,"name":"not a nihilist","steam_id":76561198004340466,"connected_time":1382000000000,"state":"active","ping":44},{"user_id":245,"name":"dunduu","steam_id":76561198875240717,"connected_time":323000000000,"state":"active","ping":77},{"user_id":249,"name":"UnusualBrit","steam_id":76561198255679838,"connected_time":140000000000,"state":"active","ping":52},{"user_id":252,"name":"weed fairy","steam_id":76561197998843096,"connected_time":64000000000,"state":"active","ping":83},{"user_id":220,"name":"tactical783","steam_id":76561199051688560,"connected_time":2070000000000,"state":"active","ping":59},{"user_id":239,"name":"Barely Sentient","steam_id":76561198143305625,"connected_time":695000000000,"state":"active","ping":75},{"user_id":210,"name":"JGV","steam_id":76561198094654971,"connected_time":2925000000000,"state":"active","ping":74},{"user_id":231,"name":"SlonkyDonky","steam_id":76561198425787528,"connected_time":1272000000000,"state":"active","ping":50},{"user_id":253,"name":"Jaxonfogcap","steam_id":76561198327688357,"connected_time":51000000000,"state":"active","ping":47},{"user_id":38,"name":"Noodle","steam_id":76561197997208006,"connected_time":15948000000000,"state":"active","ping":60},{"user_id":243,"name":"RIFT","steam_id":76561198991622379,"connected_time":397000000000,"state":"active","ping":45},{"user_id":254,"name":"Hardway","steam_id":76561198272529254,"connected_time":27000000000,"state":"spawning","ping":59},{"user_id":201,"name":"TCIFU001","steam_id":76561198264044300,"connected_time":3611000000000,"state":"active","ping":97},{"user_id":247,"name":"Economic crisis","steam_id":76561198063562843,"connected_time":213000000000,"state":"active","ping":61},{"user_id":216,"name":"UnknownTM","steam_id":76561198262728330,"connected_time":2387000000000,"state":"active","ping":68},{"user_id":64,"name":"catboy trickster","steam_id":76561198075665211,"connected_time":14163000000000,"state":"active","ping":44},{"user_id":248,"name":"Cookeh","steam_id":76561197993741492,"connected_time":203000000000,"state":"active","ping":46},{"user_id":182,"name":"nobody","steam_id":76561198180637374,"connected_time":4728000000000,"state":"active","ping":93}]},{"server_id":321,"name":"Uncletopia | London | 4 | All Maps","name_short":"lon-4","host":"lon-1.uk.uncletopia.com","port":27045,"enabled":true,"region":"eu","cc":"gb","latitude":51.509865,"longitude":-0.118092,"reserved":0,"last_update":"0001-01-01T00:00:00Z","name_a2s":"Uncletopia | London | 4 | All Maps","protocol":17,"map":"koth_highpass","folder":"tf","game":"Team Fortress","app_id":440,"player_count":0,"max_players":24,"Bots":0,"server_type":"Dedicated","server_os":"Linux","password":true,"vac":true,"version":"7742253","steam_id":85568392924510193,"keywords":["cp","nocrits","nodmgspread","uncletopia"],"game_id":440,"stv_port":27046,"stv_name":"Uncletopia | London | 4 | All Maps | STV","players":null},{"server_id":21,"name":"Uncletopia | London | 5 | All Maps","name_short":"lon-5","host":"lon-1.uk.uncletopia.com","port":27055,"enabled":true,"region":"eu","cc":"gb","latitude":51.509865,"longitude":-0.118092,"reserved":0,"last_update":"0001-01-01T00:00:00Z","name_a2s":"Uncletopia | London | 5 | All Maps","protocol":17,"map":"koth_viaduct","folder":"tf","game":"Team Fortress","app_id":440,"player_count":21,"max_players":24,"Bots":0,"server_type":"Dedicated","server_os":"Linux","password":true,"vac":true,"version":"7742253","steam_id":85568392924742829,"keywords":["cp","nocrits","nodmgspread","uncletopia"],"game_id":440,"stv_port":27056,"stv_name":"Uncletopia | London | 5 | All Maps | STV","players":[{"user_id":127,"name":"Chromatic","steam_id":76561198355976286,"connected_time":153000000000,"state":"active","ping":104},{"user_id":126,"name":"nemśs","steam_id":76561198134203031,"connected_time":263000000000,"state":"active","ping":68},{"user_id":89,"name":"Bullets","steam_id":76561198058876482,"connected_time":2904000000000,"state":"active","ping":51},{"user_id":129,"name":"number 1 margaret kohere fan","steam_id":76561198828739946,"connected_time":94000000000,"state":"active","ping":195},{"user_id":50,"name":"Bob","steam_id":76561198218200489,"connected_time":6031000000000,"state":"active","ping":46},{"user_id":81,"name":"dorthyhy","steam_id":76561198062578399,"connected_time":4097000000000,"state":"active","ping":56},{"user_id":105,"name":"E1s (Kemalist)","steam_id":76561198894958917,"connected_time":1925000000000,"state":"active","ping":49},{"user_id":124,"name":"jker","steam_id":76561198816714058,"connected_time":573000000000,"state":"active","ping":125},{"user_id":128,"name":"Legal Helpy","steam_id":76561198399334453,"connected_time":125000000000,"state":"active","ping":155},{"user_id":130,"name":"dasotexnikos","steam_id":76561199163904360,"connected_time":79000000000,"state":"active","ping":96},{"user_id":131,"name":"silicon based life form","steam_id":76561199127121346,"connected_time":59000000000,"state":"active","ping":45},{"user_id":132,"name":"harrison","steam_id":76561198990132243,"connected_time":5000000000,"state":"spawning","ping":66},{"user_id":97,"name":"Stitch","steam_id":76561198034169403,"connected_time":2396000000000,"state":"active","ping":55},{"user_id":120,"name":"Tryrn","steam_id":76561198075487436,"connected_time":1135000000000,"state":"active","ping":78},{"user_id":123,"name":"xulera","steam_id":76561198080736030,"connected_time":728000000000,"state":"active","ping":62},{"user_id":121,"name":"zigi☂","steam_id":76561198113209142,"connected_time":929000000000,"state":"active","ping":82},{"user_id":108,"name":"dems","steam_id":76561198122546674,"connected_time":1879000000000,"state":"active","ping":48},{"user_id":68,"name":"Welder","steam_id":76561198355300561,"connected_time":4923000000000,"state":"active","ping":70},{"user_id":109,"name":"Craftedlavaistrue","steam_id":76561198139036454,"connected_time":1858000000000,"state":"active","ping":72},{"user_id":115,"name":"G/3","steam_id":76561198234844188,"connected_time":1638000000000,"state":"active","ping":51},{"user_id":72,"name":"ХеҜ₡","steam_id":76561198073495059,"connected_time":4592000000000,"state":"active","ping":122}]},{"server_id":22,"name":"Uncletopia | London | 6 | All Maps","name_short":"lon-6","host":"lon-1.uk.uncletopia.com","port":27065,"enabled":true,"region":"eu","cc":"gb","latitude":51.509865,"longitude":-0.118092,"reserved":0,"last_update":"0001-01-01T00:00:00Z","name_a2s":"Uncletopia | London | 6 | All Maps","protocol":17,"map":"pl_borneo","folder":"tf","game":"Team Fortress","app_id":440,"player_count":0,"max_players":24,"Bots":0,"server_type":"Dedicated","server_os":"Linux","password":true,"vac":true,"version":"7742253","steam_id":85568392924742830,"keywords":["nocrits","nodmgspread","payload","uncletopia"],"game_id":440,"stv_port":27066,"stv_name":"Uncletopia | London | 6 | All Maps | STV","players":null},{"server_id":40,"name":"Uncletopia | London | 7 | No Payload","name_short":"lon-7","host":"lon-1.uk.uncletopia.com","port":27075,"enabled":true,"region":"eu","cc":"gb","latitude":51.509865,"longitude":-0.118092,"reserved":0,"last_update":"0001-01-01T00:00:00Z","name_a2s":"Uncletopia | London | 7 | No Payload","protocol":17,"map":"koth_viaduct","folder":"tf","game":"Team Fortress","app_id":440,"player_count":0,"max_players":24,"Bots":0,"server_type":"Dedicated","server_os":"Linux","password":true,"vac":true,"version":"7742253","steam_id":85568392924964314,"keywords":["cp","nocrits","nodmgspread","uncletopia"],"game_id":440,"stv_port":27076,"stv_name":"Uncletopia | London | 7 | No Payload | STV","players":null},{"server_id":41,"name":"Uncletopia | London | 8 | Community","name_short":"lon-8","host":"lon-1.uk.uncletopia.com","port":27085,"enabled":true,"region":"eu","cc":"gb","latitude":51.509865,"longitude":-0.118092,"reserved":0,"last_update":"0001-01-01T00:00:00Z","name_a2s":"Uncletopia | London | 8 | Community","protocol":17,"map":"cp_altitude","folder":"tf","game":"Team Fortress","app_id":440,"player_count":0,"max_players":24,"Bots":0,"server_type":"Dedicated","server_os":"Linux","password":true,"vac":true,"version":"7742253","steam_id":85568392924964315,"keywords":["cp","nocrits","nodmgspread","uncletopia"],"game_id":440,"stv_port":27086,"stv_name":"Uncletopia | London | 8 | Community | STV","players":null},{"server_id":300,"name":"Uncletopia | Montréal | 1 | All Maps","name_short":"mtl-1","host":"mtl-1.ca.uncletopia.com","port":27015,"enabled":true,"region":"us-east","cc":"ca","latitude":45.50889,"longitude":-73.56167,"reserved":0,"last_update":"0001-01-01T00:00:00Z","name_a2s":"Uncletopia | Montréal | 1 | All Maps","protocol":17,"map":"cp_snakewater_final1","folder":"tf","game":"Team Fortress","app_id":440,"player_count":0,"max_players":24,"Bots":0,"server_type":"Dedicated","server_os":"Linux","password":true,"vac":true,"version":"7742253","steam_id":85568392924500087,"keywords":["cp","nocrits","nodmgspread","uncletopia"],"game_id":440,"stv_port":27016,"stv_name":"Uncletopia | Montréal | 1 | All Maps | STV","players":null},{"server_id":301,"name":"Uncletopia | Montréal | 2 | All Maps","name_short":"mtl-2","host":"mtl-1.ca.uncletopia.com","port":27025,"enabled":true,"region":"us-east","cc":"ca","latitude":45.50889,"longitude":-73.56167,"reserved":0,"last_update":"0001-01-01T00:00:00Z","name_a2s":"Uncletopia | Montréal | 2 | All Maps","protocol":17,"map":"koth_highpass","folder":"tf","game":"Team Fortress","app_id":440,"player_count":0,"max_players":24,"Bots":0,"server_type":"Dedicated","server_os":"Linux","password":true,"vac":true,"version":"7742253","steam_id":85568392924500088,"keywords":["cp","nocrits","nodmgspread","uncletopia"],"game_id":440,"stv_port":27026,"stv_name":"Uncletopia | Montréal | 2 | All Maps | STV","players":null},{"server_id":302,"name":"Uncletopia | Montréal | 3 | All Maps","name_short":"mtl-3","host":"mtl-1.ca.uncletopia.com","port":27035,"enabled":true,"region":"us-east","cc":"ca","latitude":45.50889,"longitude":-73.56167,"reserved":0,"last_update":"0001-01-01T00:00:00Z","name_a2s":"Uncletopia | Montréal | 3 | All Maps","protocol":17,"map":"cp_mountainlab","folder":"tf","game":"Team Fortress","app_id":440,"player_count":0,"max_players":24,"Bots":0,"server_type":"Dedicated","server_os":"Linux","password":true,"vac":true,"version":"7742253","steam_id":85568392924500089,"keywords":["cp","nocrits","nodmgspread","uncletopia"],"game_id":440,"stv_port":27036,"stv_name":"Uncletopia | Montréal | 3 | All Maps | STV","players":null},{"server_id":303,"name":"Uncletopia | Montréal | 4 | No Payload","name_short":"mtl-4","host":"mtl-1.ca.uncletopia.com","port":27045,"enabled":true,"region":"us-east","cc":"ca","latitude":45.50889,"longitude":-73.56167,"reserved":0,"last_update":"0001-01-01T00:00:00Z","name_a2s":"Uncletopia | Montréal | 4 | No Payload","protocol":17,"map":"cp_snakewater_final1","folder":"tf","game":"Team Fortress","app_id":440,"player_count":0,"max_players":24,"Bots":0,"server_type":"Dedicated","server_os":"Linux","password":true,"vac":true,"version":"7742253","steam_id":85568392924500090,"keywords":["cp","nocrits","nodmgspread","uncletopia"],"game_id":440,"stv_port":27046,"stv_name":"Uncletopia | Montréal | 4 | No Payload | STV","players":null},{"server_id":13,"name":"Uncletopia | New York City | 1 | All Maps","name_short":"nyc-1","host":"nyc-1.us.uncletopia.com","port":27015,"enabled":true,"region":"us-east","cc":"us","latitude":40.73061,"longitude":-73.93524,"reserved":0,"last_update":"0001-01-01T00:00:00Z","name_a2s":"Uncletopia | New York City | 1 | All Maps","protocol":17,"map":"cp_mountainlab","folder":"tf","game":"Team Fortress","app_id":440,"player_count":0,"max_players":24,"Bots":0,"server_type":"Dedicated","server_os":"Linux","password":true,"vac":true,"version":"7742253","steam_id":85568392924469993,"keywords":["cp","nocrits","nodmgspread","uncletopia"],"game_id":440,"stv_port":27016,"stv_name":"Uncletopia | New York City | 1 | All Maps | STV","players":null},{"server_id":14,"name":"Uncletopia | New York City | 2 | All Maps","name_short":"nyc-2","host":"nyc-1.us.uncletopia.com","port":27025,"enabled":true,"region":"us-east","cc":"us","latitude":40.73061,"longitude":-73.93524,"reserved":0,"last_update":"0001-01-01T00:00:00Z","name_a2s":"Uncletopia | New York City | 2 | All Maps","protocol":17,"map":"cp_altitude","folder":"tf","game":"Team Fortress","app_id":440,"player_count":0,"max_players":24,"Bots":0,"server_type":"Dedicated","server_os":"Linux","password":true,"vac":true,"version":"7742253","steam_id":85568392924469994,"keywords":["cp","nocrits","nodmgspread","uncletopia"],"game_id":440,"stv_port":27026,"stv_name":"Uncletopia | New York City | 2 | All Maps | STV","players":null},{"server_id":15,"name":"Uncletopia | New York City | 3 | Stopwatch Beta","name_short":"nyc-3","host":"nyc-1.us.uncletopia.com","port":27035,"enabled":true,"region":"us-east","cc":"us","latitude":40.73061,"longitude":-73.93524,"reserved":0,"last_update":"0001-01-01T00:00:00Z","name_a2s":"Uncletopia | New York City | 3 | Stopwatch Beta","protocol":17,"map":"pl_pier","folder":"tf","game":"Team Fortress","app_id":440,"player_count":0,"max_players":24,"Bots":0,"server_type":"Dedicated","server_os":"Linux","password":true,"vac":true,"version":"7742253","steam_id":85568392924742820,"keywords":["nocrits","nodmgspread","payload","uncletopia"],"game_id":440,"stv_port":27036,"stv_name":"Uncletopia | New York City | 3 | Stopwatch Beta | STV","players":null},{"server_id":16,"name":"Uncletopia | New York City | 4 | Community","name_short":"nyc-4","host":"nyc-1.us.uncletopia.com","port":27045,"enabled":true,"region":"us-east","cc":"us","latitude":40.73061,"longitude":-73.93524,"reserved":0,"last_update":"0001-01-01T00:00:00Z","name_a2s":"Uncletopia | New York City | 4 | Community","protocol":17,"map":"koth_viaduct","folder":"tf","game":"Team Fortress","app_id":440,"player_count":0,"max_players":24,"Bots":0,"server_type":"Dedicated","server_os":"Linux","password":true,"vac":true,"version":"7742253","steam_id":85568392924742821,"keywords":["cp","nocrits","nodmgspread","uncletopia"],"game_id":440,"stv_port":27046,"stv_name":"Uncletopia | New York City | 4 | Community | STV","players":null},{"server_id":142,"name":"Uncletopia | São Paulo | 1 | All Maps","name_short":"sao-1","host":"sao-1.br.uncletopia.com","port":27015,"enabled":true,"region":"sa","cc":"br","latitude":-23.533773,"longitude":-46.62529,"reserved":0,"last_update":"0001-01-01T00:00:00Z","name_a2s":"Uncletopia | São Paulo | 1 | All Maps","protocol":17,"map":"koth_viaduct","folder":"tf","game":"Team Fortress","app_id":440,"player_count":0,"max_players":24,"Bots":0,"server_type":"Dedicated","server_os":"Linux","password":true,"vac":true,"version":"7742253","steam_id":85568392924469996,"keywords":["cp","nocrits","nodmgspread","uncletopia"],"game_id":440,"stv_port":27016,"stv_name":"Uncletopia | São Paulo | 1 | All Maps | STV","players":null},{"server_id":143,"name":"Uncletopia | São Paulo | 2 | All Maps","name_short":"sao-2","host":"sao-2.br.uncletopia.com","port":27015,"enabled":true,"region":"sa","cc":"br","latitude":-23.533773,"longitude":-46.62529,"reserved":0,"last_update":"0001-01-01T00:00:00Z","name_a2s":"Uncletopia | São Paulo | 2 | All Maps","protocol":17,"map":"koth_viaduct","folder":"tf","game":"Team Fortress","app_id":440,"player_count":0,"max_players":24,"Bots":0,"server_type":"Dedicated","server_os":"Linux","password":true,"vac":true,"version":"7742253","steam_id":85568392924485349,"keywords":["cp","nocrits","nodmgspread","uncletopia"],"game_id":440,"stv_port":27016,"stv_name":"Uncletopia | São Paulo | 2 | All Maps | STV","players":null},{"server_id":7,"name":"Uncletopia | Seattle | 1 | All Maps","name_short":"sea-1","host":"sea-1.us.uncletopia.com","port":27015,"enabled":true,"region":"us-west","cc":"us","latitude":47.608013,"longitude":-122.33517,"reserved":0,"last_update":"0001-01-01T00:00:00Z","name_a2s":"Uncletopia | Seattle | 1 | All Maps","protocol":17,"map":"cp_mountainlab","folder":"tf","game":"Team Fortress","app_id":440,"player_count":23,"max_players":24,"Bots":0,"server_type":"Dedicated","server_os":"Linux","password":true,"vac":true,"version":"7742253","steam_id":85568392924469997,"keywords":["cp","nocrits","nodmgspread","uncletopia"],"game_id":440,"stv_port":27016,"stv_name":"Uncletopia | Seattle | 1 | All Maps | STV","players":[{"user_id":783,"name":"Hermit not Kermit","steam_id":76561198106182525,"connected_time":997000000000,"state":"active","ping":57},{"user_id":760,"name":"gay woman","steam_id":76561199051077883,"connected_time":4091000000000,"state":"active","ping":75},{"user_id":792,"name":"Ravelight","steam_id":76561198008642005,"connected_time":82000000000,"state":"active","ping":82},{"user_id":787,"name":"skiky","steam_id":76561198797004708,"connected_time":591000000000,"state":"active","ping":99},{"user_id":771,"name":"Delta Annihilator | trade.tf","steam_id":76561198055384748,"connected_time":2994000000000,"state":"active","ping":91},{"user_id":756,"name":"meow","steam_id":76561198298140571,"connected_time":4101000000000,"state":"active","ping":84},{"user_id":770,"name":"piegirl21","steam_id":76561198125233120,"connected_time":3565000000000,"state":"active","ping":63},{"user_id":789,"name":"Bryce Gobo","steam_id":76561199411560141,"connected_time":451000000000,"state":"active","ping":46},{"user_id":779,"name":"stockhack","steam_id":76561198050220225,"connected_time":1765000000000,"state":"active","ping":121},{"user_id":788,"name":"Nugget Nabber","steam_id":76561198155500443,"connected_time":454000000000,"state":"active","ping":50},{"user_id":776,"name":"Amogous Supreme","steam_id":76561198025476774,"connected_time":2202000000000,"state":"active","ping":63},{"user_id":780,"name":"TurboRaspberry","steam_id":76561199215360629,"connected_time":1344000000000,"state":"active","ping":45},{"user_id":790,"name":"tntmanbook","steam_id":76561199199630272,"connected_time":427000000000,"state":"active","ping":113},{"user_id":750,"name":"rat gets the cheese","steam_id":76561198031234032,"connected_time":4944000000000,"state":"active","ping":92},{"user_id":765,"name":"A Pizza Already","steam_id":76561198064918401,"connected_time":3944000000000,"state":"active","ping":67},{"user_id":793,"name":"The Horselords and Animal Gods","steam_id":76561197975094050,"connected_time":50000000000,"state":"active","ping":60},{"user_id":784,"name":"Xylemon","steam_id":76561197965297420,"connected_time":967000000000,"state":"active","ping":54},{"user_id":766,"name":"sweaterfan","steam_id":76561199389567214,"connected_time":3932000000000,"state":"active","ping":103},{"user_id":781,"name":"Kirbothebrony","steam_id":76561198971911330,"connected_time":1010000000000,"state":"active","ping":120},{"user_id":773,"name":"Boobie and vagene","steam_id":76561198078464924,"connected_time":2261000000000,"state":"active","ping":44},{"user_id":751,"name":"Mystic man of potatoe","steam_id":76561198027267207,"connected_time":4346000000000,"state":"active","ping":83},{"user_id":791,"name":"SB-129","steam_id":76561198130086000,"connected_time":413000000000,"state":"active","ping":88},{"user_id":775,"name":"Sniff","steam_id":76561198010270922,"connected_time":2231000000000,"state":"active","ping":37}]},{"server_id":119,"name":"Uncletopia | Seattle | 2 | All Maps","name_short":"sea-2","host":"sea-1.us.uncletopia.com","port":27025,"enabled":true,"region":"us-west","cc":"us","latitude":47.608013,"longitude":-122.33517,"reserved":0,"last_update":"0001-01-01T00:00:00Z","name_a2s":"Uncletopia | Seattle | 2 | All Maps","protocol":17,"map":"koth_highpass","folder":"tf","game":"Team Fortress","app_id":440,"player_count":0,"max_players":24,"Bots":0,"server_type":"Dedicated","server_os":"Linux","password":true,"vac":true,"version":"7742253","steam_id":85568392924469998,"keywords":["cp","nocrits","nodmgspread","uncletopia"],"game_id":440,"stv_port":27026,"stv_name":"Uncletopia | Seattle | 2 | All Maps | STV","players":null},{"server_id":406,"name":"Uncletopia | Seattle | 3 | Stopwatch Beta","name_short":"sea-3","host":"sea-1.us.uncletopia.com","port":27035,"enabled":true,"region":"us-west","cc":"us","latitude":47.608013,"longitude":-122.33517,"reserved":0,"last_update":"0001-01-01T00:00:00Z","name_a2s":"Uncletopia | Seattle | 3 | Stopwatch Beta","protocol":17,"map":"pl_borneo","folder":"tf","game":"Team Fortress","app_id":440,"player_count":0,"max_players":24,"Bots":0,"server_type":"Dedicated","server_os":"Linux","password":true,"vac":true,"version":"7742253","steam_id":85568392924515217,"keywords":["nocrits","nodmgspread","payload","uncletopia"],"game_id":440,"stv_port":27036,"stv_name":"Uncletopia | Seattle | 3 | Stopwatch Beta | STV","players":null},{"server_id":17,"name":"Uncletopia | San Francisco | 1 | All Maps","name_short":"sfo-1","host":"sfo-1.us.uncletopia.com","port":27015,"enabled":true,"region":"us-west","cc":"us","latitude":37.77397,"longitude":-122.4313,"reserved":0,"last_update":"0001-01-01T00:00:00Z","name_a2s":"Uncletopia | San Francisco | 1 | All Maps","protocol":17,"map":"koth_highpass","folder":"tf","game":"Team Fortress","app_id":440,"player_count":0,"max_players":24,"Bots":0,"server_type":"Dedicated","server_os":"Linux","password":true,"vac":true,"version":"7742253","steam_id":85568392924469999,"keywords":["cp","nocrits","nodmgspread","uncletopia"],"game_id":440,"stv_port":27016,"stv_name":"Uncletopia | San Francisco | 1 | All Maps | STV","players":null},{"server_id":18,"name":"Uncletopia | San Francisco | 2 | All Maps","name_short":"sfo-2","host":"sfo-1.us.uncletopia.com","port":27025,"enabled":true,"region":"us-west","cc":"us","latitude":37.77397,"longitude":-122.4313,"reserved":0,"last_update":"0001-01-01T00:00:00Z","name_a2s":"Uncletopia | San Francisco | 2 | All Maps","protocol":17,"map":"koth_lakeside_final","folder":"tf","game":"Team Fortress","app_id":440,"player_count":0,"max_players":24,"Bots":0,"server_type":"Dedicated","server_os":"Linux","password":true,"vac":true,"version":"7742253","steam_id":85568392924470000,"keywords":["cp","nocrits","nodmgspread","uncletopia"],"game_id":440,"stv_port":27026,"stv_name":"Uncletopia | San Francisco | 2 | All Maps | STV","players":null},{"server_id":19,"name":"Uncletopia | San Francisco | 3 | Stopwatch Beta","name_short":"sfo-3","host":"sfo-1.us.uncletopia.com","port":27035,"enabled":true,"region":"us-west","cc":"us","latitude":37.77397,"longitude":-122.4313,"reserved":0,"last_update":"0001-01-01T00:00:00Z","name_a2s":"Uncletopia | San Francisco | 3 | Stopwatch Beta","protocol":17,"map":"workshop/cp_process_f11.ugc2302948105","folder":"tf","game":"Team Fortress","app_id":440,"player_count":0,"max_players":24,"Bots":0,"server_type":"Dedicated","server_os":"Linux","password":true,"vac":true,"version":"7742253","steam_id":85568392924742824,"keywords":["cp","nocrits","nodmgspread","uncletopia"],"game_id":440,"stv_port":27036,"stv_name":"Uncletopia | San Francisco | 3 | Stopwatch Beta | STV","players":null},{"server_id":20,"name":"Uncletopia | San Francisco | 4 | Community","name_short":"sfo-4","host":"sfo-1.us.uncletopia.com","port":27045,"enabled":true,"region":"us-west","cc":"us","latitude":37.77397,"longitude":-122.4313,"reserved":0,"last_update":"0001-01-01T00:00:00Z","name_a2s":"Uncletopia | San Francisco | 4 | Community","protocol":17,"map":"workshop/koth_slaughter_rc1.ugc1712845210","folder":"tf","game":"Team Fortress","app_id":440,"player_count":0,"max_players":24,"Bots":0,"server_type":"Dedicated","server_os":"Linux","password":true,"vac":true,"version":"7742253","steam_id":85568392924742826,"keywords":["cp","nocrits","nodmgspread","uncletopia"],"game_id":440,"stv_port":27046,"stv_name":"Uncletopia | San Francisco | 4 | Community | STV","players":null},{"server_id":141,"name":"Uncletopia | Sydney | 1 | All Maps","name_short":"syd-1","host":"syd-1.au.uncletopia.com","port":27015,"enabled":true,"region":"au","cc":"au","latitude":-33.865143,"longitude":151.2099,"reserved":0,"last_update":"0001-01-01T00:00:00Z","name_a2s":"Uncletopia | Sydney | 1 | All Maps","protocol":17,"map":"pl_frontier_final","folder":"tf","game":"Team Fortress","app_id":440,"player_count":24,"max_players":24,"Bots":0,"server_type":"Dedicated","server_os":"Linux","password":true,"vac":true,"version":"7742253","steam_id":85568392924470001,"keywords":["nocrits","nodmgspread","payload","uncletopia"],"game_id":440,"stv_port":27016,"stv_name":"Uncletopia | Sydney | 1 | All Maps | STV","players":[{"user_id":741,"name":"LeoJoeD","steam_id":76561198161848749,"connected_time":178000000000,"state":"active","ping":39},{"user_id":707,"name":"AcidOxidant","steam_id":76561198053504029,"connected_time":3824000000000,"state":"active","ping":49},{"user_id":739,"name":"Coffee","steam_id":76561198072414195,"connected_time":444000000000,"state":"active","ping":78},{"user_id":731,"name":"Optixan","steam_id":76561199196709581,"connected_time":759000000000,"state":"active","ping":140},{"user_id":732,"name":"Hawk","steam_id":76561198135164277,"connected_time":732000000000,"state":"active","ping":50},{"user_id":733,"name":"Who the fuck","steam_id":76561198053433380,"connected_time":686000000000,"state":"active","ping":62},{"user_id":734,"name":"lofty","steam_id":76561198380588357,"connected_time":686000000000,"state":"active","ping":62},{"user_id":682,"name":"ุbifcheg","steam_id":76561198319806610,"connected_time":5243000000000,"state":"active","ping":56},{"user_id":705,"name":"DKC","steam_id":76561198313578155,"connected_time":3916000000000,"state":"active","ping":44},{"user_id":708,"name":"tinkaton from pokemon gen 9 UU","steam_id":76561198079345240,"connected_time":3787000000000,"state":"active","ping":64},{"user_id":706,"name":"Pug","steam_id":76561198136794372,"connected_time":3844000000000,"state":"active","ping":47},{"user_id":735,"name":"Le'Carpetron Javarius Dunkincru","steam_id":76561198383642609,"connected_time":662000000000,"state":"active","ping":61},{"user_id":667,"name":"Cya in Lumby","steam_id":76561198062693631,"connected_time":6412000000000,"state":"active","ping":50},{"user_id":728,"name":"boop ♥","steam_id":76561198104096149,"connected_time":1121000000000,"state":"active","ping":71},{"user_id":710,"name":"₱elica₦","steam_id":76561198123827973,"connected_time":3688000000000,"state":"active","ping":90},{"user_id":740,"name":"boobies","steam_id":76561198859615089,"connected_time":409000000000,"state":"active","ping":57},{"user_id":718,"name":"dustmephit","steam_id":76561198314776696,"connected_time":3476000000000,"state":"active","ping":61},{"user_id":610,"name":"LightningBlock","steam_id":76561198289997742,"connected_time":9778000000000,"state":"active","ping":42},{"user_id":725,"name":"bluehat","steam_id":76561198355125370,"connected_time":2189000000000,"state":"active","ping":44},{"user_id":737,"name":"Pormpf Spimperton","steam_id":76561198880883788,"connected_time":596000000000,"state":"active","ping":102},{"user_id":738,"name":"Flak","steam_id":76561198205833232,"connected_time":592000000000,"state":"active","ping":44},{"user_id":627,"name":"michael","steam_id":76561198052848358,"connected_time":8729000000000,"state":"active","ping":59},{"user_id":727,"name":"Barchel (She/Her)","steam_id":76561197984629970,"connected_time":1303000000000,"state":"active","ping":67},{"user_id":742,"name":"Power from Chainsaw Man","steam_id":76561198136583999,"connected_time":147000000000,"state":"active","ping":69}]},{"server_id":123,"name":"Uncletopia | Sydney | 2 | All Maps","name_short":"syd-2","host":"syd-1.au.uncletopia.com","port":27025,"enabled":true,"region":"au","cc":"au","latitude":-33.865143,"longitude":151.2099,"reserved":0,"last_update":"0001-01-01T00:00:00Z","name_a2s":"Uncletopia | Sydney | 2 | All Maps","protocol":17,"map":"cp_sunshine","folder":"tf","game":"Team Fortress","app_id":440,"player_count":24,"max_players":24,"Bots":0,"server_type":"Dedicated","server_os":"Linux","password":true,"vac":true,"version":"7742253","steam_id":85568392924470002,"keywords":["cp","nocrits","nodmgspread","uncletopia"],"game_id":440,"stv_port":27026,"stv_name":"Uncletopia | Sydney | 2 | All Maps | STV","players":[{"user_id":457,"name":"krandlez` (Any/All)","steam_id":76561198044839726,"connected_time":4592000000000,"state":"active","ping":44},{"user_id":478,"name":"the rot consumes","steam_id":76561199445490119,"connected_time":3496000000000,"state":"active","ping":31},{"user_id":459,"name":"CuzzyCuz","steam_id":76561198069054697,"connected_time":4495000000000,"state":"active","ping":62},{"user_id":497,"name":"HAND BANANA","steam_id":76561197960279341,"connected_time":1647000000000,"state":"active","ping":51},{"user_id":509,"name":"Uh Oh","steam_id":76561199215286000,"connected_time":968000000000,"state":"active","ping":72},{"user_id":498,"name":"the rizzler","steam_id":76561198129112901,"connected_time":1647000000000,"state":"active","ping":59},{"user_id":472,"name":"pooparse","steam_id":76561198217959591,"connected_time":4177000000000,"state":"active","ping":60},{"user_id":501,"name":"҂Storm","steam_id":76561198073213264,"connected_time":1487000000000,"state":"active","ping":47},{"user_id":461,"name":"Meerkat","steam_id":76561198298662979,"connected_time":4487000000000,"state":"active","ping":36},{"user_id":513,"name":"Griffin","steam_id":76561198024926514,"connected_time":312000000000,"state":"active","ping":90},{"user_id":486,"name":"Jimsehy","steam_id":76561198061059871,"connected_time":2712000000000,"state":"active","ping":65},{"user_id":511,"name":"z","steam_id":76561198302670452,"connected_time":733000000000,"state":"active","ping":54},{"user_id":510,"name":"Garry's Mod Rod","steam_id":76561197977993958,"connected_time":844000000000,"state":"active","ping":48},{"user_id":488,"name":"humph","steam_id":76561198083730533,"connected_time":2551000000000,"state":"active","ping":59},{"user_id":502,"name":"Rizeo","steam_id":76561198147901488,"connected_time":1486000000000,"state":"active","ping":63},{"user_id":464,"name":"Livid","steam_id":76561198060024585,"connected_time":4474000000000,"state":"active","ping":40},{"user_id":465,"name":"emperor palpating","steam_id":76561198079351541,"connected_time":4466000000000,"state":"active","ping":47},{"user_id":456,"name":"Just Brando","steam_id":76561198914415738,"connected_time":4667000000000,"state":"active","ping":54},{"user_id":503,"name":"Abraham Lincoln","steam_id":76561198095292515,"connected_time":1483000000000,"state":"active","ping":50},{"user_id":504,"name":"JokerMain","steam_id":76561198144857794,"connected_time":1483000000000,"state":"active","ping":45},{"user_id":508,"name":"20","steam_id":76561198184162625,"connected_time":1098000000000,"state":"active","ping":54},{"user_id":484,"name":"pain train tf2","steam_id":76561198059284918,"connected_time":2946000000000,"state":"active","ping":53},{"user_id":512,"name":"Smae ⎊ ⎊","steam_id":76561198161497327,"connected_time":537000000000,"state":"active","ping":67},{"user_id":506,"name":"Moist","steam_id":76561198110566656,"connected_time":1409000000000,"state":"active","ping":54}]},{"server_id":395,"name":"Uncletopia | Sydney | 3 | All Maps","name_short":"syd-3","host":"syd-1.au.uncletopia.com","port":27035,"enabled":true,"region":"au","cc":"au","latitude":-33.865143,"longitude":151.2099,"reserved":0,"last_update":"0001-01-01T00:00:00Z","name_a2s":"Uncletopia | Sydney | 3 | All Maps","protocol":17,"map":"koth_viaduct","folder":"tf","game":"Team Fortress","app_id":440,"player_count":5,"max_players":24,"Bots":0,"server_type":"Dedicated","server_os":"Linux","password":true,"vac":true,"version":"7742253","steam_id":85568392925194467,"keywords":["cp","nocrits","nodmgspread","uncletopia"],"game_id":440,"stv_port":27036,"stv_name":"Uncletopia | Sydney | 3 | All Maps | STV","players":[{"user_id":38,"name":"JBoss","steam_id":76561198321937857,"connected_time":250000000000,"state":"active","ping":74},{"user_id":39,"name":"MayorSeb","steam_id":76561197996456885,"connected_time":246000000000,"state":"active","ping":61},{"user_id":33,"name":"Branko [Server DJ]","steam_id":76561199262196710,"connected_time":1487000000000,"state":"active","ping":44},{"user_id":34,"name":"Caberknight TF2","steam_id":76561199446773766,"connected_time":1379000000000,"state":"active","ping":80},{"user_id":40,"name":"Liz Fiz Biz","steam_id":76561198206958817,"connected_time":71000000000,"state":"active","ping":54}]},{"server_id":396,"name":"Uncletopia | Sydney | 4 | All Maps","name_short":"syd-4","host":"syd-1.au.uncletopia.com","port":27045,"enabled":true,"region":"au","cc":"au","latitude":-33.865143,"longitude":151.2099,"reserved":0,"last_update":"0001-01-01T00:00:00Z","name_a2s":"Uncletopia | Sydney | 4 | All Maps","protocol":17,"map":"cp_mountainlab","folder":"tf","game":"Team Fortress","app_id":440,"player_count":0,"max_players":24,"Bots":0,"server_type":"Dedicated","server_os":"Linux","password":true,"vac":true,"version":"7742253","steam_id":85568392925397958,"keywords":["cp","nocrits","nodmgspread","uncletopia"],"game_id":440,"stv_port":27046,"stv_name":"Uncletopia | Sydney | 4 | All Maps | STV","players":null},{"server_id":58,"name":"Uncletopia | Sydney | 5 | Stopwatch Beta","name_short":"syd-5","host":"syd-1.au.uncletopia.com","port":27055,"enabled":true,"region":"au","cc":"au","latitude":-33.865143,"longitude":151.2099,"reserved":0,"last_update":"0001-01-01T00:00:00Z","name_a2s":"Uncletopia | Sydney | 5 | Stopwatch Beta","protocol":17,"map":"koth_highpass","folder":"tf","game":"Team Fortress","app_id":440,"player_count":0,"max_players":24,"Bots":0,"server_type":"Dedicated","server_os":"Linux","password":true,"vac":true,"version":"7742253","steam_id":85568392925397959,"keywords":["cp","nocrits","nodmgspread","uncletopia"],"game_id":440,"stv_port":27056,"stv_name":"Uncletopia | Sydney | 5 | Stopwatch Beta | STV","players":null},{"server_id":59,"name":"Uncletopia | Sydney | 6 | Community","name_short":"syd-6","host":"syd-1.au.uncletopia.com","port":27065,"enabled":true,"region":"au","cc":"au","latitude":-33.865143,"longitude":151.2099,"reserved":0,"last_update":"0001-01-01T00:00:00Z","name_a2s":"Uncletopia | Sydney | 6 | Community","protocol":17,"map":"workshop/koth_ramjam_rc1.ugc459778887","folder":"tf","game":"Team Fortress","app_id":440,"player_count":0,"max_players":24,"Bots":0,"server_type":"Dedicated","server_os":"Linux","password":true,"vac":true,"version":"7742253","steam_id":85568392925397960,"keywords":["cp","nocrits","nodmgspread","uncletopia"],"game_id":440,"stv_port":27066,"stv_name":"Uncletopia | Sydney | 6 | Community | STV","players":null},{"server_id":49,"name":"Uncletopia | Warsaw | 1 | All Maps","name_short":"waw-1","host":"waw-1.pl.uncletopia.com","port":27015,"enabled":true,"region":"eu","cc":"pl","latitude":52.2297,"longitude":21.017532,"reserved":0,"last_update":"0001-01-01T00:00:00Z","name_a2s":"","protocol":0,"map":"","folder":"","game":"","app_id":0,"player_count":0,"max_players":0,"Bots":0,"server_type":"","server_os":"","password":false,"vac":false,"version":"","steam_id":0,"keywords":null,"game_id":0,"stv_port":0,"stv_name":"","players":null},{"server_id":50,"name":"Uncletopia | Warsaw | 2 | All Maps","name_short":"waw-2","host":"waw-1.pl.uncletopia.com","port":27025,"enabled":true,"region":"eu","cc":"pl","latitude":52.2297,"longitude":21.017532,"reserved":0,"last_update":"0001-01-01T00:00:00Z","name_a2s":"Uncletopia | Warsaw | 2 | All Maps","protocol":17,"map":"cp_snakewater_final1","folder":"tf","game":"Team Fortress","app_id":440,"player_count":0,"max_players":24,"Bots":0,"server_type":"Dedicated","server_os":"Linux","password":true,"vac":true,"version":"7742253","steam_id":85568392925397851,"keywords":["cp","nocrits","nodmgspread","uncletopia"],"game_id":440,"stv_port":27026,"stv_name":"Uncletopia | Warsaw | 2 | All Maps | STV","players":null},{"server_id":51,"name":"Uncletopia | Warsaw | 3 | All Maps","name_short":"waw-3","host":"waw-1.pl.uncletopia.com","port":27035,"enabled":true,"region":"eu","cc":"pl","latitude":52.2297,"longitude":21.017532,"reserved":0,"last_update":"0001-01-01T00:00:00Z","name_a2s":"Uncletopia | Warsaw | 3 | All Maps","protocol":17,"map":"koth_lakeside_final","folder":"tf","game":"Team Fortress","app_id":440,"player_count":0,"max_players":24,"Bots":0,"server_type":"Dedicated","server_os":"Linux","password":true,"vac":true,"version":"7742253","steam_id":85568392925397852,"keywords":["cp","nocrits","nodmgspread","uncletopia"],"game_id":440,"stv_port":27036,"stv_name":"Uncletopia | Warsaw | 3 | All Maps | STV","players":null},{"server_id":52,"name":"Uncletopia | Warsaw | 4 | All Maps","name_short":"waw-4","host":"waw-1.pl.uncletopia.com","port":27045,"enabled":true,"region":"eu","cc":"pl","latitude":52.2297,"longitude":21.017532,"reserved":0,"last_update":"0001-01-01T00:00:00Z","name_a2s":"Uncletopia | Warsaw | 4 | All Maps","protocol":17,"map":"pl_upward","folder":"tf","game":"Team Fortress","app_id":440,"player_count":0,"max_players":24,"Bots":0,"server_type":"Dedicated","server_os":"Linux","password":true,"vac":true,"version":"7742253","steam_id":85568392925397853,"keywords":["nocrits","nodmgspread","payload","uncletopia"],"game_id":440,"stv_port":27046,"stv_name":"Uncletopia | Warsaw | 4 | All Maps | STV","players":null},{"server_id":53,"name":"Uncletopia | Warsaw | 5 | Stopwatch Beta","name_short":"waw-5","host":"waw-1.pl.uncletopia.com","port":27055,"enabled":true,"region":"eu","cc":"pl","latitude":52.2297,"longitude":21.017532,"reserved":0,"last_update":"0001-01-01T00:00:00Z","name_a2s":"Uncletopia | Warsaw | 5 | Stopwatch Beta","protocol":17,"map":"pl_swiftwater_final1","folder":"tf","game":"Team Fortress","app_id":440,"player_count":0,"max_players":24,"Bots":0,"server_type":"Dedicated","server_os":"Linux","password":true,"vac":true,"version":"7742253","steam_id":85568392925397854,"keywords":["nocrits","nodmgspread","payload","uncletopia"],"game_id":440,"stv_port":27056,"stv_name":"Uncletopia | Warsaw | 5 | Stopwatch Beta | STV","players":null},{"server_id":54,"name":"Uncletopia | Warsaw | 6 | Community","name_short":"waw-6","host":"waw-1.pl.uncletopia.com","port":27065,"enabled":true,"region":"eu","cc":"pl","latitude":52.2297,"longitude":21.017532,"reserved":0,"last_update":"0001-01-01T00:00:00Z","name_a2s":"Uncletopia | Warsaw | 6 | Community","protocol":17,"map":"koth_highpass","folder":"tf","game":"Team Fortress","app_id":440,"player_count":0,"max_players":24,"Bots":0,"server_type":"Dedicated","server_os":"Linux","password":true,"vac":true,"version":"7742253","steam_id":85568392925397856,"keywords":["cp","nocrits","nodmgspread","uncletopia"],"game_id":440,"stv_port":27066,"stv_name":"Uncletopia | Warsaw | 6 | Community | STV","players":null}]}