{"status":true,"message":"","result":[{"server_id":9,"name":"Uncletopia | Atlanta | 1 | All Maps","name_short":"atl-1","host":"atl-1.us.uncletopia.com","port":27015,"enabled":true,"region":"us-east","cc":"us","latitude":33.753746,"longitude":-84.38633,"reserved":0,"last_update":"0001-01-01T00:00:00Z","name_a2s":"Uncletopia | Atlanta | 1 | All Maps","protocol":17,"map":"pl_badwater","folder":"tf","game":"Team Fortress","app_id":440,"player_count":24,"max_players":24,"Bots":0,"server_type":"Dedicated","server_os":"Linux","password":true,"vac":true,"version":"7708610","steam_id":85568392924469982,"keywords":["nocrits","nodmgspread","payload","uncletopia"],"game_id":440,"stv_port":27016,"stv_name":"Uncletopia | Atlanta | 1 | All Maps | STV","players":[{"user_id":535,"name":"Shame","steam_id":76561198100490994,"connected_time":1043000000000,"state":"active","ping":64},{"user_id":545,"name":"lu","steam_id":76561198080731872,"connected_time":463000000000,"state":"active","ping":70},{"user_id":495,"name":"ATL0 Dedi Le4n!!!","steam_id":76561198045522596,"connected_time":6366000000000,"state":"active","ping":70},{"user_id":522,"name":"mommy claus","steam_id":76561199230929836,"connected_time":2386000000000,"state":"active","ping":93},{"user_id":528,"name":"HARRY","steam_id":76561198842067238,"connected_time":1324000000000,"state":"active","ping":60},{"user_id":497,"name":"ATL1 | Vee (very holly \u0026 jolly)","steam_id":76561198330432889,"connected_time":6345000000000,"state":"active","ping":68},{"user_id":454,"name":"ATL1 | Phestive Phango","steam_id":76561198069811545,"connected_time":10194000000000,"state":"active","ping":45},{"user_id":536,"name":"SneakySneak","steam_id":76561198064847921,"connected_time":944000000000,"state":"active","ping":80},{"user_id":492,"name":"Oak","steam_id":76561198092135570,"connected_time":6738000000000,"state":"active","ping":63},{"user_id":468,"name":"Zal","steam_id":76561199061086990,"connected_time":9299000000000,"state":"active","ping":153},{"user_id":517,"name":"Angel","steam_id":76561198175654911,"connected_time":2472000000000,"state":"active","ping":68},{"user_id":529,"name":"ATL1 | ash","steam_id":76561198127890645,"connected_time":1322000000000,"state":"active","ping":60},{"user_id":508,"name":"Stuart Little 2","steam_id":76561198097272509,"connected_time":4380000000000,"state":"active","ping":34},{"user_id":490,"name":"ATL1 | eish","steam_id":76561198089463603,"connected_time":6856000000000,"state":"active","ping":119},{"user_id":534,"name":"joe","steam_id":76561198045781320,"connected_time":1166000000000,"state":"active","ping":63},{"user_id":473,"name":"Mage","steam_id":76561198285026879,"connected_time":8422000000000,"state":"active","ping":75},{"user_id":546,"name":"ATL1 | a very merry ma0re","steam_id":76561199231971506,"connected_time":463000000000,"state":"active","ping":73},{"user_id":498,"name":"ATL1 | Psionic Present","steam_id":76561198151019322,"connected_time":6344000000000,"state":"active","ping":75},{"user_id":547,"name":"Inky (Coolest)","steam_id":76561198968337022,"connected_time":459000000000,"state":"active","ping":54},{"user_id":499,"name":"SnowStorm","steam_id":76561198095817025,"connected_time":6343000000000,"state":"active","ping":41},{"user_id":525,"name":"sansa musa","steam_id":76561198163723555,"connected_time":2374000000000,"state":"active","ping":74},{"user_id":513,"name":"Rat","steam_id":76561198137925582,"connected_time":3237000000000,"state":"active","ping":64},{"user_id":532,"name":"Aniz","steam_id":76561199226665024,"connected_time":1305000000000,"state":"active","ping":167},{"user_id":521,"name":"spoonful","steam_id":76561198927517471,"connected_time":2463000000000,"state":"active","ping":50}]},{"server_id":400,"name":"Uncletopia | Atlanta | 3 | All Maps","name_short":"atl-3","host":"atl-1.us.uncletopia.com","port":27035,"enabled":true,"region":"us-east","cc":"us","latitude":33.753746,"longitude":-84.38633,"reserved":0,"last_update":"0001-01-01T00:00:00Z","name_a2s":"Uncletopia | Atlanta | 3 | All Maps","protocol":17,"map":"koth_lakeside_final","folder":"tf","game":"Team Fortress","app_id":440,"player_count":0,"max_players":24,"Bots":0,"server_type":"Dedicated","server_os":"Linux","password":true,"vac":true,"version":"7708610","steam_id":85568392924515187,"keywords":["cp","nocrits","nodmgspread","uncletopia"],"game_id":440,"stv_port":27036,"stv_name":"Uncletopia | Atlanta | 3 | All Maps | STV","players":null},{"server_id":401,"name":"Uncletopia | Atlanta | 4 | No Payload","name_short":"atl-4","host":"atl-1.us.uncletopia.com","port":27045,"enabled":true,"region":"us-east","cc":"us","latitude":33.753746,"longitude":-84.38633,"reserved":0,"last_update":"0001-01-01T00:00:00Z","name_a2s":"Uncletopia | Atlanta | 4 | No Payload","protocol":17,"map":"cp_snakewater_final1","folder":"tf","game":"Team Fortress","app_id":440,"player_count":24,"max_players":24,"Bots":0,"server_type":"Dedicated","server_os":"Linux","password":true,"vac":true,"version":"7708610","steam_id":85568392924515188,"keywords":["cp","nocrits","nodmgspread","uncletopia"],"game_id":440,"stv_port":27046,"stv_name":"Uncletopia | Atlanta | 4 | No Payload | STV","players":[{"user_id":121,"name":"carrion goat","steam_id":76561198262064871,"connected_time":1082000000000,"state":"active","ping":75},{"user_id":141,"name":"psi-skankin'","steam_id":76561198061091990,"connected_time":543000000000,"state":"active","ping":90},{"user_id":152,"name":"dr3am","steam_id":76561198323849002,"connected_time":206000000000,"state":"active","ping":133},{"user_id":140,"name":"chrisd149","steam_id":76561198018710480,"connected_time":602000000000,"state":"active","ping":72},{"user_id":153,"name":"SpecialAzzy","steam_id":76561198217982311,"connected_time":131000000000,"state":"active","ping":43},{"user_id":145,"name":"Cuck_it","steam_id":76561198287432299,"connected_time":487000000000,"state":"active","ping":92},{"user_id":146,"name":"Strawburrr","steam_id":76561199208694620,"connected_time":477000000000,"state":"active","ping":74},{"user_id":133,"name":"Dr. Birb","steam_id":76561198141939154,"connected_time":713000000000,"state":"active","ping":67},{"user_id":150,"name":"Captain Zyrin","steam_id":76561197983121824,"connected_time":382000000000,"state":"active","ping":90},{"user_id":135,"name":"Sir Bedivere","steam_id":76561199213828369,"connected_time":663000000000,"state":"active","ping":117},{"user_id":144,"name":"Shia Surprise","steam_id":76561198081945804,"connected_time":519000000000,"state":"active","ping":96},{"user_id":154,"name":"Cafe Alpha","steam_id":76561197965022076,"connected_time":92000000000,"state":"active","ping":77},{"user_id":20,"name":"MadMoonKing","steam_id":76561198145791683,"connected_time":6957000000000,"state":"active","ping":65},{"user_id":147,"name":"SpheeKy","steam_id":76561198143214132,"connected_time":475000000000,"state":"active","ping":102},{"user_id":148,"name":"woozy55","steam_id":76561198047854179,"connected_time":474000000000,"state":"active","ping":115},{"user_id":136,"name":"Gordon Freemason.","steam_id":76561199249733628,"connected_time":655000000000,"state":"active","ping":60},{"user_id":131,"name":"Holdie","steam_id":76561198070378200,"connected_time":772000000000,"state":"active","ping":76},{"user_id":132,"name":"LeFunnyMan","steam_id":76561199081645289,"connected_time":770000000000,"state":"active","ping":67},{"user_id":114,"name":"Evan","steam_id":76561197972292926,"connected_time":1443000000000,"state":"active","ping":77},{"user_id":101,"name":"jeremy elbertson","steam_id":76561198044420428,"connected_time":2669000000000,"state":"active","ping":45},{"user_id":139,"name":"Sicko Mode (Chris Pratt Cover)","steam_id":76561198315786174,"connected_time":633000000000,"state":"active","ping":91},{"user_id":157,"name":"BIG LION","steam_id":76561198091880358,"connected_time":41000000000,"state":"active","ping":66},{"user_id":156,"name":"moonsong22","steam_id":76561198060705575,"connected_time":62000000000,"state":"active","ping":61},{"user_id":123,"name":"hemispherectomy","steam_id":76561198119178364,"connected_time":1054000000000,"state":"active","ping":75}]},{"server_id":2,"name":"Uncletopia | Chicago | 1 | All Maps","name_short":"chi-1","host":"chi-1.us.uncletopia.com","port":27015,"enabled":true,"region":"us-central","cc":"us","latitude":41.881832,"longitude":-87.62318,"reserved":0,"last_update":"0001-01-01T00:00:00Z","name_a2s":"Uncletopia | Chicago | 1 | All Maps","protocol":17,"map":"cp_sunshine","folder":"tf","game":"Team Fortress","app_id":440,"player_count":24,"max_players":24,"Bots":0,"server_type":"Dedicated","server_os":"Linux","password":true,"vac":true,"version":"7708610","steam_id":85568392924469984,"keywords":["cp","nocrits","nodmgspread","uncletopia"],"game_id":440,"stv_port":27016,"stv_name":"Uncletopia | Chicago | 1 | All Maps | STV","players":[{"user_id":413,"name":"merry math #GuinessGuru","steam_id":76561198053967778,"connected_time":1133000000000,"state":"active","ping":58},{"user_id":354,"name":"Wild_Rumpus","steam_id":76561198066393719,"connected_time":6342000000000,"state":"active","ping":50},{"user_id":371,"name":"adam0o0","steam_id":76561198052250279,"connected_time":3511000000000,"state":"active","ping":73},{"user_id":356,"name":"bane","steam_id":76561198196769297,"connected_time":5927000000000,"state":"active","ping":53},{"user_id":372,"name":"Merchants of Misery","steam_id":76561199188142396,"connected_time":3509000000000,"state":"active","ping":84},{"user_id":402,"name":"*literally heresy*","steam_id":76561198129718241,"connected_time":1722000000000,"state":"active","ping":83},{"user_id":414,"name":"strawberry","steam_id":76561198101926397,"connected_time":579000000000,"state":"active","ping":52},{"user_id":409,"name":"Violet","steam_id":76561198055860134,"connected_time":1454000000000,"state":"active","ping":75},{"user_id":395,"name":"Gordan Timlothle","steam_id":76561198272013678,"connected_time":1815000000000,"state":"active","ping":65},{"user_id":421,"name":"Piper0007","steam_id":76561199056222868,"connected_time":126000000000,"state":"active","ping":86},{"user_id":419,"name":"stop","steam_id":76561198268686419,"connected_time":178000000000,"state":"active","ping":47},{"user_id":381,"name":"festive Λlxium","steam_id":76561198131272900,"connected_time":3175000000000,"state":"active","ping":45},{"user_id":389,"name":"i dont give a fork","steam_id":76561198125947844,"connected_time":2311000000000,"state":"active","ping":101},{"user_id":411,"name":"LevelZ3R0","steam_id":76561199239710681,"connected_time":1248000000000,"state":"active","ping":88},{"user_id":343,"name":"Pitch Stick","steam_id":76561198800287853,"connected_time":6865000000000,"state":"active","ping":118},{"user_id":377,"name":"abomination","steam_id":76561198167974713,"connected_time":3485000000000,"state":"active","ping":73},{"user_id":400,"name":"BOB","steam_id":76561198282965733,"connected_time":1800000000000,"state":"active","ping":69},{"user_id":422,"name":"♥ minneelyyyy ♥","steam_id":76561199030697193,"connected_time":40000000000,"state":"active","ping":53},{"user_id":379,"name":"tooth","steam_id":76561197986437643,"connected_time":3185000000000,"state":"active","ping":69},{"user_id":420,"name":"caribou","steam_id":76561198137197751,"connected_time":143000000000,"state":"active","ping":75},{"user_id":320,"name":"Kitt(eh) ∑:3","steam_id":76561198110858518,"connected_time":8791000000000,"state":"active","ping":54},{"user_id":324,"name":"Godmode","steam_id":76561198076240365,"connected_time":8569000000000,"state":"active","ping":61},{"user_id":363,"name":"CreeperCatBengal","steam_id":76561198213193221,"connected_time":5150000000000,"state":"active","ping":77},{"user_id":396,"name":"mel KUSH","steam_id":76561198215559840,"connected_time":1814000000000,"state":"active","ping":60}]},{"server_id":106,"name":"Uncletopia | Chicago | 2 | All Maps","name_short":"chi-2","host":"chi-1.us.uncletopia.com","port":27025,"enabled":true,"region":"us-central","cc":"us","latitude":41.881832,"longitude":-87.62318,"reserved":0,"last_update":"0001-01-01T00:00:00Z","name_a2s":"Uncletopia | Chicago | 2 | All Maps","protocol":17,"map":"pl_barnblitz","folder":"tf","game":"Team Fortress","app_id":440,"player_count":26,"max_players":24,"Bots":0,"server_type":"Dedicated","server_os":"Linux","password":true,"vac":true,"version":"7708610","steam_id":85568392924469985,"keywords":["nocrits","nodmgspread","payload","uncletopia"],"game_id":440,"stv_port":27026,"stv_name":"Uncletopia | Chicago | 2 | All Maps | STV","players":[{"user_id":525,"name":"Geloman","steam_id":76561198005501322,"connected_time":1265000000000,"state":"active","ping":77},{"user_id":571,"name":"warpig","steam_id":76561199226313309,"connected_time":191000000000,"state":"active","ping":63},{"user_id":530,"name":"valtiel","steam_id":76561198165212575,"connected_time":1201000000000,"state":"active","ping":76},{"user_id":526,"name":"trash beast","steam_id":76561198015792736,"connected_time":1264000000000,"state":"active","ping":76},{"user_id":562,"name":"THE GOOP","steam_id":76561199058211576,"connected_time":312000000000,"state":"active","ping":76},{"user_id":535,"name":"ParkerTheCuber","steam_id":76561199207264629,"connected_time":855000000000,"state":"active","ping":61},{"user_id":521,"name":"TATARA","steam_id":76561199098759517,"connected_time":1391000000000,"state":"active","ping":137},{"user_id":570,"name":"Critical Fish","steam_id":76561198188120685,"connected_time":201000000000,"state":"active","ping":73},{"user_id":533,"name":"Qball","steam_id":76561198179016466,"connected_time":1068000000000,"state":"active","ping":50},{"user_id":523,"name":"hoboways","steam_id":76561198168035195,"connected_time":1289000000000,"state":"active","ping":91},{"user_id":572,"name":"Qrow","steam_id":76561198355935693,"connected_time":190000000000,"state":"active","ping":49},{"user_id":517,"name":"Lia_Rein(deer)","steam_id":76561198151569597,"connected_time":1734000000000,"state":"active","ping":142},{"user_id":567,"name":"gravid baby","steam_id":76561198318646867,"connected_time":219000000000,"state":"active","ping":67},{"user_id":568,"name":"no","steam_id":76561198248853140,"connected_time":214000000000,"state":"active","ping":57},{"user_id":529,"name":"deckerhoff!","steam_id":76561198010741410,"connected_time":1224000000000,"state":"active","ping":88},{"user_id":501,"name":"レオン・ケネディの妻","steam_id":76561198055186751,"connected_time":2888000000000,"state":"active","ping":78},{"user_id":569,"name":"Len","steam_id":76561199141913673,"connected_time":214000000000,"state":"active","ping":82},{"user_id":515,"name":"WarpdriveEngineer","steam_id":76561198073530973,"connected_time":2028000000000,"state":"active","ping":64},{"user_id":493,"name":"Rookie","steam_id":76561198191763447,"connected_time":4181000000000,"state":"active","ping":63},{"user_id":574,"name":"austin lego island xtreme stunt","steam_id":76561198045655893,"connected_time":182000000000,"state":"active","ping":68},{"user_id":516,"name":"albert_gamer","steam_id":76561198980666751,"connected_time":1761000000000,"state":"active","ping":75},{"user_id":538,"name":"coolkid #sextf2","steam_id":76561198072600034,"connected_time":780000000000,"state":"active","ping":224},{"user_id":566,"name":"Seller of Waffles","steam_id":76561198296018138,"connected_time":233000000000,"state":"active","ping":68},{"user_id":519,"name":"I_Am_Lazy","steam_id":76561199030283067,"connected_time":1522000000000,"state":"active","ping":91},{"user_id":582,"name":"The IRS","steam_id":76561197998344127,"connected_time":56000000000,"state":"connecting","ping":0},{"user_id":583,"name":"Fever Dreams","steam_id":76561198116614620,"connected_time":55000000000,"state":"spawning","ping":103}]},{"server_id":402,"name":"Uncletopia | Chicago | 3 | All Maps","name_short":"chi-3","host":"chi-1.us.uncletopia.com","port":27035,"enabled":true,"region":"us-central","cc":"us","latitude":41.881832,"longitude":-87.62318,"reserved":0,"last_update":"0001-01-01T00:00:00Z","name_a2s":"Uncletopia | Chicago | 3 | All Maps","protocol":17,"map":"pl_goldrush","folder":"tf","game":"Team Fortress","app_id":440,"player_count":25,"max_players":24,"Bots":0,"server_type":"Dedicated","server_os":"Linux","password":true,"vac":true,"version":"7708610","steam_id":85568392924515191,"keywords":["nocrits","nodmgspread","payload","uncletopia"],"game_id":440,"stv_port":27036,"stv_name":"Uncletopia | Chicago | 3 | All Maps | STV","players":[{"user_id":680,"name":"golia","steam_id":76561198000264266,"connected_time":193000000000,"state":"active","ping":108},{"user_id":646,"name":"vortexgamer","steam_id":76561197999435527,"connected_time":2297000000000,"state":"active","ping":73},{"user_id":653,"name":"Varry","steam_id":76561198093696872,"connected_time":1668000000000,"state":"active","ping":76},{"user_id":681,"name":"Neonlion","steam_id":76561199144847567,"connected_time":145000000000,"state":"active","ping":84},{"user_id":619,"name":"King Calibur","steam_id":76561198120609448,"connected_time":4541000000000,"state":"active","ping":83},{"user_id":644,"name":"FEARSUM ENDJINN","steam_id":76561197984273698,"connected_time":2451000000000,"state":"active","ping":83},{"user_id":599,"name":"a baby","steam_id":76561198008662184,"connected_time":5850000000000,"state":"active","ping":62},{"user_id":664,"name":"jambie!","steam_id":76561198296042477,"connected_time":493000000000,"state":"active","ping":45},{"user_id":662,"name":"Halcyon","steam_id":76561197999409268,"connected_time":1098000000000,"state":"active","ping":74},{"user_id":650,"name":"Vanya","steam_id":76561198042631561,"connected_time":1975000000000,"state":"active","ping":82},{"user_id":682,"name":"QuickToTheBatCave","steam_id":76561198060762959,"connected_time":110000000000,"state":"active","ping":568},{"user_id":683,"name":"SpiderString","steam_id":76561198092409181,"connected_time":106000000000,"state":"connecting","ping":0},{"user_id":676,"name":"Your childhood","steam_id":76561198799385466,"connected_time":304000000000,"state":"active","ping":47},{"user_id":688,"name":"Harrkilla","steam_id":76561198262710944,"connected_time":65000000000,"state":"active","ping":79},{"user_id":632,"name":"cooperation gaming","steam_id":76561198986281248,"connected_time":3786000000000,"state":"active","ping":79},{"user_id":685,"name":"The Burglar","steam_id":76561198325685937,"connected_time":81000000000,"state":"active","ping":60},{"user_id":635,"name":"pink prince","steam_id":76561198026627032,"connected_time":3583000000000,"state":"active","ping":78},{"user_id":657,"name":"iamoctopii","steam_id":76561198876901076,"connected_time":1421000000000,"state":"active","ping":124},{"user_id":686,"name":"Ros","steam_id":76561199055963822,"connected_time":80000000000,"state":"active","ping":77},{"user_id":678,"name":"MrVegasAguitar","steam_id":76561198084466946,"connected_time":209000000000,"state":"active","ping":85},{"user_id":620,"name":"TheParanoidAndroid","steam_id":76561198024940715,"connected_time":4539000000000,"state":"active","ping":71},{"user_id":679,"name":"meat.","steam_id":76561198262170368,"connected_time":199000000000,"state":"active","ping":45},{"user_id":665,"name":"I'm Only 4 Inches","steam_id":76561198055542546,"connected_time":477000000000,"state":"active","ping":55},{"user_id":687,"name":"slep.py","steam_id":76561197988287144,"connected_time":75000000000,"state":"active","ping":57},{"user_id":563,"name":"Dumpy","steam_id":76561198067167895,"connected_time":7690000000000,"state":"active","ping":74}]},{"server_id":403,"name":"Uncletopia | Chicago | 4 | All Maps","name_short":"chi-4","host":"chi-1.us.uncletopia.com","port":27045,"enabled":true,"region":"us-central","cc":"us","latitude":41.881832,"longitude":-87.62318,"reserved":0,"last_update":"0001-01-01T00:00:00Z","name_a2s":"Uncletopia | Chicago | 4 | All Maps","protocol":17,"map":"cp_dustbowl","folder":"tf","game":"Team Fortress","app_id":440,"player_count":24,"max_players":24,"Bots":0,"server_type":"Dedicated","server_os":"Linux","password":true,"vac":true,"version":"7708610","steam_id":85568392924515193,"keywords":["cp","nocrits","nodmgspread","uncletopia"],"game_id":440,"stv_port":27046,"stv_name":"Uncletopia | Chicago | 4 | All Maps | STV","players":[{"user_id":289,"name":"CFDv20","steam_id":76561198450073779,"connected_time":3531000000000,"state":"active","ping":90},{"user_id":311,"name":"NEM","steam_id":76561199241131104,"connected_time":2342000000000,"state":"active","ping":83},{"user_id":299,"name":"Now I'm a Little Motivated","steam_id":76561198069580305,"connected_time":3261000000000,"state":"active","ping":52},{"user_id":273,"name":"Spleendo","steam_id":76561198069672629,"connected_time":4251000000000,"state":"active","ping":42},{"user_id":265,"name":"Carbon8ed","steam_id":76561198188488341,"connected_time":4324000000000,"state":"active","ping":58},{"user_id":290,"name":"sunrisebanana","steam_id":76561198038764622,"connected_time":3487000000000,"state":"active","ping":51},{"user_id":330,"name":"Gyokko","steam_id":76561198398001477,"connected_time":644000000000,"state":"active","ping":70},{"user_id":288,"name":"howboutdat","steam_id":76561198286122351,"connected_time":3580000000000,"state":"active","ping":66},{"user_id":314,"name":"Uvi Dawg","steam_id":76561198133336453,"connected_time":2334000000000,"state":"active","ping":68},{"user_id":324,"name":"Seb1x06","steam_id":76561198875062060,"connected_time":1541000000000,"state":"active","ping":163},{"user_id":315,"name":"minihoog","steam_id":76561198102156780,"connected_time":2332000000000,"state":"active","ping":90},{"user_id":283,"name":"Ejej","steam_id":76561198986313007,"connected_time":3632000000000,"state":"active","ping":122},{"user_id":328,"name":"Smet19","steam_id":76561198118455606,"connected_time":769000000000,"state":"active","ping":57},{"user_id":331,"name":"Vibey","steam_id":76561198342873474,"connected_time":580000000000,"state":"active","ping":91},{"user_id":319,"name":"A-cyklical","steam_id":76561198036189303,"connected_time":2265000000000,"state":"active","ping":82},{"user_id":323,"name":"TexNG","steam_id":76561197976341487,"connected_time":1617000000000,"state":"active","ping":79},{"user_id":305,"name":"Chezburgures","steam_id":76561198173043730,"connected_time":2824000000000,"state":"active","ping":108},{"user_id":318,"name":"Fifthcrusade1","steam_id":76561198142136640,"connected_time":2296000000000,"state":"active","ping":101},{"user_id":320,"name":"The Flaming Monocle","steam_id":76561198060757015,"connected_time":2261000000000,"state":"active","ping":74},{"user_id":327,"name":"Cheese Graffiti","steam_id":76561198046575913,"connected_time":870000000000,"state":"active","ping":58},{"user_id":269,"name":"Huge","steam_id":76561199030987614,"connected_time":4305000000000,"state":"active","ping":74},{"user_id":286,"name":"Adam (Cursed Confetti Creature)","steam_id":76561198317690197,"connected_time":3593000000000,"state":"active","ping":47},{"user_id":297,"name":"Bowl of Soup","steam_id":76561198114255273,"connected_time":3285000000000,"state":"active","ping":104},{"user_id":329,"name":"sardien","steam_id":76561198256184467,"connected_time":743000000000,"state":"active","ping":47}]},{"server_id":36,"name":"Uncletopia | Chicago | 5 | All Maps","name_short":"chi-5","host":"chi-2.us.uncletopia.com","port":27015,"enabled":true,"region":"us-central","cc":"us","latitude":41.881832,"longitude":-87.62318,"reserved":0,"last_update":"0001-01-01T00:00:00Z","name_a2s":"Uncletopia | Chicago | 5 | All Maps","protocol":17,"map":"pl_snowycoast","folder":"tf","game":"Team Fortress","app_id":440,"player_count":24,"max_players":24,"Bots":0,"server_type":"Dedicated","server_os":"Linux","password":true,"vac":true,"version":"7708610","steam_id":85568392924866362,"keywords":["nocrits","nodmgspread","payload","uncletopia"],"game_id":440,"stv_port":27016,"stv_name":"Uncletopia | Chicago | 5 | All Maps | STV","players":[{"user_id":201,"name":"Wengatang","steam_id":76561198021747059,"connected_time":313000000000,"state":"active","ping":59},{"user_id":177,"name":"emerald6","steam_id":76561198141978758,"connected_time":727000000000,"state":"active","ping":69},{"user_id":178,"name":"Cheese","steam_id":76561199435683727,"connected_time":704000000000,"state":"active","ping":157},{"user_id":173,"name":"time traveling dick balls","steam_id":76561198025029804,"connected_time":1353000000000,"state":"active","ping":43},{"user_id":203,"name":"heck","steam_id":76561198063559471,"connected_time":218000000000,"state":"active","ping":63},{"user_id":195,"name":"footoftheday","steam_id":76561198052712449,"connected_time":482000000000,"state":"active","ping":83},{"user_id":180,"name":"Styx","steam_id":76561198104657428,"connected_time":673000000000,"state":"active","ping":72},{"user_id":167,"name":"Dunmaglass","steam_id":76561198128928443,"connected_time":2481000000000,"state":"active","ping":74},{"user_id":199,"name":"Lizard95","steam_id":76561198003154936,"connected_time":379000000000,"state":"active","ping":70},{"user_id":182,"name":"Snazzi","steam_id":76561198085208276,"connected_time":655000000000,"state":"active","ping":86},{"user_id":183,"name":"pelicAn","steam_id":76561197963422599,"connected_time":646000000000,"state":"active","ping":70},{"user_id":165,"name":"ShortenedName","steam_id":76561198079337360,"connected_time":2511000000000,"state":"active","ping":69},{"user_id":185,"name":"Anshin","steam_id":76561198018803214,"connected_time":641000000000,"state":"active","ping":82},{"user_id":174,"name":"self sufficient kitten","steam_id":76561197960592612,"connected_time":1306000000000,"state":"active","ping":95},{"user_id":196,"name":"Rein","steam_id":76561198300340427,"connected_time":457000000000,"state":"active","ping":68},{"user_id":163,"name":"teamspeakisbeter","steam_id":76561198994349483,"connected_time":2573000000000,"state":"active","ping":87},{"user_id":197,"name":"Pigzilla","steam_id":76561198373968267,"connected_time":424000000000,"state":"active","ping":62},{"user_id":194,"name":"Owl Pacino","steam_id":76561197979970666,"connected_time":486000000000,"state":"active","ping":53},{"user_id":198,"name":"thrustmaster3legs","steam_id":76561198068672882,"connected_time":390000000000,"state":"active","ping":98},{"user_id":189,"name":"Yeagle","steam_id":76561199086620299,"connected_time":606000000000,"state":"active","ping":77},{"user_id":191,"name":"febfowl","steam_id":76561198023888890,"connected_time":596000000000,"state":"active","ping":92},{"user_id":166,"name":"Xuey","steam_id":76561199120960187,"connected_time":2504000000000,"state":"active","ping":52},{"user_id":158,"name":"asfd","steam_id":76561198012566405,"connected_time":2827000000000,"state":"active","ping":73},{"user_id":192,"name":"Esau","steam_id":76561198110449520,"connected_time":578000000000,"state":"active","ping":90}]},{"server_id":37,"name":"Uncletopia | Chicago | 6 | All Maps","name_short":"chi-6","host":"chi-2.us.uncletopia.com","port":27025,"enabled":true,"region":"us-central","cc":"us","latitude":41.881832,"longitude":-87.62318,"reserved":0,"last_update":"0001-01-01T00:00:00Z","name_a2s":"Uncletopia | Chicago | 6 | All Maps","protocol":17,"map":"koth_viaduct","folder":"tf","game":"Team Fortress","app_id":440,"player_count":0,"max_players":24,"Bots":0,"server_type":"Dedicated","server_os":"Linux","password":true,"vac":true,"version":"7708610","steam_id":85568392924866363,"keywords":["cp","nocrits","nodmgspread","uncletopia"],"game_id":440,"stv_port":27026,"stv_name":"Uncletopia | Chicago | 6 | All Maps | STV","players":null},{"server_id":38,"name":"Uncletopia | Chicago | 7 | Stopwatch (test)","name_short":"chi-7","host":"chi-2.us.uncletopia.com","port":27035,"enabled":true,"region":"us-central","cc":"us","latitude":41.881832,"longitude":-87.62318,"reserved":0,"last_update":"0001-01-01T00:00:00Z","name_a2s":"Uncletopia | Chicago | 7 | Stopwatch (test)","protocol":17,"map":"pl_swiftwater_final1","folder":"tf","game":"Team Fortress","app_id":440,"player_count":4,"max_players":24,"Bots":0,"server_type":"Dedicated","server_os":"Linux","password":true,"vac":true,"version":"7708610","steam_id":85568392924866364,"keywords":["nocrits","nodmgspread","payload","uncletopia"],"game_id":440,"stv_port":27036,"stv_name":"Uncletopia | Chicago | 7 | Stopwatch (test) | STV","players":[{"user_id":10,"name":"Mel the Derpy Uniroo","steam_id":76561199203030869,"connected_time":849000000000,"state":"active","ping":85},{"user_id":9,"name":"SpidercaxeZeGamer","steam_id":76561199189075618,"connected_time":1035000000000,"state":"active","ping":58},{"user_id":11,"name":"finn (he/him)","steam_id":76561198257531708,"connected_time":371000000000,"state":"active","ping":58},{"user_id":12,"name":"Infinitytacos","steam_id":76561198884260211,"connected_time":256000000000,"state":"active","ping":44}]},{"server_id":39,"name":"Uncletopia | Chicago | 8 | Community","name_short":"chi-8","host":"chi-2.us.uncletopia.com","port":27045,"enabled":true,"region":"us-central","cc":"us","latitude":41.881832,"longitude":-87.62318,"reserved":0,"last_update":"0001-01-01T00:00:00Z","name_a2s":"Uncletopia | Chicago | 8 | Community","protocol":17,"map":"pl_barnblitz","folder":"tf","game":"Team Fortress","app_id":440,"player_count":0,"max_players":24,"Bots":0,"server_type":"Dedicated","server_os":"Linux","password":true,"vac":true,"version":"7708610","steam_id":85568392924866365,"keywords":["nocrits","nodmgspread","payload","uncletopia"],"game_id":440,"stv_port":27046,"stv_name":"Uncletopia | Chicago | 8 | Community | STV","players":null},{"server_id":8,"name":"Uncletopia | Dallas | 1 | All Maps","name_short":"dal-1","host":"dal-1.us.uncletopia.com","port":27015,"enabled":true,"region":"us-central","cc":"us","latitude":32.779167,"longitude":-96.80889,"reserved":0,"last_update":"0001-01-01T00:00:00Z","name_a2s":"Uncletopia | Dallas | 1 | All Maps","protocol":17,"map":"pl_badwater","folder":"tf","game":"Team Fortress","app_id":440,"player_count":24,"max_players":24,"Bots":0,"server_type":"Dedicated","server_os":"Linux","password":true,"vac":true,"version":"7708610","steam_id":85568392924469986,"keywords":["nocrits","nodmgspread","payload","uncletopia"],"game_id":440,"stv_port":27016,"stv_name":"Uncletopia | Dallas | 1 | All Maps | STV","players":[{"user_id":147,"name":"Rat Smacker","steam_id":76561199090197628,"connected_time":170000000000,"state":"active","ping":55},{"user_id":145,"name":"Ret","steam_id":76561198272398545,"connected_time":186000000000,"state":"active","ping":114},{"user_id":142,"name":"Scrumpy Main","steam_id":76561198146302597,"connected_time":480000000000,"state":"active","ping":61},{"user_id":98,"name":"Meth Bomb","steam_id":76561198365857261,"connected_time":2352000000000,"state":"active","ping":37},{"user_id":148,"name":"Jobation","steam_id":76561198164931901,"connected_time":165000000000,"state":"active","ping":60},{"user_id":121,"name":"Kapreesi","steam_id":76561198163361200,"connected_time":1266000000000,"state":"active","ping":60},{"user_id":134,"name":"Sleepy Brady","steam_id":76561198867378129,"connected_time":921000000000,"state":"active","ping":82},{"user_id":143,"name":"Crispytoasteer","steam_id":76561199087533325,"connected_time":300000000000,"state":"active","ping":50},{"user_id":114,"name":"thelazydog","steam_id":76561198947215423,"connected_time":1614000000000,"state":"active","ping":51},{"user_id":113,"name":"Helen Keller","steam_id":76561198947654861,"connected_time":1624000000000,"state":"active","ping":51},{"user_id":87,"name":"xX_matias.gamer_Xx","steam_id":76561199187226776,"connected_time":2803000000000,"state":"active","ping":54},{"user_id":117,"name":"You Don't Nomi.","steam_id":76561197969137836,"connected_time":1386000000000,"state":"active","ping":88},{"user_id":149,"name":"urine trouble","steam_id":76561199013266640,"connected_time":165000000000,"state":"active","ping":93},{"user_id":127,"name":"Goob","steam_id":76561198326469586,"connected_time":1103000000000,"state":"active","ping":57},{"user_id":135,"name":"macLight7","steam_id":76561198106159515,"connected_time":802000000000,"state":"active","ping":80},{"user_id":133,"name":"MA BEETS","steam_id":76561198168981607,"connected_time":941000000000,"state":"active","ping":95},{"user_id":132,"name":"Go Away","steam_id":76561199213453506,"connected_time":985000000000,"state":"active","ping":145},{"user_id":105,"name":"Mellou","steam_id":76561198212048740,"connected_time":1972000000000,"state":"active","ping":50},{"user_id":106,"name":"Rugbmilk","steam_id":76561199389283507,"connected_time":1960000000000,"state":"active","ping":98},{"user_id":138,"name":"I'm probably done trolling","steam_id":76561198046470470,"connected_time":714000000000,"state":"active","ping":89},{"user_id":137,"name":"puffer","steam_id":76561199049164456,"connected_time":743000000000,"state":"active","ping":97},{"user_id":126,"name":"Remex","steam_id":76561198072651849,"connected_time":1127000000000,"state":"active","ping":73},{"user_id":150,"name":"SpiderString","steam_id":76561198092409181,"connected_time":71000000000,"state":"active","ping":118},{"user_id":140,"name":"khlvklsh","steam_id":76561198024924029,"connected_time":670000000000,"state":"active","ping":48}]},{"server_id":108,"name":"Uncletopia | Dallas | 2 | All Maps","name_short":"dal-2","host":"dal-1.us.uncletopia.com","port":27025,"enabled":true,"region":"us-central","cc":"us","latitude":32.779167,"longitude":-96.80889,"reserved":0,"last_update":"0001-01-01T00:00:00Z","name_a2s":"Uncletopia | Dallas | 2 | All Maps","protocol":17,"map":"cp_foundry","folder":"tf","game":"Team Fortress","app_id":440,"player_count":24,"max_players":24,"Bots":0,"server_type":"Dedicated","server_os":"Linux","password":true,"vac":true,"version":"7708610","steam_id":85568392924469988,"keywords":["cp","nocrits","nodmgspread","uncletopia"],"game_id":440,"stv_port":27026,"stv_name":"Uncletopia | Dallas | 2 | All Maps | STV","players":[{"user_id":60,"name":"ChainsawGuy","steam_id":76561198971626811,"connected_time":4572000000000,"state":"active","ping":90},{"user_id":122,"name":"tacoodoom","steam_id":76561199123075248,"connected_time":1628000000000,"state":"active","ping":102},{"user_id":53,"name":"Heida","steam_id":76561198298468550,"connected_time":4902000000000,"state":"active","ping":74},{"user_id":140,"name":"ck_blue1","steam_id":76561198076797151,"connected_time":537000000000,"state":"active","ping":80},{"user_id":112,"name":"Winter the Witchie","steam_id":76561198151971178,"connected_time":2032000000000,"state":"active","ping":82},{"user_id":127,"name":"Arti","steam_id":76561198062478505,"connected_time":1356000000000,"state":"active","ping":97},{"user_id":111,"name":"N0_J0K3","steam_id":76561198287102197,"connected_time":2048000000000,"state":"active","ping":113},{"user_id":132,"name":"Sci T. Psycho","steam_id":76561198029079646,"connected_time":936000000000,"state":"active","ping":401},{"user_id":136,"name":"ImmenseWraith","steam_id":76561198963757884,"connected_time":590000000000,"state":"active","ping":67},{"user_id":77,"name":"miniladdd","steam_id":76561198079451544,"connected_time":3798000000000,"state":"active","ping":78},{"user_id":88,"name":"bitmappu","steam_id":76561199000786530,"connected_time":3180000000000,"state":"active","ping":63},{"user_id":114,"name":"Heart","steam_id":76561198169498127,"connected_time":2008000000000,"state":"active","ping":79},{"user_id":137,"name":"American freedom bird","steam_id":76561198366142388,"connected_time":568000000000,"state":"active","ping":84},{"user_id":72,"name":"EDP445","steam_id":76561198053832401,"connected_time":4048000000000,"state":"active","ping":101},{"user_id":138,"name":"amagicowl","steam_id":76561199060487814,"connected_time":561000000000,"state":"active","ping":78},{"user_id":130,"name":"Eightyy  Fourr","steam_id":76561197960374225,"connected_time":1109000000000,"state":"active","ping":45},{"user_id":134,"name":"task","steam_id":76561198284992433,"connected_time":797000000000,"state":"active","ping":71},{"user_id":131,"name":"C O M F Y","steam_id":76561198072101210,"connected_time":1031000000000,"state":"active","ping":86},{"user_id":126,"name":"anton ego","steam_id":76561199019583362,"connected_time":1414000000000,"state":"active","ping":82},{"user_id":100,"name":"dolph","steam_id":76561198341304816,"connected_time":2757000000000,"state":"active","ping":81},{"user_id":141,"name":"remedu","steam_id":76561198005152587,"connected_time":171000000000,"state":"active","ping":45},{"user_id":133,"name":"Blue Collar","steam_id":76561198354781722,"connected_time":873000000000,"state":"active","ping":79},{"user_id":120,"name":"TopCum || TipofTheDicks.org","steam_id":76561199136063332,"connected_time":1720000000000,"state":"active","ping":90},{"user_id":139,"name":"trollos (real)","steam_id":76561199195097493,"connected_time":560000000000,"state":"active","ping":133}]},{"server_id":5,"name":"Uncletopia | Frankfurt | 1 | All Maps","name_short":"frk-1","host":"frk-1.de.uncletopia.com","port":27015,"enabled":true,"region":"eu","cc":"de","latitude":50.110924,"longitude":8.682127,"reserved":0,"last_update":"0001-01-01T00:00:00Z","name_a2s":"Uncletopia | Frankfurt | 1 | All Maps","protocol":17,"map":"koth_highpass","folder":"tf","game":"Team Fortress","app_id":440,"player_count":0,"max_players":24,"Bots":0,"server_type":"Dedicated","server_os":"Linux","password":true,"vac":true,"version":"7708610","steam_id":85568392924469989,"keywords":["cp","nocrits","nodmgspread","uncletopia"],"game_id":440,"stv_port":27016,"stv_name":"Uncletopia | Frankfurt | 1 | All Maps | STV","players":null},{"server_id":110,"name":"Uncletopia | Frankfurt | 2 | All Maps","name_short":"frk-2","host":"frk-1.de.uncletopia.com","port":27025,"enabled":true,"region":"eu","cc":"de","latitude":50.110924,"longitude":8.682127,"reserved":0,"last_update":"0001-01-01T00:00:00Z","name_a2s":"Uncletopia | Frankfurt | 2 | All Maps","protocol":17,"map":"cp_sunshine","folder":"tf","game":"Team Fortress","app_id":440,"player_count":0,"max_players":24,"Bots":0,"server_type":"Dedicated","server_os":"Linux","password":true,"vac":true,"version":"7708610","steam_id":85568392924469990,"keywords":["cp","nocrits","nodmgspread","uncletopia"],"game_id":440,"stv_port":27026,"stv_name":"Uncletopia | Frankfurt | 2 | All Maps | STV","players":null},{"server_id":308,"name":"Uncletopia | Frankfurt | 3 | All Maps","name_short":"frk-3","host":"frk-1.de.uncletopia.com","port":27035,"enabled":true,"region":"eu","cc":"de","latitude":50.110924,"longitude":8.682127,"reserved":0,"last_update":"0001-01-01T00:00:00Z","name_a2s":"Uncletopia | Frankfurt | 3 | All Maps","protocol":17,"map":"cp_steel","folder":"tf","game":"Team Fortress","app_id":440,"player_count":20,"max_players":24,"Bots":0,"server_type":"Dedicated","server_os":"Linux","password":true,"vac":true,"version":"7708610","steam_id":85568392924504274,"keywords":["cp","nocrits","nodmgspread","uncletopia"],"game_id":440,"stv_port":27036,"stv_name":"Uncletopia | Frankfurt | 3 | All Maps | STV","players":[{"user_id":562,"name":"Festdoktor","steam_id":76561198058159271,"connected_time":565000000000,"state":"active","ping":51},{"user_id":571,"name":"MagusCubed","steam_id":76561198083973944,"connected_time":16000000000,"state":"active","ping":62},{"user_id":565,"name":"kayk","steam_id":76561198170471502,"connected_time":461000000000,"state":"active","ping":141},{"user_id":471,"name":"cinny","steam_id":76561198832112629,"connected_time":4263000000000,"state":"active","ping":69},{"user_id":543,"name":"Pico","steam_id":76561198063552545,"connected_time":2300000000000,"state":"active","ping":95},{"user_id":560,"name":"IceWolf","steam_id":76561198134807461,"connected_time":1512000000000,"state":"active","ping":87},{"user_id":541,"name":"Zambia","steam_id":76561198167828355,"connected_time":2371000000000,"state":"active","ping":52},{"user_id":536,"name":"ProfessorCrack","steam_id":76561199035475627,"connected_time":2461000000000,"state":"active","ping":75},{"user_id":542,"name":"business man","steam_id":76561198048250715,"connected_time":2326000000000,"state":"active","ping":48},{"user_id":567,"name":"800A","steam_id":76561199233979726,"connected_time":290000000000,"state":"active","ping":85},{"user_id":465,"name":"Mr Xiong from Chinatown","steam_id":76561197988802856,"connected_time":4705000000000,"state":"active","ping":53},{"user_id":534,"name":"Neco-arc Astolfo","steam_id":76561198989682540,"connected_time":2463000000000,"state":"active","ping":46},{"user_id":557,"name":"Poor Fucking Infantry","steam_id":76561198055978522,"connected_time":1712000000000,"state":"active","ping":61},{"user_id":568,"name":"beer","steam_id":76561198442962043,"connected_time":234000000000,"state":"active","ping":90},{"user_id":549,"name":"meatsoupcube","steam_id":76561198276802249,"connected_time":2089000000000,"state":"active","ping":63},{"user_id":564,"name":"Gryoss","steam_id":76561197999837111,"connected_time":545000000000,"state":"active","ping":103},{"user_id":569,"name":"der Luchs","steam_id":76561199093964226,"connected_time":190000000000,"state":"active","ping":79},{"user_id":546,"name":"JugoTopia","steam_id":76561197996067209,"connected_time":2223000000000,"state":"active","ping":124},{"user_id":570,"name":"Tsuruko","steam_id":76561198063618114,"connected_time":69000000000,"state":"active","ping":61},{"user_id":501,"name":"AvocadoConstant","steam_id":76561198343031982,"connected_time":3318000000000,"state":"active","ping":98}]},{"server_id":309,"name":"Uncletopia | Frankfurt | 4 | All Maps","name_short":"frk-4","host":"frk-1.de.uncletopia.com","port":27045,"enabled":true,"region":"eu","cc":"de","latitude":50.110924,"longitude":8.682127,"reserved":0,"last_update":"0001-01-01T00:00:00Z","name_a2s":"Uncletopia | Frankfurt | 4 | All Maps","protocol":17,"map":"cp_snakewater_final1","folder":"tf","game":"Team Fortress","app_id":440,"player_count":0,"max_players":24,"Bots":0,"server_type":"Dedicated","server_os":"Linux","password":true,"vac":true,"version":"7708610","steam_id":85568392924504275,"keywords":["cp","nocrits","nodmgspread","uncletopia"],"game_id":440,"stv_port":27046,"stv_name":"Uncletopia | Frankfurt | 4 | All Maps | STV","players":null},{"server_id":310,"name":"Uncletopia | Frankfurt | 5 | All Maps","name_short":"frk-5","host":"frk-1.de.uncletopia.com","port":27055,"enabled":true,"region":"eu","cc":"de","latitude":50.110924,"longitude":8.682127,"reserved":0,"last_update":"0001-01-01T00:00:00Z","name_a2s":"Uncletopia | Frankfurt | 5 | All Maps","protocol":17,"map":"cp_altitude","folder":"tf","game":"Team Fortress","app_id":440,"player_count":0,"max_players":24,"Bots":0,"server_type":"Dedicated","server_os":"Linux","password":true,"vac":true,"version":"7708610","steam_id":85568392924504277,"keywords":["cp","nocrits","nodmgspread","uncletopia"],"game_id":440,"stv_port":27056,"stv_name":"Uncletopia | Frankfurt | 5 | All Maps | STV","players":null},{"server_id":311,"name":"Uncletopia | Frankfurt | 6 | All Maps","name_short":"frk-6","host":"frk-1.de.uncletopia.com","port":27065,"enabled":true,"region":"eu","cc":"de","latitude":50.110924,"longitude":8.682127,"reserved":0,"last_update":"0001-01-01T00:00:00Z","name_a2s":"Uncletopia | Frankfurt | 6 | All Maps","protocol":17,"map":"koth_highpass","folder":"tf","game":"Team Fortress","app_id":440,"player_count":0,"max_players":24,"Bots":0,"server_type":"Dedicated","server_os":"Linux","password":true,"vac":true,"version":"7708610","steam_id":85568392924504278,"keywords":["cp","nocrits","nodmgspread","uncletopia"],"game_id":440,"stv_port":27066,"stv_name":"Uncletopia | Frankfurt | 6 | All Maps | STV","players":null},{"server_id":23,"name":"Uncletopia | Frankfurt | 7 | No Payload","name_short":"frk-7","host":"frk-1.de.uncletopia.com","port":27075,"enabled":true,"region":"eu","cc":"de","latitude":50.110924,"longitude":8.682127,"reserved":0,"last_update":"0001-01-01T00:00:00Z","name_a2s":"Uncletopia | Frankfurt | 7 | No Payload","protocol":17,"map":"koth_viaduct","folder":"tf","game":"Team Fortress","app_id":440,"player_count":0,"max_players":24,"Bots":0,"server_type":"Dedicated","server_os":"Linux","password":true,"vac":true,"version":"7708610","steam_id":85568392924742827,"keywords":["cp","nocrits","nodmgspread","uncletopia"],"game_id":440,"stv_port":27076,"stv_name":"Uncletopia | Frankfurt | 7 | No Payload | STV","players":null},{"server_id":24,"name":"Uncletopia | Frankfurt | 8 | Community","name_short":"frk-8","host":"frk-1.de.uncletopia.com","port":27085,"enabled":true,"region":"eu","cc":"de","latitude":50.110924,"longitude":8.682127,"reserved":0,"last_update":"0001-01-01T00:00:00Z","name_a2s":"Uncletopia | Frankfurt | 8 | Community","protocol":17,"map":"workshop/cp_villa_b19.ugc2113052569","folder":"tf","game":"Team Fortress","app_id":440,"player_count":0,"max_players":24,"Bots":0,"server_type":"Dedicated","server_os":"Linux","password":true,"vac":true,"version":"7708610","steam_id":85568392924742828,"keywords":["cp","nocrits","nodmgspread","uncletopia"],"game_id":440,"stv_port":27086,"stv_name":"Uncletopia | Frankfurt | 8 | Community | STV","players":null},{"server_id":202,"name":"Uncletopia | Hong Kong | 1 | All Maps","name_short":"hgk-1","host":"hgk-1.hk.uncletopia.com","port":27015,"enabled":true,"region":"asia","cc":"hk","latitude":22.302711,"longitude":114.177216,"reserved":0,"last_update":"0001-01-01T00:00:00Z","name_a2s":"Uncletopia | Hong Kong | 1 | All Maps","protocol":17,"map":"cp_mountainlab","folder":"tf","game":"Team Fortress","app_id":440,"player_count":0,"max_players":24,"Bots":0,"server_type":"Dedicated","server_os":"Linux","password":true,"vac":true,"version":"7708610","steam_id":85568392924494504,"keywords":["cp","nocrits","nodmgspread","uncletopia"],"game_id":440,"stv_port":27016,"stv_name":"Uncletopia | Hong Kong | 1 | All Maps | STV","players":null},{"server_id":1,"name":"Uncletopia | Los Angeles | 1 | All Maps","name_short":"lax-1","host":"lax-1.us.uncletopia.com","port":27015,"enabled":true,"region":"us-west","cc":"us","latitude":33.94279,"longitude":-118.41004,"reserved":0,"last_update":"0001-01-01T00:00:00Z","name_a2s":"Uncletopia | Los Angeles | 1 | All Maps","protocol":17,"map":"pl_pier","folder":"tf","game":"Team Fortress","app_id":440,"player_count":24,"max_players":24,"Bots":0,"server_type":"Dedicated","server_os":"Linux","password":true,"vac":true,"version":"7708610","steam_id":85568392924469991,"keywords":["nocrits","nodmgspread","payload","uncletopia"],"game_id":440,"stv_port":27016,"stv_name":"Uncletopia | Los Angeles | 1 | All Maps | STV","players":[{"user_id":268,"name":"Parauder","steam_id":76561198131593741,"connected_time":11012000000000,"state":"active","ping":116},{"user_id":395,"name":"⛧Alkahestry","steam_id":76561198109641497,"connected_time":1159000000000,"state":"active","ping":45},{"user_id":393,"name":"xerro","steam_id":76561198323340524,"connected_time":1442000000000,"state":"active","ping":94},{"user_id":401,"name":"HellRaiser","steam_id":76561199051660033,"connected_time":1039000000000,"state":"active","ping":73},{"user_id":269,"name":"dex","steam_id":76561198202575667,"connected_time":11009000000000,"state":"active","ping":171},{"user_id":357,"name":"Bagaboned","steam_id":76561198043761335,"connected_time":4842000000000,"state":"active","ping":76},{"user_id":409,"name":"Alice in Rubberland","steam_id":76561198087328346,"connected_time":132000000000,"state":"active","ping":90},{"user_id":385,"name":"HanakoToast","steam_id":76561198045233131,"connected_time":2255000000000,"state":"active","ping":52},{"user_id":408,"name":"Yukon Cornelius","steam_id":76561198261512781,"connected_time":273000000000,"state":"active","ping":95},{"user_id":398,"name":"BrightOrangeMango","steam_id":76561198023144607,"connected_time":1085000000000,"state":"active","ping":60},{"user_id":359,"name":"Dad Rock Deluxe","steam_id":76561198051224819,"connected_time":4693000000000,"state":"active","ping":75},{"user_id":407,"name":"]HaS[ Mostly Harmless","steam_id":76561197995268718,"connected_time":365000000000,"state":"active","ping":61},{"user_id":386,"name":"your balls itch","steam_id":76561199138694609,"connected_time":2236000000000,"state":"active","ping":56},{"user_id":410,"name":"mur lft","steam_id":76561198368715869,"connected_time":79000000000,"state":"active","ping":50},{"user_id":382,"name":"autogynocelia","steam_id":76561198038995286,"connected_time":2630000000000,"state":"active","ping":130},{"user_id":375,"name":"Ultra\u003c3","steam_id":76561198352021493,"connected_time":3005000000000,"state":"active","ping":86},{"user_id":363,"name":"ronaldo the goat","steam_id":76561199443395112,"connected_time":4302000000000,"state":"active","ping":97},{"user_id":402,"name":"Pie","steam_id":76561198054721133,"connected_time":1017000000000,"state":"active","ping":57},{"user_id":403,"name":"ASCII | Dr.keinmann","steam_id":76561198360305514,"connected_time":878000000000,"state":"active","ping":75},{"user_id":374,"name":"KnockOutClock","steam_id":76561199436877307,"connected_time":3118000000000,"state":"active","ping":93},{"user_id":404,"name":"June","steam_id":76561198141803658,"connected_time":877000000000,"state":"active","ping":49},{"user_id":392,"name":"TeriyakiDynamite","steam_id":76561198050049346,"connected_time":1751000000000,"state":"active","ping":70},{"user_id":384,"name":"\u003cM\u003e","steam_id":76561198028068603,"connected_time":2616000000000,"state":"active","ping":60},{"user_id":406,"name":"ASCII | kymeira","steam_id":76561198340743816,"connected_time":676000000000,"state":"active","ping":45}]},{"server_id":112,"name":"Uncletopia | Los Angeles | 2 | All Maps","name_short":"lax-2","host":"lax-1.us.uncletopia.com","port":27025,"enabled":true,"region":"us-west","cc":"us","latitude":33.94279,"longitude":-118.41004,"reserved":0,"last_update":"0001-01-01T00:00:00Z","name_a2s":"Uncletopia | Los Angeles | 2 | All Maps","protocol":17,"map":"cp_egypt_final","folder":"tf","game":"Team Fortress","app_id":440,"player_count":0,"max_players":24,"Bots":0,"server_type":"Dedicated","server_os":"Linux","password":true,"vac":true,"version":"7708610","steam_id":85568392924469992,"keywords":["cp","nocrits","nodmgspread","uncletopia"],"game_id":440,"stv_port":27026,"stv_name":"Uncletopia | Los Angeles | 2 | All Maps | STV","players":null},{"server_id":324,"name":"Uncletopia | Los Angeles | 3 | All Maps","name_short":"lax-3","host":"lax-1.us.uncletopia.com","port":27035,"enabled":true,"region":"us-west","cc":"us","latitude":33.94279,"longitude":-118.41004,"reserved":0,"last_update":"0001-01-01T00:00:00Z","name_a2s":"Uncletopia | Los Angeles | 3 | All Maps","protocol":17,"map":"pl_swiftwater_final1","folder":"tf","game":"Team Fortress","app_id":440,"player_count":24,"max_players":24,"Bots":0,"server_type":"Dedicated","server_os":"Linux","password":true,"vac":true,"version":"7708610","steam_id":85568392924510198,"keywords":["nocrits","nodmgspread","payload","uncletopia"],"game_id":440,"stv_port":27036,"stv_name":"Uncletopia | Los Angeles | 3 | All Maps | STV","players":[{"user_id":205,"name":"cup","steam_id":76561198121245586,"connected_time":47000000000,"state":"spawning","ping":236},{"user_id":204,"name":"ingjess09","steam_id":76561199339732059,"connected_time":215000000000,"state":"active","ping":44},{"user_id":188,"name":"Belmore","steam_id":76561198009355231,"connected_time":940000000000,"state":"active","ping":48},{"user_id":189,"name":"Brie","steam_id":76561198444959375,"connected_time":922000000000,"state":"active","ping":114},{"user_id":185,"name":"Cosmosis Jones","steam_id":76561198970097093,"connected_time":1136000000000,"state":"active","ping":56},{"user_id":182,"name":"solveig","steam_id":76561198271713106,"connected_time":1601000000000,"state":"active","ping":119},{"user_id":164,"name":"MayoMateo","steam_id":76561198360809933,"connected_time":2815000000000,"state":"active","ping":52},{"user_id":151,"name":"Retr0Luigi","steam_id":76561199149799060,"connected_time":3326000000000,"state":"active","ping":55},{"user_id":178,"name":"ProtectorOfBambi","steam_id":76561198141898621,"connected_time":2094000000000,"state":"active","ping":76},{"user_id":152,"name":"Spydr_maybe","steam_id":76561198992180067,"connected_time":3290000000000,"state":"active","ping":62},{"user_id":191,"name":"THIS GAME IS FUCKING AWESOME!!!","steam_id":76561198334059206,"connected_time":825000000000,"state":"active","ping":59},{"user_id":192,"name":"Ingrid :3c","steam_id":76561198353617635,"connected_time":815000000000,"state":"active","ping":189},{"user_id":193,"name":"Fedoras\u0026Sunglasses","steam_id":76561198311556446,"connected_time":760000000000,"state":"active","ping":103},{"user_id":176,"name":"corbenis","steam_id":76561199012442511,"connected_time":2286000000000,"state":"active","ping":51},{"user_id":148,"name":"SesataPomang","steam_id":76561198145133059,"connected_time":3628000000000,"state":"active","ping":91},{"user_id":194,"name":"Speedycat","steam_id":76561198024821259,"connected_time":738000000000,"state":"active","ping":45},{"user_id":200,"name":"squig_","steam_id":76561198043726592,"connected_time":548000000000,"state":"active","ping":77},{"user_id":196,"name":"Soap Man","steam_id":76561198000490235,"connected_time":704000000000,"state":"active","ping":95},{"user_id":179,"name":"wow?","steam_id":76561198841016072,"connected_time":2048000000000,"state":"active","ping":80},{"user_id":168,"name":"Quest1onable1","steam_id":76561199114459845,"connected_time":2610000000000,"state":"active","ping":62},{"user_id":180,"name":"Sprucelass","steam_id":76561197998391724,"connected_time":1813000000000,"state":"active","ping":105},{"user_id":203,"name":"Trollage","steam_id":76561198165396407,"connected_time":249000000000,"state":"active","ping":95},{"user_id":202,"name":"darkness.danny3481","steam_id":76561198132808002,"connected_time":306000000000,"state":"active","ping":52},{"user_id":198,"name":"Bigby","steam_id":76561199056842761,"connected_time":644000000000,"state":"active","ping":59}]},{"server_id":25,"name":"Uncletopia | Los Angeles | 4 | No Payload","name_short":"lax-4","host":"lax-1.us.uncletopia.com","port":27045,"enabled":true,"region":"us-west","cc":"us","latitude":33.94279,"longitude":-118.41004,"reserved":0,"last_update":"0001-01-01T00:00:00Z","name_a2s":"Uncletopia | Los Angeles | 4 | No Payload","protocol":17,"map":"cp_gravelpit","folder":"tf","game":"Team Fortress","app_id":440,"player_count":0,"max_players":24,"Bots":0,"server_type":"Dedicated","server_os":"Linux","password":true,"vac":true,"version":"7708610","steam_id":85568392924510199,"keywords":["cp","nocrits","nodmgspread","uncletopia"],"game_id":440,"stv_port":27046,"stv_name":"Uncletopia | Los Angeles | 4 | No Payload | STV","players":null},{"server_id":11,"name":"Uncletopia | London | 1 | All Maps","name_short":"lon-1","host":"lon-1.uk.uncletopia.com","port":27015,"enabled":true,"region":"eu","cc":"gb","latitude":51.509865,"longitude":-0.118092,"reserved":0,"last_update":"0001-01-01T00:00:00Z","name_a2s":"Uncletopia | London | 1 | All Maps","protocol":17,"map":"pl_borneo","folder":"tf","game":"Team Fortress","app_id":440,"player_count":20,"max_players":24,"Bots":0,"server_type":"Dedicated","server_os":"Linux","password":true,"vac":true,"version":"7708610","steam_id":85568392924367362,"keywords":["nocrits","nodmgspread","payload","uncletopia"],"game_id":440,"stv_port":27016,"stv_name":"Uncletopia | London | 1 | All Maps | STV","players":[{"user_id":567,"name":"Infantile Pillock","steam_id":76561198283851362,"connected_time":2643000000000,"state":"active","ping":68},{"user_id":591,"name":"Dr.Disrespect","steam_id":76561198043820228,"connected_time":1105000000000,"state":"active","ping":53},{"user_id":609,"name":"stonebum","steam_id":76561198057004606,"connected_time":356000000000,"state":"active","ping":51},{"user_id":610,"name":"VenezuelanCsPeek","steam_id":76561198405247576,"connected_time":311000000000,"state":"active","ping":48},{"user_id":605,"name":"CiVillain","steam_id":76561198059617732,"connected_time":472000000000,"state":"active","ping":67},{"user_id":603,"name":"Nassu","steam_id":76561198147367577,"connected_time":492000000000,"state":"active","ping":156},{"user_id":611,"name":"fogings","steam_id":76561198044165284,"connected_time":267000000000,"state":"active","ping":59},{"user_id":594,"name":"Mantis Toboggan, M.D","steam_id":76561197963562704,"connected_time":1034000000000,"state":"active","ping":74},{"user_id":613,"name":"BreadBaubbles","steam_id":76561198174332826,"connected_time":174000000000,"state":"active","ping":52},{"user_id":614,"name":"Continue?]","steam_id":76561199174579733,"connected_time":59000000000,"state":"active","ping":119},{"user_id":575,"name":"Vitamin Weee","steam_id":76561199183937747,"connected_time":2009000000000,"state":"active","ping":92},{"user_id":580,"name":"Yennefer of Vengerberg","steam_id":76561198239517620,"connected_time":1485000000000,"state":"active","ping":45},{"user_id":600,"name":"Daginberth","steam_id":76561198043811437,"connected_time":672000000000,"state":"active","ping":68},{"user_id":578,"name":"round object","steam_id":76561198136239861,"connected_time":1579000000000,"state":"active","ping":48},{"user_id":590,"name":"Cement (Real)","steam_id":76561198051925782,"connected_time":1149000000000,"state":"active","ping":75},{"user_id":606,"name":"lettuce at 58p","steam_id":76561199401283123,"connected_time":456000000000,"state":"active","ping":47},{"user_id":607,"name":"I am Heavy Weapons Guy","steam_id":76561198099116431,"connected_time":453000000000,"state":"active","ping":57},{"user_id":608,"name":"Johnnie Pantaloons","steam_id":76561198119511720,"connected_time":450000000000,"state":"active","ping":56},{"user_id":576,"name":"Breadcrab","steam_id":76561198015924039,"connected_time":1988000000000,"state":"active","ping":55},{"user_id":571,"name":"Boil em mash em","steam_id":76561198026508026,"connected_time":2492000000000,"state":"active","ping":63}]},{"server_id":114,"name":"Uncletopia | London | 2 | All Maps","name_short":"lon-2","host":"lon-1.uk.uncletopia.com","port":27025,"enabled":true,"region":"eu","cc":"gb","latitude":51.509865,"longitude":-0.118092,"reserved":0,"last_update":"0001-01-01T00:00:00Z","name_a2s":"Uncletopia | London | 2 | All Maps","protocol":17,"map":"pl_swiftwater_final1","folder":"tf","game":"Team Fortress","app_id":440,"player_count":8,"max_players":24,"Bots":0,"server_type":"Dedicated","server_os":"Linux","password":true,"vac":true,"version":"7708610","steam_id":85568392924470941,"keywords":["nocrits","nodmgspread","payload","uncletopia"],"game_id":440,"stv_port":27026,"stv_name":"Uncletopia | London | 2 | All Maps | STV","players":[{"user_id":324,"name":"jtnrif8dVITifirD8","steam_id":76561198057833760,"connected_time":38000000000,"state":"active","ping":72},{"user_id":313,"name":"The Collector","steam_id":76561199136238290,"connected_time":1774000000000,"state":"active","ping":182},{"user_id":317,"name":"Mari_Kross","steam_id":76561198130863086,"connected_time":1401000000000,"state":"active","ping":75},{"user_id":315,"name":"aristiponce32","steam_id":76561198867968111,"connected_time":1708000000000,"state":"active","ping":171},{"user_id":323,"name":"Subxo","steam_id":76561198341198154,"connected_time":276000000000,"state":"active","ping":112},{"user_id":320,"name":"Lukero","steam_id":76561198301594341,"connected_time":1121000000000,"state":"active","ping":65},{"user_id":297,"name":"калл калыча","steam_id":76561199181031501,"connected_time":3437000000000,"state":"active","ping":75},{"user_id":293,"name":"OpaiGoof","steam_id":76561199444687855,"connected_time":3986000000000,"state":"active","ping":74}]},{"server_id":320,"name":"Uncletopia | London | 3 | All Maps","name_short":"lon-3","host":"lon-1.uk.uncletopia.com","port":27035,"enabled":true,"region":"eu","cc":"gb","latitude":51.509865,"longitude":-0.118092,"reserved":0,"last_update":"0001-01-01T00:00:00Z","name_a2s":"Uncletopia | London | 3 | All Maps","protocol":17,"map":"cp_sunshine","folder":"tf","game":"Team Fortress","app_id":440,"player_count":0,"max_players":24,"Bots":0,"server_type":"Dedicated","server_os":"Linux","password":true,"vac":true,"version":"7708610","steam_id":85568392924510192,"keywords":["cp","nocrits","nodmgspread","uncletopia"],"game_id":440,"stv_port":27036,"stv_name":"Uncletopia | London | 3 | All Maps | STV","players":null},{"server_id":321,"name":"Uncletopia | London | 4 | All Maps","name_short":"lon-4","host":"lon-1.uk.uncletopia.com","port":27045,"enabled":true,"region":"eu","cc":"gb","latitude":51.509865,"longitude":-0.118092,"reserved":0,"last_update":"0001-01-01T00:00:00Z","name_a2s":"Uncletopia | London | 4 | All Maps","protocol":17,"map":"pl_upward","folder":"tf","game":"Team Fortress","app_id":440,"player_count":14,"max_players":24,"Bots":0,"server_type":"Dedicated","server_os":"Linux","password":true,"vac":true,"version":"7708610","steam_id":85568392924510193,"keywords":["nocrits","nodmgspread","payload","uncletopia"],"game_id":440,"stv_port":27046,"stv_name":"Uncletopia | London | 4 | All Maps | STV","players":[{"user_id":919,"name":"Zerfesh","steam_id":76561198117534358,"connected_time":1311000000000,"state":"active","ping":86},{"user_id":921,"name":"chrissymas","steam_id":76561198096547662,"connected_time":1129000000000,"state":"active","ping":47},{"user_id":896,"name":"Disasterday","steam_id":76561198044767090,"connected_time":3270000000000,"state":"active","ping":59},{"user_id":880,"name":"NeoTheOwl","steam_id":76561198146962506,"connected_time":4873000000000,"state":"active","ping":72},{"user_id":868,"name":"casual zyzz praiser","steam_id":76561198022382969,"connected_time":6692000000000,"state":"active","ping":75},{"user_id":906,"name":"Bob","steam_id":76561198218200489,"connected_time":2653000000000,"state":"active","ping":53},{"user_id":882,"name":"TheArchitect2207","steam_id":76561199136784800,"connected_time":4861000000000,"state":"active","ping":70},{"user_id":915,"name":"Whippopotamus","steam_id":76561198177059485,"connected_time":1610000000000,"state":"active","ping":62},{"user_id":883,"name":"Penis Contortionist","steam_id":76561198073663784,"connected_time":4842000000000,"state":"active","ping":35},{"user_id":916,"name":"beeb","steam_id":76561198211644077,"connected_time":1602000000000,"state":"active","ping":61},{"user_id":917,"name":"my name ginger","steam_id":76561198141744030,"connected_time":1594000000000,"state":"active","ping":47},{"user_id":922,"name":"Marquis de Hoto","steam_id":76561198080687708,"connected_time":413000000000,"state":"active","ping":70},{"user_id":884,"name":"NukePigg","steam_id":76561198131324143,"connected_time":4810000000000,"state":"active","ping":39},{"user_id":907,"name":"mimi","steam_id":76561198060648946,"connected_time":2560000000000,"state":"active","ping":61}]},{"server_id":21,"name":"Uncletopia | London | 5 | All Maps","name_short":"lon-5","host":"lon-1.uk.uncletopia.com","port":27055,"enabled":true,"region":"eu","cc":"gb","latitude":51.509865,"longitude":-0.118092,"reserved":0,"last_update":"0001-01-01T00:00:00Z","name_a2s":"Uncletopia | London | 5 | All Maps","protocol":17,"map":"koth_lakeside_final","folder":"tf","game":"Team Fortress","app_id":440,"player_count":0,"max_players":24,"Bots":0,"server_type":"Dedicated","server_os":"Linux","password":true,"vac":true,"version":"7708610","steam_id":85568392924742829,"keywords":["cp","nocrits","nodmgspread","uncletopia"],"game_id":440,"stv_port":27056,"stv_name":"Uncletopia | London | 5 | All Maps | STV","players":null},{"server_id":22,"name":"Uncletopia | London | 6 | All Maps","name_short":"lon-6","host":"lon-1.uk.uncletopia.com","port":27065,"enabled":true,"region":"eu","cc":"gb","latitude":51.509865,"longitude":-0.118092,"reserved":0,"last_update":"0001-01-01T00:00:00Z","name_a2s":"Uncletopia | London | 6 | All Maps","protocol":17,"map":"koth_viaduct","folder":"tf","game":"Team Fortress","app_id":440,"player_count":0,"max_players":24,"Bots":0,"server_type":"Dedicated","server_os":"Linux","password":true,"vac":true,"version":"7708610","steam_id":85568392924742830,"keywords":["cp","nocrits","nodmgspread","uncletopia"],"game_id":440,"stv_port":27066,"stv_name":"Uncletopia | London | 6 | All Maps | STV","players":null},{"server_id":40,"name":"Uncletopia | London | 7 | No Payload","name_short":"lon-7","host":"lon-1.uk.uncletopia.com","port":27075,"enabled":true,"region":"eu","cc":"gb","latitude":51.509865,"longitude":-0.118092,"reserved":0,"last_update":"0001-01-01T00:00:00Z","name_a2s":"Uncletopia | London | 7 | No Payload","protocol":17,"map":"koth_lakeside_final","folder":"tf","game":"Team Fortress","app_id":440,"player_count":0,"max_players":24,"Bots":0,"server_type":"Dedicated","server_os":"Linux","password":true,"vac":true,"version":"7708610","steam_id":85568392924964314,"keywords":["cp","nocrits","nodmgspread","uncletopia"],"game_id":440,"stv_port":27076,"stv_name":"Uncletopia | London | 7 | No Payload | STV","players":null},{"server_id":41,"name":"Uncletopia | London | 8 | Community","name_short":"lon-8","host":"lon-1.uk.uncletopia.com","port":27085,"enabled":true,"region":"eu","cc":"gb","latitude":51.509865,"longitude":-0.118092,"reserved":0,"last_update":"0001-01-01T00:00:00Z","name_a2s":"Uncletopia | London | 8 | Community","protocol":17,"map":"workshop/koth_ramjam_v2_b2.ugc2865676487","folder":"tf","game":"Team Fortress","app_id":440,"player_count":1,"max_players":24,"Bots":0,"server_type":"Dedicated","server_os":"Linux","password":true,"vac":true,"version":"7708610","steam_id":85568392924964315,"keywords":["cp","nocrits","nodmgspread","uncletopia"],"game_id":440,"stv_port":27086,"stv_name":"Uncletopia | London | 8 | Community | STV","players":[{"user_id":8,"name":"Vince","steam_id":76561199103000131,"connected_time":737000000000,"state":"active","ping":45}]},{"server_id":300,"name":"Uncletopia | Montréal | 1 | All Maps","name_short":"mtl-1","host":"mtl-1.ca.uncletopia.com","port":27015,"enabled":true,"region":"us-east","cc":"ca","latitude":45.50889,"longitude":-73.56167,"reserved":0,"last_update":"0001-01-01T00:00:00Z","name_a2s":"Uncletopia | Montréal | 1 | All Maps","protocol":17,"map":"pl_frontier_final","folder":"tf","game":"Team Fortress","app_id":440,"player_count":0,"max_players":24,"Bots":0,"server_type":"Dedicated","server_os":"Linux","password":true,"vac":true,"version":"7708610","steam_id":85568392924500087,"keywords":["nocrits","nodmgspread","payload","uncletopia"],"game_id":440,"stv_port":27016,"stv_name":"Uncletopia | Montréal | 1 | All Maps | STV","players":null},{"server_id":301,"name":"Uncletopia | Montréal | 2 | All Maps","name_short":"mtl-2","host":"mtl-1.ca.uncletopia.com","port":27025,"enabled":true,"region":"us-east","cc":"ca","latitude":45.50889,"longitude":-73.56167,"reserved":0,"last_update":"0001-01-01T00:00:00Z","name_a2s":"Uncletopia | Montréal | 2 | All Maps","protocol":17,"map":"koth_viaduct","folder":"tf","game":"Team Fortress","app_id":440,"player_count":0,"max_players":24,"Bots":0,"server_type":"Dedicated","server_os":"Linux","password":true,"vac":true,"version":"7708610","steam_id":85568392924500088,"keywords":["cp","nocrits","nodmgspread","uncletopia"],"game_id":440,"stv_port":27026,"stv_name":"Uncletopia | Montréal | 2 | All Maps | STV","players":null},{"server_id":302,"name":"Uncletopia | Montréal | 3 | All Maps","name_short":"mtl-3","host":"mtl-1.ca.uncletopia.com","port":27035,"enabled":true,"region":"us-east","cc":"ca","latitude":45.50889,"longitude":-73.56167,"reserved":0,"last_update":"0001-01-01T00:00:00Z","name_a2s":"Uncletopia | Montréal | 3 | All Maps","protocol":17,"map":"koth_lakeside_final","folder":"tf","game":"Team Fortress","app_id":440,"player_count":0,"max_players":24,"Bots":0,"server_type":"Dedicated","server_os":"Linux","password":true,"vac":true,"version":"7708610","steam_id":85568392924500089,"keywords":["cp","nocrits","nodmgspread","uncletopia"],"game_id":440,"stv_port":27036,"stv_name":"Uncletopia | Montréal | 3 | All Maps | STV","players":null},{"server_id":303,"name":"Uncletopia | Montréal | 4 | No Payload","name_short":"mtl-4","host":"mtl-1.ca.uncletopia.com","port":27045,"enabled":true,"region":"us-east","cc":"ca","latitude":45.50889,"longitude":-73.56167,"reserved":0,"last_update":"0001-01-01T00:00:00Z","name_a2s":"Uncletopia | Montréal | 4 | No Payload","protocol":17,"map":"cp_snakewater_final1","folder":"tf","game":"Team Fortress","app_id":440,"player_count":0,"max_players":24,"Bots":0,"server_type":"Dedicated","server_os":"Linux","password":true,"vac":true,"version":"7708610","steam_id":85568392924500090,"keywords":["cp","nocrits","nodmgspread","uncletopia"],"game_id":440,"stv_port":27046,"stv_name":"Uncletopia | Montréal | 4 | No Payload | STV","players":null},{"server_id":13,"name":"Uncletopia | New York City | 1 | All Maps","name_short":"nyc-1","host":"nyc-1.us.uncletopia.com","port":27015,"enabled":true,"region":"us-east","cc":"us","latitude":40.73061,"longitude":-73.93524,"reserved":0,"last_update":"0001-01-01T00:00:00Z","name_a2s":"Uncletopia | New York City | 1 | All Maps","protocol":17,"map":"koth_viaduct","folder":"tf","game":"Team Fortress","app_id":440,"player_count":3,"max_players":24,"Bots":0,"server_type":"Dedicated","server_os":"Linux","password":true,"vac":true,"version":"7708610","steam_id":85568392924469993,"keywords":["cp","nocrits","nodmgspread","uncletopia"],"game_id":440,"stv_port":27016,"stv_name":"Uncletopia | New York City | 1 | All Maps | STV","players":[{"user_id":33,"name":"Liguy?","steam_id":76561199013763755,"connected_time":1305000000000,"state":"active","ping":50},{"user_id":34,"name":"piflle","steam_id":76561199283873577,"connected_time":977000000000,"state":"active","ping":64},{"user_id":36,"name":"[BBC] Time Child","steam_id":76561198016095410,"connected_time":25000000000,"state":"active","ping":53}]},{"server_id":14,"name":"Uncletopia | New York City | 2 | All Maps","name_short":"nyc-2","host":"nyc-1.us.uncletopia.com","port":27025,"enabled":true,"region":"us-east","cc":"us","latitude":40.73061,"longitude":-73.93524,"reserved":0,"last_update":"0001-01-01T00:00:00Z","name_a2s":"Uncletopia | New York City | 2 | All Maps","protocol":17,"map":"pl_badwater","folder":"tf","game":"Team Fortress","app_id":440,"player_count":24,"max_players":24,"Bots":0,"server_type":"Dedicated","server_os":"Linux","password":true,"vac":true,"version":"7708610","steam_id":85568392924469994,"keywords":["nocrits","nodmgspread","payload","uncletopia"],"game_id":440,"stv_port":27026,"stv_name":"Uncletopia | New York City | 2 | All Maps | STV","players":[{"user_id":225,"name":"heavy jumpscare","steam_id":76561198376752965,"connected_time":1936000000000,"state":"active","ping":69},{"user_id":210,"name":"big guapo","steam_id":76561198103228695,"connected_time":3505000000000,"state":"active","ping":57},{"user_id":238,"name":"Fraklin","steam_id":76561198136451087,"connected_time":1081000000000,"state":"active","ping":56},{"user_id":242,"name":"Captain Komi","steam_id":76561198057125157,"connected_time":860000000000,"state":"active","ping":69},{"user_id":226,"name":"jeff","steam_id":76561198059450566,"connected_time":1935000000000,"state":"active","ping":70},{"user_id":235,"name":"Galemek","steam_id":76561198161410911,"connected_time":1571000000000,"state":"active","ping":72},{"user_id":236,"name":"Akiyama Yukari","steam_id":76561198123524867,"connected_time":1188000000000,"state":"active","ping":74},{"user_id":243,"name":"Grand","steam_id":76561198088796754,"connected_time":790000000000,"state":"active","ping":61},{"user_id":172,"name":"yougotsauled","steam_id":76561198880754695,"connected_time":5940000000000,"state":"active","ping":51},{"user_id":216,"name":"BERBBLES","steam_id":76561198815107994,"connected_time":3150000000000,"state":"active","ping":49},{"user_id":239,"name":"Classic Christmas Records Radio","steam_id":76561199119390892,"connected_time":1061000000000,"state":"active","ping":65},{"user_id":205,"name":"OVERLORDMALARKEY","steam_id":76561198098267117,"connected_time":3816000000000,"state":"active","ping":145},{"user_id":227,"name":"Penis but it rhymes with Venice","steam_id":76561197986420836,"connected_time":1931000000000,"state":"active","ping":57},{"user_id":228,"name":"ShaqtusHD","steam_id":76561199138286233,"connected_time":1929000000000,"state":"active","ping":59},{"user_id":229,"name":"Pan Wizard","steam_id":76561198031939694,"connected_time":1907000000000,"state":"active","ping":68},{"user_id":237,"name":"gnome \"kooky ass mf\" fan","steam_id":76561198148199120,"connected_time":1088000000000,"state":"active","ping":77},{"user_id":217,"name":"BeerPowder","steam_id":76561198058129400,"connected_time":2844000000000,"state":"active","ping":50},{"user_id":244,"name":":3","steam_id":76561198120772700,"connected_time":727000000000,"state":"active","ping":68},{"user_id":234,"name":"Dino","steam_id":76561198383838640,"connected_time":1603000000000,"state":"active","ping":119},{"user_id":232,"name":"♥SoaringSnail♥","steam_id":76561198038397374,"connected_time":1867000000000,"state":"active","ping":68},{"user_id":241,"name":"Strangelove","steam_id":76561198353773611,"connected_time":1033000000000,"state":"active","ping":81},{"user_id":181,"name":"a shrieking cloud of bats","steam_id":76561198151363063,"connected_time":5290000000000,"state":"active","ping":81},{"user_id":192,"name":"UNFOLDABLE","steam_id":76561198129364607,"connected_time":4650000000000,"state":"active","ping":88},{"user_id":221,"name":"Parth Makeo","steam_id":76561198002516581,"connected_time":2395000000000,"state":"active","ping":42}]},{"server_id":15,"name":"Uncletopia | New York City | 3 | All Maps","name_short":"nyc-3","host":"nyc-1.us.uncletopia.com","port":27035,"enabled":true,"region":"us-east","cc":"us","latitude":40.73061,"longitude":-73.93524,"reserved":0,"last_update":"0001-01-01T00:00:00Z","name_a2s":"Uncletopia | New York City | 3 | All Maps","protocol":17,"map":"koth_viaduct","folder":"tf","game":"Team Fortress","app_id":440,"player_count":0,"max_players":24,"Bots":0,"server_type":"Dedicated","server_os":"Linux","password":true,"vac":true,"version":"7708610","steam_id":85568392924742820,"keywords":["cp","nocrits","nodmgspread","uncletopia"],"game_id":440,"stv_port":27036,"stv_name":"Uncletopia | New York City | 3 | All Maps | STV","players":null},{"server_id":16,"name":"Uncletopia | New York City | 4 | Community","name_short":"nyc-4","host":"nyc-1.us.uncletopia.com","port":27045,"enabled":true,"region":"us-east","cc":"us","latitude":40.73061,"longitude":-73.93524,"reserved":0,"last_update":"0001-01-01T00:00:00Z","name_a2s":"Uncletopia | New York City | 4 | Community","protocol":17,"map":"pl_barnblitz","folder":"tf","game":"Team Fortress","app_id":440,"player_count":0,"max_players":24,"Bots":0,"server_type":"Dedicated","server_os":"Linux","password":true,"vac":true,"version":"7708610","steam_id":85568392924742821,"keywords":["nocrits","nodmgspread","payload","uncletopia"],"game_id":440,"stv_port":27046,"stv_name":"Uncletopia | New York City | 4 | Community | STV","players":null},{"server_id":142,"name":"Uncletopia | São Paulo | 1 | All Maps","name_short":"sao-1","host":"sao-1.br.uncletopia.com","port":27015,"enabled":true,"region":"sa","cc":"br","latitude":-23.533773,"longitude":-46.62529,"reserved":0,"last_update":"0001-01-01T00:00:00Z","name_a2s":"Uncletopia | São Paulo | 1 | All Maps","protocol":17,"map":"pl_barnblitz","folder":"tf","game":"Team Fortress","app_id":440,"player_count":0,"max_players":24,"Bots":0,"server_type":"Dedicated","server_os":"Linux","password":true,"vac":true,"version":"7708610","steam_id":85568392924469996,"keywords":["nocrits","nodmgspread","payload","uncletopia"],"game_id":440,"stv_port":27016,"stv_name":"Uncletopia | São Paulo | 1 | All Maps | STV","players":null},{"server_id":143,"name":"Uncletopia | São Paulo | 2 | All Maps","name_short":"sao-2","host":"sao-2.br.uncletopia.com","port":27015,"enabled":true,"region":"sa","cc":"br","latitude":-23.533773,"longitude":-46.62529,"reserved":0,"last_update":"0001-01-01T00:00:00Z","name_a2s":"Uncletopia | São Paulo | 2 | All Maps","protocol":17,"map":"koth_lakeside_final","folder":"tf","game":"Team Fortress","app_id":440,"player_count":0,"max_players":24,"Bots":0,"server_type":"Dedicated","server_os":"Linux","password":true,"vac":true,"version":"7708610","steam_id":85568392924485349,"keywords":["cp","nocrits","nodmgspread","uncletopia"],"game_id":440,"stv_port":27016,"stv_name":"Uncletopia | São Paulo | 2 | All Maps | STV","players":null},{"server_id":7,"name":"Uncletopia | Seattle | 1 | All Maps","name_short":"sea-1","host":"sea-1.us.uncletopia.com","port":27015,"enabled":true,"region":"us-west","cc":"us","latitude":47.608013,"longitude":-122.33517,"reserved":0,"last_update":"0001-01-01T00:00:00Z","name_a2s":"Uncletopia | Seattle | 1 | All Maps","protocol":17,"map":"cp_dustbowl","folder":"tf","game":"Team Fortress","app_id":440,"player_count":21,"max_players":24,"Bots":0,"server_type":"Dedicated","server_os":"Linux","password":true,"vac":true,"version":"7708610","steam_id":85568392924469997,"keywords":["cp","nocrits","nodmgspread","uncletopia"],"game_id":440,"stv_port":27016,"stv_name":"Uncletopia | Seattle | 1 | All Maps | STV","players":[{"user_id":197,"name":"righty","steam_id":76561198045260412,"connected_time":1026000000000,"state":"active","ping":70},{"user_id":135,"name":"Sweatpants","steam_id":76561198097188001,"connected_time":5234000000000,"state":"active","ping":48},{"user_id":161,"name":"ZEKKER","steam_id":76561197967968980,"connected_time":3373000000000,"state":"active","ping":51},{"user_id":184,"name":"Jesus Loves You57","steam_id":76561199058833769,"connected_time":2178000000000,"state":"active","ping":66},{"user_id":190,"name":"dodecadron","steam_id":76561198027397222,"connected_time":1990000000000,"state":"active","ping":65},{"user_id":185,"name":"otter","steam_id":76561198217769961,"connected_time":2162000000000,"state":"active","ping":118},{"user_id":201,"name":"potoman","steam_id":76561198255802688,"connected_time":850000000000,"state":"active","ping":53},{"user_id":171,"name":"spot your lucky warts","steam_id":76561198325306660,"connected_time":2660000000000,"state":"active","ping":100},{"user_id":179,"name":"a mild amount of tomfoolery","steam_id":76561198057034390,"connected_time":2435000000000,"state":"active","ping":55},{"user_id":99,"name":"Snale","steam_id":76561198039517965,"connected_time":7561000000000,"state":"active","ping":60},{"user_id":181,"name":"Level 99 Mudcrab","steam_id":76561198077452771,"connected_time":2324000000000,"state":"active","ping":55},{"user_id":37,"name":"Oomitch","steam_id":76561198071702759,"connected_time":12324000000000,"state":"active","ping":46},{"user_id":204,"name":"Rear Admiral Crunch","steam_id":76561198020007558,"connected_time":761000000000,"state":"active","ping":69},{"user_id":173,"name":"rat gets the cheese","steam_id":76561198031234032,"connected_time":2583000000000,"state":"active","ping":102},{"user_id":182,"name":"Daft Tigers","steam_id":76561198081871942,"connected_time":2323000000000,"state":"active","ping":82},{"user_id":183,"name":"TyrTheSlayer","steam_id":76561198097845755,"connected_time":2289000000000,"state":"active","ping":100},{"user_id":196,"name":"Tritium","steam_id":76561198043305626,"connected_time":1405000000000,"state":"active","ping":72},{"user_id":157,"name":"Leidon","steam_id":76561198078386945,"connected_time":3744000000000,"state":"active","ping":59},{"user_id":203,"name":"Penis Man","steam_id":76561199079213911,"connected_time":818000000000,"state":"active","ping":55},{"user_id":200,"name":"chexo4","steam_id":76561198150532531,"connected_time":945000000000,"state":"active","ping":111},{"user_id":222,"name":"BOT liqi","steam_id":76561198049653980,"connected_time":122000000000,"state":"active","ping":98}]},{"server_id":119,"name":"Uncletopia | Seattle | 2 | All Maps","name_short":"sea-2","host":"sea-1.us.uncletopia.com","port":27025,"enabled":true,"region":"us-west","cc":"us","latitude":47.608013,"longitude":-122.33517,"reserved":0,"last_update":"0001-01-01T00:00:00Z","name_a2s":"Uncletopia | Seattle | 2 | All Maps","protocol":17,"map":"pl_snowycoast","folder":"tf","game":"Team Fortress","app_id":440,"player_count":24,"max_players":24,"Bots":0,"server_type":"Dedicated","server_os":"Linux","password":true,"vac":true,"version":"7708610","steam_id":85568392924469998,"keywords":["nocrits","nodmgspread","payload","uncletopia"],"game_id":440,"stv_port":27026,"stv_name":"Uncletopia | Seattle | 2 | All Maps | STV","players":[{"user_id":47,"name":"Themasterman75","steam_id":76561199385573293,"connected_time":3241000000000,"state":"active","ping":71},{"user_id":35,"name":"Spearit5464","steam_id":76561199241807676,"connected_time":3571000000000,"state":"active","ping":33},{"user_id":95,"name":"CheekyMcCheek","steam_id":76561198081978491,"connected_time":841000000000,"state":"active","ping":88},{"user_id":103,"name":"gummie","steam_id":76561198998340318,"connected_time":230000000000,"state":"active","ping":95},{"user_id":89,"name":"Spr","steam_id":76561198314316664,"connected_time":1148000000000,"state":"active","ping":121},{"user_id":107,"name":"MantisTobboggan","steam_id":76561197969447887,"connected_time":79000000000,"state":"active","ping":64},{"user_id":106,"name":"spaz_addict","steam_id":76561198084288186,"connected_time":112000000000,"state":"active","ping":71},{"user_id":28,"name":"crow simpson","steam_id":76561198146228439,"connected_time":3821000000000,"state":"active","ping":49},{"user_id":98,"name":"Akira","steam_id":76561198294601519,"connected_time":659000000000,"state":"active","ping":39},{"user_id":99,"name":"Chamomile","steam_id":76561198063516307,"connected_time":631000000000,"state":"active","ping":59},{"user_id":100,"name":"SHADOW (he/him)","steam_id":76561198207768148,"connected_time":627000000000,"state":"active","ping":85},{"user_id":88,"name":"Flowey","steam_id":76561198442304406,"connected_time":1405000000000,"state":"active","ping":59},{"user_id":90,"name":"oo","steam_id":76561198119626492,"connected_time":1113000000000,"state":"active","ping":84},{"user_id":105,"name":"SwooWoop","steam_id":76561199244312225,"connected_time":142000000000,"state":"active","ping":85},{"user_id":87,"name":"Faye","steam_id":76561198018606653,"connected_time":1472000000000,"state":"active","ping":131},{"user_id":92,"name":"earthbound393","steam_id":76561199444276547,"connected_time":1098000000000,"state":"active","ping":127},{"user_id":85,"name":"TrashCanGaming","steam_id":76561199150746424,"connected_time":1479000000000,"state":"active","ping":90},{"user_id":71,"name":"Juntao","steam_id":76561199389584938,"connected_time":2023000000000,"state":"active","ping":43},{"user_id":86,"name":"Clubs","steam_id":76561198059235131,"connected_time":1476000000000,"state":"active","ping":128},{"user_id":58,"name":"Conseq","steam_id":76561198335652179,"connected_time":3062000000000,"state":"active","ping":57},{"user_id":69,"name":"Radio","steam_id":76561197963596200,"connected_time":2206000000000,"state":"active","ping":48},{"user_id":62,"name":"Harold","steam_id":76561198057317770,"connected_time":2981000000000,"state":"active","ping":61},{"user_id":63,"name":"Honeybunch","steam_id":76561198014850580,"connected_time":2970000000000,"state":"active","ping":37},{"user_id":93,"name":"Phil Collins","steam_id":76561198068868644,"connected_time":1097000000000,"state":"active","ping":88}]},{"server_id":17,"name":"Uncletopia | San Francisco | 1 | All Maps","name_short":"sfo-1","host":"sfo-1.us.uncletopia.com","port":27015,"enabled":true,"region":"us-west","cc":"us","latitude":37.77397,"longitude":-122.4313,"reserved":0,"last_update":"0001-01-01T00:00:00Z","name_a2s":"Uncletopia | San Francisco | 1 | All Maps","protocol":17,"map":"koth_lakeside_final","folder":"tf","game":"Team Fortress","app_id":440,"player_count":0,"max_players":24,"Bots":0,"server_type":"Dedicated","server_os":"Linux","password":true,"vac":true,"version":"7708610","steam_id":85568392924469999,"keywords":["cp","nocrits","nodmgspread","uncletopia"],"game_id":440,"stv_port":27016,"stv_name":"Uncletopia | San Francisco | 1 | All Maps | STV","players":null},{"server_id":18,"name":"Uncletopia | San Francisco | 2 | All Maps","name_short":"sfo-2","host":"sfo-1.us.uncletopia.com","port":27025,"enabled":true,"region":"us-west","cc":"us","latitude":37.77397,"longitude":-122.4313,"reserved":0,"last_update":"0001-01-01T00:00:00Z","name_a2s":"Uncletopia | San Francisco | 2 | All Maps","protocol":17,"map":"pl_barnblitz","folder":"tf","game":"Team Fortress","app_id":440,"player_count":0,"max_players":24,"Bots":0,"server_type":"Dedicated","server_os":"Linux","password":true,"vac":true,"version":"7708610","steam_id":85568392924470000,"keywords":["nocrits","nodmgspread","payload","uncletopia"],"game_id":440,"stv_port":27026,"stv_name":"Uncletopia | San Francisco | 2 | All Maps | STV","players":null},{"server_id":19,"name":"Uncletopia | San Francisco | 3 | No Payload","name_short":"sfo-3","host":"sfo-1.us.uncletopia.com","port":27035,"enabled":true,"region":"us-west","cc":"us","latitude":37.77397,"longitude":-122.4313,"reserved":0,"last_update":"0001-01-01T00:00:00Z","name_a2s":"Uncletopia | San Francisco | 3 | No Payload","protocol":17,"map":"ctf_sawmill","folder":"tf","game":"Team Fortress","app_id":440,"player_count":3,"max_players":24,"Bots":0,"server_type":"Dedicated","server_os":"Linux","password":true,"vac":true,"version":"7708610","steam_id":85568392924742824,"keywords":["ctf","nocrits","nodmgspread","uncletopia"],"game_id":440,"stv_port":27036,"stv_name":"Uncletopia | San Francisco | 3 | No Payload | STV","players":[{"user_id":8,"name":"idiot","steam_id":76561198874777905,"connected_time":344000000000,"state":"active","ping":137},{"user_id":9,"name":"QuackingEagle","steam_id":76561199094489709,"connected_time":334000000000,"state":"active","ping":110},{"user_id":10,"name":"uglywhalrus","steam_id":76561198075696105,"connected_time":158000000000,"state":"active","ping":78}]},{"server_id":20,"name":"Uncletopia | San Francisco | 4 | Community","name_short":"sfo-4","host":"sfo-1.us.uncletopia.com","port":27045,"enabled":true,"region":"us-west","cc":"us","latitude":37.77397,"longitude":-122.4313,"reserved":0,"last_update":"0001-01-01T00:00:00Z","name_a2s":"Uncletopia | San Francisco | 4 | Community","protocol":17,"map":"pl_frontier_final","folder":"tf","game":"Team Fortress","app_id":440,"player_count":0,"max_players":24,"Bots":0,"server_type":"Dedicated","server_os":"Linux","password":true,"vac":true,"version":"7708610","steam_id":85568392924742826,"keywords":["nocrits","nodmgspread","payload","uncletopia"],"game_id":440,"stv_port":27046,"stv_name":"Uncletopia | San Francisco | 4 | Community | STV","players":null},{"server_id":141,"name":"Uncletopia | Sydney | 1 | All Maps","name_short":"syd-1","host":"syd-1.au.uncletopia.com","port":27015,"enabled":true,"region":"au","cc":"au","latitude":-33.865143,"longitude":151.2099,"reserved":0,"last_update":"0001-01-01T00:00:00Z","name_a2s":"Uncletopia | Sydney | 1 | All Maps","protocol":17,"map":"pl_swiftwater_final1","folder":"tf","game":"Team Fortress","app_id":440,"player_count":0,"max_players":24,"Bots":0,"server_type":"Dedicated","server_os":"Linux","password":true,"vac":true,"version":"7708610","steam_id":85568392924470001,"keywords":["nocrits","nodmgspread","payload","uncletopia"],"game_id":440,"stv_port":27016,"stv_name":"Uncletopia | Sydney | 1 | All Maps | STV","players":null},{"server_id":123,"name":"Uncletopia | Sydney | 2 | All Maps","name_short":"syd-2","host":"syd-1.au.uncletopia.com","port":27025,"enabled":true,"region":"au","cc":"au","latitude":-33.865143,"longitude":151.2099,"reserved":0,"last_update":"0001-01-01T00:00:00Z","name_a2s":"Uncletopia | Sydney | 2 | All Maps","protocol":17,"map":"pl_barnblitz","folder":"tf","game":"Team Fortress","app_id":440,"player_count":0,"max_players":24,"Bots":0,"server_type":"Dedicated","server_os":"Linux","password":true,"vac":true,"version":"7708610","steam_id":85568392924470002,"keywords":["nocrits","nodmgspread","payload","uncletopia"],"game_id":440,"stv_port":27026,"stv_name":"Uncletopia | Sydney | 2 | All Maps | STV","players":null},{"server_id":395,"name":"Uncletopia | Sydney | 3 | All Maps","name_short":"syd-3","host":"syd-1.au.uncletopia.com","port":27035,"enabled":true,"region":"au","cc":"au","latitude":-33.865143,"longitude":151.2099,"reserved":0,"last_update":"0001-01-01T00:00:00Z","name_a2s":"Uncletopia | Sydney | 3 | All Maps","protocol":17,"map":"pl_snowycoast","folder":"tf","game":"Team Fortress","app_id":440,"player_count":10,"max_players":24,"Bots":0,"server_type":"Dedicated","server_os":"Linux","password":true,"vac":true,"version":"7708610","steam_id":85568392925194467,"keywords":["nocrits","nodmgspread","payload","uncletopia"],"game_id":440,"stv_port":27036,"stv_name":"Uncletopia | Sydney | 3 | All Maps | STV","players":[{"user_id":45,"name":"ToadFungus","steam_id":76561199219667039,"connected_time":370000000000,"state":"active","ping":94},{"user_id":34,"name":"The GrassMan","steam_id":76561198838503043,"connected_time":1416000000000,"state":"active","ping":65},{"user_id":46,"name":"lofty","steam_id":76561198380588357,"connected_time":230000000000,"state":"active","ping":66},{"user_id":24,"name":"b","steam_id":76561199102724122,"connected_time":2206000000000,"state":"active","ping":131},{"user_id":47,"name":"Dangerous DPad","steam_id":76561198452829128,"connected_time":211000000000,"state":"active","ping":60},{"user_id":23,"name":"doctor morbin' (real)","steam_id":76561199365241695,"connected_time":2235000000000,"state":"active","ping":163},{"user_id":42,"name":"SaltierThanYou","steam_id":76561198444395188,"connected_time":893000000000,"state":"active","ping":70},{"user_id":39,"name":"NewChris","steam_id":76561198254754182,"connected_time":1061000000000,"state":"active","ping":81},{"user_id":32,"name":"Flak","steam_id":76561198205833232,"connected_time":1555000000000,"state":"active","ping":44},{"user_id":43,"name":"P'pot","steam_id":76561198117278590,"connected_time":759000000000,"state":"active","ping":63}]},{"server_id":396,"name":"Uncletopia | Sydney | 4 | All Maps","name_short":"syd-4","host":"syd-1.au.uncletopia.com","port":27045,"enabled":true,"region":"au","cc":"au","latitude":-33.865143,"longitude":151.2099,"reserved":0,"last_update":"0001-01-01T00:00:00Z","name_a2s":"Uncletopia | Sydney | 4 | All Maps","protocol":17,"map":"ctf_2fort","folder":"tf","game":"Team Fortress","app_id":440,"player_count":0,"max_players":24,"Bots":0,"server_type":"Dedicated","server_os":"Linux","password":true,"vac":true,"version":"7708610","steam_id":85568392925397958,"keywords":["ctf","nocrits","nodmgspread","uncletopia"],"game_id":440,"stv_port":27046,"stv_name":"Uncletopia | Sydney | 4 | All Maps | STV","players":null},{"server_id":58,"name":"Uncletopia | Sydney | 5 | No Payload","name_short":"syd-5","host":"syd-1.au.uncletopia.com","port":27055,"enabled":true,"region":"au","cc":"au","latitude":-33.865143,"longitude":151.2099,"reserved":0,"last_update":"0001-01-01T00:00:00Z","name_a2s":"Uncletopia | Sydney | 5 | No Payload","protocol":17,"map":"koth_sawmill","folder":"tf","game":"Team Fortress","app_id":440,"player_count":0,"max_players":24,"Bots":0,"server_type":"Dedicated","server_os":"Linux","password":true,"vac":true,"version":"7708610","steam_id":85568392925397959,"keywords":["cp","nocrits","nodmgspread","uncletopia"],"game_id":440,"stv_port":27056,"stv_name":"Uncletopia | Sydney | 5 | No Payload | STV","players":null},{"server_id":59,"name":"Uncletopia | Sydney | 6 | Community","name_short":"syd-6","host":"syd-1.au.uncletopia.com","port":27065,"enabled":true,"region":"au","cc":"au","latitude":-33.865143,"longitude":151.2099,"reserved":0,"last_update":"0001-01-01T00:00:00Z","name_a2s":"Uncletopia | Sydney | 6 | Community","protocol":17,"map":"pl_badwater","folder":"tf","game":"Team Fortress","app_id":440,"player_count":0,"max_players":24,"Bots":0,"server_type":"Dedicated","server_os":"Linux","password":true,"vac":true,"version":"7708610","steam_id":85568392925397960,"keywords":["nocrits","nodmgspread","payload","uncletopia"],"game_id":440,"stv_port":27066,"stv_name":"Uncletopia | Sydney | 6 | Community | STV","players":null},{"server_id":49,"name":"Uncletopia | Warsaw | 1 | All Maps","name_short":"waw-1","host":"waw-1.pl.uncletopia.com","port":27015,"enabled":true,"region":"eu","cc":"pl","latitude":52.2297,"longitude":21.017532,"reserved":0,"last_update":"0001-01-01T00:00:00Z","name_a2s":"Uncletopia | Warsaw | 1 | All Maps","protocol":17,"map":"koth_lakeside_final","folder":"tf","game":"Team Fortress","app_id":440,"player_count":0,"max_players":24,"Bots":0,"server_type":"Dedicated","server_os":"Linux","password":true,"vac":true,"version":"7708610","steam_id":85568392925397850,"keywords":["cp","nocrits","nodmgspread","uncletopia"],"game_id":440,"stv_port":27016,"stv_name":"Uncletopia | Warsaw | 1 | All Maps | STV","players":null},{"server_id":50,"name":"Uncletopia | Warsaw | 2 | All Maps","name_short":"waw-2","host":"waw-1.pl.uncletopia.com","port":27025,"enabled":true,"region":"eu","cc":"pl","latitude":52.2297,"longitude":21.017532,"reserved":0,"last_update":"0001-01-01T00:00:00Z","name_a2s":"Uncletopia | Warsaw | 2 | All Maps","protocol":17,"map":"koth_cascade","folder":"tf","game":"Team Fortress","app_id":440,"player_count":0,"max_players":24,"Bots":0,"server_type":"Dedicated","server_os":"Linux","password":true,"vac":true,"version":"7708610","steam_id":85568392925397851,"keywords":["cp","nocrits","nodmgspread","uncletopia"],"game_id":440,"stv_port":27026,"stv_name":"Uncletopia | Warsaw | 2 | All Maps | STV","players":null},{"server_id":51,"name":"Uncletopia | Warsaw | 3 | All Maps","name_short":"waw-3","host":"waw-1.pl.uncletopia.com","port":27035,"enabled":true,"region":"eu","cc":"pl","latitude":52.2297,"longitude":21.017532,"reserved":0,"last_update":"0001-01-01T00:00:00Z","name_a2s":"Uncletopia | Warsaw | 3 | All Maps","protocol":17,"map":"koth_highpass","folder":"tf","game":"Team Fortress","app_id":440,"player_count":0,"max_players":24,"Bots":0,"server_type":"Dedicated","server_os":"Linux","password":true,"vac":true,"version":"7708610","steam_id":85568392925397852,"keywords":["cp","nocrits","nodmgspread","uncletopia"],"game_id":440,"stv_port":27036,"stv_name":"Uncletopia | Warsaw | 3 | All Maps | STV","players":null},{"server_id":52,"name":"Uncletopia | Warsaw | 4 | All Maps","name_short":"waw-4","host":"waw-1.pl.uncletopia.com","port":27045,"enabled":true,"region":"eu","cc":"pl","latitude":52.2297,"longitude":21.017532,"reserved":0,"last_update":"0001-01-01T00:00:00Z","name_a2s":"Uncletopia | Warsaw | 4 | All Maps","protocol":17,"map":"koth_cascade","folder":"tf","game":"Team Fortress","app_id":440,"player_count":0,"max_players":24,"Bots":0,"server_type":"Dedicated","server_os":"Linux","password":true,"vac":true,"version":"7708610","steam_id":85568392925397853,"keywords":["cp","nocrits","nodmgspread","uncletopia"],"game_id":440,"stv_port":27046,"stv_name":"Uncletopia | Warsaw | 4 | All Maps | STV","players":null},{"server_id":53,"name":"Uncletopia | Warsaw | 5 | No Payload","name_short":"waw-5","host":"waw-1.pl.uncletopia.com","port":27055,"enabled":true,"region":"eu","cc":"pl","latitude":52.2297,"longitude":21.017532,"reserved":0,"last_update":"0001-01-01T00:00:00Z","name_a2s":"Uncletopia | Warsaw | 5 | No Payload","protocol":17,"map":"koth_suijin","folder":"tf","game":"Team Fortress","app_id":440,"player_count":0,"max_players":24,"Bots":0,"server_type":"Dedicated","server_os":"Linux","password":true,"vac":true,"version":"7708610","steam_id":85568392925397854,"keywords":["cp","nocrits","nodmgspread","uncletopia"],"game_id":440,"stv_port":27056,"stv_name":"Uncletopia | Warsaw | 5 | No Payload | STV","players":null},{"server_id":54,"name":"Uncletopia | Warsaw | 6 | Community","name_short":"waw-6","host":"waw-1.pl.uncletopia.com","port":27065,"enabled":true,"region":"eu","cc":"pl","latitude":52.2297,"longitude":21.017532,"reserved":0,"last_update":"0001-01-01T00:00:00Z","name_a2s":"Uncletopia | Warsaw | 6 | Community","protocol":17,"map":"pl_swiftwater_final1","folder":"tf","game":"Team Fortress","app_id":440,"player_count":0,"max_players":24,"Bots":0,"server_type":"Dedicated","server_os":"Linux","password":true,"vac":true,"version":"7708610","steam_id":85568392925397856,"keywords":["nocrits","nodmgspread","payload","uncletopia"],"game_id":440,"stv_port":27066,"stv_name":"Uncletopia | Warsaw | 6 | Community | STV","players":null}]}