{"status":true,"message":"","result":[{"server_id":9,"name":"Uncletopia | Atlanta | 1 | All Maps","name_short":"atl-1","host":"atl-1.us.uncletopia.com","port":27015,"enabled":true,"region":"us-east","cc":"us","latitude":33.753746,"longitude":-84.38633,"reserved":0,"last_update":"0001-01-01T00:00:00Z","name_a2s":"Uncletopia | Atlanta | 1 | All Maps","protocol":17,"map":"pl_barnblitz","folder":"tf","game":"Team Fortress","app_id":440,"player_count":24,"max_players":24,"Bots":0,"server_type":"Dedicated","server_os":"Linux","password":true,"vac":true,"version":"7961495","steam_id":85568392924469982,"keywords":["nocrits","nodmgspread","payload","uncletopia"],"game_id":440,"stv_port":27016,"stv_name":"Uncletopia | Atlanta | 1 | All Maps | STV","players":null},{"server_id":104,"name":"Uncletopia | Atlanta | 2 | All Maps","name_short":"atl-2","host":"atl-1.us.uncletopia.com","port":27025,"enabled":true,"region":"us-east","cc":"us","latitude":33.753746,"longitude":-84.38633,"reserved":0,"last_update":"0001-01-01T00:00:00Z","name_a2s":"Uncletopia | Atlanta | 2 | All Maps","protocol":17,"map":"cp_dustbowl","folder":"tf","game":"Team Fortress","app_id":440,"player_count":24,"max_players":24,"Bots":0,"server_type":"Dedicated","server_os":"Linux","password":true,"vac":true,"version":"7961495","steam_id":85568392924469983,"keywords":["cp","nocrits","nodmgspread","uncletopia"],"game_id":440,"stv_port":27026,"stv_name":"Uncletopia | Atlanta | 2 | All Maps | STV","players":null},{"server_id":400,"name":"Uncletopia | Atlanta | 3 | Stopwatch","name_short":"atl-3","host":"atl-1.us.uncletopia.com","port":27035,"enabled":true,"region":"us-east","cc":"us","latitude":33.753746,"longitude":-84.38633,"reserved":0,"last_update":"0001-01-01T00:00:00Z","name_a2s":"Uncletopia | Atlanta | 3 | Stopwatch","protocol":17,"map":"koth_bagel_rc6","folder":"tf","game":"Team Fortress","app_id":440,"player_count":5,"max_players":24,"Bots":0,"server_type":"Dedicated","server_os":"Linux","password":true,"vac":true,"version":"7961495","steam_id":85568392924515187,"keywords":["cp","nocrits","nodmgspread","uncletopia"],"game_id":440,"stv_port":27036,"stv_name":"Uncletopia | Atlanta | 3 | Stopwatch | STV","players":null},{"server_id":401,"name":"Uncletopia | Atlanta | 4 | Community","name_short":"atl-4","host":"atl-1.us.uncletopia.com","port":27045,"enabled":true,"region":"us-east","cc":"us","latitude":33.753746,"longitude":-84.38633,"reserved":0,"last_update":"0001-01-01T00:00:00Z","name_a2s":"Uncletopia | Atlanta | 4 | Community","protocol":17,"map":"koth_ramjam_rc1","folder":"tf","game":"Team Fortress","app_id":440,"player_count":0,"max_players":24,"Bots":0,"server_type":"Dedicated","server_os":"Linux","password":true,"vac":true,"version":"7961495","steam_id":85568392924515188,"keywords":["cp","nocrits","nodmgspread","uncletopia"],"game_id":440,"stv_port":27046,"stv_name":"Uncletopia | Atlanta | 4 | Community | STV","players":null},{"server_id":2,"name":"Uncletopia | Chicago | 1 | All Maps","name_short":"chi-1","host":"chi-1.us.uncletopia.com","port":27015,"enabled":true,"region":"us-central","cc":"us","latitude":41.881832,"longitude":-87.62318,"reserved":0,"last_update":"0001-01-01T00:00:00Z","name_a2s":"Uncletopia | Chicago | 1 | All Maps","protocol":17,"map":"pl_borneo","folder":"tf","game":"Team Fortress","app_id":440,"player_count":24,"max_players":24,"Bots":0,"server_type":"Dedicated","server_os":"Linux","password":true,"vac":true,"version":"7961495","steam_id":85568392924469984,"keywords":["nocrits","nodmgspread","payload","uncletopia"],"game_id":440,"stv_port":27016,"stv_name":"Uncletopia | Chicago | 1 | All Maps | STV","players":[{"user_id":256,"name":"Jeugh","steam_id":76561198073498865,"connected_time":65000000000,"state":"active","ping":89},{"user_id":254,"name":"CoconutRice","steam_id":76561198114909164,"connected_time":427000000000,"state":"active","ping":48},{"user_id":129,"name":"12345","steam_id":76561198046948758,"connected_time":10221000000000,"state":"active","ping":62},{"user_id":199,"name":"loscemo","steam_id":76561197994884609,"connected_time":5577000000000,"state":"active","ping":66},{"user_id":238,"name":"Pneumo.","steam_id":76561197987911883,"connected_time":2005000000000,"state":"active","ping":123},{"user_id":244,"name":"Park","steam_id":76561198057222814,"connected_time":954000000000,"state":"active","ping":60},{"user_id":243,"name":"Goose","steam_id":76561198328998533,"connected_time":961000000000,"state":"active","ping":50},{"user_id":249,"name":"MikeLovesRabbit","steam_id":76561197997742625,"connected_time":706000000000,"state":"active","ping":58},{"user_id":236,"name":"Jrock","steam_id":76561198045715996,"connected_time":2078000000000,"state":"active","ping":86},{"user_id":251,"name":"slide","steam_id":76561198038080028,"connected_time":517000000000,"state":"active","ping":90},{"user_id":239,"name":"TechnoBear2099","steam_id":76561198238863596,"connected_time":1806000000000,"state":"active","ping":64},{"user_id":240,"name":"ol' musty","steam_id":76561198081075865,"connected_time":1698000000000,"state":"active","ping":67},{"user_id":220,"name":"WolfintheWires","steam_id":76561197998385084,"connected_time":3482000000000,"state":"active","ping":70},{"user_id":198,"name":"Lord Cutler Beckett","steam_id":76561198091356047,"connected_time":5580000000000,"state":"active","ping":56},{"user_id":188,"name":"Ashes!","steam_id":76561197998475441,"connected_time":6554000000000,"state":"active","ping":80},{"user_id":248,"name":"tender","steam_id":76561197993724724,"connected_time":737000000000,"state":"active","ping":70},{"user_id":173,"name":"Keegs","steam_id":76561198346917831,"connected_time":7342000000000,"state":"active","ping":52},{"user_id":219,"name":"BOTBOT","steam_id":76561198271928618,"connected_time":3770000000000,"state":"active","ping":76},{"user_id":250,"name":"She Pegs Me","steam_id":76561198099770390,"connected_time":585000000000,"state":"active","ping":54},{"user_id":214,"name":"HOMIE","steam_id":76561198057325155,"connected_time":4247000000000,"state":"active","ping":60},{"user_id":212,"name":"yay","steam_id":76561198070263704,"connected_time":4430000000000,"state":"active","ping":60},{"user_id":224,"name":"Happ","steam_id":76561198043741679,"connected_time":3138000000000,"state":"active","ping":52},{"user_id":255,"name":"DistantJragon","steam_id":76561198117563641,"connected_time":305000000000,"state":"active","ping":45},{"user_id":151,"name":"Hunt0rb","steam_id":76561198120527608,"connected_time":9466000000000,"state":"active","ping":68}]},{"server_id":106,"name":"Uncletopia | Chicago | 2 | All Maps","name_short":"chi-2","host":"chi-1.us.uncletopia.com","port":27025,"enabled":true,"region":"us-central","cc":"us","latitude":41.881832,"longitude":-87.62318,"reserved":0,"last_update":"0001-01-01T00:00:00Z","name_a2s":"Uncletopia | Chicago | 2 | All Maps","protocol":17,"map":"koth_lakeside_final","folder":"tf","game":"Team Fortress","app_id":440,"player_count":3,"max_players":24,"Bots":0,"server_type":"Dedicated","server_os":"Linux","password":true,"vac":true,"version":"7961495","steam_id":85568392924469985,"keywords":["cp","nocrits","nodmgspread","uncletopia"],"game_id":440,"stv_port":27026,"stv_name":"Uncletopia | Chicago | 2 | All Maps | STV","players":[{"user_id":15,"name":"Pippermint","steam_id":76561198292091925,"connected_time":856000000000,"state":"active","ping":66},{"user_id":16,"name":"Berb","steam_id":76561198193911899,"connected_time":591000000000,"state":"active","ping":102},{"user_id":17,"name":"Yellow","steam_id":76561198004379527,"connected_time":70000000000,"state":"active","ping":61}]},{"server_id":402,"name":"Uncletopia | Chicago | 3 | All Maps","name_short":"chi-3","host":"chi-1.us.uncletopia.com","port":27035,"enabled":true,"region":"us-central","cc":"us","latitude":41.881832,"longitude":-87.62318,"reserved":0,"last_update":"0001-01-01T00:00:00Z","name_a2s":"Uncletopia | Chicago | 3 | All Maps","protocol":17,"map":"cp_dustbowl","folder":"tf","game":"Team Fortress","app_id":440,"player_count":11,"max_players":24,"Bots":0,"server_type":"Dedicated","server_os":"Linux","password":true,"vac":true,"version":"7961495","steam_id":85568392924515191,"keywords":["cp","nocrits","nodmgspread","uncletopia"],"game_id":440,"stv_port":27036,"stv_name":"Uncletopia | Chicago | 3 | All Maps | STV","players":[{"user_id":16,"name":"XeroDollars","steam_id":76561198137858047,"connected_time":970000000000,"state":"active","ping":54},{"user_id":17,"name":"Combez","steam_id":76561198215028184,"connected_time":964000000000,"state":"active","ping":59},{"user_id":18,"name":"judesro","steam_id":76561198352244888,"connected_time":670000000000,"state":"active","ping":60},{"user_id":19,"name":"Festive Panda","steam_id":76561198025758017,"connected_time":298000000000,"state":"active","ping":54},{"user_id":20,"name":"Elliot","steam_id":76561198110657126,"connected_time":208000000000,"state":"active","ping":72},{"user_id":22,"name":"Lord Typhoid","steam_id":76561199164337878,"connected_time":180000000000,"state":"active","ping":80},{"user_id":23,"name":"sneed","steam_id":76561198118010424,"connected_time":138000000000,"state":"active","ping":99},{"user_id":24,"name":"Egg Guzzler","steam_id":76561199109194893,"connected_time":134000000000,"state":"active","ping":69},{"user_id":25,"name":"KO_Dragon","steam_id":76561198978592266,"connected_time":104000000000,"state":"active","ping":68},{"user_id":26,"name":"ufo","steam_id":76561198018514993,"connected_time":49000000000,"state":"active","ping":53},{"user_id":27,"name":"Profesional Brohamad","steam_id":76561198824025210,"connected_time":24000000000,"state":"spawning","ping":45}]},{"server_id":403,"name":"Uncletopia | Chicago | 4 | All Maps","name_short":"chi-4","host":"chi-1.us.uncletopia.com","port":27045,"enabled":true,"region":"us-central","cc":"us","latitude":41.881832,"longitude":-87.62318,"reserved":0,"last_update":"0001-01-01T00:00:00Z","name_a2s":"Uncletopia | Chicago | 4 | All Maps","protocol":17,"map":"cp_dustbowl","folder":"tf","game":"Team Fortress","app_id":440,"player_count":24,"max_players":24,"Bots":0,"server_type":"Dedicated","server_os":"Linux","password":true,"vac":true,"version":"7961495","steam_id":85568392924515193,"keywords":["cp","nocrits","nodmgspread","uncletopia"],"game_id":440,"stv_port":27046,"stv_name":"Uncletopia | Chicago | 4 | All Maps | STV","players":[{"user_id":395,"name":"jpuck","steam_id":76561198025018960,"connected_time":1512000000000,"state":"active","ping":72},{"user_id":359,"name":"Jeffery Jitterson","steam_id":76561199021400714,"connected_time":3484000000000,"state":"active","ping":60},{"user_id":383,"name":"Scrap Lord McSussy Balls","steam_id":76561198048628224,"connected_time":1759000000000,"state":"active","ping":151},{"user_id":402,"name":"CynForSin","steam_id":76561198094739849,"connected_time":849000000000,"state":"active","ping":72},{"user_id":364,"name":"Bussy Bandit","steam_id":76561198034028769,"connected_time":3032000000000,"state":"active","ping":63},{"user_id":391,"name":"jan kili","steam_id":76561198289894834,"connected_time":1558000000000,"state":"active","ping":69},{"user_id":382,"name":"th14 marisaB life exploit","steam_id":76561198338291865,"connected_time":1843000000000,"state":"active","ping":141},{"user_id":356,"name":"CDBeans","steam_id":76561198046990367,"connected_time":3592000000000,"state":"active","ping":94},{"user_id":409,"name":"Ace","steam_id":76561198374608381,"connected_time":179000000000,"state":"active","ping":72},{"user_id":410,"name":"kimchy101","steam_id":76561198202721584,"connected_time":68000000000,"state":"active","ping":55},{"user_id":363,"name":"og biden pack cart","steam_id":76561198253731826,"connected_time":3122000000000,"state":"active","ping":60},{"user_id":393,"name":"Compassionate727","steam_id":76561198106303951,"connected_time":1540000000000,"state":"active","ping":75},{"user_id":394,"name":"DrSwagnuggets","steam_id":76561199072839211,"connected_time":1531000000000,"state":"active","ping":86},{"user_id":351,"name":"leatherman","steam_id":76561198052431073,"connected_time":3685000000000,"state":"active","ping":66},{"user_id":399,"name":"Tots","steam_id":76561198027485007,"connected_time":1100000000000,"state":"active","ping":60},{"user_id":374,"name":"ARegularBlueSlime","steam_id":76561198144468480,"connected_time":2371000000000,"state":"active","ping":165},{"user_id":378,"name":"Trox","steam_id":76561198263581464,"connected_time":2323000000000,"state":"active","ping":81},{"user_id":396,"name":"the keebler","steam_id":76561199486326945,"connected_time":1511000000000,"state":"active","ping":80},{"user_id":403,"name":"CipherlockYT","steam_id":76561198075994493,"connected_time":842000000000,"state":"active","ping":49},{"user_id":407,"name":"Jesus Hooves (She/Her)","steam_id":76561198884198807,"connected_time":369000000000,"state":"active","ping":98},{"user_id":361,"name":"William Wallace","steam_id":76561199343316814,"connected_time":3358000000000,"state":"active","ping":74},{"user_id":375,"name":"Dank Machine","steam_id":76561198273508851,"connected_time":2371000000000,"state":"active","ping":61},{"user_id":404,"name":"Lia_Rein","steam_id":76561198151569597,"connected_time":730000000000,"state":"active","ping":134},{"user_id":369,"name":"Furious warrior","steam_id":76561199047757939,"connected_time":2682000000000,"state":"active","ping":105}]},{"server_id":36,"name":"Uncletopia | Chicago | 5 | All Maps","name_short":"chi-5","host":"chi-2.us.uncletopia.com","port":27015,"enabled":true,"region":"us-central","cc":"us","latitude":41.881832,"longitude":-87.62318,"reserved":0,"last_update":"0001-01-01T00:00:00Z","name_a2s":"Uncletopia | Chicago | 5 | All Maps","protocol":17,"map":"pl_pier","folder":"tf","game":"Team Fortress","app_id":440,"player_count":0,"max_players":24,"Bots":0,"server_type":"Dedicated","server_os":"Linux","password":true,"vac":true,"version":"7961495","steam_id":85568392924866362,"keywords":["nocrits","nodmgspread","payload","uncletopia"],"game_id":440,"stv_port":27016,"stv_name":"Uncletopia | Chicago | 5 | All Maps | STV","players":null},{"server_id":37,"name":"Uncletopia | Chicago | 6 | All Maps","name_short":"chi-6","host":"chi-2.us.uncletopia.com","port":27025,"enabled":true,"region":"us-central","cc":"us","latitude":41.881832,"longitude":-87.62318,"reserved":0,"last_update":"0001-01-01T00:00:00Z","name_a2s":"Uncletopia | Chicago | 6 | All Maps","protocol":17,"map":"koth_viaduct","folder":"tf","game":"Team Fortress","app_id":440,"player_count":24,"max_players":24,"Bots":0,"server_type":"Dedicated","server_os":"Linux","password":true,"vac":true,"version":"7961495","steam_id":85568392924866363,"keywords":["cp","nocrits","nodmgspread","uncletopia"],"game_id":440,"stv_port":27026,"stv_name":"Uncletopia | Chicago | 6 | All Maps | STV","players":[{"user_id":43,"name":"Huntpk","steam_id":76561198340591674,"connected_time":698000000000,"state":"active","ping":40},{"user_id":8,"name":"double xp weekend","steam_id":76561198052950547,"connected_time":2726000000000,"state":"active","ping":40},{"user_id":35,"name":"Jango","steam_id":76561198084589742,"connected_time":1728000000000,"state":"active","ping":78},{"user_id":38,"name":"Quark","steam_id":76561198328155605,"connected_time":1390000000000,"state":"active","ping":55},{"user_id":12,"name":"Nessie is my Waifu","steam_id":76561198076021620,"connected_time":2298000000000,"state":"active","ping":72},{"user_id":13,"name":"MeKaso TropStar","steam_id":76561199109895840,"connected_time":2286000000000,"state":"active","ping":68},{"user_id":54,"name":"MustacheGamer","steam_id":76561199099162116,"connected_time":359000000000,"state":"active","ping":110},{"user_id":36,"name":"MosesTheStoned","steam_id":76561199268431777,"connected_time":1603000000000,"state":"active","ping":69},{"user_id":45,"name":"Legendary Link","steam_id":76561198046117107,"connected_time":692000000000,"state":"active","ping":59},{"user_id":46,"name":"goggyrina","steam_id":76561198428033086,"connected_time":679000000000,"state":"active","ping":42},{"user_id":34,"name":"Vocalwerx","steam_id":76561198069526089,"connected_time":1778000000000,"state":"active","ping":75},{"user_id":39,"name":"BigNugs","steam_id":76561198056402610,"connected_time":1356000000000,"state":"active","ping":73},{"user_id":20,"name":"LeBron James","steam_id":76561198086978424,"connected_time":1926000000000,"state":"active","ping":57},{"user_id":21,"name":"The Foolish Samurai","steam_id":76561198094494945,"connected_time":1926000000000,"state":"active","ping":117},{"user_id":47,"name":"tiredfisherman69","steam_id":76561199228963816,"connected_time":672000000000,"state":"active","ping":102},{"user_id":23,"name":"GreemBeans","steam_id":76561198069648014,"connected_time":1908000000000,"state":"active","ping":69},{"user_id":42,"name":"names dont matter","steam_id":76561198807118459,"connected_time":1009000000000,"state":"active","ping":75},{"user_id":25,"name":"Meme Man","steam_id":76561198084860021,"connected_time":1889000000000,"state":"active","ping":78},{"user_id":57,"name":"Decapitation Station","steam_id":76561198201796098,"connected_time":32000000000,"state":"active","ping":115},{"user_id":27,"name":"el wiwi","steam_id":76561198857304367,"connected_time":1879000000000,"state":"active","ping":78},{"user_id":32,"name":"NUt","steam_id":76561198031007966,"connected_time":1805000000000,"state":"active","ping":60},{"user_id":56,"name":"Waffle Wannabe","steam_id":76561198064510650,"connected_time":141000000000,"state":"active","ping":55},{"user_id":30,"name":"The local hobo","steam_id":76561198289650060,"connected_time":1857000000000,"state":"active","ping":96},{"user_id":52,"name":"StupidSexyFlanders","steam_id":76561198029760463,"connected_time":584000000000,"state":"active","ping":64}]},{"server_id":38,"name":"Uncletopia | Chicago | 7 | Stopwatch","name_short":"chi-7","host":"chi-2.us.uncletopia.com","port":27035,"enabled":true,"region":"us-central","cc":"us","latitude":41.881832,"longitude":-87.62318,"reserved":0,"last_update":"0001-01-01T00:00:00Z","name_a2s":"Uncletopia | Chicago | 7 | Stopwatch","protocol":17,"map":"koth_highpass","folder":"tf","game":"Team Fortress","app_id":440,"player_count":0,"max_players":24,"Bots":0,"server_type":"Dedicated","server_os":"Linux","password":true,"vac":true,"version":"7961495","steam_id":85568392924866364,"keywords":["cp","nocrits","nodmgspread","uncletopia"],"game_id":440,"stv_port":27036,"stv_name":"Uncletopia | Chicago | 7 | Stopwatch | STV","players":null},{"server_id":39,"name":"Uncletopia | Chicago | 8 | Community","name_short":"chi-8","host":"chi-2.us.uncletopia.com","port":27045,"enabled":true,"region":"us-central","cc":"us","latitude":41.881832,"longitude":-87.62318,"reserved":0,"last_update":"0001-01-01T00:00:00Z","name_a2s":"Uncletopia | Chicago | 8 | Community","protocol":17,"map":"workshop/pl_emerge_rc2.ugc888027758","folder":"tf","game":"Team Fortress","app_id":440,"player_count":0,"max_players":24,"Bots":0,"server_type":"Dedicated","server_os":"Linux","password":true,"vac":true,"version":"7961495","steam_id":85568392924866365,"keywords":["nocrits","nodmgspread","payload","uncletopia"],"game_id":440,"stv_port":27046,"stv_name":"Uncletopia | Chicago | 8 | Community | STV","players":null},{"server_id":8,"name":"Uncletopia | Dallas | 1 | All Maps","name_short":"dal-1","host":"dal-1.us.uncletopia.com","port":27015,"enabled":true,"region":"us-central","cc":"us","latitude":32.779167,"longitude":-96.80889,"reserved":0,"last_update":"0001-01-01T00:00:00Z","name_a2s":"Uncletopia | Dallas | 1 | All Maps","protocol":17,"map":"pl_barnblitz","folder":"tf","game":"Team Fortress","app_id":440,"player_count":24,"max_players":24,"Bots":0,"server_type":"Dedicated","server_os":"Linux","password":true,"vac":true,"version":"7961495","steam_id":85568392924469986,"keywords":["nocrits","nodmgspread","payload","uncletopia"],"game_id":440,"stv_port":27016,"stv_name":"Uncletopia | Dallas | 1 | All Maps | STV","players":[{"user_id":193,"name":"mkl","steam_id":76561197986401685,"connected_time":429000000000,"state":"active","ping":58},{"user_id":188,"name":"vcx","steam_id":76561198139371143,"connected_time":1098000000000,"state":"active","ping":72},{"user_id":186,"name":"AkaDoggo","steam_id":76561198968291063,"connected_time":1118000000000,"state":"active","ping":82},{"user_id":161,"name":"Acro","steam_id":76561198092451804,"connected_time":2576000000000,"state":"active","ping":74},{"user_id":157,"name":"YOU WHAT?!","steam_id":76561198418679471,"connected_time":2988000000000,"state":"active","ping":62},{"user_id":177,"name":"CombustibleToast","steam_id":76561198051358882,"connected_time":1790000000000,"state":"active","ping":75},{"user_id":160,"name":"Zeek","steam_id":76561197987204351,"connected_time":2624000000000,"state":"active","ping":75},{"user_id":184,"name":"Nylus","steam_id":76561198026623489,"connected_time":1375000000000,"state":"active","ping":176},{"user_id":181,"name":"Mimiu the Mimiga","steam_id":76561197976714577,"connected_time":1553000000000,"state":"active","ping":67},{"user_id":196,"name":"GX thedittoguy","steam_id":76561199013129784,"connected_time":370000000000,"state":"active","ping":57},{"user_id":194,"name":"Pal","steam_id":76561198079657093,"connected_time":422000000000,"state":"active","ping":45},{"user_id":50,"name":"Kirby.exe","steam_id":76561198242714582,"connected_time":11045000000000,"state":"active","ping":60},{"user_id":175,"name":"Glanderson booper","steam_id":76561198021223747,"connected_time":1920000000000,"state":"active","ping":107},{"user_id":174,"name":"Stillkill","steam_id":76561198065069057,"connected_time":2030000000000,"state":"active","ping":38},{"user_id":197,"name":"Locomotive","steam_id":76561199152926930,"connected_time":350000000000,"state":"active","ping":77},{"user_id":191,"name":"FI LO","steam_id":76561198976530881,"connected_time":829000000000,"state":"active","ping":70},{"user_id":187,"name":"number 1̴̇̋6̷͒̉ bus shelt","steam_id":76561198174259819,"connected_time":1110000000000,"state":"active","ping":51},{"user_id":192,"name":"puppy :3","steam_id":76561198011196264,"connected_time":684000000000,"state":"active","ping":75},{"user_id":172,"name":"Vaermina","steam_id":76561198169915227,"connected_time":2230000000000,"state":"active","ping":81},{"user_id":171,"name":"moe","steam_id":76561198929586245,"connected_time":2249000000000,"state":"active","ping":67},{"user_id":178,"name":"bouncyhousin","steam_id":76561198852902827,"connected_time":1781000000000,"state":"active","ping":77},{"user_id":116,"name":"Fatpoob","steam_id":76561198056730096,"connected_time":5574000000000,"state":"active","ping":86},{"user_id":166,"name":"Donkski","steam_id":76561198406895347,"connected_time":2562000000000,"state":"active","ping":71},{"user_id":156,"name":"Shalom","steam_id":76561198410005222,"connected_time":3139000000000,"state":"active","ping":66}]},{"server_id":108,"name":"Uncletopia | Dallas | 2 | All Maps","name_short":"dal-2","host":"dal-1.us.uncletopia.com","port":27025,"enabled":true,"region":"us-central","cc":"us","latitude":32.779167,"longitude":-96.80889,"reserved":0,"last_update":"0001-01-01T00:00:00Z","name_a2s":"Uncletopia | Dallas | 2 | All Maps","protocol":17,"map":"cp_dustbowl","folder":"tf","game":"Team Fortress","app_id":440,"player_count":24,"max_players":24,"Bots":0,"server_type":"Dedicated","server_os":"Linux","password":true,"vac":true,"version":"7961495","steam_id":85568392924469988,"keywords":["cp","nocrits","nodmgspread","uncletopia"],"game_id":440,"stv_port":27026,"stv_name":"Uncletopia | Dallas | 2 | All Maps | STV","players":[{"user_id":561,"name":"Skysillade","steam_id":76561198175485754,"connected_time":1106000000000,"state":"active","ping":74},{"user_id":560,"name":"Balerion the Black Dread","steam_id":76561198003728369,"connected_time":1337000000000,"state":"active","ping":82},{"user_id":551,"name":"Whiteboy Beatdown","steam_id":76561198084823665,"connected_time":1750000000000,"state":"active","ping":75},{"user_id":569,"name":"Michaelpc1","steam_id":76561198088365519,"connected_time":445000000000,"state":"active","ping":90},{"user_id":553,"name":"MancalaMadMan","steam_id":76561198347324053,"connected_time":1500000000000,"state":"active","ping":113},{"user_id":524,"name":"Dr. Kaine","steam_id":76561197982183984,"connected_time":5019000000000,"state":"active","ping":97},{"user_id":554,"name":"Icaruss","steam_id":76561199087157705,"connected_time":1494000000000,"state":"active","ping":117},{"user_id":540,"name":"Sparse","steam_id":76561198865084441,"connected_time":2859000000000,"state":"active","ping":55},{"user_id":555,"name":"K2f","steam_id":76561198049600563,"connected_time":1484000000000,"state":"active","ping":85},{"user_id":570,"name":"Searot","steam_id":76561198070800170,"connected_time":372000000000,"state":"active","ping":61},{"user_id":573,"name":"Alfonso Molestro","steam_id":76561197998677099,"connected_time":113000000000,"state":"active","ping":106},{"user_id":556,"name":"ericgoodheart","steam_id":76561198871056612,"connected_time":1475000000000,"state":"active","ping":104},{"user_id":557,"name":"yalu","steam_id":76561198224811504,"connected_time":1452000000000,"state":"active","ping":63},{"user_id":511,"name":"H2OBourne","steam_id":76561198396293109,"connected_time":6392000000000,"state":"active","ping":68},{"user_id":571,"name":"J.C. Leyendenton","steam_id":76561198096306325,"connected_time":370000000000,"state":"active","ping":92},{"user_id":486,"name":"NormanVillage","steam_id":76561198330337371,"connected_time":8659000000000,"state":"active","ping":101},{"user_id":563,"name":"U ω U","steam_id":76561198118802562,"connected_time":801000000000,"state":"active","ping":92},{"user_id":572,"name":"a victim of soicumstance","steam_id":76561198375575841,"connected_time":239000000000,"state":"active","ping":76},{"user_id":531,"name":"St. Michael","steam_id":76561198037611052,"connected_time":4439000000000,"state":"active","ping":48},{"user_id":532,"name":"Sup m8","steam_id":76561198081659121,"connected_time":4394000000000,"state":"active","ping":48},{"user_id":575,"name":"inzang","steam_id":76561198088318074,"connected_time":76000000000,"state":"active","ping":62},{"user_id":559,"name":"What's My Age Again?","steam_id":76561198035304483,"connected_time":1419000000000,"state":"active","ping":73},{"user_id":512,"name":"Anon","steam_id":76561198109740776,"connected_time":6300000000000,"state":"active","ping":104},{"user_id":565,"name":"gamerlegend47","steam_id":76561198122776598,"connected_time":760000000000,"state":"active","ping":77}]},{"server_id":404,"name":"Uncletopia | Dallas | 3 | All Maps","name_short":"dal-3","host":"dal-1.us.uncletopia.com","port":27035,"enabled":true,"region":"us-central","cc":"us","latitude":32.779167,"longitude":-96.80889,"reserved":0,"last_update":"0001-01-01T00:00:00Z","name_a2s":"Uncletopia | Dallas | 3 | All Maps","protocol":17,"map":"cp_snakewater_final1","folder":"tf","game":"Team Fortress","app_id":440,"player_count":0,"max_players":24,"Bots":0,"server_type":"Dedicated","server_os":"Linux","password":true,"vac":true,"version":"7961495","steam_id":85568392924515219,"keywords":["cp","nocrits","nodmgspread","uncletopia"],"game_id":440,"stv_port":27036,"stv_name":"Uncletopia | Dallas | 3 | All Maps | STV","players":null},{"server_id":405,"name":"Uncletopia | Dallas | 4 | Community","name_short":"dal-4","host":"dal-1.us.uncletopia.com","port":27045,"enabled":true,"region":"us-central","cc":"us","latitude":32.779167,"longitude":-96.80889,"reserved":0,"last_update":"0001-01-01T00:00:00Z","name_a2s":"Uncletopia | Dallas | 4 | Community","protocol":17,"map":"pl_pier","folder":"tf","game":"Team Fortress","app_id":440,"player_count":0,"max_players":24,"Bots":0,"server_type":"Dedicated","server_os":"Linux","password":true,"vac":true,"version":"7961495","steam_id":85568392924515220,"keywords":["nocrits","nodmgspread","payload","uncletopia"],"game_id":440,"stv_port":27046,"stv_name":"Uncletopia | Dallas | 4 | Community | STV","players":null},{"server_id":5,"name":"Uncletopia | Frankfurt | 1 | All Maps","name_short":"frk-1","host":"frk-1.de.uncletopia.com","port":27015,"enabled":true,"region":"eu","cc":"de","latitude":50.110924,"longitude":8.682127,"reserved":0,"last_update":"0001-01-01T00:00:00Z","name_a2s":"Uncletopia | Frankfurt | 1 | All Maps","protocol":17,"map":"cp_dustbowl","folder":"tf","game":"Team Fortress","app_id":440,"player_count":21,"max_players":24,"Bots":0,"server_type":"Dedicated","server_os":"Linux","password":true,"vac":true,"version":"7961495","steam_id":85568392924469989,"keywords":["cp","nocrits","nodmgspread","uncletopia"],"game_id":440,"stv_port":27016,"stv_name":"Uncletopia | Frankfurt | 1 | All Maps | STV","players":[{"user_id":409,"name":"Nonok","steam_id":76561199480685498,"connected_time":1293000000000,"state":"active","ping":72},{"user_id":401,"name":"chapiiiiis","steam_id":76561198033299138,"connected_time":1657000000000,"state":"active","ping":50},{"user_id":410,"name":"Reppy","steam_id":76561198339480413,"connected_time":1053000000000,"state":"active","ping":72},{"user_id":425,"name":"froge","steam_id":76561198304959766,"connected_time":344000000000,"state":"active","ping":78},{"user_id":399,"name":"FuntimeGoose","steam_id":76561198893252155,"connected_time":1682000000000,"state":"active","ping":57},{"user_id":416,"name":"NIMFER","steam_id":76561198371564906,"connected_time":789000000000,"state":"active","ping":97},{"user_id":414,"name":"CarlosMartinos","steam_id":76561198220246541,"connected_time":827000000000,"state":"active","ping":69},{"user_id":426,"name":"߷","steam_id":76561198324281856,"connected_time":306000000000,"state":"active","ping":47},{"user_id":346,"name":"Meat Dragon","steam_id":76561198120319256,"connected_time":7044000000000,"state":"active","ping":138},{"user_id":422,"name":"WolfNinja","steam_id":76561199218099629,"connected_time":548000000000,"state":"active","ping":160},{"user_id":415,"name":"Lag","steam_id":76561198159360376,"connected_time":809000000000,"state":"active","ping":62},{"user_id":423,"name":"Cimbasso","steam_id":76561198968050004,"connected_time":543000000000,"state":"active","ping":157},{"user_id":375,"name":"Nobody","steam_id":76561198151116796,"connected_time":3686000000000,"state":"active","ping":80},{"user_id":418,"name":"mohemmedmokhter2005","steam_id":76561199197650506,"connected_time":680000000000,"state":"active","ping":111},{"user_id":424,"name":"Finem Belli","steam_id":76561198227177976,"connected_time":521000000000,"state":"active","ping":52},{"user_id":427,"name":"Scout","steam_id":76561198992898803,"connected_time":273000000000,"state":"active","ping":70},{"user_id":428,"name":"say gex","steam_id":76561198265479349,"connected_time":225000000000,"state":"active","ping":52},{"user_id":431,"name":"The cock","steam_id":76561198197304886,"connected_time":129000000000,"state":"active","ping":107},{"user_id":430,"name":"♬KℑUQî♬","steam_id":76561198285224042,"connected_time":191000000000,"state":"active","ping":91},{"user_id":432,"name":"core","steam_id":76561198090152271,"connected_time":82000000000,"state":"active","ping":68},{"user_id":433,"name":"Ocrim_R","steam_id":76561198050479516,"connected_time":74000000000,"state":"active","ping":44}]},{"server_id":110,"name":"Uncletopia | Frankfurt | 2 | All Maps","name_short":"frk-2","host":"frk-1.de.uncletopia.com","port":27025,"enabled":true,"region":"eu","cc":"de","latitude":50.110924,"longitude":8.682127,"reserved":0,"last_update":"0001-01-01T00:00:00Z","name_a2s":"Uncletopia | Frankfurt | 2 | All Maps","protocol":17,"map":"pl_barnblitz","folder":"tf","game":"Team Fortress","app_id":440,"player_count":24,"max_players":24,"Bots":0,"server_type":"Dedicated","server_os":"Linux","password":true,"vac":true,"version":"7961495","steam_id":85568392924469990,"keywords":["nocrits","nodmgspread","payload","uncletopia"],"game_id":440,"stv_port":27026,"stv_name":"Uncletopia | Frankfurt | 2 | All Maps | STV","players":[{"user_id":389,"name":"Predrag218","steam_id":76561199242439630,"connected_time":4969000000000,"state":"active","ping":110},{"user_id":442,"name":"dirty rascal","steam_id":76561198000871038,"connected_time":882000000000,"state":"active","ping":62},{"user_id":432,"name":"Warped","steam_id":76561197989916494,"connected_time":1626000000000,"state":"active","ping":52},{"user_id":426,"name":"YeeterSkeeter","steam_id":76561198015380933,"connected_time":2240000000000,"state":"active","ping":60},{"user_id":391,"name":"Mza28","steam_id":76561198873993324,"connected_time":4952000000000,"state":"active","ping":59},{"user_id":395,"name":"Mister Spuds","steam_id":76561198000878240,"connected_time":4557000000000,"state":"active","ping":64},{"user_id":433,"name":"dolo","steam_id":76561198206672297,"connected_time":1621000000000,"state":"active","ping":48},{"user_id":388,"name":"morbius (a lenda da marvel)","steam_id":76561198156198125,"connected_time":5120000000000,"state":"active","ping":85},{"user_id":412,"name":"\u003e\u003c\u003e","steam_id":76561198152392309,"connected_time":3166000000000,"state":"active","ping":53},{"user_id":401,"name":"Real (Real)","steam_id":76561198323425034,"connected_time":3966000000000,"state":"active","ping":75},{"user_id":441,"name":"YoloMama","steam_id":76561198018797146,"connected_time":1490000000000,"state":"active","ping":71},{"user_id":435,"name":"juni","steam_id":76561198036504214,"connected_time":1589000000000,"state":"active","ping":45},{"user_id":408,"name":"Geit","steam_id":76561197998342021,"connected_time":3624000000000,"state":"active","ping":57},{"user_id":397,"name":"yee boiiiii","steam_id":76561198024612378,"connected_time":4165000000000,"state":"active","ping":106},{"user_id":436,"name":"Lukas","steam_id":76561198009118452,"connected_time":1586000000000,"state":"active","ping":58},{"user_id":409,"name":"Jorra","steam_id":76561198001039267,"connected_time":3356000000000,"state":"active","ping":69},{"user_id":437,"name":"Mamizou Futatsuiwa","steam_id":76561198799303596,"connected_time":1579000000000,"state":"active","ping":121},{"user_id":407,"name":"thia","steam_id":76561198186366599,"connected_time":3702000000000,"state":"active","ping":83},{"user_id":438,"name":"cazador","steam_id":76561198123096922,"connected_time":1579000000000,"state":"active","ping":96},{"user_id":392,"name":"Macross","steam_id":76561198236834916,"connected_time":4944000000000,"state":"active","ping":68},{"user_id":419,"name":"Lartay","steam_id":76561198015277868,"connected_time":2983000000000,"state":"active","ping":54},{"user_id":420,"name":"Asmodeus","steam_id":76561198283156425,"connected_time":2975000000000,"state":"active","ping":86},{"user_id":439,"name":"Merciz","steam_id":76561197971808715,"connected_time":1577000000000,"state":"active","ping":101},{"user_id":424,"name":"Merca #savetf2","steam_id":76561198088782472,"connected_time":2504000000000,"state":"active","ping":52}]},{"server_id":308,"name":"Uncletopia | Frankfurt | 3 | All Maps","name_short":"frk-3","host":"frk-1.de.uncletopia.com","port":27035,"enabled":true,"region":"eu","cc":"de","latitude":50.110924,"longitude":8.682127,"reserved":0,"last_update":"0001-01-01T00:00:00Z","name_a2s":"Uncletopia | Frankfurt | 3 | All Maps","protocol":17,"map":"koth_highpass","folder":"tf","game":"Team Fortress","app_id":440,"player_count":17,"max_players":24,"Bots":0,"server_type":"Dedicated","server_os":"Linux","password":true,"vac":true,"version":"7961495","steam_id":85568392924504274,"keywords":["cp","nocrits","nodmgspread","uncletopia"],"game_id":440,"stv_port":27036,"stv_name":"Uncletopia | Frankfurt | 3 | All Maps | STV","players":[{"user_id":573,"name":"TKN_Paps997","steam_id":76561198419868465,"connected_time":4456000000000,"state":"active","ping":80},{"user_id":592,"name":"Imperial City Guard","steam_id":76561198083355845,"connected_time":2700000000000,"state":"active","ping":54},{"user_id":606,"name":"Solid","steam_id":76561198357049292,"connected_time":1946000000000,"state":"active","ping":75},{"user_id":629,"name":"MUWEQ","steam_id":76561198107615727,"connected_time":896000000000,"state":"active","ping":71},{"user_id":589,"name":"chillrend_morphs_high_lod6","steam_id":76561198452963141,"connected_time":3281000000000,"state":"active","ping":61},{"user_id":603,"name":"i pity the drool.","steam_id":76561199330937686,"connected_time":2267000000000,"state":"active","ping":71},{"user_id":633,"name":"GigaСhad Pyro","steam_id":76561198140742485,"connected_time":644000000000,"state":"active","ping":91},{"user_id":622,"name":"HATZxHOODZ","steam_id":76561198408675039,"connected_time":1185000000000,"state":"active","ping":69},{"user_id":613,"name":"Gvnn","steam_id":76561198038000053,"connected_time":1746000000000,"state":"active","ping":105},{"user_id":623,"name":"snowycoast","steam_id":76561198346638308,"connected_time":1177000000000,"state":"active","ping":63},{"user_id":605,"name":"☭TheDevilsEye☭","steam_id":76561198017379398,"connected_time":2162000000000,"state":"active","ping":69},{"user_id":614,"name":"Polesn","steam_id":76561198209583116,"connected_time":1708000000000,"state":"active","ping":60},{"user_id":636,"name":"Maximilian1359","steam_id":76561198152439608,"connected_time":405000000000,"state":"active","ping":55},{"user_id":621,"name":"flurtle","steam_id":76561197993199428,"connected_time":1270000000000,"state":"active","ping":53},{"user_id":630,"name":"Jucatron","steam_id":76561198044259577,"connected_time":754000000000,"state":"active","ping":84},{"user_id":599,"name":"Carrotcracker","steam_id":76561198034862396,"connected_time":2552000000000,"state":"active","ping":74},{"user_id":634,"name":"DeRoberto","steam_id":76561198123183996,"connected_time":636000000000,"state":"active","ping":52}]},{"server_id":309,"name":"Uncletopia | Frankfurt | 4 | All Maps","name_short":"frk-4","host":"frk-1.de.uncletopia.com","port":27045,"enabled":true,"region":"eu","cc":"de","latitude":50.110924,"longitude":8.682127,"reserved":0,"last_update":"0001-01-01T00:00:00Z","name_a2s":"Uncletopia | Frankfurt | 4 | All Maps","protocol":17,"map":"pl_goldrush","folder":"tf","game":"Team Fortress","app_id":440,"player_count":23,"max_players":24,"Bots":0,"server_type":"Dedicated","server_os":"Linux","password":true,"vac":true,"version":"7961495","steam_id":85568392924504275,"keywords":["nocrits","nodmgspread","payload","uncletopia"],"game_id":440,"stv_port":27046,"stv_name":"Uncletopia | Frankfurt | 4 | All Maps | STV","players":[{"user_id":241,"name":"proph got the rona","steam_id":76561197998803950,"connected_time":519000000000,"state":"active","ping":55},{"user_id":197,"name":"squillisky","steam_id":76561198083569327,"connected_time":3481000000000,"state":"active","ping":68},{"user_id":255,"name":"Dr.Disrespect","steam_id":76561198043820228,"connected_time":46000000000,"state":"active","ping":47},{"user_id":220,"name":"Ｌｕｎｄｅｒｓ儚","steam_id":76561198001599722,"connected_time":1736000000000,"state":"active","ping":85},{"user_id":244,"name":"Bobo","steam_id":76561198052308399,"connected_time":487000000000,"state":"active","ping":59},{"user_id":239,"name":"[ Louinskii ]","steam_id":76561198060509154,"connected_time":549000000000,"state":"active","ping":73},{"user_id":245,"name":"- rick.","steam_id":76561198026699226,"connected_time":441000000000,"state":"active","ping":72},{"user_id":203,"name":"Jácint","steam_id":76561198118501005,"connected_time":3145000000000,"state":"active","ping":71},{"user_id":256,"name":"The Lady","steam_id":76561198029895809,"connected_time":32000000000,"state":"active","ping":75},{"user_id":249,"name":"Jared","steam_id":76561198020432651,"connected_time":409000000000,"state":"active","ping":151},{"user_id":201,"name":"Dizzy","steam_id":76561198010192462,"connected_time":3306000000000,"state":"active","ping":52},{"user_id":234,"name":"NaokiP","steam_id":76561198002788698,"connected_time":1143000000000,"state":"active","ping":169},{"user_id":214,"name":"FoOzTV","steam_id":76561197998636728,"connected_time":1941000000000,"state":"active","ping":74},{"user_id":250,"name":"Kenny Savage","steam_id":76561199049383900,"connected_time":394000000000,"state":"active","ping":73},{"user_id":254,"name":"Archie","steam_id":76561198073498063,"connected_time":226000000000,"state":"active","ping":60},{"user_id":237,"name":"Arty","steam_id":76561198160100181,"connected_time":802000000000,"state":"active","ping":97},{"user_id":252,"name":"Mr_Touchyou","steam_id":76561198452524697,"connected_time":311000000000,"state":"active","ping":110},{"user_id":253,"name":"Dewotter","steam_id":76561198007653168,"connected_time":274000000000,"state":"active","ping":77},{"user_id":231,"name":"ufomaster1111111","steam_id":76561198837347666,"connected_time":1273000000000,"state":"active","ping":67},{"user_id":200,"name":"LionKing","steam_id":76561198023399545,"connected_time":3378000000000,"state":"active","ping":50},{"user_id":202,"name":"LordTrap.exe","steam_id":76561198318089716,"connected_time":3155000000000,"state":"active","ping":64},{"user_id":230,"name":"emir","steam_id":76561198113089831,"connected_time":1370000000000,"state":"active","ping":89},{"user_id":235,"name":"DiracDeltaFunction","steam_id":76561199201624841,"connected_time":1143000000000,"state":"active","ping":84}]},{"server_id":310,"name":"Uncletopia | Frankfurt | 5 | All Maps","name_short":"frk-5","host":"frk-1.de.uncletopia.com","port":27055,"enabled":true,"region":"eu","cc":"de","latitude":50.110924,"longitude":8.682127,"reserved":0,"last_update":"0001-01-01T00:00:00Z","name_a2s":"Uncletopia | Frankfurt | 5 | All Maps","protocol":17,"map":"pl_badwater","folder":"tf","game":"Team Fortress","app_id":440,"player_count":24,"max_players":24,"Bots":0,"server_type":"Dedicated","server_os":"Linux","password":true,"vac":true,"version":"7961495","steam_id":85568392924504277,"keywords":["nocrits","nodmgspread","payload","uncletopia"],"game_id":440,"stv_port":27056,"stv_name":"Uncletopia | Frankfurt | 5 | All Maps | STV","players":[{"user_id":425,"name":"Archive","steam_id":76561198071255385,"connected_time":6721000000000,"state":"active","ping":88},{"user_id":457,"name":"dochris.2","steam_id":76561198026478625,"connected_time":2547000000000,"state":"active","ping":45},{"user_id":493,"name":"bady_3","steam_id":76561199030975778,"connected_time":17000000000,"state":"active","ping":503},{"user_id":484,"name":"sauli01","steam_id":76561199164535602,"connected_time":767000000000,"state":"active","ping":66},{"user_id":440,"name":"Ivy_Foxxie (She/Her)","steam_id":76561198303517687,"connected_time":5103000000000,"state":"active","ping":63},{"user_id":471,"name":"finbar","steam_id":76561198056812396,"connected_time":1266000000000,"state":"active","ping":74},{"user_id":490,"name":"robouki","steam_id":76561198168265569,"connected_time":182000000000,"state":"active","ping":54},{"user_id":485,"name":"ba-loo-loo","steam_id":76561198965894854,"connected_time":766000000000,"state":"active","ping":76},{"user_id":481,"name":"Nag","steam_id":76561197970488206,"connected_time":855000000000,"state":"active","ping":79},{"user_id":473,"name":"Vloeibaarzeep","steam_id":76561198018361028,"connected_time":1199000000000,"state":"active","ping":47},{"user_id":470,"name":"Bobirulez","steam_id":76561198009125458,"connected_time":1283000000000,"state":"active","ping":75},{"user_id":450,"name":"steve","steam_id":76561198335143890,"connected_time":3501000000000,"state":"active","ping":65},{"user_id":482,"name":"Old man Fridge","steam_id":76561198326277470,"connected_time":841000000000,"state":"active","ping":70},{"user_id":419,"name":"Ne","steam_id":76561198209179481,"connected_time":7035000000000,"state":"active","ping":89},{"user_id":442,"name":"cabbage.jpg","steam_id":76561198210317867,"connected_time":4912000000000,"state":"active","ping":180},{"user_id":483,"name":"true","steam_id":76561198031145243,"connected_time":829000000000,"state":"active","ping":84},{"user_id":491,"name":"Castellan","steam_id":76561197994861142,"connected_time":102000000000,"state":"active","ping":62},{"user_id":465,"name":"Ecton","steam_id":76561198025103720,"connected_time":2122000000000,"state":"active","ping":63},{"user_id":492,"name":"Schmack","steam_id":76561198026535437,"connected_time":68000000000,"state":"active","ping":60},{"user_id":477,"name":"mq","steam_id":76561198091888948,"connected_time":1029000000000,"state":"active","ping":47},{"user_id":52,"name":"else1","steam_id":76561197996558319,"connected_time":31904000000000,"state":"active","ping":79},{"user_id":459,"name":"sareena","steam_id":76561198810194062,"connected_time":2506000000000,"state":"active","ping":76},{"user_id":469,"name":"Dog Barf","steam_id":76561198073586987,"connected_time":1975000000000,"state":"active","ping":71},{"user_id":479,"name":"worgeral","steam_id":76561198050781898,"connected_time":979000000000,"state":"active","ping":71}]},{"server_id":311,"name":"Uncletopia | Frankfurt | 6 | All Maps","name_short":"frk-6","host":"frk-1.de.uncletopia.com","port":27065,"enabled":true,"region":"eu","cc":"de","latitude":50.110924,"longitude":8.682127,"reserved":0,"last_update":"0001-01-01T00:00:00Z","name_a2s":"Uncletopia | Frankfurt | 6 | All Maps","protocol":17,"map":"cp_sunshine","folder":"tf","game":"Team Fortress","app_id":440,"player_count":23,"max_players":24,"Bots":0,"server_type":"Dedicated","server_os":"Linux","password":true,"vac":true,"version":"7961495","steam_id":85568392924504278,"keywords":["cp","nocrits","nodmgspread","uncletopia"],"game_id":440,"stv_port":27066,"stv_name":"Uncletopia | Frankfurt | 6 | All Maps | STV","players":[{"user_id":492,"name":"combine","steam_id":76561198007909007,"connected_time":435000000000,"state":"active","ping":50},{"user_id":482,"name":"MakeItRainbow","steam_id":76561198045098064,"connected_time":1731000000000,"state":"active","ping":56},{"user_id":468,"name":"Source of Sanctuary","steam_id":76561198341075367,"connected_time":2342000000000,"state":"active","ping":53},{"user_id":448,"name":"Ade","steam_id":76561198974207724,"connected_time":4428000000000,"state":"active","ping":99},{"user_id":493,"name":"REN","steam_id":76561198000596385,"connected_time":400000000000,"state":"active","ping":76},{"user_id":487,"name":"OpticalBlack","steam_id":76561198038624807,"connected_time":550000000000,"state":"active","ping":103},{"user_id":488,"name":"Pong Lenis","steam_id":76561198039251333,"connected_time":537000000000,"state":"active","ping":99},{"user_id":489,"name":"sαntч","steam_id":76561198046159631,"connected_time":507000000000,"state":"active","ping":64},{"user_id":490,"name":"tiia","steam_id":76561198046196005,"connected_time":460000000000,"state":"active","ping":37},{"user_id":494,"name":"❤ Sparx ❤","steam_id":76561198095009261,"connected_time":328000000000,"state":"active","ping":69},{"user_id":467,"name":"snus","steam_id":76561198046716430,"connected_time":2365000000000,"state":"active","ping":68},{"user_id":438,"name":"Lyncurion","steam_id":76561199260022725,"connected_time":4544000000000,"state":"active","ping":80},{"user_id":497,"name":"jovi_","steam_id":76561198449280552,"connected_time":89000000000,"state":"active","ping":62},{"user_id":491,"name":"you are a BABY","steam_id":76561198079524152,"connected_time":455000000000,"state":"active","ping":65},{"user_id":435,"name":"Ozzie","steam_id":76561197992915315,"connected_time":5144000000000,"state":"active","ping":70},{"user_id":496,"name":"Gioni","steam_id":76561198395912581,"connected_time":161000000000,"state":"active","ping":106},{"user_id":498,"name":"Jezal dan Luthar","steam_id":76561198989449047,"connected_time":49000000000,"state":"active","ping":129},{"user_id":454,"name":"fynta","steam_id":76561198315371425,"connected_time":3333000000000,"state":"active","ping":57},{"user_id":436,"name":"Farao Ramses II","steam_id":76561198078722712,"connected_time":5125000000000,"state":"active","ping":53},{"user_id":463,"name":"[Thrall891]","steam_id":76561198136402128,"connected_time":2502000000000,"state":"active","ping":169},{"user_id":499,"name":"heavy sings (real)","steam_id":76561199023804405,"connected_time":48000000000,"state":"active","ping":80},{"user_id":466,"name":"John","steam_id":76561198121630215,"connected_time":2398000000000,"state":"active","ping":64},{"user_id":500,"name":"rabbitface26","steam_id":76561198327540113,"connected_time":28000000000,"state":"spawning","ping":58}]},{"server_id":23,"name":"Uncletopia | Frankfurt | 7 | Stopwatch","name_short":"frk-7","host":"frk-1.de.uncletopia.com","port":27075,"enabled":true,"region":"eu","cc":"de","latitude":50.110924,"longitude":8.682127,"reserved":0,"last_update":"0001-01-01T00:00:00Z","name_a2s":"Uncletopia | Frankfurt | 7 | Stopwatch","protocol":17,"map":"cp_snakewater_final1","folder":"tf","game":"Team Fortress","app_id":440,"player_count":24,"max_players":24,"Bots":0,"server_type":"Dedicated","server_os":"Linux","password":true,"vac":true,"version":"7961495","steam_id":85568392924742827,"keywords":["cp","nocrits","nodmgspread","uncletopia"],"game_id":440,"stv_port":27076,"stv_name":"Uncletopia | Frankfurt | 7 | Stopwatch | STV","players":[{"user_id":223,"name":"Apollo","steam_id":76561198866054007,"connected_time":1404000000000,"state":"active","ping":86},{"user_id":201,"name":"Quartzy","steam_id":76561198313301520,"connected_time":3114000000000,"state":"active","ping":54},{"user_id":239,"name":"Milosz52","steam_id":76561199060940204,"connected_time":297000000000,"state":"active","ping":67},{"user_id":214,"name":"I AM DOT","steam_id":76561198354118090,"connected_time":1773000000000,"state":"active","ping":84},{"user_id":147,"name":"[P-roc] BadJacKS","steam_id":76561197972666377,"connected_time":7337000000000,"state":"active","ping":57},{"user_id":224,"name":"Cream","steam_id":76561198204266952,"connected_time":1357000000000,"state":"active","ping":103},{"user_id":215,"name":"Morkus","steam_id":76561199134560302,"connected_time":1751000000000,"state":"active","ping":71},{"user_id":240,"name":"Andy","steam_id":76561198046918834,"connected_time":250000000000,"state":"active","ping":69},{"user_id":241,"name":"armadillo","steam_id":76561198324656652,"connected_time":247000000000,"state":"active","ping":83},{"user_id":216,"name":"MANOLO PRIME","steam_id":76561198149152939,"connected_time":1748000000000,"state":"active","ping":75},{"user_id":220,"name":"KolaKattz","steam_id":76561198799117528,"connected_time":1593000000000,"state":"active","ping":61},{"user_id":198,"name":"Mr. Mindish","steam_id":76561198327646067,"connected_time":3681000000000,"state":"active","ping":63},{"user_id":205,"name":"♥♥TGA♥♥","steam_id":76561198853016656,"connected_time":2976000000000,"state":"active","ping":52},{"user_id":217,"name":"Luis prime","steam_id":76561198161402859,"connected_time":1734000000000,"state":"active","ping":83},{"user_id":237,"name":"Noob_with_source","steam_id":76561198870362103,"connected_time":627000000000,"state":"active","ping":60},{"user_id":243,"name":"Omni","steam_id":76561197964320557,"connected_time":173000000000,"state":"active","ping":56},{"user_id":244,"name":"rng","steam_id":76561198436059214,"connected_time":112000000000,"state":"active","ping":59},{"user_id":218,"name":"Saab900","steam_id":76561198143529110,"connected_time":1690000000000,"state":"active","ping":48},{"user_id":184,"name":"elmstJP ₪ F4.exe","steam_id":76561197997909480,"connected_time":4400000000000,"state":"active","ping":75},{"user_id":245,"name":"Abska","steam_id":76561198118323803,"connected_time":78000000000,"state":"active","ping":120},{"user_id":187,"name":"F4.exe","steam_id":76561198278822807,"connected_time":4358000000000,"state":"active","ping":60},{"user_id":231,"name":"Nugget","steam_id":76561198338916407,"connected_time":1100000000000,"state":"active","ping":78},{"user_id":191,"name":"FatRaccoonOnFire","steam_id":76561198165666720,"connected_time":4259000000000,"state":"active","ping":67},{"user_id":232,"name":"Kyazu","steam_id":76561198856117336,"connected_time":1064000000000,"state":"active","ping":60}]},{"server_id":24,"name":"Uncletopia | Frankfurt | 8 | Community","name_short":"frk-8","host":"frk-1.de.uncletopia.com","port":27085,"enabled":true,"region":"eu","cc":"de","latitude":50.110924,"longitude":8.682127,"reserved":0,"last_update":"0001-01-01T00:00:00Z","name_a2s":"Uncletopia | Frankfurt | 8 | Community","protocol":17,"map":"workshop/pl_emerge_rc2.ugc888027758","folder":"tf","game":"Team Fortress","app_id":440,"player_count":0,"max_players":24,"Bots":0,"server_type":"Dedicated","server_os":"Linux","password":true,"vac":true,"version":"7961495","steam_id":85568392924742828,"keywords":["nocrits","nodmgspread","payload","uncletopia"],"game_id":440,"stv_port":27086,"stv_name":"Uncletopia | Frankfurt | 8 | Community | STV","players":null},{"server_id":202,"name":"Uncletopia | Hong Kong | 1 | All Maps","name_short":"hgk-1","host":"hgk-1.hk.uncletopia.com","port":27015,"enabled":true,"region":"asia","cc":"hk","latitude":22.302711,"longitude":114.177216,"reserved":0,"last_update":"0001-01-01T00:00:00Z","name_a2s":"Uncletopia | Hong Kong | 1 | All Maps","protocol":17,"map":"koth_highpass","folder":"tf","game":"Team Fortress","app_id":440,"player_count":0,"max_players":24,"Bots":0,"server_type":"Dedicated","server_os":"Linux","password":true,"vac":true,"version":"7961495","steam_id":85568392924494504,"keywords":["cp","nocrits","nodmgspread","uncletopia"],"game_id":440,"stv_port":27016,"stv_name":"Uncletopia | Hong Kong | 1 | All Maps | STV","players":null},{"server_id":1,"name":"Uncletopia | Los Angeles | 1 | All Maps","name_short":"lax-1","host":"lax-1.us.uncletopia.com","port":27015,"enabled":true,"region":"us-west","cc":"us","latitude":33.94279,"longitude":-118.41004,"reserved":0,"last_update":"0001-01-01T00:00:00Z","name_a2s":"Uncletopia | Los Angeles | 1 | All Maps","protocol":17,"map":"koth_highpass","folder":"tf","game":"Team Fortress","app_id":440,"player_count":0,"max_players":24,"Bots":0,"server_type":"Dedicated","server_os":"Linux","password":true,"vac":true,"version":"7961495","steam_id":85568392924469991,"keywords":["cp","nocrits","nodmgspread","uncletopia"],"game_id":440,"stv_port":27016,"stv_name":"Uncletopia | Los Angeles | 1 | All Maps | STV","players":null},{"server_id":112,"name":"Uncletopia | Los Angeles | 2 | All Maps","name_short":"lax-2","host":"lax-1.us.uncletopia.com","port":27025,"enabled":true,"region":"us-west","cc":"us","latitude":33.94279,"longitude":-118.41004,"reserved":0,"last_update":"0001-01-01T00:00:00Z","name_a2s":"Uncletopia | Los Angeles | 2 | All Maps","protocol":17,"map":"pl_frontier_final","folder":"tf","game":"Team Fortress","app_id":440,"player_count":24,"max_players":24,"Bots":0,"server_type":"Dedicated","server_os":"Linux","password":true,"vac":true,"version":"7961495","steam_id":85568392924469992,"keywords":["nocrits","nodmgspread","payload","uncletopia"],"game_id":440,"stv_port":27026,"stv_name":"Uncletopia | Los Angeles | 2 | All Maps | STV","players":[{"user_id":67,"name":"The Horselords and Animal Gods","steam_id":76561197975094050,"connected_time":2751000000000,"state":"active","ping":55},{"user_id":77,"name":"online","steam_id":76561198192531745,"connected_time":1405000000000,"state":"active","ping":59},{"user_id":66,"name":"NightGhost1400","steam_id":76561198810730471,"connected_time":2984000000000,"state":"active","ping":65},{"user_id":75,"name":"i cant aim","steam_id":76561198065873462,"connected_time":1442000000000,"state":"active","ping":44},{"user_id":51,"name":"Jimmy Fallon","steam_id":76561198069131730,"connected_time":3773000000000,"state":"active","ping":89},{"user_id":74,"name":"RC","steam_id":76561198048127881,"connected_time":1783000000000,"state":"active","ping":45},{"user_id":85,"name":"reko","steam_id":76561198278020887,"connected_time":608000000000,"state":"active","ping":73},{"user_id":88,"name":"Alex","steam_id":76561198140423612,"connected_time":285000000000,"state":"active","ping":69},{"user_id":81,"name":"CartoonTheToon","steam_id":76561198359882855,"connected_time":1089000000000,"state":"active","ping":58},{"user_id":69,"name":"spacetoven","steam_id":76561198115821131,"connected_time":2391000000000,"state":"active","ping":54},{"user_id":76,"name":"Reem0h","steam_id":76561198169848690,"connected_time":1428000000000,"state":"active","ping":113},{"user_id":64,"name":"Baku Supremacy","steam_id":76561198264042568,"connected_time":3043000000000,"state":"active","ping":51},{"user_id":52,"name":"Mug Root Beer Dog","steam_id":76561199127590316,"connected_time":3727000000000,"state":"active","ping":60},{"user_id":78,"name":"NFT(non functioning testicle)","steam_id":76561198092435966,"connected_time":1388000000000,"state":"active","ping":122},{"user_id":54,"name":"VoodooPapa","steam_id":76561199160439066,"connected_time":3720000000000,"state":"active","ping":63},{"user_id":83,"name":"SanitysEdge","steam_id":76561198130732813,"connected_time":847000000000,"state":"active","ping":47},{"user_id":90,"name":"bologna forklift 2012","steam_id":76561198199061206,"connected_time":20000000000,"state":"spawning","ping":87},{"user_id":56,"name":"Gumpy","steam_id":76561198144747235,"connected_time":3697000000000,"state":"active","ping":70},{"user_id":71,"name":"Mud Goblin","steam_id":76561198839118505,"connected_time":2284000000000,"state":"active","ping":71},{"user_id":86,"name":"roach","steam_id":76561198354811369,"connected_time":306000000000,"state":"active","ping":47},{"user_id":89,"name":"RadioRave","steam_id":76561198240837534,"connected_time":280000000000,"state":"active","ping":49},{"user_id":48,"name":"KlassicLoL","steam_id":76561198081815303,"connected_time":4417000000000,"state":"active","ping":48},{"user_id":41,"name":"Beersy","steam_id":76561198022426298,"connected_time":4892000000000,"state":"active","ping":117},{"user_id":80,"name":"celestia ludenberg","steam_id":76561199196437823,"connected_time":1297000000000,"state":"active","ping":63}]},{"server_id":324,"name":"Uncletopia | Los Angeles | 3 | All Maps","name_short":"lax-3","host":"lax-1.us.uncletopia.com","port":27035,"enabled":true,"region":"us-west","cc":"us","latitude":33.94279,"longitude":-118.41004,"reserved":0,"last_update":"0001-01-01T00:00:00Z","name_a2s":"Uncletopia | Los Angeles | 3 | All Maps","protocol":17,"map":"pl_frontier_final","folder":"tf","game":"Team Fortress","app_id":440,"player_count":0,"max_players":24,"Bots":0,"server_type":"Dedicated","server_os":"Linux","password":true,"vac":true,"version":"7961495","steam_id":85568392924510198,"keywords":["nocrits","nodmgspread","payload","uncletopia"],"game_id":440,"stv_port":27036,"stv_name":"Uncletopia | Los Angeles | 3 | All Maps | STV","players":null},{"server_id":25,"name":"Uncletopia | Los Angeles | 4 | Stopwatch","name_short":"lax-4","host":"lax-1.us.uncletopia.com","port":27045,"enabled":true,"region":"us-west","cc":"us","latitude":33.94279,"longitude":-118.41004,"reserved":0,"last_update":"0001-01-01T00:00:00Z","name_a2s":"Uncletopia | Los Angeles | 4 | Stopwatch","protocol":17,"map":"pl_barnblitz","folder":"tf","game":"Team Fortress","app_id":440,"player_count":0,"max_players":24,"Bots":0,"server_type":"Dedicated","server_os":"Linux","password":true,"vac":true,"version":"7961495","steam_id":85568392924510199,"keywords":["nocrits","nodmgspread","payload","uncletopia"],"game_id":440,"stv_port":27046,"stv_name":"Uncletopia | Los Angeles | 4 | Stopwatch | STV","players":null},{"server_id":11,"name":"Uncletopia | London | 1 | All Maps","name_short":"lon-1","host":"lon-1.uk.uncletopia.com","port":27015,"enabled":true,"region":"eu","cc":"gb","latitude":51.509865,"longitude":-0.118092,"reserved":0,"last_update":"0001-01-01T00:00:00Z","name_a2s":"Uncletopia | London | 1 | All Maps","protocol":17,"map":"pl_barnblitz","folder":"tf","game":"Team Fortress","app_id":440,"player_count":24,"max_players":24,"Bots":0,"server_type":"Dedicated","server_os":"Linux","password":true,"vac":true,"version":"7961495","steam_id":85568392924367362,"keywords":["nocrits","nodmgspread","payload","uncletopia"],"game_id":440,"stv_port":27016,"stv_name":"Uncletopia | London | 1 | All Maps | STV","players":[{"user_id":462,"name":"zayd","steam_id":76561198895235231,"connected_time":2537000000000,"state":"active","ping":58},{"user_id":347,"name":"shooer!","steam_id":76561198110531281,"connected_time":12701000000000,"state":"active","ping":70},{"user_id":477,"name":"ra","steam_id":76561198239927434,"connected_time":498000000000,"state":"active","ping":88},{"user_id":455,"name":"Slifer the BIG SHOT","steam_id":76561198062255803,"connected_time":3133000000000,"state":"active","ping":71},{"user_id":428,"name":"{UA} tom shelbey","steam_id":76561198080912087,"connected_time":6127000000000,"state":"active","ping":75},{"user_id":466,"name":"Kphi(i)","steam_id":76561198970587061,"connected_time":1984000000000,"state":"active","ping":56},{"user_id":430,"name":"Sandshee, Mother of Glue Eaters","steam_id":76561198088574666,"connected_time":6124000000000,"state":"active","ping":45},{"user_id":474,"name":"i hack smart refrigerators","steam_id":76561199265289808,"connected_time":915000000000,"state":"active","ping":104},{"user_id":435,"name":"jimmy bob","steam_id":76561198319583692,"connected_time":5107000000000,"state":"active","ping":60},{"user_id":443,"name":"the coom slayer (2016)","steam_id":76561198890193313,"connected_time":4695000000000,"state":"active","ping":61},{"user_id":468,"name":"✪ Danny","steam_id":76561198104483241,"connected_time":1542000000000,"state":"active","ping":55},{"user_id":363,"name":"GoblinGaming","steam_id":76561198360395476,"connected_time":11774000000000,"state":"active","ping":47},{"user_id":456,"name":"Lyra","steam_id":76561198043601838,"connected_time":2982000000000,"state":"active","ping":60},{"user_id":478,"name":"gamerkiddo","steam_id":76561198047380360,"connected_time":349000000000,"state":"active","ping":49},{"user_id":472,"name":"Lubrsi","steam_id":76561198040208195,"connected_time":1229000000000,"state":"active","ping":53},{"user_id":437,"name":"MEGAFEED alice","steam_id":76561198180361759,"connected_time":5089000000000,"state":"active","ping":45},{"user_id":372,"name":"My honest reaction","steam_id":76561198079277466,"connected_time":11407000000000,"state":"active","ping":75},{"user_id":473,"name":"Borat","steam_id":76561198122226417,"connected_time":995000000000,"state":"active","ping":45},{"user_id":460,"name":"nat","steam_id":76561198865090309,"connected_time":2883000000000,"state":"active","ping":139},{"user_id":475,"name":"sushii","steam_id":76561198297987372,"connected_time":809000000000,"state":"active","ping":56},{"user_id":479,"name":"♥ඞlilyඞ♥","steam_id":76561198049840460,"connected_time":209000000000,"state":"active","ping":58},{"user_id":434,"name":"reddit fortress","steam_id":76561198074917015,"connected_time":6042000000000,"state":"active","ping":88},{"user_id":438,"name":"call me szmata18","steam_id":76561199042056825,"connected_time":5089000000000,"state":"active","ping":72},{"user_id":439,"name":"yup that extream78711","steam_id":76561198106049954,"connected_time":5089000000000,"state":"active","ping":80}]},{"server_id":114,"name":"Uncletopia | London | 2 | All Maps","name_short":"lon-2","host":"lon-1.uk.uncletopia.com","port":27025,"enabled":true,"region":"eu","cc":"gb","latitude":51.509865,"longitude":-0.118092,"reserved":0,"last_update":"0001-01-01T00:00:00Z","name_a2s":"Uncletopia | London | 2 | All Maps","protocol":17,"map":"pl_swiftwater_final1","folder":"tf","game":"Team Fortress","app_id":440,"player_count":0,"max_players":24,"Bots":0,"server_type":"Dedicated","server_os":"Linux","password":true,"vac":true,"version":"7961495","steam_id":85568392924470941,"keywords":["nocrits","nodmgspread","payload","uncletopia"],"game_id":440,"stv_port":27026,"stv_name":"Uncletopia | London | 2 | All Maps | STV","players":null},{"server_id":320,"name":"Uncletopia | London | 3 | All Maps","name_short":"lon-3","host":"lon-1.uk.uncletopia.com","port":27035,"enabled":true,"region":"eu","cc":"gb","latitude":51.509865,"longitude":-0.118092,"reserved":0,"last_update":"0001-01-01T00:00:00Z","name_a2s":"Uncletopia | London | 3 | All Maps","protocol":17,"map":"koth_cascade","folder":"tf","game":"Team Fortress","app_id":440,"player_count":24,"max_players":24,"Bots":0,"server_type":"Dedicated","server_os":"Linux","password":true,"vac":true,"version":"7961495","steam_id":85568392924510192,"keywords":["cp","nocrits","nodmgspread","uncletopia"],"game_id":440,"stv_port":27036,"stv_name":"Uncletopia | London | 3 | All Maps | STV","players":[{"user_id":36,"name":"bluecheesemints","steam_id":76561199490357988,"connected_time":2955000000000,"state":"active","ping":70},{"user_id":71,"name":"Hildreth","steam_id":76561197995254867,"connected_time":906000000000,"state":"active","ping":48},{"user_id":79,"name":"Astrocards","steam_id":76561199184079830,"connected_time":558000000000,"state":"active","ping":161},{"user_id":82,"name":"8 Ball","steam_id":76561197960988736,"connected_time":254000000000,"state":"active","ping":52},{"user_id":81,"name":"Voks_","steam_id":76561198159687785,"connected_time":353000000000,"state":"active","ping":71},{"user_id":44,"name":"icymelon","steam_id":76561198072239175,"connected_time":2546000000000,"state":"active","ping":50},{"user_id":31,"name":"Lozo","steam_id":76561198091866601,"connected_time":3237000000000,"state":"active","ping":63},{"user_id":46,"name":"compus","steam_id":76561199134152606,"connected_time":2019000000000,"state":"active","ping":80},{"user_id":70,"name":"Asat","steam_id":76561198862727465,"connected_time":928000000000,"state":"active","ping":57},{"user_id":37,"name":"It's a me Malario","steam_id":76561198176546013,"connected_time":2932000000000,"state":"active","ping":50},{"user_id":72,"name":"man","steam_id":76561198003593070,"connected_time":900000000000,"state":"active","ping":134},{"user_id":39,"name":"Marcus","steam_id":76561198205027963,"connected_time":2888000000000,"state":"active","ping":62},{"user_id":80,"name":"that fat croc from donkey kong","steam_id":76561198159172495,"connected_time":496000000000,"state":"active","ping":120},{"user_id":73,"name":"snowii","steam_id":76561198836246326,"connected_time":872000000000,"state":"active","ping":55},{"user_id":85,"name":"Emrys","steam_id":76561198170781013,"connected_time":103000000000,"state":"active","ping":57},{"user_id":53,"name":"Lowtidey","steam_id":76561198994887486,"connected_time":1776000000000,"state":"active","ping":119},{"user_id":61,"name":"that shit got me middle handed","steam_id":76561198010239925,"connected_time":1556000000000,"state":"active","ping":45},{"user_id":77,"name":"Several geollos screaming","steam_id":76561198291326102,"connected_time":576000000000,"state":"active","ping":60},{"user_id":75,"name":"wackyballz420","steam_id":76561199439738838,"connected_time":791000000000,"state":"active","ping":51},{"user_id":78,"name":"scarfweather","steam_id":76561198121331836,"connected_time":569000000000,"state":"active","ping":59},{"user_id":58,"name":"Average Chinese Man","steam_id":76561199076883472,"connected_time":1648000000000,"state":"active","ping":94},{"user_id":59,"name":"Jeffrey Harpen","steam_id":76561199073314677,"connected_time":1641000000000,"state":"active","ping":80},{"user_id":60,"name":"Travorski","steam_id":76561198072493142,"connected_time":1625000000000,"state":"active","ping":178},{"user_id":86,"name":"GUMBO","steam_id":76561198183949987,"connected_time":100000000000,"state":"active","ping":54}]},{"server_id":321,"name":"Uncletopia | London | 4 | All Maps","name_short":"lon-4","host":"lon-1.uk.uncletopia.com","port":27045,"enabled":true,"region":"eu","cc":"gb","latitude":51.509865,"longitude":-0.118092,"reserved":0,"last_update":"0001-01-01T00:00:00Z","name_a2s":"Uncletopia | London | 4 | All Maps","protocol":17,"map":"koth_highpass","folder":"tf","game":"Team Fortress","app_id":440,"player_count":24,"max_players":24,"Bots":0,"server_type":"Dedicated","server_os":"Linux","password":true,"vac":true,"version":"7961495","steam_id":85568392924510193,"keywords":["cp","nocrits","nodmgspread","uncletopia"],"game_id":440,"stv_port":27046,"stv_name":"Uncletopia | London | 4 | All Maps | STV","players":[{"user_id":327,"name":"Eric Catman","steam_id":76561198802117294,"connected_time":123000000000,"state":"active","ping":72},{"user_id":308,"name":"Le Chevalier Pingouin","steam_id":76561198221355000,"connected_time":1484000000000,"state":"active","ping":40},{"user_id":323,"name":"Blobbaz","steam_id":76561198031076278,"connected_time":311000000000,"state":"active","ping":52},{"user_id":262,"name":"Logic Not Found","steam_id":76561198273025576,"connected_time":4249000000000,"state":"active","ping":45},{"user_id":278,"name":"Gentlemann Co.","steam_id":76561197997142921,"connected_time":3424000000000,"state":"active","ping":56},{"user_id":311,"name":"Prox","steam_id":76561198351490981,"connected_time":1092000000000,"state":"active","ping":35},{"user_id":295,"name":"val","steam_id":76561198324316160,"connected_time":2634000000000,"state":"active","ping":52},{"user_id":303,"name":"midlpsyzl47","steam_id":76561199475972637,"connected_time":2068000000000,"state":"active","ping":64},{"user_id":241,"name":"Q U E E N A L E X","steam_id":76561198186341157,"connected_time":5540000000000,"state":"active","ping":48},{"user_id":321,"name":"grimbus","steam_id":76561198140431949,"connected_time":383000000000,"state":"active","ping":53},{"user_id":316,"name":"BIG FUCKING BACON","steam_id":76561198014856290,"connected_time":725000000000,"state":"active","ping":72},{"user_id":322,"name":"Kaziocalvice","steam_id":76561198146425583,"connected_time":357000000000,"state":"active","ping":67},{"user_id":329,"name":"Twitch K x z u [ESP]","steam_id":76561199233176428,"connected_time":40000000000,"state":"active","ping":135},{"user_id":324,"name":"American Gamer","steam_id":76561198142292188,"connected_time":286000000000,"state":"active","ping":148},{"user_id":290,"name":"mountain goat","steam_id":76561198326628884,"connected_time":2783000000000,"state":"active","ping":127},{"user_id":312,"name":"skittle","steam_id":76561198303232638,"connected_time":949000000000,"state":"active","ping":68},{"user_id":235,"name":"BabyYodaIsMySoda","steam_id":76561198321846861,"connected_time":5960000000000,"state":"active","ping":81},{"user_id":325,"name":"gaming gamer","steam_id":76561198212488780,"connected_time":273000000000,"state":"active","ping":65},{"user_id":326,"name":"Meat Cannon","steam_id":76561198082761157,"connected_time":272000000000,"state":"active","ping":155},{"user_id":302,"name":"bowchika wowa #SlavaUkraine","steam_id":76561198159564550,"connected_time":2125000000000,"state":"active","ping":72},{"user_id":280,"name":"ant753","steam_id":76561198103458889,"connected_time":3370000000000,"state":"active","ping":53},{"user_id":328,"name":"Caramel","steam_id":76561198021214844,"connected_time":84000000000,"state":"active","ping":74},{"user_id":310,"name":"Fissure","steam_id":76561198272595481,"connected_time":1438000000000,"state":"active","ping":67},{"user_id":314,"name":"Khrinde","steam_id":76561198036744526,"connected_time":893000000000,"state":"active","ping":97}]},{"server_id":21,"name":"Uncletopia | London | 5 | All Maps","name_short":"lon-5","host":"lon-1.uk.uncletopia.com","port":27055,"enabled":true,"region":"eu","cc":"gb","latitude":51.509865,"longitude":-0.118092,"reserved":0,"last_update":"0001-01-01T00:00:00Z","name_a2s":"Uncletopia | London | 5 | All Maps","protocol":17,"map":"cp_altitude","folder":"tf","game":"Team Fortress","app_id":440,"player_count":24,"max_players":24,"Bots":0,"server_type":"Dedicated","server_os":"Linux","password":true,"vac":true,"version":"7961495","steam_id":85568392924742829,"keywords":["cp","nocrits","nodmgspread","uncletopia"],"game_id":440,"stv_port":27056,"stv_name":"Uncletopia | London | 5 | All Maps | STV","players":[{"user_id":834,"name":"Snowmotion","steam_id":76561198075022454,"connected_time":694000000000,"state":"active","ping":70},{"user_id":812,"name":"bart simpson weed","steam_id":76561198014858762,"connected_time":2114000000000,"state":"active","ping":57},{"user_id":837,"name":"Sofi","steam_id":76561198023666794,"connected_time":490000000000,"state":"active","ping":175},{"user_id":814,"name":"DelaNo","steam_id":76561199125086655,"connected_time":2072000000000,"state":"active","ping":42},{"user_id":770,"name":"Kiogeki","steam_id":76561197996707843,"connected_time":4724000000000,"state":"active","ping":33},{"user_id":807,"name":"The Roamer🎃💀🗿","steam_id":76561198305358731,"connected_time":2464000000000,"state":"active","ping":69},{"user_id":843,"name":"MoonWalkingMyhers","steam_id":76561199208152141,"connected_time":249000000000,"state":"active","ping":58},{"user_id":777,"name":"Bottle O' Scrumpy","steam_id":76561199244250562,"connected_time":3775000000000,"state":"active","ping":101},{"user_id":836,"name":"CiVillain","steam_id":76561198059617732,"connected_time":525000000000,"state":"active","ping":72},{"user_id":846,"name":"AftiksPL","steam_id":76561198875182686,"connected_time":87000000000,"state":"active","ping":98},{"user_id":840,"name":"xTheDarkLight","steam_id":76561198239128298,"connected_time":433000000000,"state":"active","ping":60},{"user_id":778,"name":"THE_FATCAT","steam_id":76561198067211689,"connected_time":3651000000000,"state":"active","ping":44},{"user_id":822,"name":"jade","steam_id":76561198298576765,"connected_time":1833000000000,"state":"active","ping":69},{"user_id":839,"name":"Osqq :s","steam_id":76561198075465106,"connected_time":477000000000,"state":"active","ping":70},{"user_id":841,"name":"azzy","steam_id":76561198061293740,"connected_time":419000000000,"state":"active","ping":78},{"user_id":835,"name":"Urfangonultasadana","steam_id":76561199389286151,"connected_time":655000000000,"state":"active","ping":100},{"user_id":844,"name":"HealthHazard","steam_id":76561198212549753,"connected_time":241000000000,"state":"active","ping":53},{"user_id":818,"name":"thatCerv","steam_id":76561198037798308,"connected_time":1953000000000,"state":"active","ping":63},{"user_id":819,"name":"Sommelier_","steam_id":76561198354180808,"connected_time":1943000000000,"state":"active","ping":74},{"user_id":845,"name":"_Context_","steam_id":76561199163359312,"connected_time":182000000000,"state":"active","ping":60},{"user_id":847,"name":"A table","steam_id":76561197972227245,"connected_time":32000000000,"state":"active","ping":68},{"user_id":848,"name":"Bob Lettuce","steam_id":76561198126830902,"connected_time":24000000000,"state":"spawning","ping":119},{"user_id":821,"name":"Tort","steam_id":76561198329646769,"connected_time":1919000000000,"state":"active","ping":59},{"user_id":723,"name":"Ullr","steam_id":76561198140547483,"connected_time":7705000000000,"state":"active","ping":45}]},{"server_id":22,"name":"Uncletopia | London | 6 | All Maps","name_short":"lon-6","host":"lon-1.uk.uncletopia.com","port":27065,"enabled":true,"region":"eu","cc":"gb","latitude":51.509865,"longitude":-0.118092,"reserved":0,"last_update":"0001-01-01T00:00:00Z","name_a2s":"Uncletopia | London | 6 | All Maps","protocol":17,"map":"koth_cascade","folder":"tf","game":"Team Fortress","app_id":440,"player_count":7,"max_players":24,"Bots":0,"server_type":"Dedicated","server_os":"Linux","password":true,"vac":true,"version":"7961495","steam_id":85568392924742830,"keywords":["cp","nocrits","nodmgspread","uncletopia"],"game_id":440,"stv_port":27066,"stv_name":"Uncletopia | London | 6 | All Maps | STV","players":[{"user_id":396,"name":"Houlles","steam_id":76561198095277383,"connected_time":3688000000000,"state":"active","ping":48},{"user_id":406,"name":"Cosmo","steam_id":76561198078378048,"connected_time":2370000000000,"state":"active","ping":43},{"user_id":419,"name":"ScampSixteen","steam_id":76561198021771000,"connected_time":1045000000000,"state":"active","ping":60},{"user_id":420,"name":"Strix","steam_id":76561198015322735,"connected_time":1028000000000,"state":"active","ping":67},{"user_id":421,"name":"akakez","steam_id":76561198095432821,"connected_time":1023000000000,"state":"active","ping":111},{"user_id":425,"name":"tadisab","steam_id":76561199484049632,"connected_time":436000000000,"state":"active","ping":169},{"user_id":423,"name":"Oki (Bon)","steam_id":76561199047748534,"connected_time":861000000000,"state":"active","ping":54}]},{"server_id":40,"name":"Uncletopia | London | 7 | Stopwatch","name_short":"lon-7","host":"lon-1.uk.uncletopia.com","port":27075,"enabled":true,"region":"eu","cc":"gb","latitude":51.509865,"longitude":-0.118092,"reserved":0,"last_update":"0001-01-01T00:00:00Z","name_a2s":"Uncletopia | London | 7 | Stopwatch","protocol":17,"map":"workshop/koth_clearcut_b15.ugc2107050255","folder":"tf","game":"Team Fortress","app_id":440,"player_count":0,"max_players":24,"Bots":0,"server_type":"Dedicated","server_os":"Linux","password":true,"vac":true,"version":"7961495","steam_id":85568392924964314,"keywords":["cp","nocrits","nodmgspread","uncletopia"],"game_id":440,"stv_port":27076,"stv_name":"Uncletopia | London | 7 | Stopwatch | STV","players":null},{"server_id":41,"name":"Uncletopia | London | 8 | Community","name_short":"lon-8","host":"lon-1.uk.uncletopia.com","port":27085,"enabled":true,"region":"eu","cc":"gb","latitude":51.509865,"longitude":-0.118092,"reserved":0,"last_update":"0001-01-01T00:00:00Z","name_a2s":"Uncletopia | London | 8 | Community","protocol":17,"map":"workshop/koth_slaughter_rc1.ugc1712845210","folder":"tf","game":"Team Fortress","app_id":440,"player_count":0,"max_players":24,"Bots":0,"server_type":"Dedicated","server_os":"Linux","password":true,"vac":true,"version":"7961495","steam_id":85568392924964315,"keywords":["cp","nocrits","nodmgspread","uncletopia"],"game_id":440,"stv_port":27086,"stv_name":"Uncletopia | London | 8 | Community | STV","players":null},{"server_id":300,"name":"Uncletopia | Montréal | 1 | One Thousand Uncles","name_short":"mtl-1","host":"mtl-1.ca.uncletopia.com","port":27015,"enabled":true,"region":"us-east","cc":"ca","latitude":45.50889,"longitude":-73.56167,"reserved":0,"last_update":"0001-01-01T00:00:00Z","name_a2s":"","protocol":0,"map":"","folder":"","game":"","app_id":0,"player_count":0,"max_players":0,"Bots":0,"server_type":"","server_os":"","password":false,"vac":false,"version":"","steam_id":0,"keywords":null,"game_id":0,"stv_port":0,"stv_name":"","players":null},{"server_id":301,"name":"Uncletopia | Montréal | 2 | One Thousand Uncles","name_short":"mtl-2","host":"mtl-1.ca.uncletopia.com","port":27025,"enabled":true,"region":"us-east","cc":"ca","latitude":45.50889,"longitude":-73.56167,"reserved":0,"last_update":"0001-01-01T00:00:00Z","name_a2s":"","protocol":0,"map":"","folder":"","game":"","app_id":0,"player_count":0,"max_players":0,"Bots":0,"server_type":"","server_os":"","password":false,"vac":false,"version":"","steam_id":0,"keywords":null,"game_id":0,"stv_port":0,"stv_name":"","players":null},{"server_id":302,"name":"Uncletopia | Montréal | 3 | One Thousand Uncles","name_short":"mtl-3","host":"mtl-1.ca.uncletopia.com","port":27035,"enabled":true,"region":"us-east","cc":"ca","latitude":45.50889,"longitude":-73.56167,"reserved":0,"last_update":"0001-01-01T00:00:00Z","name_a2s":"","protocol":0,"map":"","folder":"","game":"","app_id":0,"player_count":5,"max_players":0,"Bots":0,"server_type":"","server_os":"","password":false,"vac":false,"version":"","steam_id":0,"keywords":null,"game_id":0,"stv_port":0,"stv_name":"","players":[{"user_id":55,"name":"The Fragrance of Dark Coffee","steam_id":76561198013111370,"connected_time":1625000000000,"state":"active","ping":59},{"user_id":54,"name":"Widget","steam_id":76561199431280503,"connected_time":1740000000000,"state":"active","ping":56},{"user_id":56,"name":"Yorozuya with Odd Jobs","steam_id":76561198219473128,"connected_time":1612000000000,"state":"active","ping":62},{"user_id":57,"name":"Chaos","steam_id":76561197967401532,"connected_time":1560000000000,"state":"active","ping":135},{"user_id":58,"name":"concrete_car","steam_id":76561198388207363,"connected_time":1292000000000,"state":"active","ping":59}]},{"server_id":13,"name":"Uncletopia | New York City | 1 | All Maps","name_short":"nyc-1","host":"nyc-1.us.uncletopia.com","port":27015,"enabled":true,"region":"us-east","cc":"us","latitude":40.73061,"longitude":-73.93524,"reserved":0,"last_update":"0001-01-01T00:00:00Z","name_a2s":"Uncletopia | New York City | 1 | All Maps","protocol":17,"map":"pl_borneo","folder":"tf","game":"Team Fortress","app_id":440,"player_count":24,"max_players":24,"Bots":0,"server_type":"Dedicated","server_os":"Linux","password":true,"vac":true,"version":"7961495","steam_id":85568392924469993,"keywords":["nocrits","nodmgspread","payload","uncletopia"],"game_id":440,"stv_port":27016,"stv_name":"Uncletopia | New York City | 1 | All Maps | STV","players":[{"user_id":148,"name":"Portizz","steam_id":76561198095732366,"connected_time":1572000000000,"state":"active","ping":66},{"user_id":129,"name":"epsilene","steam_id":76561198027468624,"connected_time":2826000000000,"state":"active","ping":44},{"user_id":97,"name":"Zozbieta","steam_id":76561198010336265,"connected_time":5638000000000,"state":"active","ping":94},{"user_id":134,"name":"Dan","steam_id":76561199236719411,"connected_time":2436000000000,"state":"active","ping":93},{"user_id":168,"name":"sirdagger","steam_id":76561198405460022,"connected_time":491000000000,"state":"active","ping":65},{"user_id":167,"name":"The Guy","steam_id":76561198799183693,"connected_time":698000000000,"state":"active","ping":91},{"user_id":166,"name":"BLØRG","steam_id":76561198036126673,"connected_time":791000000000,"state":"active","ping":95},{"user_id":162,"name":"Bee_Pirate","steam_id":76561199000599111,"connected_time":840000000000,"state":"active","ping":56},{"user_id":125,"name":"rudy","steam_id":76561198088712799,"connected_time":3132000000000,"state":"active","ping":86},{"user_id":76,"name":"A Puppy","steam_id":76561198828184456,"connected_time":6934000000000,"state":"active","ping":46},{"user_id":160,"name":"kylestyle13","steam_id":76561198979490241,"connected_time":852000000000,"state":"active","ping":51},{"user_id":158,"name":"Baron von Whoopsie","steam_id":76561197996691013,"connected_time":889000000000,"state":"active","ping":84},{"user_id":126,"name":"armaghgeddon™","steam_id":76561198018519640,"connected_time":2966000000000,"state":"active","ping":72},{"user_id":164,"name":"Keymaster","steam_id":76561198881514228,"connected_time":822000000000,"state":"active","ping":64},{"user_id":169,"name":"Jasper™","steam_id":76561198260018463,"connected_time":420000000000,"state":"active","ping":73},{"user_id":111,"name":"wool","steam_id":76561198869689933,"connected_time":4221000000000,"state":"active","ping":52},{"user_id":161,"name":"guy","steam_id":76561198079925551,"connected_time":851000000000,"state":"active","ping":45},{"user_id":157,"name":"Rex","steam_id":76561198138365053,"connected_time":942000000000,"state":"active","ping":121},{"user_id":155,"name":"MeatShield 2000","steam_id":76561199375192850,"connected_time":990000000000,"state":"active","ping":128},{"user_id":127,"name":"NYC APPA YIP YIP","steam_id":76561198112929942,"connected_time":2955000000000,"state":"active","ping":53},{"user_id":99,"name":"patdine","steam_id":76561198060865671,"connected_time":5614000000000,"state":"active","ping":64},{"user_id":133,"name":"Thog","steam_id":76561198093699060,"connected_time":2489000000000,"state":"active","ping":49},{"user_id":165,"name":"Hebe","steam_id":76561198000777479,"connected_time":811000000000,"state":"active","ping":134},{"user_id":154,"name":"Steel Tombstone","steam_id":76561199160542103,"connected_time":1153000000000,"state":"active","ping":42}]},{"server_id":14,"name":"Uncletopia | New York City | 2 | All Maps","name_short":"nyc-2","host":"nyc-1.us.uncletopia.com","port":27025,"enabled":true,"region":"us-east","cc":"us","latitude":40.73061,"longitude":-73.93524,"reserved":0,"last_update":"0001-01-01T00:00:00Z","name_a2s":"Uncletopia | New York City | 2 | All Maps","protocol":17,"map":"ctf_turbine","folder":"tf","game":"Team Fortress","app_id":440,"player_count":1,"max_players":24,"Bots":0,"server_type":"Dedicated","server_os":"Linux","password":true,"vac":true,"version":"7961495","steam_id":85568392924469994,"keywords":["ctf","nocrits","nodmgspread","uncletopia"],"game_id":440,"stv_port":27026,"stv_name":"Uncletopia | New York City | 2 | All Maps | STV","players":[{"user_id":9,"name":"Gentoo Linux Gaming","steam_id":76561197999657118,"connected_time":194000000000,"state":"spawning","ping":99}]},{"server_id":15,"name":"Uncletopia | New York City | 3 | Stopwatch","name_short":"nyc-3","host":"nyc-1.us.uncletopia.com","port":27035,"enabled":true,"region":"us-east","cc":"us","latitude":40.73061,"longitude":-73.93524,"reserved":0,"last_update":"0001-01-01T00:00:00Z","name_a2s":"Uncletopia | New York City | 3 | Stopwatch","protocol":17,"map":"koth_lakeside_final","folder":"tf","game":"Team Fortress","app_id":440,"player_count":0,"max_players":24,"Bots":0,"server_type":"Dedicated","server_os":"Linux","password":true,"vac":true,"version":"7961495","steam_id":85568392924742820,"keywords":["cp","nocrits","nodmgspread","uncletopia"],"game_id":440,"stv_port":27036,"stv_name":"Uncletopia | New York City | 3 | Stopwatch | STV","players":null},{"server_id":16,"name":"Uncletopia | New York City | 4 | Community","name_short":"nyc-4","host":"nyc-1.us.uncletopia.com","port":27045,"enabled":true,"region":"us-east","cc":"us","latitude":40.73061,"longitude":-73.93524,"reserved":0,"last_update":"0001-01-01T00:00:00Z","name_a2s":"Uncletopia | New York City | 4 | Community","protocol":17,"map":"cp_altitude","folder":"tf","game":"Team Fortress","app_id":440,"player_count":0,"max_players":24,"Bots":0,"server_type":"Dedicated","server_os":"Linux","password":true,"vac":true,"version":"7961495","steam_id":85568392924742821,"keywords":["cp","nocrits","nodmgspread","uncletopia"],"game_id":440,"stv_port":27046,"stv_name":"Uncletopia | New York City | 4 | Community | STV","players":null},{"server_id":142,"name":"Uncletopia | São Paulo | 1 | All Maps","name_short":"sao-1","host":"sao-1.br.uncletopia.com","port":27015,"enabled":true,"region":"sa","cc":"br","latitude":-23.533773,"longitude":-46.62529,"reserved":0,"last_update":"0001-01-01T00:00:00Z","name_a2s":"Uncletopia | São Paulo | 1 | All Maps","protocol":17,"map":"koth_highpass","folder":"tf","game":"Team Fortress","app_id":440,"player_count":0,"max_players":24,"Bots":0,"server_type":"Dedicated","server_os":"Linux","password":true,"vac":true,"version":"7961495","steam_id":85568392924469996,"keywords":["cp","nocrits","nodmgspread","uncletopia"],"game_id":440,"stv_port":27016,"stv_name":"Uncletopia | São Paulo | 1 | All Maps | STV","players":null},{"server_id":143,"name":"Uncletopia | São Paulo | 2 | Community","name_short":"sao-2","host":"sao-2.br.uncletopia.com","port":27015,"enabled":true,"region":"sa","cc":"br","latitude":-23.533773,"longitude":-46.62529,"reserved":0,"last_update":"0001-01-01T00:00:00Z","name_a2s":"Uncletopia | São Paulo | 2 | Community","protocol":17,"map":"workshop/cp_sulfur_rc2.ugc619869471","folder":"tf","game":"Team Fortress","app_id":440,"player_count":1,"max_players":24,"Bots":0,"server_type":"Dedicated","server_os":"Linux","password":true,"vac":true,"version":"7961495","steam_id":85568392924485349,"keywords":["cp","nocrits","nodmgspread","uncletopia"],"game_id":440,"stv_port":27016,"stv_name":"Uncletopia | São Paulo | 2 | Community | STV","players":[{"user_id":6,"name":"StrayCat","steam_id":76561198930106997,"connected_time":258000000000,"state":"active","ping":63}]},{"server_id":7,"name":"Uncletopia | Seattle | 1 | All Maps","name_short":"sea-1","host":"sea-1.us.uncletopia.com","port":27015,"enabled":true,"region":"us-west","cc":"us","latitude":47.608013,"longitude":-122.33517,"reserved":0,"last_update":"0001-01-01T00:00:00Z","name_a2s":"Uncletopia | Seattle | 1 | All Maps","protocol":17,"map":"pl_upward","folder":"tf","game":"Team Fortress","app_id":440,"player_count":23,"max_players":24,"Bots":0,"server_type":"Dedicated","server_os":"Linux","password":true,"vac":true,"version":"7961495","steam_id":85568392924469997,"keywords":["nocrits","nodmgspread","payload","uncletopia"],"game_id":440,"stv_port":27016,"stv_name":"Uncletopia | Seattle | 1 | All Maps | STV","players":[{"user_id":238,"name":"MxProf","steam_id":76561198044519572,"connected_time":3599000000000,"state":"active","ping":57},{"user_id":259,"name":"Retroliar","steam_id":76561199004899484,"connected_time":639000000000,"state":"active","ping":65},{"user_id":264,"name":"shaquille oatmeal","steam_id":76561198149993837,"connected_time":599000000000,"state":"active","ping":44},{"user_id":267,"name":"mik-","steam_id":76561198380722433,"connected_time":369000000000,"state":"active","ping":76},{"user_id":262,"name":"2 Point Tom","steam_id":76561198087617008,"connected_time":616000000000,"state":"active","ping":50},{"user_id":265,"name":"Grasshopper506","steam_id":76561198111633418,"connected_time":469000000000,"state":"active","ping":74},{"user_id":253,"name":"mega","steam_id":76561198089520959,"connected_time":1162000000000,"state":"active","ping":96},{"user_id":256,"name":"COOL master_9","steam_id":76561198073041151,"connected_time":932000000000,"state":"active","ping":189},{"user_id":255,"name":"SeeNik","steam_id":76561198149499817,"connected_time":937000000000,"state":"active","ping":88},{"user_id":260,"name":"Level 3 hotdog enjoyer","steam_id":76561198870649125,"connected_time":628000000000,"state":"active","ping":80},{"user_id":261,"name":"FunnyGoomba","steam_id":76561198279865229,"connected_time":627000000000,"state":"active","ping":82},{"user_id":176,"name":"Synergy","steam_id":76561198098630198,"connected_time":9442000000000,"state":"active","ping":40},{"user_id":107,"name":"you just got dyked on","steam_id":76561198018977723,"connected_time":15799000000000,"state":"active","ping":48},{"user_id":250,"name":"Matches_                       ","steam_id":76561198048925904,"connected_time":2537000000000,"state":"active","ping":89},{"user_id":251,"name":"Shark Sandwich","steam_id":76561198025007938,"connected_time":2439000000000,"state":"active","ping":45},{"user_id":205,"name":"Daz","steam_id":76561198041431938,"connected_time":6835000000000,"state":"active","ping":53},{"user_id":233,"name":"Lili","steam_id":76561199488457138,"connected_time":4348000000000,"state":"active","ping":56},{"user_id":222,"name":"UserLeft","steam_id":76561197998297379,"connected_time":5232000000000,"state":"active","ping":68},{"user_id":257,"name":"Spicy Chicken","steam_id":76561198074209737,"connected_time":931000000000,"state":"active","ping":89},{"user_id":268,"name":"Bus!","steam_id":76561199082304859,"connected_time":355000000000,"state":"active","ping":49},{"user_id":244,"name":"Raccoon","steam_id":76561199189494190,"connected_time":3383000000000,"state":"active","ping":122},{"user_id":269,"name":"floppy muppet","steam_id":76561198003076261,"connected_time":332000000000,"state":"active","ping":144},{"user_id":252,"name":"Flying Beagle","steam_id":76561198041841128,"connected_time":2052000000000,"state":"active","ping":77}]},{"server_id":119,"name":"Uncletopia | Seattle | 2 | All Maps","name_short":"sea-2","host":"sea-1.us.uncletopia.com","port":27025,"enabled":true,"region":"us-west","cc":"us","latitude":47.608013,"longitude":-122.33517,"reserved":0,"last_update":"0001-01-01T00:00:00Z","name_a2s":"Uncletopia | Seattle | 2 | All Maps","protocol":17,"map":"koth_cascade","folder":"tf","game":"Team Fortress","app_id":440,"player_count":0,"max_players":24,"Bots":0,"server_type":"Dedicated","server_os":"Linux","password":true,"vac":true,"version":"7961495","steam_id":85568392924469998,"keywords":["cp","nocrits","nodmgspread","uncletopia"],"game_id":440,"stv_port":27026,"stv_name":"Uncletopia | Seattle | 2 | All Maps | STV","players":null},{"server_id":406,"name":"Uncletopia | Seattle | 3 | Stopwatch","name_short":"sea-3","host":"sea-1.us.uncletopia.com","port":27035,"enabled":true,"region":"us-west","cc":"us","latitude":47.608013,"longitude":-122.33517,"reserved":0,"last_update":"0001-01-01T00:00:00Z","name_a2s":"Uncletopia | Seattle | 3 | Stopwatch","protocol":17,"map":"workshop/koth_product_final.ugc454272353","folder":"tf","game":"Team Fortress","app_id":440,"player_count":0,"max_players":24,"Bots":0,"server_type":"Dedicated","server_os":"Linux","password":true,"vac":true,"version":"7961495","steam_id":85568392924515217,"keywords":["cp","nocrits","nodmgspread","uncletopia"],"game_id":440,"stv_port":27036,"stv_name":"Uncletopia | Seattle | 3 | Stopwatch | STV","players":null},{"server_id":17,"name":"Uncletopia | San Francisco | 1 | All Maps","name_short":"sfo-1","host":"sfo-1.us.uncletopia.com","port":27015,"enabled":true,"region":"us-west","cc":"us","latitude":37.77397,"longitude":-122.4313,"reserved":0,"last_update":"0001-01-01T00:00:00Z","name_a2s":"Uncletopia | San Francisco | 1 | All Maps","protocol":17,"map":"koth_highpass","folder":"tf","game":"Team Fortress","app_id":440,"player_count":1,"max_players":24,"Bots":0,"server_type":"Dedicated","server_os":"Linux","password":true,"vac":true,"version":"7961495","steam_id":85568392924469999,"keywords":["cp","nocrits","nodmgspread","uncletopia"],"game_id":440,"stv_port":27016,"stv_name":"Uncletopia | San Francisco | 1 | All Maps | STV","players":[{"user_id":13,"name":"spiderland","steam_id":76561198335992132,"connected_time":650000000000,"state":"spawning","ping":60}]},{"server_id":18,"name":"Uncletopia | San Francisco | 2 | All Maps","name_short":"sfo-2","host":"sfo-1.us.uncletopia.com","port":27025,"enabled":true,"region":"us-west","cc":"us","latitude":37.77397,"longitude":-122.4313,"reserved":0,"last_update":"0001-01-01T00:00:00Z","name_a2s":"Uncletopia | San Francisco | 2 | All Maps","protocol":17,"map":"pl_frontier_final","folder":"tf","game":"Team Fortress","app_id":440,"player_count":0,"max_players":24,"Bots":0,"server_type":"Dedicated","server_os":"Linux","password":true,"vac":true,"version":"7961495","steam_id":85568392924470000,"keywords":["nocrits","nodmgspread","payload","uncletopia"],"game_id":440,"stv_port":27026,"stv_name":"Uncletopia | San Francisco | 2 | All Maps | STV","players":null},{"server_id":19,"name":"Uncletopia | San Francisco | 3 | Stopwatch","name_short":"sfo-3","host":"sfo-1.us.uncletopia.com","port":27035,"enabled":true,"region":"us-west","cc":"us","latitude":37.77397,"longitude":-122.4313,"reserved":0,"last_update":"0001-01-01T00:00:00Z","name_a2s":"Uncletopia | San Francisco | 3 | Stopwatch","protocol":17,"map":"workshop/pl_vigil_rc10.ugc1266210012","folder":"tf","game":"Team Fortress","app_id":440,"player_count":0,"max_players":24,"Bots":0,"server_type":"Dedicated","server_os":"Linux","password":true,"vac":true,"version":"7961495","steam_id":85568392924742824,"keywords":["nocrits","nodmgspread","payload","uncletopia"],"game_id":440,"stv_port":27036,"stv_name":"Uncletopia | San Francisco | 3 | Stopwatch | STV","players":null},{"server_id":20,"name":"Uncletopia | San Francisco | 4 | Community","name_short":"sfo-4","host":"sfo-1.us.uncletopia.com","port":27045,"enabled":true,"region":"us-west","cc":"us","latitude":37.77397,"longitude":-122.4313,"reserved":0,"last_update":"0001-01-01T00:00:00Z","name_a2s":"Uncletopia | San Francisco | 4 | Community","protocol":17,"map":"pl_pier","folder":"tf","game":"Team Fortress","app_id":440,"player_count":0,"max_players":24,"Bots":0,"server_type":"Dedicated","server_os":"Linux","password":true,"vac":true,"version":"7961495","steam_id":85568392924742826,"keywords":["nocrits","nodmgspread","payload","uncletopia"],"game_id":440,"stv_port":27046,"stv_name":"Uncletopia | San Francisco | 4 | Community | STV","players":null},{"server_id":141,"name":"Uncletopia | Sydney | 1 | All Maps","name_short":"syd-1","host":"syd-1.au.uncletopia.com","port":27015,"enabled":true,"region":"au","cc":"au","latitude":-33.865143,"longitude":151.2099,"reserved":0,"last_update":"0001-01-01T00:00:00Z","name_a2s":"Uncletopia | Sydney | 1 | All Maps","protocol":17,"map":"koth_viaduct","folder":"tf","game":"Team Fortress","app_id":440,"player_count":0,"max_players":24,"Bots":0,"server_type":"Dedicated","server_os":"Linux","password":true,"vac":true,"version":"7961495","steam_id":85568392924470001,"keywords":["cp","nocrits","nodmgspread","uncletopia"],"game_id":440,"stv_port":27016,"stv_name":"Uncletopia | Sydney | 1 | All Maps | STV","players":null},{"server_id":123,"name":"Uncletopia | Sydney | 2 | All Maps","name_short":"syd-2","host":"syd-1.au.uncletopia.com","port":27025,"enabled":true,"region":"au","cc":"au","latitude":-33.865143,"longitude":151.2099,"reserved":0,"last_update":"0001-01-01T00:00:00Z","name_a2s":"Uncletopia | Sydney | 2 | All Maps","protocol":17,"map":"koth_lakeside_final","folder":"tf","game":"Team Fortress","app_id":440,"player_count":0,"max_players":24,"Bots":0,"server_type":"Dedicated","server_os":"Linux","password":true,"vac":true,"version":"7961495","steam_id":85568392924470002,"keywords":["cp","nocrits","nodmgspread","uncletopia"],"game_id":440,"stv_port":27026,"stv_name":"Uncletopia | Sydney | 2 | All Maps | STV","players":null},{"server_id":395,"name":"Uncletopia | Sydney | 3 | All Maps","name_short":"syd-3","host":"syd-1.au.uncletopia.com","port":27035,"enabled":true,"region":"au","cc":"au","latitude":-33.865143,"longitude":151.2099,"reserved":0,"last_update":"0001-01-01T00:00:00Z","name_a2s":"Uncletopia | Sydney | 3 | All Maps","protocol":17,"map":"pl_frontier_final","folder":"tf","game":"Team Fortress","app_id":440,"player_count":0,"max_players":24,"Bots":0,"server_type":"Dedicated","server_os":"Linux","password":true,"vac":true,"version":"7961495","steam_id":85568392925194467,"keywords":["nocrits","nodmgspread","payload","uncletopia"],"game_id":440,"stv_port":27036,"stv_name":"Uncletopia | Sydney | 3 | All Maps | STV","players":null},{"server_id":396,"name":"Uncletopia | Sydney | 4 | All Maps","name_short":"syd-4","host":"syd-1.au.uncletopia.com","port":27045,"enabled":true,"region":"au","cc":"au","latitude":-33.865143,"longitude":151.2099,"reserved":0,"last_update":"0001-01-01T00:00:00Z","name_a2s":"Uncletopia | Sydney | 4 | All Maps","protocol":17,"map":"cp_process_final","folder":"tf","game":"Team Fortress","app_id":440,"player_count":0,"max_players":24,"Bots":0,"server_type":"Dedicated","server_os":"Linux","password":true,"vac":true,"version":"7961495","steam_id":85568392925397958,"keywords":["cp","nocrits","nodmgspread","uncletopia"],"game_id":440,"stv_port":27046,"stv_name":"Uncletopia | Sydney | 4 | All Maps | STV","players":null},{"server_id":58,"name":"Uncletopia | Sydney | 5 | Stopwatch","name_short":"syd-5","host":"syd-1.au.uncletopia.com","port":27055,"enabled":true,"region":"au","cc":"au","latitude":-33.865143,"longitude":151.2099,"reserved":0,"last_update":"0001-01-01T00:00:00Z","name_a2s":"Uncletopia | Sydney | 5 | Stopwatch","protocol":17,"map":"pl_frontier_final","folder":"tf","game":"Team Fortress","app_id":440,"player_count":0,"max_players":24,"Bots":0,"server_type":"Dedicated","server_os":"Linux","password":true,"vac":true,"version":"7961495","steam_id":85568392925397959,"keywords":["nocrits","nodmgspread","payload","uncletopia"],"game_id":440,"stv_port":27056,"stv_name":"Uncletopia | Sydney | 5 | Stopwatch | STV","players":null},{"server_id":59,"name":"Uncletopia | Sydney | 6 | Community","name_short":"syd-6","host":"syd-1.au.uncletopia.com","port":27065,"enabled":true,"region":"au","cc":"au","latitude":-33.865143,"longitude":151.2099,"reserved":0,"last_update":"0001-01-01T00:00:00Z","name_a2s":"Uncletopia | Sydney | 6 | Community","protocol":17,"map":"cp_sunshine","folder":"tf","game":"Team Fortress","app_id":440,"player_count":0,"max_players":24,"Bots":0,"server_type":"Dedicated","server_os":"Linux","password":true,"vac":true,"version":"7961495","steam_id":85568392925397960,"keywords":["cp","nocrits","nodmgspread","uncletopia"],"game_id":440,"stv_port":27066,"stv_name":"Uncletopia | Sydney | 6 | Community | STV","players":null},{"server_id":49,"name":"Uncletopia | Warsaw | 1 | One Thousand Uncles","name_short":"waw-1","host":"waw-1.pl.uncletopia.com","port":27015,"enabled":true,"region":"eu","cc":"pl","latitude":52.2297,"longitude":21.017532,"reserved":0,"last_update":"0001-01-01T00:00:00Z","name_a2s":"Uncletopia | Warsaw | 1 | One Thousand Uncles","protocol":17,"map":"pl_goldrush","folder":"tf","game":"Team Fortress","app_id":440,"player_count":27,"max_players":32,"Bots":16,"server_type":"Dedicated","server_os":"Linux","password":true,"vac":true,"version":"7961495","steam_id":85568392925397850,"keywords":["alltalk","bots","danepve","increased_maxplayers","nocrits","norespawntime","payload","uncletopia"],"game_id":440,"stv_port":0,"stv_name":"","players":[{"user_id":243,"name":"realguy","steam_id":76561198821743257,"connected_time":5458000000000,"state":"active","ping":99},{"user_id":274,"name":"Kewlan","steam_id":76561198042775020,"connected_time":909000000000,"state":"active","ping":90},{"user_id":271,"name":"Dj_Bear","steam_id":76561198149865187,"connected_time":2451000000000,"state":"active","ping":45},{"user_id":264,"name":"Rez","steam_id":76561198410598772,"connected_time":4662000000000,"state":"active","ping":59},{"user_id":265,"name":"paguro","steam_id":76561198119560871,"connected_time":4200000000000,"state":"active","ping":89},{"user_id":266,"name":"xdj88","steam_id":76561198255407531,"connected_time":4194000000000,"state":"active","ping":57},{"user_id":270,"name":"Enter69","steam_id":76561199049440719,"connected_time":3073000000000,"state":"active","ping":98},{"user_id":275,"name":"Eujekas","steam_id":76561198010527145,"connected_time":818000000000,"state":"active","ping":110},{"user_id":276,"name":"Talent","steam_id":76561198153880354,"connected_time":757000000000,"state":"active","ping":90},{"user_id":278,"name":"al.koll1212","steam_id":76561198410670217,"connected_time":543000000000,"state":"active","ping":65},{"user_id":280,"name":"Rusian Exekutor 3000","steam_id":76561198323538078,"connected_time":257000000000,"state":"active","ping":45}]},{"server_id":50,"name":"Uncletopia | Warsaw | 2 | One Thousand Uncles","name_short":"waw-2","host":"waw-1.pl.uncletopia.com","port":27025,"enabled":true,"region":"eu","cc":"pl","latitude":52.2297,"longitude":21.017532,"reserved":0,"last_update":"0001-01-01T00:00:00Z","name_a2s":"Uncletopia | Warsaw | 2 | One Thousand Uncles","protocol":17,"map":"cp_dustbowl","folder":"tf","game":"Team Fortress","app_id":440,"player_count":0,"max_players":32,"Bots":0,"server_type":"Dedicated","server_os":"Linux","password":true,"vac":true,"version":"7961495","steam_id":85568392925397851,"keywords":["alltalk","cp","danepve","increased_maxplayers","nocrits","norespawntime","uncletopia"],"game_id":440,"stv_port":0,"stv_name":"","players":null},{"server_id":51,"name":"Uncletopia | Warsaw | 3 | All Maps","name_short":"waw-3","host":"waw-1.pl.uncletopia.com","port":27035,"enabled":true,"region":"eu","cc":"pl","latitude":52.2297,"longitude":21.017532,"reserved":0,"last_update":"0001-01-01T00:00:00Z","name_a2s":"Uncletopia | Warsaw | 3 | All Maps","protocol":17,"map":"pl_upward","folder":"tf","game":"Team Fortress","app_id":440,"player_count":9,"max_players":24,"Bots":0,"server_type":"Dedicated","server_os":"Linux","password":true,"vac":true,"version":"7961495","steam_id":85568392925397852,"keywords":["nocrits","nodmgspread","payload","uncletopia"],"game_id":440,"stv_port":27036,"stv_name":"Uncletopia | Warsaw | 3 | All Maps | STV","players":[{"user_id":112,"name":"noot","steam_id":76561198148074472,"connected_time":946000000000,"state":"active","ping":46},{"user_id":113,"name":"xx_evil spy_xx","steam_id":76561198258504847,"connected_time":605000000000,"state":"active","ping":98},{"user_id":114,"name":"snail","steam_id":76561198147277460,"connected_time":552000000000,"state":"active","ping":75},{"user_id":115,"name":"Maddox","steam_id":76561198026419869,"connected_time":541000000000,"state":"active","ping":90},{"user_id":28,"name":"Hrabia","steam_id":76561198164608139,"connected_time":9155000000000,"state":"active","ping":44},{"user_id":118,"name":"LFTBerner415TTV","steam_id":76561198082334363,"connected_time":378000000000,"state":"active","ping":220},{"user_id":105,"name":"The Dutiful Dasein","steam_id":76561198003269215,"connected_time":1379000000000,"state":"active","ping":50},{"user_id":91,"name":"Laryssa","steam_id":76561198271084076,"connected_time":3378000000000,"state":"active","ping":45},{"user_id":75,"name":"CrashyPlay","steam_id":76561198106125298,"connected_time":4883000000000,"state":"active","ping":59}]},{"server_id":52,"name":"Uncletopia | Warsaw | 4 | All Maps","name_short":"waw-4","host":"waw-1.pl.uncletopia.com","port":27045,"enabled":true,"region":"eu","cc":"pl","latitude":52.2297,"longitude":21.017532,"reserved":0,"last_update":"0001-01-01T00:00:00Z","name_a2s":"Uncletopia | Warsaw | 4 | All Maps","protocol":17,"map":"cp_dustbowl","folder":"tf","game":"Team Fortress","app_id":440,"player_count":0,"max_players":24,"Bots":0,"server_type":"Dedicated","server_os":"Linux","password":true,"vac":true,"version":"7961495","steam_id":85568392925397853,"keywords":["cp","nocrits","nodmgspread","uncletopia"],"game_id":440,"stv_port":27046,"stv_name":"Uncletopia | Warsaw | 4 | All Maps | STV","players":null},{"server_id":53,"name":"Uncletopia | Warsaw | 5 | Stopwatch","name_short":"waw-5","host":"waw-1.pl.uncletopia.com","port":27055,"enabled":true,"region":"eu","cc":"pl","latitude":52.2297,"longitude":21.017532,"reserved":0,"last_update":"0001-01-01T00:00:00Z","name_a2s":"Uncletopia | Warsaw | 5 | Stopwatch","protocol":17,"map":"workshop/koth_product_final.ugc454272353","folder":"tf","game":"Team Fortress","app_id":440,"player_count":0,"max_players":24,"Bots":0,"server_type":"Dedicated","server_os":"Linux","password":true,"vac":true,"version":"7961495","steam_id":85568392925397854,"keywords":["cp","nocrits","nodmgspread","uncletopia"],"game_id":440,"stv_port":27056,"stv_name":"Uncletopia | Warsaw | 5 | Stopwatch | STV","players":null},{"server_id":54,"name":"Uncletopia | Warsaw | 6 | Community","name_short":"waw-6","host":"waw-1.pl.uncletopia.com","port":27065,"enabled":true,"region":"eu","cc":"pl","latitude":52.2297,"longitude":21.017532,"reserved":0,"last_update":"0001-01-01T00:00:00Z","name_a2s":"Uncletopia | Warsaw | 6 | Community","protocol":17,"map":"workshop/koth_ramjam_rc1.ugc459778887","folder":"tf","game":"Team Fortress","app_id":440,"player_count":0,"max_players":24,"Bots":0,"server_type":"Dedicated","server_os":"Linux","password":true,"vac":true,"version":"7961495","steam_id":85568392925397856,"keywords":["cp","nocrits","nodmgspread","uncletopia"],"game_id":440,"stv_port":27066,"stv_name":"Uncletopia | Warsaw | 6 | Community | STV","players":null}]}