{"status":true,"message":"","result":[{"server_id":9,"name":"Uncletopia | Atlanta | 1 | All Maps","name_short":"atl-1","host":"atl-1.us.uncletopia.com","port":27015,"enabled":true,"region":"us-east","cc":"us","latitude":33.753746,"longitude":-84.38633,"reserved":0,"last_update":"0001-01-01T00:00:00Z","name_a2s":"Uncletopia | Atlanta | 1 | All Maps","protocol":17,"map":"pl_borneo","folder":"tf","game":"Team Fortress","app_id":440,"player_count":24,"max_players":24,"Bots":0,"server_type":"Dedicated","server_os":"Linux","password":true,"vac":true,"version":"7757534","steam_id":85568392924469982,"keywords":["nocrits","nodmgspread","payload","uncletopia"],"game_id":440,"stv_port":27016,"stv_name":"Uncletopia | Atlanta | 1 | All Maps | STV","players":[{"user_id":262,"name":"Karma","steam_id":76561198030565234,"connected_time":722000000000,"state":"active","ping":77},{"user_id":213,"name":"Scorch","steam_id":76561198167024005,"connected_time":5945000000000,"state":"active","ping":60},{"user_id":256,"name":"Bottom Trans Cowgirl","steam_id":76561198304239680,"connected_time":1344000000000,"state":"active","ping":73},{"user_id":254,"name":"Squanchy","steam_id":76561198036319676,"connected_time":1579000000000,"state":"active","ping":43},{"user_id":258,"name":"coolguy782","steam_id":76561198165212575,"connected_time":978000000000,"state":"active","ping":81},{"user_id":255,"name":"Wingm4n","steam_id":76561198064127012,"connected_time":1521000000000,"state":"active","ping":47},{"user_id":185,"name":"Thotimus Begonimus","steam_id":76561197970275938,"connected_time":10393000000000,"state":"active","ping":43},{"user_id":260,"name":"Jared In Target","steam_id":76561198372449718,"connected_time":785000000000,"state":"active","ping":77},{"user_id":253,"name":"Towns","steam_id":76561198984662863,"connected_time":1681000000000,"state":"active","ping":61},{"user_id":266,"name":"PorkChopGirl","steam_id":76561198114810903,"connected_time":224000000000,"state":"active","ping":96},{"user_id":261,"name":"Bird","steam_id":76561198247484514,"connected_time":756000000000,"state":"active","ping":63},{"user_id":247,"name":"HarryjusttHarry","steam_id":76561198982810452,"connected_time":2313000000000,"state":"active","ping":79},{"user_id":225,"name":"Just PYE","steam_id":76561199439622967,"connected_time":4483000000000,"state":"active","ping":75},{"user_id":267,"name":"your local forecast","steam_id":76561198042243083,"connected_time":28000000000,"state":"active","ping":46},{"user_id":239,"name":"Raptorria","steam_id":76561198105613110,"connected_time":3131000000000,"state":"active","ping":71},{"user_id":232,"name":"quinn","steam_id":76561199187747394,"connected_time":3620000000000,"state":"active","ping":69},{"user_id":233,"name":"MyamE","steam_id":76561198133278462,"connected_time":3620000000000,"state":"active","ping":78},{"user_id":263,"name":"Pascal","steam_id":76561198902657591,"connected_time":566000000000,"state":"active","ping":48},{"user_id":208,"name":"ATL1 | on my hunting trip","steam_id":76561198315341646,"connected_time":7228000000000,"state":"active","ping":72},{"user_id":231,"name":"Accidental Fall","steam_id":76561198840019488,"connected_time":4013000000000,"state":"active","ping":90},{"user_id":245,"name":"ATL1 | Pango","steam_id":76561198069811545,"connected_time":2700000000000,"state":"active","ping":45},{"user_id":227,"name":"LuckyZero-_-","steam_id":76561198139891051,"connected_time":4438000000000,"state":"active","ping":71},{"user_id":229,"name":"butterbutt!","steam_id":76561198038160740,"connected_time":4424000000000,"state":"active","ping":50},{"user_id":264,"name":"ATL1 | Bandi","steam_id":76561198432036026,"connected_time":497000000000,"state":"active","ping":51}]},{"server_id":400,"name":"Uncletopia | Atlanta | 3 | Community","name_short":"atl-3","host":"atl-1.us.uncletopia.com","port":27035,"enabled":true,"region":"us-east","cc":"us","latitude":33.753746,"longitude":-84.38633,"reserved":0,"last_update":"0001-01-01T00:00:00Z","name_a2s":"Uncletopia | Atlanta | 3 | Community","protocol":17,"map":"workshop/cp_caldera_rc2.ugc2834196889","folder":"tf","game":"Team Fortress","app_id":440,"player_count":0,"max_players":24,"Bots":0,"server_type":"Dedicated","server_os":"Linux","password":true,"vac":true,"version":"7757534","steam_id":85568392924515187,"keywords":["cp","nocrits","nodmgspread","uncletopia"],"game_id":440,"stv_port":27036,"stv_name":"Uncletopia | Atlanta | 3 | Community | STV","players":null},{"server_id":401,"name":"Uncletopia | Atlanta | 4 | No Payload","name_short":"atl-4","host":"atl-1.us.uncletopia.com","port":27045,"enabled":true,"region":"us-east","cc":"us","latitude":33.753746,"longitude":-84.38633,"reserved":0,"last_update":"0001-01-01T00:00:00Z","name_a2s":"","protocol":0,"map":"","folder":"","game":"","app_id":0,"player_count":0,"max_players":0,"Bots":0,"server_type":"","server_os":"","password":false,"vac":false,"version":"","steam_id":0,"keywords":null,"game_id":0,"stv_port":0,"stv_name":"","players":null},{"server_id":2,"name":"Uncletopia | Chicago | 1 | All Maps","name_short":"chi-1","host":"chi-1.us.uncletopia.com","port":27015,"enabled":true,"region":"us-central","cc":"us","latitude":41.881832,"longitude":-87.62318,"reserved":0,"last_update":"0001-01-01T00:00:00Z","name_a2s":"Uncletopia | Chicago | 1 | All Maps","protocol":17,"map":"cp_snakewater_final1","folder":"tf","game":"Team Fortress","app_id":440,"player_count":24,"max_players":24,"Bots":0,"server_type":"Dedicated","server_os":"Linux","password":true,"vac":true,"version":"7757534","steam_id":85568392924469984,"keywords":["cp","nocrits","nodmgspread","uncletopia"],"game_id":440,"stv_port":27016,"stv_name":"Uncletopia | Chicago | 1 | All Maps | STV","players":[{"user_id":396,"name":"ZeFizzyPop™","steam_id":76561198258104981,"connected_time":3672000000000,"state":"active","ping":56},{"user_id":440,"name":"spooky kabuki","steam_id":76561198030361635,"connected_time":184000000000,"state":"active","ping":47},{"user_id":439,"name":"snail","steam_id":76561198312155722,"connected_time":199000000000,"state":"active","ping":163},{"user_id":445,"name":"Dumbass Gamer","steam_id":76561199067431485,"connected_time":20000000000,"state":"active","ping":70},{"user_id":444,"name":"Flaming O'Gaming","steam_id":76561198044185725,"connected_time":94000000000,"state":"active","ping":70},{"user_id":403,"name":"Roni1213","steam_id":76561198408533295,"connected_time":2714000000000,"state":"active","ping":66},{"user_id":418,"name":"DJ_Spaceman","steam_id":76561199086376979,"connected_time":1748000000000,"state":"active","ping":82},{"user_id":437,"name":"dangergirl99","steam_id":76561198121651564,"connected_time":362000000000,"state":"active","ping":56},{"user_id":417,"name":"48","steam_id":76561198156422760,"connected_time":1857000000000,"state":"active","ping":59},{"user_id":434,"name":"Fredrick","steam_id":76561197981419964,"connected_time":554000000000,"state":"active","ping":76},{"user_id":367,"name":"arachnakat","steam_id":76561198986095433,"connected_time":5996000000000,"state":"active","ping":85},{"user_id":441,"name":"Tax","steam_id":76561198335683534,"connected_time":163000000000,"state":"active","ping":60},{"user_id":408,"name":"veryscaryreaper","steam_id":76561198380018244,"connected_time":2624000000000,"state":"active","ping":73},{"user_id":424,"name":"Resh420","steam_id":76561198066619792,"connected_time":1207000000000,"state":"active","ping":68},{"user_id":341,"name":"object permanence","steam_id":76561198050393061,"connected_time":7757000000000,"state":"active","ping":75},{"user_id":429,"name":"johnathan","steam_id":76561198866363114,"connected_time":749000000000,"state":"active","ping":45},{"user_id":380,"name":"saltysagan","steam_id":76561197981854067,"connected_time":4893000000000,"state":"active","ping":71},{"user_id":422,"name":"Onymy.","steam_id":76561198171048015,"connected_time":1293000000000,"state":"active","ping":66},{"user_id":420,"name":"Trogdor","steam_id":76561198121353181,"connected_time":1719000000000,"state":"active","ping":86},{"user_id":343,"name":"BudTuggly","steam_id":76561198026873580,"connected_time":7692000000000,"state":"active","ping":53},{"user_id":442,"name":"Minorgroove","steam_id":76561198055086454,"connected_time":155000000000,"state":"active","ping":96},{"user_id":426,"name":"barbara","steam_id":76561198072417792,"connected_time":1039000000000,"state":"active","ping":120},{"user_id":443,"name":"tim-","steam_id":76561199119101315,"connected_time":140000000000,"state":"active","ping":87},{"user_id":427,"name":"kaleb","steam_id":76561198997126286,"connected_time":855000000000,"state":"active","ping":81}]},{"server_id":106,"name":"Uncletopia | Chicago | 2 | All Maps","name_short":"chi-2","host":"chi-1.us.uncletopia.com","port":27025,"enabled":true,"region":"us-central","cc":"us","latitude":41.881832,"longitude":-87.62318,"reserved":0,"last_update":"0001-01-01T00:00:00Z","name_a2s":"Uncletopia | Chicago | 2 | All Maps","protocol":17,"map":"koth_nucleus","folder":"tf","game":"Team Fortress","app_id":440,"player_count":24,"max_players":24,"Bots":0,"server_type":"Dedicated","server_os":"Linux","password":true,"vac":true,"version":"7757534","steam_id":85568392924469985,"keywords":["cp","nocrits","nodmgspread","uncletopia"],"game_id":440,"stv_port":27026,"stv_name":"Uncletopia | Chicago | 2 | All Maps | STV","players":[{"user_id":372,"name":"023e20902o0239ee02390o239e","steam_id":76561198175741741,"connected_time":1532000000000,"state":"active","ping":74},{"user_id":348,"name":"Funny Skeleton Man","steam_id":76561198264262564,"connected_time":2348000000000,"state":"active","ping":71},{"user_id":344,"name":"WaylonPK","steam_id":76561198094429949,"connected_time":3263000000000,"state":"active","ping":103},{"user_id":391,"name":"Mattron1","steam_id":76561198012270524,"connected_time":519000000000,"state":"active","ping":85},{"user_id":380,"name":"Bradz","steam_id":76561198175090085,"connected_time":968000000000,"state":"active","ping":99},{"user_id":396,"name":"a_person_159","steam_id":76561199024416326,"connected_time":224000000000,"state":"active","ping":67},{"user_id":397,"name":"saturn","steam_id":76561197962607364,"connected_time":211000000000,"state":"active","ping":74},{"user_id":389,"name":"Lots0","steam_id":76561198043143145,"connected_time":689000000000,"state":"active","ping":95},{"user_id":353,"name":"Pepsiman","steam_id":76561198436946165,"connected_time":2164000000000,"state":"active","ping":58},{"user_id":355,"name":"NUt","steam_id":76561198031007966,"connected_time":2131000000000,"state":"active","ping":65},{"user_id":384,"name":"Whys there a level 3 there?","steam_id":76561198309696109,"connected_time":802000000000,"state":"active","ping":75},{"user_id":374,"name":"BasicPeaches","steam_id":76561198190890150,"connected_time":1519000000000,"state":"active","ping":76},{"user_id":392,"name":"choopo","steam_id":76561199202466365,"connected_time":355000000000,"state":"active","ping":56},{"user_id":371,"name":"carrotcake","steam_id":76561198030997761,"connected_time":1552000000000,"state":"active","ping":60},{"user_id":376,"name":"hollup...Let him cook","steam_id":76561198202566312,"connected_time":1403000000000,"state":"active","ping":89},{"user_id":395,"name":"WellThatCase","steam_id":76561198930966223,"connected_time":258000000000,"state":"active","ping":73},{"user_id":321,"name":"Jeffy Epstein","steam_id":76561198053832401,"connected_time":4624000000000,"state":"active","ping":133},{"user_id":365,"name":"ｓ","steam_id":76561198153137314,"connected_time":1969000000000,"state":"active","ping":56},{"user_id":272,"name":"Fresh0c0","steam_id":76561198271933283,"connected_time":7964000000000,"state":"active","ping":60},{"user_id":386,"name":"WaterWorks","steam_id":76561198801899310,"connected_time":780000000000,"state":"active","ping":87},{"user_id":398,"name":"Person","steam_id":76561198073885832,"connected_time":153000000000,"state":"active","ping":129},{"user_id":360,"name":"PeachFlavoredBleach","steam_id":76561198116226449,"connected_time":2089000000000,"state":"active","ping":61},{"user_id":362,"name":"uhooter","steam_id":76561198007829078,"connected_time":2037000000000,"state":"active","ping":45},{"user_id":390,"name":"Honored","steam_id":76561198451168478,"connected_time":660000000000,"state":"active","ping":94}]},{"server_id":402,"name":"Uncletopia | Chicago | 3 | All Maps","name_short":"chi-3","host":"chi-1.us.uncletopia.com","port":27035,"enabled":true,"region":"us-central","cc":"us","latitude":41.881832,"longitude":-87.62318,"reserved":0,"last_update":"0001-01-01T00:00:00Z","name_a2s":"Uncletopia | Chicago | 3 | All Maps","protocol":17,"map":"pl_badwater","folder":"tf","game":"Team Fortress","app_id":440,"player_count":24,"max_players":24,"Bots":0,"server_type":"Dedicated","server_os":"Linux","password":true,"vac":true,"version":"7757534","steam_id":85568392924515191,"keywords":["nocrits","nodmgspread","payload","uncletopia"],"game_id":440,"stv_port":27036,"stv_name":"Uncletopia | Chicago | 3 | All Maps | STV","players":[{"user_id":300,"name":"coaster14","steam_id":76561198043862237,"connected_time":1181000000000,"state":"active","ping":60},{"user_id":289,"name":"Wahooka","steam_id":76561197962240925,"connected_time":2230000000000,"state":"active","ping":58},{"user_id":211,"name":"Dot.","steam_id":76561198149463984,"connected_time":7284000000000,"state":"active","ping":39},{"user_id":184,"name":"Bird watcher #savetf2","steam_id":76561199201098634,"connected_time":9985000000000,"state":"active","ping":57},{"user_id":311,"name":"游戏通用方案","steam_id":76561198273974075,"connected_time":647000000000,"state":"active","ping":79},{"user_id":312,"name":"Translucent","steam_id":76561199212057076,"connected_time":629000000000,"state":"active","ping":96},{"user_id":292,"name":"anonpain","steam_id":76561198081317092,"connected_time":1822000000000,"state":"active","ping":51},{"user_id":304,"name":"Snorty","steam_id":76561198114304454,"connected_time":1124000000000,"state":"active","ping":77},{"user_id":313,"name":"ARBITER","steam_id":76561198880749113,"connected_time":615000000000,"state":"active","ping":52},{"user_id":321,"name":"MinusSoup918","steam_id":76561198060902773,"connected_time":148000000000,"state":"active","ping":122},{"user_id":307,"name":"Earthyburt","steam_id":76561198274964268,"connected_time":909000000000,"state":"active","ping":70},{"user_id":314,"name":"Bok Bok","steam_id":76561199473296583,"connected_time":565000000000,"state":"active","ping":81},{"user_id":261,"name":"sax","steam_id":76561198094788852,"connected_time":4252000000000,"state":"active","ping":46},{"user_id":280,"name":"toho","steam_id":76561198117747254,"connected_time":2659000000000,"state":"active","ping":67},{"user_id":266,"name":"Actually retarded","steam_id":76561198276513608,"connected_time":4101000000000,"state":"active","ping":174},{"user_id":315,"name":"firetamer2","steam_id":76561198040886980,"connected_time":549000000000,"state":"active","ping":51},{"user_id":320,"name":"Decs","steam_id":76561198825197974,"connected_time":451000000000,"state":"active","ping":126},{"user_id":317,"name":"Lean(Mean)machine","steam_id":76561198087571586,"connected_time":531000000000,"state":"active","ping":51},{"user_id":309,"name":"brea?","steam_id":76561198025130409,"connected_time":789000000000,"state":"active","ping":73},{"user_id":284,"name":"diesel_carsuite","steam_id":76561198229903328,"connected_time":2390000000000,"state":"active","ping":78},{"user_id":318,"name":"Mini","steam_id":76561199416910731,"connected_time":528000000000,"state":"active","ping":59},{"user_id":319,"name":"TheFallenFox","steam_id":76561199074190919,"connected_time":513000000000,"state":"active","ping":140},{"user_id":306,"name":"Superman123389","steam_id":76561198267472539,"connected_time":929000000000,"state":"active","ping":95},{"user_id":290,"name":"dairy","steam_id":76561198117033273,"connected_time":2222000000000,"state":"active","ping":138}]},{"server_id":403,"name":"Uncletopia | Chicago | 4 | All Maps","name_short":"chi-4","host":"chi-1.us.uncletopia.com","port":27045,"enabled":true,"region":"us-central","cc":"us","latitude":41.881832,"longitude":-87.62318,"reserved":0,"last_update":"0001-01-01T00:00:00Z","name_a2s":"Uncletopia | Chicago | 4 | All Maps","protocol":17,"map":"cp_steel","folder":"tf","game":"Team Fortress","app_id":440,"player_count":12,"max_players":24,"Bots":0,"server_type":"Dedicated","server_os":"Linux","password":true,"vac":true,"version":"7757534","steam_id":85568392924515193,"keywords":["cp","nocrits","nodmgspread","uncletopia"],"game_id":440,"stv_port":27046,"stv_name":"Uncletopia | Chicago | 4 | All Maps | STV","players":[{"user_id":200,"name":"drdoofus123","steam_id":76561198016826181,"connected_time":254000000000,"state":"active","ping":74},{"user_id":141,"name":"A Rhino with Coronavirus","steam_id":76561197999451366,"connected_time":5559000000000,"state":"active","ping":78},{"user_id":182,"name":"streetward","steam_id":76561198150627999,"connected_time":2014000000000,"state":"active","ping":80},{"user_id":184,"name":"Carson","steam_id":76561198076771071,"connected_time":1953000000000,"state":"active","ping":42},{"user_id":201,"name":"Felipe Ramirez 2013","steam_id":76561198150497397,"connected_time":238000000000,"state":"active","ping":55},{"user_id":202,"name":"Shortys_N_Fortys","steam_id":76561199205773100,"connected_time":187000000000,"state":"active","ping":88},{"user_id":203,"name":"Potassium_","steam_id":76561199085021046,"connected_time":93000000000,"state":"active","ping":181},{"user_id":139,"name":"Mad Cow ※","steam_id":76561199470707812,"connected_time":5581000000000,"state":"active","ping":55},{"user_id":192,"name":"Babyface","steam_id":76561199240579044,"connected_time":1330000000000,"state":"active","ping":77},{"user_id":129,"name":"Architect","steam_id":76561198015242016,"connected_time":6345000000000,"state":"active","ping":40},{"user_id":193,"name":"laszlo","steam_id":76561198141198352,"connected_time":1250000000000,"state":"active","ping":45},{"user_id":187,"name":"girlboss","steam_id":76561197989019617,"connected_time":1864000000000,"state":"active","ping":45}]},{"server_id":36,"name":"Uncletopia | Chicago | 5 | All Maps","name_short":"chi-5","host":"chi-2.us.uncletopia.com","port":27015,"enabled":true,"region":"us-central","cc":"us","latitude":41.881832,"longitude":-87.62318,"reserved":0,"last_update":"0001-01-01T00:00:00Z","name_a2s":"Uncletopia | Chicago | 5 | All Maps","protocol":17,"map":"cp_gorge","folder":"tf","game":"Team Fortress","app_id":440,"player_count":15,"max_players":24,"Bots":0,"server_type":"Dedicated","server_os":"Linux","password":true,"vac":true,"version":"7757534","steam_id":85568392924866362,"keywords":["cp","nocrits","nodmgspread","uncletopia"],"game_id":440,"stv_port":27016,"stv_name":"Uncletopia | Chicago | 5 | All Maps | STV","players":[{"user_id":5,"name":"The World's Softest Sandwich","steam_id":76561198015577707,"connected_time":11747000000000,"state":"active","ping":74},{"user_id":164,"name":"'LaxAttack","steam_id":76561198044129346,"connected_time":348000000000,"state":"active","ping":70},{"user_id":165,"name":"Inevitable","steam_id":76561198210050169,"connected_time":326000000000,"state":"active","ping":61},{"user_id":166,"name":"\u003eSnail","steam_id":76561198346761794,"connected_time":314000000000,"state":"active","ping":60},{"user_id":167,"name":"Zububu","steam_id":76561198024293060,"connected_time":314000000000,"state":"active","ping":68},{"user_id":168,"name":"Fresh Lychee","steam_id":76561198045399559,"connected_time":312000000000,"state":"active","ping":58},{"user_id":169,"name":"Shame","steam_id":76561198100490994,"connected_time":69000000000,"state":"active","ping":70},{"user_id":17,"name":"Erious","steam_id":76561198431446386,"connected_time":10896000000000,"state":"active","ping":66},{"user_id":170,"name":"Jonesy The Turtle","steam_id":76561198170349947,"connected_time":26000000000,"state":"active","ping":61},{"user_id":171,"name":"fuouf","steam_id":76561198144812428,"connected_time":6000000000,"state":"spawning","ping":134},{"user_id":157,"name":"nickles","steam_id":76561199177498487,"connected_time":921000000000,"state":"active","ping":69},{"user_id":150,"name":"Jitters","steam_id":76561198078898336,"connected_time":1226000000000,"state":"active","ping":55},{"user_id":147,"name":"Ringo x Seiran","steam_id":76561198357437908,"connected_time":1367000000000,"state":"active","ping":59},{"user_id":154,"name":"Monkery Man","steam_id":76561199083374021,"connected_time":1111000000000,"state":"active","ping":64},{"user_id":156,"name":"Humble Leader","steam_id":76561198169966346,"connected_time":1081000000000,"state":"active","ping":88}]},{"server_id":37,"name":"Uncletopia | Chicago | 6 | All Maps","name_short":"chi-6","host":"chi-2.us.uncletopia.com","port":27025,"enabled":true,"region":"us-central","cc":"us","latitude":41.881832,"longitude":-87.62318,"reserved":0,"last_update":"0001-01-01T00:00:00Z","name_a2s":"Uncletopia | Chicago | 6 | All Maps","protocol":17,"map":"pl_snowycoast","folder":"tf","game":"Team Fortress","app_id":440,"player_count":24,"max_players":24,"Bots":0,"server_type":"Dedicated","server_os":"Linux","password":true,"vac":true,"version":"7757534","steam_id":85568392924866363,"keywords":["nocrits","nodmgspread","payload","uncletopia"],"game_id":440,"stv_port":27026,"stv_name":"Uncletopia | Chicago | 6 | All Maps | STV","players":[{"user_id":309,"name":"BUNGACOWA","steam_id":76561198979176018,"connected_time":1479000000000,"state":"active","ping":83},{"user_id":268,"name":"Weshmek","steam_id":76561198009950743,"connected_time":3233000000000,"state":"active","ping":59},{"user_id":308,"name":"calube","steam_id":76561198029350858,"connected_time":1578000000000,"state":"active","ping":89},{"user_id":168,"name":"Lv. 5 Grunt","steam_id":76561198800334545,"connected_time":9697000000000,"state":"active","ping":103},{"user_id":314,"name":"darkjustin54","steam_id":76561198060056280,"connected_time":790000000000,"state":"active","ping":57},{"user_id":275,"name":"MAXIMUM OVERDRIVE","steam_id":76561198113992547,"connected_time":3023000000000,"state":"active","ping":83},{"user_id":271,"name":"TheRatman","steam_id":76561197975916410,"connected_time":3106000000000,"state":"active","ping":80},{"user_id":272,"name":"Fishball_JZ","steam_id":76561198014238978,"connected_time":3100000000000,"state":"active","ping":87},{"user_id":304,"name":"A Shiny Meat Bicycle","steam_id":76561198358757709,"connected_time":2134000000000,"state":"active","ping":102},{"user_id":312,"name":"nhbiker","steam_id":76561198081277675,"connected_time":1026000000000,"state":"active","ping":57},{"user_id":297,"name":"shokolad","steam_id":76561198431770137,"connected_time":2345000000000,"state":"active","ping":61},{"user_id":315,"name":"Frodo T Baggins","steam_id":76561198048090297,"connected_time":750000000000,"state":"active","ping":55},{"user_id":299,"name":"qiulongtao","steam_id":76561198977558717,"connected_time":2325000000000,"state":"active","ping":73},{"user_id":300,"name":"Mycelion","steam_id":76561198024999530,"connected_time":2288000000000,"state":"active","ping":85},{"user_id":318,"name":"tf2 player genocide now","steam_id":76561198081220016,"connected_time":541000000000,"state":"active","ping":54},{"user_id":316,"name":"come here cupcake","steam_id":76561198877042360,"connected_time":721000000000,"state":"active","ping":108},{"user_id":307,"name":"ali oop","steam_id":76561198057516213,"connected_time":1806000000000,"state":"active","ping":81},{"user_id":294,"name":"TinySuperion","steam_id":76561198917460128,"connected_time":2724000000000,"state":"active","ping":71},{"user_id":322,"name":"Rick Assley","steam_id":76561198365019199,"connected_time":372000000000,"state":"active","ping":67},{"user_id":310,"name":"beE","steam_id":76561198122687173,"connected_time":1245000000000,"state":"active","ping":63},{"user_id":313,"name":"drippy man","steam_id":76561199074936388,"connected_time":868000000000,"state":"active","ping":79},{"user_id":320,"name":"The Sydney Sleeper Itself","steam_id":76561198180251763,"connected_time":479000000000,"state":"active","ping":65},{"user_id":295,"name":"Electro Penguin","steam_id":76561199050197562,"connected_time":2688000000000,"state":"active","ping":71},{"user_id":321,"name":"Xruffel :3 (gay)","steam_id":76561198067697879,"connected_time":461000000000,"state":"active","ping":63}]},{"server_id":38,"name":"Uncletopia | Chicago | 7 | Stopwatch Beta","name_short":"chi-7","host":"chi-2.us.uncletopia.com","port":27035,"enabled":true,"region":"us-central","cc":"us","latitude":41.881832,"longitude":-87.62318,"reserved":0,"last_update":"0001-01-01T00:00:00Z","name_a2s":"Uncletopia | Chicago | 7 | Stopwatch Beta","protocol":17,"map":"cp_snakewater_final1","folder":"tf","game":"Team Fortress","app_id":440,"player_count":0,"max_players":24,"Bots":0,"server_type":"Dedicated","server_os":"Linux","password":true,"vac":true,"version":"7757534","steam_id":85568392924866364,"keywords":["cp","nocrits","nodmgspread","uncletopia"],"game_id":440,"stv_port":27036,"stv_name":"Uncletopia | Chicago | 7 | Stopwatch Beta | STV","players":null},{"server_id":39,"name":"Uncletopia | Chicago | 8 | Community","name_short":"chi-8","host":"chi-2.us.uncletopia.com","port":27045,"enabled":true,"region":"us-central","cc":"us","latitude":41.881832,"longitude":-87.62318,"reserved":0,"last_update":"0001-01-01T00:00:00Z","name_a2s":"Uncletopia | Chicago | 8 | Community","protocol":17,"map":"koth_lakeside_final","folder":"tf","game":"Team Fortress","app_id":440,"player_count":0,"max_players":24,"Bots":0,"server_type":"Dedicated","server_os":"Linux","password":true,"vac":true,"version":"7757534","steam_id":85568392924866365,"keywords":["cp","nocrits","nodmgspread","uncletopia"],"game_id":440,"stv_port":27046,"stv_name":"Uncletopia | Chicago | 8 | Community | STV","players":null},{"server_id":8,"name":"Uncletopia | Dallas | 1 | All Maps","name_short":"dal-1","host":"dal-1.us.uncletopia.com","port":27015,"enabled":true,"region":"us-central","cc":"us","latitude":32.779167,"longitude":-96.80889,"reserved":0,"last_update":"0001-01-01T00:00:00Z","name_a2s":"Uncletopia | Dallas | 1 | All Maps","protocol":17,"map":"pl_pier","folder":"tf","game":"Team Fortress","app_id":440,"player_count":24,"max_players":24,"Bots":0,"server_type":"Dedicated","server_os":"Linux","password":true,"vac":true,"version":"7757534","steam_id":85568392924469986,"keywords":["nocrits","nodmgspread","payload","uncletopia"],"game_id":440,"stv_port":27016,"stv_name":"Uncletopia | Dallas | 1 | All Maps | STV","players":[{"user_id":258,"name":"MayKaye","steam_id":76561199016092265,"connected_time":276000000000,"state":"active","ping":77},{"user_id":259,"name":"Vegemate","steam_id":76561199088297770,"connected_time":271000000000,"state":"active","ping":53},{"user_id":236,"name":"gkdish","steam_id":76561198044006981,"connected_time":767000000000,"state":"active","ping":86},{"user_id":252,"name":"Remy the rat","steam_id":76561198080519558,"connected_time":396000000000,"state":"active","ping":57},{"user_id":234,"name":"Bigfoot ate my ass","steam_id":76561198071605190,"connected_time":1175000000000,"state":"active","ping":77},{"user_id":235,"name":"Megaxonic","steam_id":76561198996548641,"connected_time":832000000000,"state":"active","ping":44},{"user_id":261,"name":"Stapler","steam_id":76561198099295077,"connected_time":225000000000,"state":"active","ping":80},{"user_id":206,"name":"bolainassr0","steam_id":76561199079078845,"connected_time":3419000000000,"state":"active","ping":103},{"user_id":240,"name":"derdds","steam_id":76561198034339940,"connected_time":651000000000,"state":"active","ping":76},{"user_id":244,"name":"gardener","steam_id":76561198018449559,"connected_time":636000000000,"state":"active","ping":61},{"user_id":173,"name":"Cheeeeeeeen","steam_id":76561198986388085,"connected_time":6217000000000,"state":"active","ping":109},{"user_id":262,"name":"jaelyn","steam_id":76561199239926014,"connected_time":57000000000,"state":"active","ping":79},{"user_id":216,"name":"YoteDab McFapDab.jpg","steam_id":76561197984870380,"connected_time":2465000000000,"state":"active","ping":86},{"user_id":245,"name":"ApplesMate","steam_id":76561198832763278,"connected_time":634000000000,"state":"active","ping":68},{"user_id":253,"name":"Sheev Palpatine","steam_id":76561198252332430,"connected_time":377000000000,"state":"active","ping":99},{"user_id":251,"name":"kolesov.id","steam_id":76561198871074902,"connected_time":489000000000,"state":"active","ping":85},{"user_id":237,"name":"DiabetesMan","steam_id":76561198075668940,"connected_time":686000000000,"state":"active","ping":84},{"user_id":249,"name":"BigBubble42","steam_id":76561198136286123,"connected_time":561000000000,"state":"active","ping":41},{"user_id":226,"name":"Sniper Dungus (the real one)","steam_id":76561198049191027,"connected_time":2023000000000,"state":"active","ping":58},{"user_id":189,"name":"Zetta","steam_id":76561198045710113,"connected_time":4867000000000,"state":"active","ping":76},{"user_id":243,"name":"DoomoPelota","steam_id":76561198326462587,"connected_time":643000000000,"state":"active","ping":88},{"user_id":254,"name":"Arcadletus","steam_id":76561198976009938,"connected_time":364000000000,"state":"active","ping":54},{"user_id":255,"name":"w3bd3v","steam_id":76561198077982525,"connected_time":363000000000,"state":"active","ping":103},{"user_id":257,"name":"tijzen","steam_id":76561198403090633,"connected_time":360000000000,"state":"active","ping":162}]},{"server_id":108,"name":"Uncletopia | Dallas | 2 | All Maps","name_short":"dal-2","host":"dal-1.us.uncletopia.com","port":27025,"enabled":true,"region":"us-central","cc":"us","latitude":32.779167,"longitude":-96.80889,"reserved":0,"last_update":"0001-01-01T00:00:00Z","name_a2s":"Uncletopia | Dallas | 2 | All Maps","protocol":17,"map":"pl_swiftwater_final1","folder":"tf","game":"Team Fortress","app_id":440,"player_count":14,"max_players":24,"Bots":0,"server_type":"Dedicated","server_os":"Linux","password":true,"vac":true,"version":"7757534","steam_id":85568392924469988,"keywords":["nocrits","nodmgspread","payload","uncletopia"],"game_id":440,"stv_port":27026,"stv_name":"Uncletopia | Dallas | 2 | All Maps | STV","players":[{"user_id":18,"name":"Honda Element","steam_id":76561198086907573,"connected_time":1532000000000,"state":"active","ping":42},{"user_id":19,"name":"johnman gooberguy","steam_id":76561199014859764,"connected_time":1470000000000,"state":"active","ping":97},{"user_id":20,"name":"karbomb","steam_id":76561198120744480,"connected_time":1189000000000,"state":"active","ping":44},{"user_id":21,"name":"Sup m8","steam_id":76561198081659121,"connected_time":1161000000000,"state":"active","ping":33},{"user_id":22,"name":"scuttles","steam_id":76561199250039100,"connected_time":928000000000,"state":"active","ping":48},{"user_id":25,"name":"kirbo","steam_id":76561198057895955,"connected_time":695000000000,"state":"active","ping":79},{"user_id":26,"name":"Anthony","steam_id":76561199052890181,"connected_time":652000000000,"state":"active","ping":85},{"user_id":27,"name":"picheski","steam_id":76561199038492597,"connected_time":231000000000,"state":"active","ping":42},{"user_id":28,"name":"dicksnip","steam_id":76561198356515396,"connected_time":215000000000,"state":"active","ping":48},{"user_id":29,"name":"dad vibes","steam_id":76561197990714447,"connected_time":207000000000,"state":"active","ping":56},{"user_id":30,"name":"Trashgaming","steam_id":76561199184268442,"connected_time":118000000000,"state":"active","ping":102},{"user_id":31,"name":"Jester","steam_id":76561198153102922,"connected_time":109000000000,"state":"active","ping":39},{"user_id":32,"name":"Mini Sentry","steam_id":76561199309781798,"connected_time":53000000000,"state":"spawning","ping":651},{"user_id":33,"name":"radiohead enjoyer","steam_id":76561198397662124,"connected_time":38000000000,"state":"active","ping":67}]},{"server_id":5,"name":"Uncletopia | Frankfurt | 1 | All Maps","name_short":"frk-1","host":"frk-1.de.uncletopia.com","port":27015,"enabled":true,"region":"eu","cc":"de","latitude":50.110924,"longitude":8.682127,"reserved":0,"last_update":"0001-01-01T00:00:00Z","name_a2s":"Uncletopia | Frankfurt | 1 | All Maps","protocol":17,"map":"pl_borneo","folder":"tf","game":"Team Fortress","app_id":440,"player_count":23,"max_players":24,"Bots":0,"server_type":"Dedicated","server_os":"Linux","password":true,"vac":true,"version":"7757534","steam_id":85568392924469989,"keywords":["nocrits","nodmgspread","payload","uncletopia"],"game_id":440,"stv_port":27016,"stv_name":"Uncletopia | Frankfurt | 1 | All Maps | STV","players":[{"user_id":626,"name":"rodeokuchen","steam_id":76561198061435102,"connected_time":2387000000000,"state":"active","ping":53},{"user_id":686,"name":"r2d2.(/ˌɑːr.tuːˈdiːtuː/)","steam_id":76561198201235703,"connected_time":86000000000,"state":"active","ping":51},{"user_id":668,"name":"REN","steam_id":76561198000596385,"connected_time":830000000000,"state":"active","ping":65},{"user_id":680,"name":"Sodsboy","steam_id":76561198030482006,"connected_time":125000000000,"state":"active","ping":59},{"user_id":659,"name":"Piox","steam_id":76561198125689157,"connected_time":1349000000000,"state":"active","ping":78},{"user_id":670,"name":"kpn","steam_id":76561198063512694,"connected_time":740000000000,"state":"active","ping":62},{"user_id":671,"name":"Menty","steam_id":76561198036748212,"connected_time":728000000000,"state":"active","ping":45},{"user_id":632,"name":"I was good before.","steam_id":76561198187045217,"connected_time":2358000000000,"state":"active","ping":75},{"user_id":657,"name":"Kleiner Engel","steam_id":76561198009922500,"connected_time":1497000000000,"state":"active","ping":59},{"user_id":687,"name":"Rashid Besythe","steam_id":76561198081477129,"connected_time":50000000000,"state":"active","ping":65},{"user_id":683,"name":"Costarona","steam_id":76561197989455970,"connected_time":99000000000,"state":"active","ping":85},{"user_id":674,"name":"WaiGee","steam_id":76561198072293341,"connected_time":668000000000,"state":"active","ping":73},{"user_id":663,"name":"Miatthew","steam_id":76561198034102895,"connected_time":1055000000000,"state":"active","ping":59},{"user_id":679,"name":"souseiseki","steam_id":76561198037810091,"connected_time":215000000000,"state":"active","ping":97},{"user_id":618,"name":"moser23","steam_id":76561197960543171,"connected_time":3029000000000,"state":"active","ping":53},{"user_id":652,"name":"banyesz","steam_id":76561198152997658,"connected_time":1791000000000,"state":"active","ping":74},{"user_id":677,"name":"Micky","steam_id":76561198064200227,"connected_time":640000000000,"state":"active","ping":81},{"user_id":678,"name":"Candle","steam_id":76561198070896069,"connected_time":543000000000,"state":"active","ping":56},{"user_id":685,"name":"Bonuxer","steam_id":76561198093098132,"connected_time":96000000000,"state":"active","ping":78},{"user_id":627,"name":"citronous","steam_id":76561198093290934,"connected_time":2387000000000,"state":"active","ping":56},{"user_id":556,"name":"nedilya","steam_id":76561198039692077,"connected_time":7784000000000,"state":"active","ping":58},{"user_id":564,"name":"pepper","steam_id":76561198059782462,"connected_time":7386000000000,"state":"active","ping":54},{"user_id":667,"name":"Пажилой","steam_id":76561198420600577,"connected_time":955000000000,"state":"active","ping":87}]},{"server_id":110,"name":"Uncletopia | Frankfurt | 2 | All Maps","name_short":"frk-2","host":"frk-1.de.uncletopia.com","port":27025,"enabled":true,"region":"eu","cc":"de","latitude":50.110924,"longitude":8.682127,"reserved":0,"last_update":"0001-01-01T00:00:00Z","name_a2s":"Uncletopia | Frankfurt | 2 | All Maps","protocol":17,"map":"cp_dustbowl","folder":"tf","game":"Team Fortress","app_id":440,"player_count":24,"max_players":24,"Bots":0,"server_type":"Dedicated","server_os":"Linux","password":true,"vac":true,"version":"7757534","steam_id":85568392924469990,"keywords":["cp","nocrits","nodmgspread","uncletopia"],"game_id":440,"stv_port":27026,"stv_name":"Uncletopia | Frankfurt | 2 | All Maps | STV","players":[{"user_id":157,"name":"CumbustiblePunda","steam_id":76561197974274677,"connected_time":8181000000000,"state":"active","ping":50},{"user_id":264,"name":"Dimitri_612","steam_id":76561199223984137,"connected_time":724000000000,"state":"active","ping":55},{"user_id":267,"name":"leonardini.w","steam_id":76561199097963071,"connected_time":572000000000,"state":"active","ping":86},{"user_id":243,"name":"Sch","steam_id":76561198071341689,"connected_time":1777000000000,"state":"active","ping":57},{"user_id":252,"name":"Almond devourer","steam_id":76561198194866089,"connected_time":1232000000000,"state":"active","ping":83},{"user_id":278,"name":"good guy","steam_id":76561198816116281,"connected_time":145000000000,"state":"active","ping":37},{"user_id":238,"name":"PurpleFlux","steam_id":76561198123838445,"connected_time":2083000000000,"state":"active","ping":74},{"user_id":263,"name":"Lionball_3","steam_id":76561199084049796,"connected_time":741000000000,"state":"active","ping":73},{"user_id":235,"name":"tosti_tower","steam_id":76561198153445364,"connected_time":2268000000000,"state":"active","ping":58},{"user_id":241,"name":"jill valentine","steam_id":76561198075068529,"connected_time":1945000000000,"state":"active","ping":69},{"user_id":138,"name":"Egor Pomidor","steam_id":76561199175688390,"connected_time":9303000000000,"state":"active","ping":75},{"user_id":277,"name":"gagalak","steam_id":76561198089979108,"connected_time":204000000000,"state":"active","ping":90},{"user_id":230,"name":"sex haver","steam_id":76561198798892497,"connected_time":3254000000000,"state":"active","ping":55},{"user_id":233,"name":"Ach Wheesht","steam_id":76561197996993222,"connected_time":3101000000000,"state":"active","ping":59},{"user_id":237,"name":"Chad Slav","steam_id":76561198160103841,"connected_time":2177000000000,"state":"active","ping":61},{"user_id":265,"name":"Juiceydough","steam_id":76561197997323419,"connected_time":695000000000,"state":"active","ping":85},{"user_id":281,"name":"hoovy","steam_id":76561199228653314,"connected_time":1000000000,"state":"spawning","ping":71},{"user_id":254,"name":"Overlord Malarkey","steam_id":76561198098267117,"connected_time":1173000000000,"state":"active","ping":76},{"user_id":257,"name":"Profile","steam_id":76561198966737485,"connected_time":890000000000,"state":"active","ping":96},{"user_id":280,"name":"PKBlizzard","steam_id":76561198039836567,"connected_time":114000000000,"state":"active","ping":55},{"user_id":275,"name":"fifamirek","steam_id":76561198160567190,"connected_time":399000000000,"state":"active","ping":50},{"user_id":270,"name":"cyka","steam_id":76561198152226220,"connected_time":525000000000,"state":"active","ping":76},{"user_id":273,"name":"John Fortress","steam_id":76561198043743881,"connected_time":434000000000,"state":"active","ping":47},{"user_id":274,"name":"Reiyo the Interloper","steam_id":76561198155092485,"connected_time":411000000000,"state":"active","ping":55}]},{"server_id":308,"name":"Uncletopia | Frankfurt | 3 | All Maps","name_short":"frk-3","host":"frk-1.de.uncletopia.com","port":27035,"enabled":true,"region":"eu","cc":"de","latitude":50.110924,"longitude":8.682127,"reserved":0,"last_update":"0001-01-01T00:00:00Z","name_a2s":"Uncletopia | Frankfurt | 3 | All Maps","protocol":17,"map":"pl_upward","folder":"tf","game":"Team Fortress","app_id":440,"player_count":24,"max_players":24,"Bots":0,"server_type":"Dedicated","server_os":"Linux","password":true,"vac":true,"version":"7757534","steam_id":85568392924504274,"keywords":["nocrits","nodmgspread","payload","uncletopia"],"game_id":440,"stv_port":27036,"stv_name":"Uncletopia | Frankfurt | 3 | All Maps | STV","players":[{"user_id":212,"name":"Endi","steam_id":76561198914938199,"connected_time":1236000000000,"state":"active","ping":90},{"user_id":200,"name":"silicon based lube","steam_id":76561198413545609,"connected_time":1434000000000,"state":"active","ping":63},{"user_id":190,"name":"Lavi","steam_id":76561198000911853,"connected_time":1754000000000,"state":"active","ping":79},{"user_id":181,"name":"Clandi","steam_id":76561198220569831,"connected_time":2374000000000,"state":"active","ping":97},{"user_id":192,"name":"frank","steam_id":76561198137710815,"connected_time":1686000000000,"state":"active","ping":75},{"user_id":219,"name":"HeloOo_per The Communist","steam_id":76561199099995357,"connected_time":870000000000,"state":"active","ping":83},{"user_id":217,"name":"Magic","steam_id":76561198401602586,"connected_time":990000000000,"state":"active","ping":85},{"user_id":223,"name":"Itai","steam_id":76561198804555329,"connected_time":759000000000,"state":"active","ping":115},{"user_id":159,"name":"Kowakum","steam_id":76561197998125950,"connected_time":4571000000000,"state":"active","ping":103},{"user_id":174,"name":"Grillem Dafoe","steam_id":76561198306874574,"connected_time":3354000000000,"state":"active","ping":80},{"user_id":193,"name":"scarf","steam_id":76561198118873912,"connected_time":1683000000000,"state":"active","ping":71},{"user_id":226,"name":"Dooble donk man look at me donk","steam_id":76561198225523596,"connected_time":261000000000,"state":"active","ping":126},{"user_id":198,"name":"pfear","steam_id":76561197999207328,"connected_time":1503000000000,"state":"active","ping":74},{"user_id":194,"name":".apo","steam_id":76561198003042239,"connected_time":1671000000000,"state":"active","ping":58},{"user_id":184,"name":"r06u3","steam_id":76561198254099253,"connected_time":2048000000000,"state":"active","ping":166},{"user_id":210,"name":"rickeeey","steam_id":76561199069460375,"connected_time":1273000000000,"state":"active","ping":62},{"user_id":161,"name":"Dr.Cranium","steam_id":76561197992726926,"connected_time":4558000000000,"state":"active","ping":120},{"user_id":151,"name":"wxyz kapıcı izzet","steam_id":76561198241873438,"connected_time":4998000000000,"state":"active","ping":80},{"user_id":201,"name":"motion sickness","steam_id":76561198072233046,"connected_time":1424000000000,"state":"active","ping":83},{"user_id":211,"name":"Prox","steam_id":76561198351490981,"connected_time":1259000000000,"state":"active","ping":49},{"user_id":227,"name":"Xamek23","steam_id":76561198829772948,"connected_time":219000000000,"state":"active","ping":88},{"user_id":222,"name":"Semen demon","steam_id":76561198331838737,"connected_time":824000000000,"state":"active","ping":73},{"user_id":224,"name":"420Blazeit","steam_id":76561198130248449,"connected_time":718000000000,"state":"active","ping":72},{"user_id":221,"name":"Joel!","steam_id":76561198155422742,"connected_time":845000000000,"state":"active","ping":60}]},{"server_id":309,"name":"Uncletopia | Frankfurt | 4 | All Maps","name_short":"frk-4","host":"frk-1.de.uncletopia.com","port":27045,"enabled":true,"region":"eu","cc":"de","latitude":50.110924,"longitude":8.682127,"reserved":0,"last_update":"0001-01-01T00:00:00Z","name_a2s":"Uncletopia | Frankfurt | 4 | All Maps","protocol":17,"map":"cp_gorge","folder":"tf","game":"Team Fortress","app_id":440,"player_count":22,"max_players":24,"Bots":0,"server_type":"Dedicated","server_os":"Linux","password":true,"vac":true,"version":"7757534","steam_id":85568392924504275,"keywords":["cp","nocrits","nodmgspread","uncletopia"],"game_id":440,"stv_port":27046,"stv_name":"Uncletopia | Frankfurt | 4 | All Maps | STV","players":[{"user_id":617,"name":"I am piss man","steam_id":76561198039209685,"connected_time":402000000000,"state":"active","ping":66},{"user_id":547,"name":"Dzan50","steam_id":76561198059758591,"connected_time":4509000000000,"state":"active","ping":98},{"user_id":620,"name":"demoknight","steam_id":76561198320028262,"connected_time":149000000000,"state":"active","ping":72},{"user_id":622,"name":"angelofdeath477","steam_id":76561199165999007,"connected_time":51000000000,"state":"active","ping":222},{"user_id":614,"name":"Kotlet schabowy","steam_id":76561198048983509,"connected_time":619000000000,"state":"active","ping":73},{"user_id":612,"name":"AigleChene","steam_id":76561198180089715,"connected_time":744000000000,"state":"active","ping":59},{"user_id":409,"name":"dirty","steam_id":76561197995572935,"connected_time":15360000000000,"state":"active","ping":79},{"user_id":610,"name":"Equinox","steam_id":76561199055592635,"connected_time":868000000000,"state":"active","ping":63},{"user_id":616,"name":"[No Class]","steam_id":76561199019412162,"connected_time":479000000000,"state":"active","ping":62},{"user_id":623,"name":"If I MVP My Team Sucks","steam_id":76561198147668373,"connected_time":48000000000,"state":"active","ping":48},{"user_id":624,"name":"I.C. Wiener","steam_id":76561197999912254,"connected_time":44000000000,"state":"active","ping":85},{"user_id":613,"name":"Boe Jiden","steam_id":76561199300394949,"connected_time":694000000000,"state":"active","ping":51},{"user_id":601,"name":"SpeedyBoy","steam_id":76561199222795521,"connected_time":1023000000000,"state":"active","ping":130},{"user_id":587,"name":"Klinmir","steam_id":76561198352339376,"connected_time":2183000000000,"state":"active","ping":89},{"user_id":606,"name":"TheEventGuy","steam_id":76561197972797744,"connected_time":905000000000,"state":"active","ping":59},{"user_id":604,"name":"banned","steam_id":76561198047359132,"connected_time":924000000000,"state":"active","ping":60},{"user_id":578,"name":"most handsome","steam_id":76561198106912794,"connected_time":2741000000000,"state":"active","ping":81},{"user_id":469,"name":"ok","steam_id":76561198320042443,"connected_time":12325000000000,"state":"active","ping":95},{"user_id":608,"name":"CuffVill \u003c3","steam_id":76561198809859945,"connected_time":895000000000,"state":"active","ping":65},{"user_id":609,"name":"Chicker","steam_id":76561198809697283,"connected_time":894000000000,"state":"active","ping":56},{"user_id":563,"name":"LoliCatgirls.swf","steam_id":76561198055900955,"connected_time":3136000000000,"state":"active","ping":56},{"user_id":571,"name":"Mass","steam_id":76561198432195204,"connected_time":3055000000000,"state":"active","ping":47}]},{"server_id":310,"name":"Uncletopia | Frankfurt | 5 | All Maps","name_short":"frk-5","host":"frk-1.de.uncletopia.com","port":27055,"enabled":true,"region":"eu","cc":"de","latitude":50.110924,"longitude":8.682127,"reserved":0,"last_update":"0001-01-01T00:00:00Z","name_a2s":"Uncletopia | Frankfurt | 5 | All Maps","protocol":17,"map":"pl_upward","folder":"tf","game":"Team Fortress","app_id":440,"player_count":23,"max_players":24,"Bots":0,"server_type":"Dedicated","server_os":"Linux","password":true,"vac":true,"version":"7757534","steam_id":85568392924504277,"keywords":["nocrits","nodmgspread","payload","uncletopia"],"game_id":440,"stv_port":27056,"stv_name":"Uncletopia | Frankfurt | 5 | All Maps | STV","players":[{"user_id":472,"name":"Mikall","steam_id":76561198299709071,"connected_time":1868000000000,"state":"active","ping":72},{"user_id":466,"name":"Festive Erma","steam_id":76561198038718342,"connected_time":2507000000000,"state":"active","ping":82},{"user_id":488,"name":"Sniffz_2","steam_id":76561199433459491,"connected_time":375000000000,"state":"active","ping":66},{"user_id":470,"name":"lee","steam_id":76561198436548420,"connected_time":2098000000000,"state":"active","ping":66},{"user_id":446,"name":"Keng0l","steam_id":76561199185184318,"connected_time":4093000000000,"state":"active","ping":117},{"user_id":420,"name":"Fish 'n' Chips","steam_id":76561198033476886,"connected_time":5409000000000,"state":"active","ping":45},{"user_id":406,"name":"finbar","steam_id":76561198056812396,"connected_time":6233000000000,"state":"active","ping":77},{"user_id":473,"name":"SzalonySid","steam_id":76561198204466444,"connected_time":1846000000000,"state":"active","ping":79},{"user_id":399,"name":"Łyku","steam_id":76561198299149372,"connected_time":6675000000000,"state":"active","ping":71},{"user_id":468,"name":"galad.game","steam_id":76561198336324159,"connected_time":2173000000000,"state":"active","ping":72},{"user_id":487,"name":"deez","steam_id":76561198831476915,"connected_time":1378000000000,"state":"active","ping":73},{"user_id":431,"name":"diax01","steam_id":76561198136591319,"connected_time":5015000000000,"state":"active","ping":76},{"user_id":490,"name":"Huscper","steam_id":76561198106229481,"connected_time":352000000000,"state":"active","ping":84},{"user_id":476,"name":"Mitchell The Brutal Bonelord","steam_id":76561198813041445,"connected_time":1819000000000,"state":"active","ping":63},{"user_id":484,"name":"Filleman","steam_id":76561198159386946,"connected_time":1550000000000,"state":"active","ping":67},{"user_id":471,"name":"Red Dynamite","steam_id":76561199073167935,"connected_time":1984000000000,"state":"active","ping":170},{"user_id":486,"name":"push fuck as","steam_id":76561199360189459,"connected_time":1413000000000,"state":"active","ping":76},{"user_id":449,"name":"CZKS","steam_id":76561198244653548,"connected_time":3205000000000,"state":"active","ping":85},{"user_id":478,"name":"√(-Wolf)","steam_id":76561198024769704,"connected_time":1802000000000,"state":"active","ping":90},{"user_id":465,"name":"Vitamin Weee","steam_id":76561199183937747,"connected_time":2673000000000,"state":"active","ping":87},{"user_id":480,"name":"Homeless man with a home","steam_id":76561198274105878,"connected_time":1795000000000,"state":"active","ping":71},{"user_id":485,"name":"Salih","steam_id":76561198287934839,"connected_time":1529000000000,"state":"active","ping":54},{"user_id":491,"name":"Travis Bickle","steam_id":76561198116072862,"connected_time":351000000000,"state":"active","ping":60}]},{"server_id":311,"name":"Uncletopia | Frankfurt | 6 | All Maps","name_short":"frk-6","host":"frk-1.de.uncletopia.com","port":27065,"enabled":true,"region":"eu","cc":"de","latitude":50.110924,"longitude":8.682127,"reserved":0,"last_update":"0001-01-01T00:00:00Z","name_a2s":"Uncletopia | Frankfurt | 6 | All Maps","protocol":17,"map":"pl_borneo","folder":"tf","game":"Team Fortress","app_id":440,"player_count":24,"max_players":24,"Bots":0,"server_type":"Dedicated","server_os":"Linux","password":true,"vac":true,"version":"7757534","steam_id":85568392924504278,"keywords":["nocrits","nodmgspread","payload","uncletopia"],"game_id":440,"stv_port":27066,"stv_name":"Uncletopia | Frankfurt | 6 | All Maps | STV","players":[{"user_id":421,"name":"QUASO","steam_id":76561198295305088,"connected_time":885000000000,"state":"active","ping":48},{"user_id":397,"name":"numanuma-hei.ei","steam_id":76561198081100918,"connected_time":3277000000000,"state":"active","ping":102},{"user_id":395,"name":"reik","steam_id":76561198075239099,"connected_time":3280000000000,"state":"active","ping":57},{"user_id":432,"name":"hukrop1","steam_id":76561199214341151,"connected_time":43000000000,"state":"active","ping":113},{"user_id":413,"name":"=PB=","steam_id":76561197999146612,"connected_time":2118000000000,"state":"active","ping":50},{"user_id":430,"name":"kotamine","steam_id":76561198068907991,"connected_time":363000000000,"state":"active","ping":73},{"user_id":406,"name":"Femboy Gaming","steam_id":76561198174108515,"connected_time":2799000000000,"state":"active","ping":45},{"user_id":425,"name":"Steen","steam_id":76561198122992510,"connected_time":770000000000,"state":"active","ping":45},{"user_id":369,"name":"Laki","steam_id":76561198126078953,"connected_time":5615000000000,"state":"active","ping":128},{"user_id":399,"name":"breedable","steam_id":76561198010300032,"connected_time":2977000000000,"state":"active","ping":61},{"user_id":424,"name":"plazma","steam_id":76561198886594048,"connected_time":828000000000,"state":"active","ping":100},{"user_id":380,"name":"ziv0104","steam_id":76561198089642287,"connected_time":4527000000000,"state":"active","ping":96},{"user_id":426,"name":"louk","steam_id":76561198079407695,"connected_time":757000000000,"state":"active","ping":59},{"user_id":340,"name":"dotdotdot","steam_id":76561198057628751,"connected_time":6975000000000,"state":"active","ping":62},{"user_id":431,"name":"result","steam_id":76561198269200388,"connected_time":267000000000,"state":"active","ping":74},{"user_id":394,"name":"Farmercy","steam_id":76561198000038039,"connected_time":3287000000000,"state":"active","ping":58},{"user_id":391,"name":"niaerniopawrjnko","steam_id":76561198030408772,"connected_time":3311000000000,"state":"active","ping":61},{"user_id":376,"name":"KNARRER","steam_id":76561199130777953,"connected_time":4821000000000,"state":"active","ping":57},{"user_id":407,"name":"😈 COCKDESTROYER 😈","steam_id":76561198042846999,"connected_time":2620000000000,"state":"active","ping":64},{"user_id":388,"name":"cowboy","steam_id":76561198080361351,"connected_time":3845000000000,"state":"active","ping":64},{"user_id":433,"name":"powej","steam_id":76561198056381418,"connected_time":21000000000,"state":"active","ping":46},{"user_id":429,"name":"Reczeq","steam_id":76561199101799310,"connected_time":547000000000,"state":"active","ping":85},{"user_id":405,"name":"Dorich","steam_id":76561198287126217,"connected_time":2822000000000,"state":"active","ping":67},{"user_id":416,"name":"♡☠MORPHINE OVERDOSE☠♡","steam_id":76561198312877267,"connected_time":1767000000000,"state":"active","ping":90}]},{"server_id":23,"name":"Uncletopia | Frankfurt | 7 | Stopwatch Beta","name_short":"frk-7","host":"frk-1.de.uncletopia.com","port":27075,"enabled":true,"region":"eu","cc":"de","latitude":50.110924,"longitude":8.682127,"reserved":0,"last_update":"0001-01-01T00:00:00Z","name_a2s":"Uncletopia | Frankfurt | 7 | Stopwatch Beta","protocol":17,"map":"workshop/koth_clearcut_b15.ugc2107050255","folder":"tf","game":"Team Fortress","app_id":440,"player_count":6,"max_players":24,"Bots":0,"server_type":"Dedicated","server_os":"Linux","password":true,"vac":true,"version":"7757534","steam_id":85568392924742827,"keywords":["cp","nocrits","nodmgspread","uncletopia"],"game_id":440,"stv_port":27076,"stv_name":"Uncletopia | Frankfurt | 7 | Stopwatch Beta | STV","players":[{"user_id":28,"name":"Truegr","steam_id":76561198811912339,"connected_time":96000000000,"state":"active","ping":546},{"user_id":25,"name":"Daily Gamer_Tv","steam_id":76561197966249521,"connected_time":121000000000,"state":"active","ping":66},{"user_id":24,"name":"fried","steam_id":76561198307522022,"connected_time":745000000000,"state":"active","ping":50},{"user_id":26,"name":"FellowCandy1327","steam_id":76561198417557917,"connected_time":119000000000,"state":"active","ping":60},{"user_id":27,"name":"BabyblueZooo","steam_id":76561199002191584,"connected_time":116000000000,"state":"active","ping":62},{"user_id":29,"name":"nhstefanov","steam_id":76561198811811405,"connected_time":83000000000,"state":"active","ping":75}]},{"server_id":24,"name":"Uncletopia | Frankfurt | 8 | Community","name_short":"frk-8","host":"frk-1.de.uncletopia.com","port":27085,"enabled":true,"region":"eu","cc":"de","latitude":50.110924,"longitude":8.682127,"reserved":0,"last_update":"0001-01-01T00:00:00Z","name_a2s":"Uncletopia | Frankfurt | 8 | Community","protocol":17,"map":"workshop/koth_product_final.ugc454272353","folder":"tf","game":"Team Fortress","app_id":440,"player_count":4,"max_players":24,"Bots":0,"server_type":"Dedicated","server_os":"Linux","password":true,"vac":true,"version":"7757534","steam_id":85568392924742828,"keywords":["cp","nocrits","nodmgspread","uncletopia"],"game_id":440,"stv_port":27086,"stv_name":"Uncletopia | Frankfurt | 8 | Community | STV","players":[{"user_id":63,"name":"engie?","steam_id":76561198331852832,"connected_time":1310000000000,"state":"active","ping":58},{"user_id":65,"name":"godspeedyou!","steam_id":76561199474448245,"connected_time":519000000000,"state":"active","ping":83},{"user_id":66,"name":"lisivi","steam_id":76561198365503306,"connected_time":71000000000,"state":"active","ping":45},{"user_id":52,"name":"vichesty","steam_id":76561198976243719,"connected_time":2932000000000,"state":"active","ping":96}]},{"server_id":202,"name":"Uncletopia | Hong Kong | 1 | All Maps","name_short":"hgk-1","host":"hgk-1.hk.uncletopia.com","port":27015,"enabled":true,"region":"asia","cc":"hk","latitude":22.302711,"longitude":114.177216,"reserved":0,"last_update":"0001-01-01T00:00:00Z","name_a2s":"Uncletopia | Hong Kong | 1 | All Maps","protocol":17,"map":"pl_barnblitz","folder":"tf","game":"Team Fortress","app_id":440,"player_count":0,"max_players":24,"Bots":0,"server_type":"Dedicated","server_os":"Linux","password":true,"vac":true,"version":"7757534","steam_id":85568392924494504,"keywords":["nocrits","nodmgspread","payload","uncletopia"],"game_id":440,"stv_port":27016,"stv_name":"Uncletopia | Hong Kong | 1 | All Maps | STV","players":null},{"server_id":1,"name":"Uncletopia | Los Angeles | 1 | All Maps","name_short":"lax-1","host":"lax-1.us.uncletopia.com","port":27015,"enabled":true,"region":"us-west","cc":"us","latitude":33.94279,"longitude":-118.41004,"reserved":0,"last_update":"0001-01-01T00:00:00Z","name_a2s":"Uncletopia | Los Angeles | 1 | All Maps","protocol":17,"map":"cp_dustbowl","folder":"tf","game":"Team Fortress","app_id":440,"player_count":24,"max_players":24,"Bots":0,"server_type":"Dedicated","server_os":"Linux","password":true,"vac":true,"version":"7757534","steam_id":85568392924469991,"keywords":["cp","nocrits","nodmgspread","uncletopia"],"game_id":440,"stv_port":27016,"stv_name":"Uncletopia | Los Angeles | 1 | All Maps | STV","players":[{"user_id":25,"name":"Mom","steam_id":76561198207936000,"connected_time":2823000000000,"state":"active","ping":73},{"user_id":61,"name":"Mr. Blubber","steam_id":76561198338906916,"connected_time":354000000000,"state":"active","ping":45},{"user_id":7,"name":"Salem Goose Trial","steam_id":76561198052083066,"connected_time":4939000000000,"state":"active","ping":90},{"user_id":28,"name":"Uprightmoss7528","steam_id":76561199200138486,"connected_time":2422000000000,"state":"active","ping":66},{"user_id":53,"name":"jayden","steam_id":76561198152455865,"connected_time":1078000000000,"state":"active","ping":59},{"user_id":58,"name":"NFL.com","steam_id":76561198113405376,"connected_time":378000000000,"state":"active","ping":56},{"user_id":57,"name":"HeroOfTime","steam_id":76561199096218001,"connected_time":842000000000,"state":"active","ping":52},{"user_id":19,"name":"Tort boi","steam_id":76561198125327110,"connected_time":3763000000000,"state":"active","ping":93},{"user_id":38,"name":"Whiskey","steam_id":76561198858154667,"connected_time":1759000000000,"state":"active","ping":46},{"user_id":34,"name":"mao zedong","steam_id":76561199060687332,"connected_time":2010000000000,"state":"active","ping":51},{"user_id":63,"name":"ice cream (冰淇淋)","steam_id":76561198976530881,"connected_time":302000000000,"state":"active","ping":43},{"user_id":33,"name":"Whoops!","steam_id":76561198151315898,"connected_time":2050000000000,"state":"active","ping":77},{"user_id":39,"name":"Nero","steam_id":76561198162875889,"connected_time":1750000000000,"state":"active","ping":48},{"user_id":37,"name":"KRXSPY","steam_id":76561198391465989,"connected_time":1872000000000,"state":"active","ping":103},{"user_id":65,"name":"hakken","steam_id":76561199102391736,"connected_time":153000000000,"state":"active","ping":47},{"user_id":41,"name":"BurningKev","steam_id":76561198057688837,"connected_time":1698000000000,"state":"active","ping":83},{"user_id":42,"name":"FASTLIFER","steam_id":76561199389781834,"connected_time":1666000000000,"state":"active","ping":66},{"user_id":59,"name":"r u guys going trick or treatin","steam_id":76561199074585110,"connected_time":367000000000,"state":"active","ping":42},{"user_id":44,"name":"Supawaffle","steam_id":76561198090922807,"connected_time":1621000000000,"state":"active","ping":47},{"user_id":45,"name":"BasedGod","steam_id":76561198061177973,"connected_time":1560000000000,"state":"active","ping":55},{"user_id":46,"name":"KatzenMeister","steam_id":76561198315056580,"connected_time":1556000000000,"state":"active","ping":58},{"user_id":47,"name":"Rat With No Name","steam_id":76561198249146526,"connected_time":1539000000000,"state":"active","ping":73},{"user_id":48,"name":"indyjacob","steam_id":76561198065158713,"connected_time":1500000000000,"state":"active","ping":66},{"user_id":64,"name":"The Potato Romancer","steam_id":76561198204197648,"connected_time":258000000000,"state":"active","ping":55}]},{"server_id":112,"name":"Uncletopia | Los Angeles | 2 | All Maps","name_short":"lax-2","host":"lax-1.us.uncletopia.com","port":27025,"enabled":true,"region":"us-west","cc":"us","latitude":33.94279,"longitude":-118.41004,"reserved":0,"last_update":"0001-01-01T00:00:00Z","name_a2s":"Uncletopia | Los Angeles | 2 | All Maps","protocol":17,"map":"cp_altitude","folder":"tf","game":"Team Fortress","app_id":440,"player_count":0,"max_players":24,"Bots":0,"server_type":"Dedicated","server_os":"Linux","password":true,"vac":true,"version":"7757534","steam_id":85568392924469992,"keywords":["cp","nocrits","nodmgspread","uncletopia"],"game_id":440,"stv_port":27026,"stv_name":"Uncletopia | Los Angeles | 2 | All Maps | STV","players":null},{"server_id":324,"name":"Uncletopia | Los Angeles | 3 | All Maps","name_short":"lax-3","host":"lax-1.us.uncletopia.com","port":27035,"enabled":true,"region":"us-west","cc":"us","latitude":33.94279,"longitude":-118.41004,"reserved":0,"last_update":"0001-01-01T00:00:00Z","name_a2s":"Uncletopia | Los Angeles | 3 | All Maps","protocol":17,"map":"cp_altitude","folder":"tf","game":"Team Fortress","app_id":440,"player_count":0,"max_players":24,"Bots":0,"server_type":"Dedicated","server_os":"Linux","password":true,"vac":true,"version":"7757534","steam_id":85568392924510198,"keywords":["cp","nocrits","nodmgspread","uncletopia"],"game_id":440,"stv_port":27036,"stv_name":"Uncletopia | Los Angeles | 3 | All Maps | STV","players":null},{"server_id":25,"name":"Uncletopia | Los Angeles | 4 | Stopwatch Beta","name_short":"lax-4","host":"lax-1.us.uncletopia.com","port":27045,"enabled":true,"region":"us-west","cc":"us","latitude":33.94279,"longitude":-118.41004,"reserved":0,"last_update":"0001-01-01T00:00:00Z","name_a2s":"Uncletopia | Los Angeles | 4 | Stopwatch Beta","protocol":17,"map":"workshop/cp_reckoner_rc6.ugc674719999","folder":"tf","game":"Team Fortress","app_id":440,"player_count":0,"max_players":24,"Bots":0,"server_type":"Dedicated","server_os":"Linux","password":true,"vac":true,"version":"7757534","steam_id":85568392924510199,"keywords":["cp","nocrits","nodmgspread","uncletopia"],"game_id":440,"stv_port":27046,"stv_name":"Uncletopia | Los Angeles | 4 | Stopwatch Beta | STV","players":null},{"server_id":11,"name":"Uncletopia | London | 1 | All Maps","name_short":"lon-1","host":"lon-1.uk.uncletopia.com","port":27015,"enabled":true,"region":"eu","cc":"gb","latitude":51.509865,"longitude":-0.118092,"reserved":0,"last_update":"0001-01-01T00:00:00Z","name_a2s":"Uncletopia | London | 1 | All Maps","protocol":17,"map":"pl_barnblitz","folder":"tf","game":"Team Fortress","app_id":440,"player_count":24,"max_players":24,"Bots":0,"server_type":"Dedicated","server_os":"Linux","password":true,"vac":true,"version":"7757534","steam_id":85568392924367362,"keywords":["nocrits","nodmgspread","payload","uncletopia"],"game_id":440,"stv_port":27016,"stv_name":"Uncletopia | London | 1 | All Maps | STV","players":[{"user_id":497,"name":"Kotlin","steam_id":76561198443331716,"connected_time":328000000000,"state":"active","ping":50},{"user_id":453,"name":"BreadBubbles","steam_id":76561198174332826,"connected_time":4046000000000,"state":"active","ping":60},{"user_id":494,"name":"Archer","steam_id":76561198132860299,"connected_time":362000000000,"state":"active","ping":56},{"user_id":492,"name":"Atombrennstab? WO?","steam_id":76561198177185310,"connected_time":520000000000,"state":"active","ping":60},{"user_id":479,"name":"Sparky","steam_id":76561198036754195,"connected_time":1101000000000,"state":"active","ping":46},{"user_id":486,"name":"Symbols","steam_id":76561198057259825,"connected_time":748000000000,"state":"active","ping":45},{"user_id":466,"name":"hananamanna","steam_id":76561198006570285,"connected_time":2175000000000,"state":"active","ping":118},{"user_id":476,"name":"nudjura","steam_id":76561198281986139,"connected_time":1311000000000,"state":"active","ping":30},{"user_id":473,"name":"ciliorkun18","steam_id":76561198228942500,"connected_time":1398000000000,"state":"active","ping":95},{"user_id":481,"name":":)","steam_id":76561198977420882,"connected_time":995000000000,"state":"active","ping":41},{"user_id":465,"name":"dec","steam_id":76561198009660168,"connected_time":2604000000000,"state":"active","ping":45},{"user_id":503,"name":"cortar","steam_id":76561199077636183,"connected_time":66000000000,"state":"active","ping":143},{"user_id":487,"name":"Emerald","steam_id":76561199141384216,"connected_time":653000000000,"state":"active","ping":54},{"user_id":472,"name":"Aaron","steam_id":76561197990046953,"connected_time":2064000000000,"state":"active","ping":65},{"user_id":500,"name":"luckyastroman","steam_id":76561199027500574,"connected_time":305000000000,"state":"active","ping":71},{"user_id":484,"name":"elio","steam_id":76561198142662131,"connected_time":864000000000,"state":"active","ping":67},{"user_id":496,"name":"Silent","steam_id":76561198344588858,"connected_time":338000000000,"state":"active","ping":51},{"user_id":489,"name":"Ich stinke","steam_id":76561198065076046,"connected_time":640000000000,"state":"active","ping":68},{"user_id":501,"name":"hiihoo","steam_id":76561198872419251,"connected_time":289000000000,"state":"active","ping":104},{"user_id":468,"name":"touhou fan off his meds","steam_id":76561198048453764,"connected_time":2149000000000,"state":"active","ping":51},{"user_id":498,"name":"ParvekeFilosofi","steam_id":76561198203140640,"connected_time":324000000000,"state":"active","ping":74},{"user_id":491,"name":"jameso","steam_id":76561198064042970,"connected_time":599000000000,"state":"active","ping":59},{"user_id":502,"name":"Riel","steam_id":76561198066017633,"connected_time":166000000000,"state":"active","ping":68},{"user_id":430,"name":"Kahvi","steam_id":76561198723244199,"connected_time":7080000000000,"state":"active","ping":90}]},{"server_id":114,"name":"Uncletopia | London | 2 | All Maps","name_short":"lon-2","host":"lon-1.uk.uncletopia.com","port":27025,"enabled":true,"region":"eu","cc":"gb","latitude":51.509865,"longitude":-0.118092,"reserved":0,"last_update":"0001-01-01T00:00:00Z","name_a2s":"Uncletopia | London | 2 | All Maps","protocol":17,"map":"pl_badwater","folder":"tf","game":"Team Fortress","app_id":440,"player_count":24,"max_players":24,"Bots":0,"server_type":"Dedicated","server_os":"Linux","password":true,"vac":true,"version":"7757534","steam_id":85568392924470941,"keywords":["nocrits","nodmgspread","payload","uncletopia"],"game_id":440,"stv_port":27026,"stv_name":"Uncletopia | London | 2 | All Maps | STV","players":[{"user_id":124,"name":"holykyckling","steam_id":76561198040661615,"connected_time":4557000000000,"state":"active","ping":75},{"user_id":127,"name":"Dovakin","steam_id":76561198103265377,"connected_time":4458000000000,"state":"active","ping":111},{"user_id":54,"name":"nemelex","steam_id":76561198958005865,"connected_time":8724000000000,"state":"active","ping":49},{"user_id":150,"name":"Spotmonkey","steam_id":76561198003994092,"connected_time":2566000000000,"state":"active","ping":58},{"user_id":159,"name":"Squeaky","steam_id":76561198177338045,"connected_time":1979000000000,"state":"active","ping":48},{"user_id":163,"name":"Beast?","steam_id":76561198277243732,"connected_time":862000000000,"state":"active","ping":64},{"user_id":164,"name":"Valoxi","steam_id":76561197995042938,"connected_time":849000000000,"state":"active","ping":72},{"user_id":165,"name":"Demoknight tf2","steam_id":76561198133041874,"connected_time":840000000000,"state":"active","ping":59},{"user_id":91,"name":"2BCD","steam_id":76561198178254946,"connected_time":7550000000000,"state":"active","ping":63},{"user_id":157,"name":"Borat","steam_id":76561198122226417,"connected_time":2008000000000,"state":"active","ping":42},{"user_id":166,"name":"FairlyFatFungus","steam_id":76561199152828854,"connected_time":836000000000,"state":"active","ping":54},{"user_id":120,"name":"RLCrazyCat3","steam_id":76561197983757878,"connected_time":4869000000000,"state":"active","ping":61},{"user_id":148,"name":"WAPtrick star","steam_id":76561198133532980,"connected_time":3084000000000,"state":"active","ping":46},{"user_id":121,"name":"the_Qcumber","steam_id":76561199152515819,"connected_time":4845000000000,"state":"active","ping":73},{"user_id":66,"name":"Microsoft PowerPoint","steam_id":76561198204290539,"connected_time":8152000000000,"state":"active","ping":90},{"user_id":145,"name":"Thalgorock","steam_id":76561198195315022,"connected_time":3365000000000,"state":"active","ping":73},{"user_id":172,"name":"stuntz","steam_id":76561197974814348,"connected_time":161000000000,"state":"active","ping":72},{"user_id":167,"name":"Rezzi3355","steam_id":76561198829654794,"connected_time":798000000000,"state":"active","ping":60},{"user_id":125,"name":"alpha","steam_id":76561198250491640,"connected_time":4522000000000,"state":"active","ping":47},{"user_id":154,"name":"Gideon","steam_id":76561198045132575,"connected_time":2086000000000,"state":"active","ping":44},{"user_id":137,"name":"***** ***","steam_id":76561198048037379,"connected_time":3903000000000,"state":"active","ping":83},{"user_id":168,"name":"D_Ink","steam_id":76561198267716662,"connected_time":795000000000,"state":"active","ping":43},{"user_id":169,"name":"Kvicha Kvaratskhelia","steam_id":76561198179339326,"connected_time":794000000000,"state":"active","ping":81},{"user_id":146,"name":"Zerfesh","steam_id":76561198117534358,"connected_time":3365000000000,"state":"active","ping":102}]},{"server_id":320,"name":"Uncletopia | London | 3 | All Maps","name_short":"lon-3","host":"lon-1.uk.uncletopia.com","port":27035,"enabled":true,"region":"eu","cc":"gb","latitude":51.509865,"longitude":-0.118092,"reserved":0,"last_update":"0001-01-01T00:00:00Z","name_a2s":"Uncletopia | London | 3 | All Maps","protocol":17,"map":"cp_process_final","folder":"tf","game":"Team Fortress","app_id":440,"player_count":24,"max_players":24,"Bots":0,"server_type":"Dedicated","server_os":"Linux","password":true,"vac":true,"version":"7757534","steam_id":85568392924510192,"keywords":["cp","nocrits","nodmgspread","uncletopia"],"game_id":440,"stv_port":27036,"stv_name":"Uncletopia | London | 3 | All Maps | STV","players":[{"user_id":806,"name":"MeBandae","steam_id":76561198910770432,"connected_time":1843000000000,"state":"active","ping":90},{"user_id":808,"name":"Udinese Dion","steam_id":76561198067931573,"connected_time":1491000000000,"state":"active","ping":58},{"user_id":787,"name":"Looking for Goth with tiddies!?","steam_id":76561198067204908,"connected_time":3273000000000,"state":"active","ping":56},{"user_id":751,"name":"big tiddy goth bf","steam_id":76561198170609049,"connected_time":5869000000000,"state":"active","ping":89},{"user_id":821,"name":"dn4k","steam_id":76561199221755690,"connected_time":16000000000,"state":"active","ping":84},{"user_id":768,"name":"mt","steam_id":76561197961319303,"connected_time":5419000000000,"state":"active","ping":58},{"user_id":815,"name":"I'm A Real Human Being","steam_id":76561199471571148,"connected_time":867000000000,"state":"active","ping":70},{"user_id":818,"name":"JohnMat2","steam_id":76561199007662486,"connected_time":792000000000,"state":"active","ping":67},{"user_id":817,"name":"☞LaZe☜","steam_id":76561198202191400,"connected_time":850000000000,"state":"active","ping":50},{"user_id":742,"name":"Fat Pigeon","steam_id":76561198817940142,"connected_time":6165000000000,"state":"active","ping":45},{"user_id":790,"name":"static","steam_id":76561198836825741,"connected_time":3216000000000,"state":"active","ping":44},{"user_id":770,"name":"Fran","steam_id":76561199070516960,"connected_time":5258000000000,"state":"active","ping":71},{"user_id":807,"name":"enigma","steam_id":76561198452111945,"connected_time":1807000000000,"state":"active","ping":45},{"user_id":712,"name":"big tiddy goth gf","steam_id":76561198097507847,"connected_time":7911000000000,"state":"active","ping":86},{"user_id":809,"name":"ムGeRmAn |×UA×ム","steam_id":76561199044754898,"connected_time":1479000000000,"state":"active","ping":76},{"user_id":810,"name":"Miss Bari","steam_id":76561198365286092,"connected_time":1433000000000,"state":"active","ping":31},{"user_id":819,"name":"Dag!","steam_id":76561198030147941,"connected_time":770000000000,"state":"active","ping":71},{"user_id":762,"name":"Seail_M","steam_id":76561198002405605,"connected_time":5524000000000,"state":"active","ping":69},{"user_id":813,"name":"ypsvlq","steam_id":76561199015433909,"connected_time":1031000000000,"state":"active","ping":69},{"user_id":820,"name":"Anri Okita's Massive Milkers","steam_id":76561199186352720,"connected_time":768000000000,"state":"active","ping":56},{"user_id":797,"name":"gio","steam_id":76561198219185620,"connected_time":2596000000000,"state":"active","ping":90},{"user_id":784,"name":"Tobb_Harvard","steam_id":76561199222100485,"connected_time":4013000000000,"state":"active","ping":83},{"user_id":786,"name":"Svettiga Gunnar","steam_id":76561197998579531,"connected_time":3675000000000,"state":"active","ping":75},{"user_id":805,"name":"Viral Pink Sauce","steam_id":76561198174510235,"connected_time":2159000000000,"state":"active","ping":56}]},{"server_id":321,"name":"Uncletopia | London | 4 | All Maps","name_short":"lon-4","host":"lon-1.uk.uncletopia.com","port":27045,"enabled":true,"region":"eu","cc":"gb","latitude":51.509865,"longitude":-0.118092,"reserved":0,"last_update":"0001-01-01T00:00:00Z","name_a2s":"Uncletopia | London | 4 | All Maps","protocol":17,"map":"pl_upward","folder":"tf","game":"Team Fortress","app_id":440,"player_count":24,"max_players":24,"Bots":0,"server_type":"Dedicated","server_os":"Linux","password":true,"vac":true,"version":"7757534","steam_id":85568392924510193,"keywords":["nocrits","nodmgspread","payload","uncletopia"],"game_id":440,"stv_port":27046,"stv_name":"Uncletopia | London | 4 | All Maps | STV","players":[{"user_id":362,"name":"Pinkchup","steam_id":76561198106802803,"connected_time":30000000000,"state":"active","ping":76},{"user_id":326,"name":"quickfast","steam_id":76561199438900919,"connected_time":2763000000000,"state":"active","ping":45},{"user_id":353,"name":"Mircoxi","steam_id":76561199407632710,"connected_time":1054000000000,"state":"active","ping":65},{"user_id":346,"name":"Mowelic","steam_id":76561198873641222,"connected_time":1820000000000,"state":"active","ping":84},{"user_id":319,"name":"Joe","steam_id":76561198061717026,"connected_time":2856000000000,"state":"active","ping":41},{"user_id":360,"name":"- rick.","steam_id":76561198026699226,"connected_time":177000000000,"state":"active","ping":74},{"user_id":322,"name":"DrExplosive","steam_id":76561198063678579,"connected_time":2835000000000,"state":"active","ping":53},{"user_id":358,"name":"EmissaryOfTheLord","steam_id":76561199130305263,"connected_time":357000000000,"state":"active","ping":44},{"user_id":306,"name":"I might","steam_id":76561198121256258,"connected_time":4187000000000,"state":"active","ping":152},{"user_id":323,"name":"Wardruna96","steam_id":76561199057083828,"connected_time":2830000000000,"state":"active","ping":82},{"user_id":359,"name":"AIMetanaali","steam_id":76561198156111003,"connected_time":299000000000,"state":"active","ping":94},{"user_id":354,"name":"woosh (poopy joe)","steam_id":76561198061127604,"connected_time":946000000000,"state":"active","ping":44},{"user_id":286,"name":"TheUnusualLee","steam_id":76561198091736413,"connected_time":6377000000000,"state":"active","ping":43},{"user_id":350,"name":"scoggan42","steam_id":76561199206140567,"connected_time":1583000000000,"state":"active","ping":154},{"user_id":348,"name":"Arcader","steam_id":76561198109860110,"connected_time":1792000000000,"state":"active","ping":61},{"user_id":340,"name":"kul","steam_id":76561198065179630,"connected_time":2212000000000,"state":"active","ping":66},{"user_id":361,"name":"Carrot Arc","steam_id":76561198164957006,"connected_time":154000000000,"state":"active","ping":86},{"user_id":341,"name":"Almaynax","steam_id":76561198039757994,"connected_time":2070000000000,"state":"active","ping":105},{"user_id":355,"name":"T K","steam_id":76561198134256917,"connected_time":515000000000,"state":"active","ping":75},{"user_id":329,"name":"Frikerf","steam_id":76561198079602952,"connected_time":2713000000000,"state":"active","ping":55},{"user_id":342,"name":"pablo","steam_id":76561198089285014,"connected_time":1928000000000,"state":"active","ping":67},{"user_id":315,"name":"mommy🖤x_x","steam_id":76561199204257697,"connected_time":3015000000000,"state":"active","ping":54},{"user_id":339,"name":"that fat croc from donkey kong","steam_id":76561198159172495,"connected_time":2273000000000,"state":"active","ping":77},{"user_id":288,"name":"♥ Aura ♥","steam_id":76561198066258544,"connected_time":6316000000000,"state":"active","ping":63}]},{"server_id":21,"name":"Uncletopia | London | 5 | All Maps","name_short":"lon-5","host":"lon-1.uk.uncletopia.com","port":27055,"enabled":true,"region":"eu","cc":"gb","latitude":51.509865,"longitude":-0.118092,"reserved":0,"last_update":"0001-01-01T00:00:00Z","name_a2s":"Uncletopia | London | 5 | All Maps","protocol":17,"map":"koth_lakeside_final","folder":"tf","game":"Team Fortress","app_id":440,"player_count":5,"max_players":24,"Bots":0,"server_type":"Dedicated","server_os":"Linux","password":true,"vac":true,"version":"7757534","steam_id":85568392924742829,"keywords":["cp","nocrits","nodmgspread","uncletopia"],"game_id":440,"stv_port":27056,"stv_name":"Uncletopia | London | 5 | All Maps | STV","players":[{"user_id":33,"name":"ran is running","steam_id":76561199443185667,"connected_time":3940000000000,"state":"active","ping":121},{"user_id":34,"name":"justin_ (f2p) (real)","steam_id":76561198839843428,"connected_time":3935000000000,"state":"active","ping":113},{"user_id":35,"name":"Drekadóttir","steam_id":76561198119979169,"connected_time":3903000000000,"state":"active","ping":69},{"user_id":43,"name":"Fus in Boots","steam_id":76561198053897722,"connected_time":463000000000,"state":"active","ping":54},{"user_id":44,"name":"Ellis_Gaming","steam_id":76561199097614850,"connected_time":191000000000,"state":"active","ping":84}]},{"server_id":22,"name":"Uncletopia | London | 6 | All Maps","name_short":"lon-6","host":"lon-1.uk.uncletopia.com","port":27065,"enabled":true,"region":"eu","cc":"gb","latitude":51.509865,"longitude":-0.118092,"reserved":0,"last_update":"0001-01-01T00:00:00Z","name_a2s":"Uncletopia | London | 6 | All Maps","protocol":17,"map":"cp_steel","folder":"tf","game":"Team Fortress","app_id":440,"player_count":13,"max_players":24,"Bots":0,"server_type":"Dedicated","server_os":"Linux","password":true,"vac":true,"version":"7757534","steam_id":85568392924742830,"keywords":["cp","nocrits","nodmgspread","uncletopia"],"game_id":440,"stv_port":27066,"stv_name":"Uncletopia | London | 6 | All Maps | STV","players":[{"user_id":38,"name":"Tom Cruise from Top Gun Maveric","steam_id":76561198976593595,"connected_time":1786000000000,"state":"active","ping":208},{"user_id":66,"name":"Denialman (Muted)","steam_id":76561198309182092,"connected_time":28000000000,"state":"active","ping":69},{"user_id":40,"name":"Nebew","steam_id":76561198236810112,"connected_time":1644000000000,"state":"active","ping":52},{"user_id":52,"name":"Mokabi","steam_id":76561198323777899,"connected_time":294000000000,"state":"active","ping":51},{"user_id":42,"name":"Xineoph","steam_id":76561198011568457,"connected_time":1557000000000,"state":"active","ping":56},{"user_id":43,"name":"Queen","steam_id":76561198300679364,"connected_time":1557000000000,"state":"active","ping":89},{"user_id":63,"name":"mespe","steam_id":76561198121530649,"connected_time":83000000000,"state":"active","ping":75},{"user_id":53,"name":"m1k2el","steam_id":76561198799160859,"connected_time":226000000000,"state":"active","ping":79},{"user_id":49,"name":"jonbob","steam_id":76561197963506620,"connected_time":1133000000000,"state":"active","ping":47},{"user_id":54,"name":"Haggabah,WhoPliesTheUmbralPath","steam_id":76561198846984399,"connected_time":226000000000,"state":"active","ping":89},{"user_id":64,"name":"kbbq","steam_id":76561198346638308,"connected_time":79000000000,"state":"active","ping":46},{"user_id":59,"name":"Yachox","steam_id":76561198158259745,"connected_time":138000000000,"state":"active","ping":74},{"user_id":60,"name":"moocow916","steam_id":76561198040954339,"connected_time":127000000000,"state":"active","ping":32}]},{"server_id":40,"name":"Uncletopia | London | 7 | No Payload","name_short":"lon-7","host":"lon-1.uk.uncletopia.com","port":27075,"enabled":true,"region":"eu","cc":"gb","latitude":51.509865,"longitude":-0.118092,"reserved":0,"last_update":"0001-01-01T00:00:00Z","name_a2s":"Uncletopia | London | 7 | No Payload","protocol":17,"map":"plr_nightfall_final","folder":"tf","game":"Team Fortress","app_id":440,"player_count":21,"max_players":24,"Bots":0,"server_type":"Dedicated","server_os":"Linux","password":true,"vac":true,"version":"7757534","steam_id":85568392924964314,"keywords":["nocrits","nodmgspread","payload","uncletopia"],"game_id":440,"stv_port":27076,"stv_name":"Uncletopia | London | 7 | No Payload | STV","players":[{"user_id":688,"name":"Larso","steam_id":76561198996464912,"connected_time":606000000000,"state":"active","ping":61},{"user_id":686,"name":"MR.CRAB","steam_id":76561198329833659,"connected_time":779000000000,"state":"active","ping":76},{"user_id":697,"name":"sex havin'","steam_id":76561198169857427,"connected_time":284000000000,"state":"active","ping":75},{"user_id":648,"name":"eeeeee","steam_id":76561198017786875,"connected_time":3808000000000,"state":"active","ping":64},{"user_id":637,"name":"Big Tits","steam_id":76561198071226377,"connected_time":4250000000000,"state":"active","ping":83},{"user_id":391,"name":"New","steam_id":76561198402195911,"connected_time":19479000000000,"state":"active","ping":124},{"user_id":699,"name":"Carrotcracker","steam_id":76561198034862396,"connected_time":181000000000,"state":"active","ping":83},{"user_id":575,"name":"sleep","steam_id":76561198034882276,"connected_time":7937000000000,"state":"active","ping":89},{"user_id":698,"name":"СЛЕПОГЛУХОНЕМОЙ","steam_id":76561198341070950,"connected_time":276000000000,"state":"active","ping":103},{"user_id":525,"name":"Uncle Mickey","steam_id":76561198050945401,"connected_time":11789000000000,"state":"active","ping":87},{"user_id":638,"name":"ttk","steam_id":76561198094684065,"connected_time":4240000000000,"state":"active","ping":77},{"user_id":694,"name":"alma","steam_id":76561198857712172,"connected_time":401000000000,"state":"active","ping":47},{"user_id":657,"name":"Jamie","steam_id":76561198007043853,"connected_time":3038000000000,"state":"active","ping":60},{"user_id":672,"name":"H2Orange","steam_id":76561198082128552,"connected_time":1777000000000,"state":"active","ping":75},{"user_id":701,"name":"NuttyNut93","steam_id":76561198050275114,"connected_time":103000000000,"state":"active","ping":44},{"user_id":666,"name":"Int3rnet","steam_id":76561198049289285,"connected_time":2452000000000,"state":"active","ping":63},{"user_id":661,"name":"Raymus","steam_id":76561198021330407,"connected_time":2799000000000,"state":"active","ping":46},{"user_id":702,"name":"Quasimodo","steam_id":76561198143450673,"connected_time":44000000000,"state":"active","ping":103},{"user_id":673,"name":"alphawarrior999","steam_id":76561199001580062,"connected_time":1747000000000,"state":"active","ping":139},{"user_id":658,"name":"sloppy transgirl toppy","steam_id":76561198057092208,"connected_time":3038000000000,"state":"active","ping":71},{"user_id":584,"name":"Bob","steam_id":76561198059559471,"connected_time":7366000000000,"state":"active","ping":102}]},{"server_id":41,"name":"Uncletopia | London | 8 | Community","name_short":"lon-8","host":"lon-1.uk.uncletopia.com","port":27085,"enabled":true,"region":"eu","cc":"gb","latitude":51.509865,"longitude":-0.118092,"reserved":0,"last_update":"0001-01-01T00:00:00Z","name_a2s":"Uncletopia | London | 8 | Community","protocol":17,"map":"workshop/koth_product_final.ugc454272353","folder":"tf","game":"Team Fortress","app_id":440,"player_count":5,"max_players":24,"Bots":0,"server_type":"Dedicated","server_os":"Linux","password":true,"vac":true,"version":"7757534","steam_id":85568392924964315,"keywords":["cp","nocrits","nodmgspread","uncletopia"],"game_id":440,"stv_port":27086,"stv_name":"Uncletopia | London | 8 | Community | STV","players":[{"user_id":188,"name":"LordGabey","steam_id":76561199230739676,"connected_time":67000000000,"state":"spawning","ping":262},{"user_id":182,"name":"Wrath","steam_id":76561198054368494,"connected_time":3672000000000,"state":"active","ping":72},{"user_id":184,"name":"scope","steam_id":76561198281647082,"connected_time":3104000000000,"state":"active","ping":94},{"user_id":178,"name":"Fish Bait","steam_id":76561198196406966,"connected_time":3800000000000,"state":"active","ping":74},{"user_id":179,"name":"Dehydrated lft","steam_id":76561198970587989,"connected_time":3787000000000,"state":"active","ping":87}]},{"server_id":300,"name":"Uncletopia | Montréal | 1 | All Maps","name_short":"mtl-1","host":"mtl-1.ca.uncletopia.com","port":27015,"enabled":true,"region":"us-east","cc":"ca","latitude":45.50889,"longitude":-73.56167,"reserved":0,"last_update":"0001-01-01T00:00:00Z","name_a2s":"Uncletopia | Montréal | 1 | All Maps","protocol":17,"map":"koth_cascade","folder":"tf","game":"Team Fortress","app_id":440,"player_count":0,"max_players":24,"Bots":0,"server_type":"Dedicated","server_os":"Linux","password":true,"vac":true,"version":"7757534","steam_id":85568392924500087,"keywords":["cp","nocrits","nodmgspread","uncletopia"],"game_id":440,"stv_port":27016,"stv_name":"Uncletopia | Montréal | 1 | All Maps | STV","players":null},{"server_id":301,"name":"Uncletopia | Montréal | 2 | All Maps","name_short":"mtl-2","host":"mtl-1.ca.uncletopia.com","port":27025,"enabled":true,"region":"us-east","cc":"ca","latitude":45.50889,"longitude":-73.56167,"reserved":0,"last_update":"0001-01-01T00:00:00Z","name_a2s":"Uncletopia | Montréal | 2 | All Maps","protocol":17,"map":"cp_dustbowl","folder":"tf","game":"Team Fortress","app_id":440,"player_count":11,"max_players":24,"Bots":0,"server_type":"Dedicated","server_os":"Linux","password":true,"vac":true,"version":"7757534","steam_id":85568392924500088,"keywords":["cp","nocrits","nodmgspread","uncletopia"],"game_id":440,"stv_port":27026,"stv_name":"Uncletopia | Montréal | 2 | All Maps | STV","players":[{"user_id":127,"name":"alex","steam_id":76561198095203229,"connected_time":19000000000,"state":"active","ping":60},{"user_id":65,"name":"Caretnose","steam_id":76561198021762583,"connected_time":5187000000000,"state":"active","ping":45},{"user_id":14,"name":"custodian","steam_id":76561198058793778,"connected_time":8208000000000,"state":"active","ping":50},{"user_id":90,"name":"that one","steam_id":76561199088969462,"connected_time":3119000000000,"state":"active","ping":71},{"user_id":81,"name":"Monst3r","steam_id":76561198900654469,"connected_time":4057000000000,"state":"active","ping":54},{"user_id":125,"name":"edgඞr","steam_id":76561198369967690,"connected_time":569000000000,"state":"active","ping":76},{"user_id":104,"name":"クケイ","steam_id":76561198215122444,"connected_time":1885000000000,"state":"active","ping":82},{"user_id":106,"name":"Heartgold","steam_id":76561199062592062,"connected_time":1801000000000,"state":"active","ping":70},{"user_id":60,"name":"MagikarpEX","steam_id":76561198166172279,"connected_time":5345000000000,"state":"active","ping":53},{"user_id":66,"name":"hpesoJ*","steam_id":76561198031341893,"connected_time":4787000000000,"state":"active","ping":45},{"user_id":119,"name":"MentalPatient","steam_id":76561197974098623,"connected_time":1322000000000,"state":"active","ping":23}]},{"server_id":302,"name":"Uncletopia | Montréal | 3 | All Maps","name_short":"mtl-3","host":"mtl-1.ca.uncletopia.com","port":27035,"enabled":true,"region":"us-east","cc":"ca","latitude":45.50889,"longitude":-73.56167,"reserved":0,"last_update":"0001-01-01T00:00:00Z","name_a2s":"Uncletopia | Montréal | 3 | All Maps","protocol":17,"map":"cp_dustbowl","folder":"tf","game":"Team Fortress","app_id":440,"player_count":5,"max_players":24,"Bots":0,"server_type":"Dedicated","server_os":"Linux","password":true,"vac":true,"version":"7757534","steam_id":85568392924500089,"keywords":["cp","nocrits","nodmgspread","uncletopia"],"game_id":440,"stv_port":27036,"stv_name":"Uncletopia | Montréal | 3 | All Maps | STV","players":[{"user_id":21,"name":"Nedrog the Lost","steam_id":76561198272270244,"connected_time":3458000000000,"state":"active","ping":97},{"user_id":22,"name":"HappyHitchhiker","steam_id":76561198080228697,"connected_time":3454000000000,"state":"active","ping":100},{"user_id":23,"name":"TypicalGiftig","steam_id":76561198170372495,"connected_time":3430000000000,"state":"active","ping":97},{"user_id":24,"name":"Sp3ktrgfx","steam_id":76561198053070408,"connected_time":3406000000000,"state":"active","ping":100},{"user_id":31,"name":"Canadian James","steam_id":76561198880675219,"connected_time":714000000000,"state":"active","ping":115}]},{"server_id":303,"name":"Uncletopia | Montréal | 4 | No Payload","name_short":"mtl-4","host":"mtl-1.ca.uncletopia.com","port":27045,"enabled":true,"region":"us-east","cc":"ca","latitude":45.50889,"longitude":-73.56167,"reserved":0,"last_update":"0001-01-01T00:00:00Z","name_a2s":"Uncletopia | Montréal | 4 | No Payload","protocol":17,"map":"ctf_sawmill","folder":"tf","game":"Team Fortress","app_id":440,"player_count":0,"max_players":24,"Bots":0,"server_type":"Dedicated","server_os":"Linux","password":true,"vac":true,"version":"7757534","steam_id":85568392924500090,"keywords":["ctf","nocrits","nodmgspread","uncletopia"],"game_id":440,"stv_port":27046,"stv_name":"Uncletopia | Montréal | 4 | No Payload | STV","players":null},{"server_id":13,"name":"Uncletopia | New York City | 1 | All Maps","name_short":"nyc-1","host":"nyc-1.us.uncletopia.com","port":27015,"enabled":true,"region":"us-east","cc":"us","latitude":40.73061,"longitude":-73.93524,"reserved":0,"last_update":"0001-01-01T00:00:00Z","name_a2s":"Uncletopia | New York City | 1 | All Maps","protocol":17,"map":"pl_frontier_final","folder":"tf","game":"Team Fortress","app_id":440,"player_count":24,"max_players":24,"Bots":0,"server_type":"Dedicated","server_os":"Linux","password":true,"vac":true,"version":"7757534","steam_id":85568392924469993,"keywords":["nocrits","nodmgspread","payload","uncletopia"],"game_id":440,"stv_port":27016,"stv_name":"Uncletopia | New York City | 1 | All Maps | STV","players":[{"user_id":466,"name":"Ｔ ｅ ｒ ｒ ｏ ｒ ！","steam_id":76561198829853789,"connected_time":2762000000000,"state":"active","ping":73},{"user_id":518,"name":"JacripspyVulcano","steam_id":76561198966980576,"connected_time":763000000000,"state":"active","ping":42},{"user_id":491,"name":"CR4YCR4Y","steam_id":76561198009310297,"connected_time":1569000000000,"state":"active","ping":55},{"user_id":524,"name":"Sniper is snipe here","steam_id":76561198430871842,"connected_time":479000000000,"state":"active","ping":52},{"user_id":525,"name":"Hynkybryk","steam_id":76561198057049048,"connected_time":473000000000,"state":"active","ping":46},{"user_id":452,"name":"Glitchy stick","steam_id":76561199013429386,"connected_time":3725000000000,"state":"active","ping":70},{"user_id":512,"name":"Gary Budussy","steam_id":76561197969793969,"connected_time":1221000000000,"state":"active","ping":84},{"user_id":517,"name":"Reisen","steam_id":76561199174579733,"connected_time":953000000000,"state":"active","ping":197},{"user_id":529,"name":"[GUT] RiDiK®","steam_id":76561197969756446,"connected_time":138000000000,"state":"active","ping":75},{"user_id":489,"name":"Code","steam_id":76561198121528534,"connected_time":1729000000000,"state":"active","ping":62},{"user_id":514,"name":"heimdall","steam_id":76561198069380992,"connected_time":1142000000000,"state":"active","ping":96},{"user_id":504,"name":"Yakul","steam_id":76561198100040013,"connected_time":1308000000000,"state":"active","ping":87},{"user_id":480,"name":"DeviserDude","steam_id":76561198298631671,"connected_time":2374000000000,"state":"active","ping":65},{"user_id":526,"name":"Big Sauce","steam_id":76561198046654750,"connected_time":464000000000,"state":"active","ping":54},{"user_id":506,"name":"A Lost CAWs","steam_id":76561198127120212,"connected_time":1297000000000,"state":"active","ping":85},{"user_id":414,"name":"DiscoTraveler","steam_id":76561199240168088,"connected_time":6206000000000,"state":"active","ping":47},{"user_id":515,"name":"GalaxyFoxMC","steam_id":76561199109558624,"connected_time":1106000000000,"state":"active","ping":65},{"user_id":508,"name":"Your Local NPR Station","steam_id":76561198143830279,"connected_time":1244000000000,"state":"active","ping":60},{"user_id":509,"name":"deech","steam_id":76561198066429444,"connected_time":1243000000000,"state":"active","ping":51},{"user_id":516,"name":"HeisenBurger","steam_id":76561198040632080,"connected_time":1098000000000,"state":"active","ping":60},{"user_id":527,"name":"engineer is engi here","steam_id":76561198307309264,"connected_time":461000000000,"state":"active","ping":47},{"user_id":510,"name":"TTVdaywaa","steam_id":76561198039686606,"connected_time":1239000000000,"state":"active","ping":72},{"user_id":528,"name":"dwnkins","steam_id":76561198856016840,"connected_time":426000000000,"state":"active","ping":65},{"user_id":513,"name":"Servitz #savetf2","steam_id":76561198194446835,"connected_time":1202000000000,"state":"active","ping":89}]},{"server_id":14,"name":"Uncletopia | New York City | 2 | All Maps","name_short":"nyc-2","host":"nyc-1.us.uncletopia.com","port":27025,"enabled":true,"region":"us-east","cc":"us","latitude":40.73061,"longitude":-73.93524,"reserved":0,"last_update":"0001-01-01T00:00:00Z","name_a2s":"Uncletopia | New York City | 2 | All Maps","protocol":17,"map":"pl_upward","folder":"tf","game":"Team Fortress","app_id":440,"player_count":24,"max_players":24,"Bots":0,"server_type":"Dedicated","server_os":"Linux","password":true,"vac":true,"version":"7757534","steam_id":85568392924469994,"keywords":["nocrits","nodmgspread","payload","uncletopia"],"game_id":440,"stv_port":27026,"stv_name":"Uncletopia | New York City | 2 | All Maps | STV","players":[{"user_id":278,"name":"pee fortress poo","steam_id":76561198131326507,"connected_time":1834000000000,"state":"active","ping":54},{"user_id":306,"name":"Polygunner","steam_id":76561199165741650,"connected_time":163000000000,"state":"active","ping":72},{"user_id":307,"name":"Gandalf Gaming","steam_id":76561198368151490,"connected_time":121000000000,"state":"active","ping":49},{"user_id":266,"name":"Wattchit","steam_id":76561197999410233,"connected_time":2628000000000,"state":"active","ping":74},{"user_id":268,"name":"Billy Smiles","steam_id":76561198066154229,"connected_time":2583000000000,"state":"active","ping":123},{"user_id":263,"name":"The Escape Plan","steam_id":76561199278125206,"connected_time":2686000000000,"state":"active","ping":168},{"user_id":303,"name":"xen","steam_id":76561198048568188,"connected_time":326000000000,"state":"active","ping":52},{"user_id":284,"name":"slowdance","steam_id":76561198097427947,"connected_time":1032000000000,"state":"active","ping":156},{"user_id":267,"name":"Kago","steam_id":76561198122617301,"connected_time":2612000000000,"state":"active","ping":49},{"user_id":282,"name":"Jeffery Jitterson","steam_id":76561199021400714,"connected_time":1172000000000,"state":"active","ping":44},{"user_id":304,"name":"airballer","steam_id":76561198165899125,"connected_time":296000000000,"state":"active","ping":50},{"user_id":305,"name":"awesome","steam_id":76561198248656836,"connected_time":231000000000,"state":"active","ping":84},{"user_id":302,"name":"evnobev","steam_id":76561198038966462,"connected_time":410000000000,"state":"active","ping":44},{"user_id":194,"name":"Nassu","steam_id":76561198147367577,"connected_time":8844000000000,"state":"active","ping":94},{"user_id":287,"name":"HRT","steam_id":76561198013781132,"connected_time":948000000000,"state":"active","ping":104},{"user_id":300,"name":"PaPá Soulzuneヅ","steam_id":76561198139615052,"connected_time":443000000000,"state":"active","ping":114},{"user_id":232,"name":"PunchGhost","steam_id":76561198041668043,"connected_time":5055000000000,"state":"active","ping":66},{"user_id":254,"name":"morphtext","steam_id":76561199021314980,"connected_time":4005000000000,"state":"active","ping":88},{"user_id":308,"name":"boseph jale","steam_id":76561198149056438,"connected_time":101000000000,"state":"active","ping":121},{"user_id":290,"name":"M1ssile T0E","steam_id":76561199052865451,"connected_time":860000000000,"state":"active","ping":67},{"user_id":292,"name":"JohhnyFromCali :7","steam_id":76561198044015725,"connected_time":805000000000,"state":"active","ping":90},{"user_id":301,"name":"FROYO domando","steam_id":76561199150367705,"connected_time":436000000000,"state":"active","ping":88},{"user_id":293,"name":"Back with the milk","steam_id":76561199020105501,"connected_time":802000000000,"state":"active","ping":47},{"user_id":281,"name":"SuperFresh","steam_id":76561198200723198,"connected_time":1373000000000,"state":"active","ping":62}]},{"server_id":15,"name":"Uncletopia | New York City | 3 | Stopwatch Beta","name_short":"nyc-3","host":"nyc-1.us.uncletopia.com","port":27035,"enabled":true,"region":"us-east","cc":"us","latitude":40.73061,"longitude":-73.93524,"reserved":0,"last_update":"0001-01-01T00:00:00Z","name_a2s":"Uncletopia | New York City | 3 | Stopwatch Beta","protocol":17,"map":"workshop/pl_badwater_pro_v12.ugc2142942074","folder":"tf","game":"Team Fortress","app_id":440,"player_count":0,"max_players":24,"Bots":0,"server_type":"Dedicated","server_os":"Linux","password":true,"vac":true,"version":"7757534","steam_id":85568392924742820,"keywords":["nocrits","nodmgspread","payload","uncletopia"],"game_id":440,"stv_port":27036,"stv_name":"Uncletopia | New York City | 3 | Stopwatch Beta | STV","players":null},{"server_id":16,"name":"Uncletopia | New York City | 4 | Community","name_short":"nyc-4","host":"nyc-1.us.uncletopia.com","port":27045,"enabled":true,"region":"us-east","cc":"us","latitude":40.73061,"longitude":-73.93524,"reserved":0,"last_update":"0001-01-01T00:00:00Z","name_a2s":"Uncletopia | New York City | 4 | Community","protocol":17,"map":"workshop/rd_asteroid_redux_b1.ugc2154902912","folder":"tf","game":"Team Fortress","app_id":440,"player_count":0,"max_players":24,"Bots":0,"server_type":"Dedicated","server_os":"Linux","password":true,"vac":true,"version":"7757534","steam_id":85568392924742821,"keywords":["beta","nocrits","nodmgspread","rd","uncletopia"],"game_id":440,"stv_port":27046,"stv_name":"Uncletopia | New York City | 4 | Community | STV","players":null},{"server_id":142,"name":"Uncletopia | São Paulo | 1 | All Maps","name_short":"sao-1","host":"sao-1.br.uncletopia.com","port":27015,"enabled":true,"region":"sa","cc":"br","latitude":-23.533773,"longitude":-46.62529,"reserved":0,"last_update":"0001-01-01T00:00:00Z","name_a2s":"Uncletopia | São Paulo | 1 | All Maps","protocol":17,"map":"koth_highpass","folder":"tf","game":"Team Fortress","app_id":440,"player_count":0,"max_players":24,"Bots":0,"server_type":"Dedicated","server_os":"Linux","password":true,"vac":true,"version":"7757534","steam_id":85568392924469996,"keywords":["cp","nocrits","nodmgspread","uncletopia"],"game_id":440,"stv_port":27016,"stv_name":"Uncletopia | São Paulo | 1 | All Maps | STV","players":null},{"server_id":143,"name":"Uncletopia | São Paulo | 2 | All Maps","name_short":"sao-2","host":"sao-2.br.uncletopia.com","port":27015,"enabled":true,"region":"sa","cc":"br","latitude":-23.533773,"longitude":-46.62529,"reserved":0,"last_update":"0001-01-01T00:00:00Z","name_a2s":"Uncletopia | São Paulo | 2 | All Maps","protocol":17,"map":"pl_snowycoast","folder":"tf","game":"Team Fortress","app_id":440,"player_count":0,"max_players":24,"Bots":0,"server_type":"Dedicated","server_os":"Linux","password":true,"vac":true,"version":"7757534","steam_id":85568392924485349,"keywords":["nocrits","nodmgspread","payload","uncletopia"],"game_id":440,"stv_port":27016,"stv_name":"Uncletopia | São Paulo | 2 | All Maps | STV","players":null},{"server_id":7,"name":"Uncletopia | Seattle | 1 | All Maps","name_short":"sea-1","host":"sea-1.us.uncletopia.com","port":27015,"enabled":true,"region":"us-west","cc":"us","latitude":47.608013,"longitude":-122.33517,"reserved":0,"last_update":"0001-01-01T00:00:00Z","name_a2s":"Uncletopia | Seattle | 1 | All Maps","protocol":17,"map":"cp_process_final","folder":"tf","game":"Team Fortress","app_id":440,"player_count":24,"max_players":24,"Bots":0,"server_type":"Dedicated","server_os":"Linux","password":true,"vac":true,"version":"7757534","steam_id":85568392924469997,"keywords":["cp","nocrits","nodmgspread","uncletopia"],"game_id":440,"stv_port":27016,"stv_name":"Uncletopia | Seattle | 1 | All Maps | STV","players":[{"user_id":279,"name":"a chicken","steam_id":76561198313121580,"connected_time":4251000000000,"state":"active","ping":82},{"user_id":304,"name":"Lesbian Futa Mommy","steam_id":76561198130479030,"connected_time":2795000000000,"state":"active","ping":58},{"user_id":330,"name":"Level 99 Mudcrab","steam_id":76561198077452771,"connected_time":785000000000,"state":"active","ping":55},{"user_id":268,"name":"MS Paint Gamer","steam_id":76561198964527916,"connected_time":5112000000000,"state":"active","ping":50},{"user_id":319,"name":"oil","steam_id":76561198099980149,"connected_time":1134000000000,"state":"active","ping":86},{"user_id":317,"name":"Tyzombiecrusher","steam_id":76561198175855278,"connected_time":1193000000000,"state":"active","ping":94},{"user_id":320,"name":"Ion{M}","steam_id":76561197993457435,"connected_time":1126000000000,"state":"active","ping":117},{"user_id":329,"name":"al-Kohol","steam_id":76561197998530400,"connected_time":869000000000,"state":"active","ping":76},{"user_id":313,"name":"discord kitten","steam_id":76561198210322871,"connected_time":1850000000000,"state":"active","ping":69},{"user_id":285,"name":"j","steam_id":76561198162075431,"connected_time":3735000000000,"state":"active","ping":75},{"user_id":340,"name":"DUI god","steam_id":76561199108194233,"connected_time":318000000000,"state":"active","ping":61},{"user_id":323,"name":"Chad the Sex Haver","steam_id":76561198058236528,"connected_time":1050000000000,"state":"active","ping":89},{"user_id":322,"name":"oo","steam_id":76561198119626492,"connected_time":1109000000000,"state":"active","ping":72},{"user_id":337,"name":"Spectre","steam_id":76561198025652246,"connected_time":376000000000,"state":"active","ping":84},{"user_id":335,"name":"Nakasmacka","steam_id":76561198049787270,"connected_time":532000000000,"state":"active","ping":51},{"user_id":342,"name":"Glar","steam_id":76561198341907150,"connected_time":113000000000,"state":"active","ping":40},{"user_id":290,"name":"Moth","steam_id":76561198170253694,"connected_time":3490000000000,"state":"active","ping":61},{"user_id":332,"name":"Sgt Autmn","steam_id":76561198072047939,"connected_time":674000000000,"state":"active","ping":45},{"user_id":312,"name":"Freaky Tiki 97","steam_id":76561198045293933,"connected_time":2019000000000,"state":"active","ping":99},{"user_id":338,"name":"hermit wizard","steam_id":76561198015156743,"connected_time":370000000000,"state":"active","ping":85},{"user_id":325,"name":"Grify","steam_id":76561198012292317,"connected_time":1023000000000,"state":"active","ping":146},{"user_id":339,"name":"gorf 3","steam_id":76561198196909319,"connected_time":349000000000,"state":"active","ping":56},{"user_id":341,"name":"sopmod","steam_id":76561198453203619,"connected_time":240000000000,"state":"active","ping":75},{"user_id":251,"name":"Your kinky Onee-san","steam_id":76561199146582356,"connected_time":5864000000000,"state":"active","ping":60}]},{"server_id":119,"name":"Uncletopia | Seattle | 2 | All Maps","name_short":"sea-2","host":"sea-1.us.uncletopia.com","port":27025,"enabled":true,"region":"us-west","cc":"us","latitude":47.608013,"longitude":-122.33517,"reserved":0,"last_update":"0001-01-01T00:00:00Z","name_a2s":"Uncletopia | Seattle | 2 | All Maps","protocol":17,"map":"koth_viaduct","folder":"tf","game":"Team Fortress","app_id":440,"player_count":14,"max_players":24,"Bots":0,"server_type":"Dedicated","server_os":"Linux","password":true,"vac":true,"version":"7757534","steam_id":85568392924469998,"keywords":["cp","nocrits","nodmgspread","uncletopia"],"game_id":440,"stv_port":27026,"stv_name":"Uncletopia | Seattle | 2 | All Maps | STV","players":[{"user_id":247,"name":"Dr. Bubs","steam_id":76561198011696595,"connected_time":16000000000,"state":"spawning","ping":98},{"user_id":203,"name":"Daz","steam_id":76561198041431938,"connected_time":3767000000000,"state":"active","ping":119},{"user_id":234,"name":"Toastedtoast222","steam_id":76561198120756409,"connected_time":285000000000,"state":"active","ping":46},{"user_id":242,"name":"Nekogaming1500","steam_id":76561198979123816,"connected_time":133000000000,"state":"active","ping":51},{"user_id":244,"name":"SlitherDoodle","steam_id":76561198000275473,"connected_time":96000000000,"state":"active","ping":53},{"user_id":245,"name":"Birdman743","steam_id":76561198799636748,"connected_time":91000000000,"state":"active","ping":59},{"user_id":246,"name":"blahturretx","steam_id":76561198062998225,"connected_time":89000000000,"state":"active","ping":65},{"user_id":227,"name":"JaQweek","steam_id":76561198231561020,"connected_time":1362000000000,"state":"active","ping":45},{"user_id":219,"name":"Quansen","steam_id":76561198151594550,"connected_time":1630000000000,"state":"active","ping":91},{"user_id":237,"name":"Scout","steam_id":76561199061701470,"connected_time":223000000000,"state":"active","ping":107},{"user_id":238,"name":"Johnson, Navin R.","steam_id":76561197961107982,"connected_time":205000000000,"state":"active","ping":84},{"user_id":241,"name":"shy guy","steam_id":76561198151246059,"connected_time":168000000000,"state":"active","ping":61},{"user_id":239,"name":"The Visible Invisible Woman","steam_id":76561198358029722,"connected_time":189000000000,"state":"active","ping":194},{"user_id":230,"name":"YahYeeterson","steam_id":76561198120480906,"connected_time":1056000000000,"state":"active","ping":63}]},{"server_id":406,"name":"Uncletopia | Seattle | 3 | Stopwatch Beta","name_short":"sea-3","host":"sea-1.us.uncletopia.com","port":27035,"enabled":true,"region":"us-west","cc":"us","latitude":47.608013,"longitude":-122.33517,"reserved":0,"last_update":"0001-01-01T00:00:00Z","name_a2s":"Uncletopia | Seattle | 3 | Stopwatch Beta","protocol":17,"map":"workshop/koth_ashville_final.ugc2130459942","folder":"tf","game":"Team Fortress","app_id":440,"player_count":0,"max_players":24,"Bots":0,"server_type":"Dedicated","server_os":"Linux","password":true,"vac":true,"version":"7757534","steam_id":85568392924515217,"keywords":["cp","nocrits","nodmgspread","uncletopia"],"game_id":440,"stv_port":27036,"stv_name":"Uncletopia | Seattle | 3 | Stopwatch Beta | STV","players":null},{"server_id":17,"name":"Uncletopia | San Francisco | 1 | All Maps","name_short":"sfo-1","host":"sfo-1.us.uncletopia.com","port":27015,"enabled":true,"region":"us-west","cc":"us","latitude":37.77397,"longitude":-122.4313,"reserved":0,"last_update":"0001-01-01T00:00:00Z","name_a2s":"Uncletopia | San Francisco | 1 | All Maps","protocol":17,"map":"pl_borneo","folder":"tf","game":"Team Fortress","app_id":440,"player_count":0,"max_players":24,"Bots":0,"server_type":"Dedicated","server_os":"Linux","password":true,"vac":true,"version":"7757534","steam_id":85568392924469999,"keywords":["nocrits","nodmgspread","payload","uncletopia"],"game_id":440,"stv_port":27016,"stv_name":"Uncletopia | San Francisco | 1 | All Maps | STV","players":null},{"server_id":18,"name":"Uncletopia | San Francisco | 2 | All Maps","name_short":"sfo-2","host":"sfo-1.us.uncletopia.com","port":27025,"enabled":true,"region":"us-west","cc":"us","latitude":37.77397,"longitude":-122.4313,"reserved":0,"last_update":"0001-01-01T00:00:00Z","name_a2s":"Uncletopia | San Francisco | 2 | All Maps","protocol":17,"map":"koth_highpass","folder":"tf","game":"Team Fortress","app_id":440,"player_count":24,"max_players":24,"Bots":0,"server_type":"Dedicated","server_os":"Linux","password":true,"vac":true,"version":"7757534","steam_id":85568392924470000,"keywords":["cp","nocrits","nodmgspread","uncletopia"],"game_id":440,"stv_port":27026,"stv_name":"Uncletopia | San Francisco | 2 | All Maps | STV","players":[{"user_id":20,"name":"Kopenich","steam_id":76561198066205245,"connected_time":3163000000000,"state":"active","ping":63},{"user_id":78,"name":"greens beans","steam_id":76561198153611491,"connected_time":529000000000,"state":"active","ping":54},{"user_id":79,"name":"riSygneD","steam_id":76561198331618687,"connected_time":522000000000,"state":"active","ping":41},{"user_id":85,"name":"takeshi_","steam_id":76561198148797456,"connected_time":367000000000,"state":"active","ping":45},{"user_id":40,"name":"john","steam_id":76561198850447852,"connected_time":1945000000000,"state":"active","ping":76},{"user_id":90,"name":"ToastEatinBread","steam_id":76561199154323267,"connected_time":42000000000,"state":"spawning","ping":80},{"user_id":86,"name":"Arbiter Soul","steam_id":76561198067798973,"connected_time":291000000000,"state":"active","ping":67},{"user_id":35,"name":"jenny possum","steam_id":76561198062879460,"connected_time":2216000000000,"state":"active","ping":70},{"user_id":39,"name":"Flo","steam_id":76561198880866690,"connected_time":1964000000000,"state":"active","ping":94},{"user_id":80,"name":"Villchip","steam_id":76561198198599982,"connected_time":519000000000,"state":"active","ping":72},{"user_id":88,"name":"Feral Gooner Maniac","steam_id":76561198833024576,"connected_time":200000000000,"state":"active","ping":95},{"user_id":37,"name":"stillgeneric?","steam_id":76561198872727936,"connected_time":2074000000000,"state":"active","ping":58},{"user_id":38,"name":"valefor","steam_id":76561198074777193,"connected_time":2031000000000,"state":"active","ping":99},{"user_id":82,"name":"moe","steam_id":76561198929586245,"connected_time":487000000000,"state":"active","ping":51},{"user_id":66,"name":"Crystallixed","steam_id":76561198072263515,"connected_time":1006000000000,"state":"active","ping":108},{"user_id":75,"name":"Alpharius","steam_id":76561197996284353,"connected_time":797000000000,"state":"active","ping":88},{"user_id":89,"name":"Sixteen60","steam_id":76561198296453242,"connected_time":183000000000,"state":"active","ping":75},{"user_id":60,"name":"OddShax","steam_id":76561198038685512,"connected_time":1407000000000,"state":"active","ping":46},{"user_id":48,"name":"Mina's Ninas","steam_id":76561198046502179,"connected_time":1802000000000,"state":"active","ping":68},{"user_id":49,"name":"Masecalibur","steam_id":76561198979170264,"connected_time":1793000000000,"state":"active","ping":67},{"user_id":76,"name":"Dynamo","steam_id":76561198057875639,"connected_time":783000000000,"state":"active","ping":65},{"user_id":84,"name":"Soke","steam_id":76561198135416383,"connected_time":413000000000,"state":"active","ping":75},{"user_id":87,"name":"vern","steam_id":76561198129892148,"connected_time":273000000000,"state":"active","ping":73},{"user_id":73,"name":"CrazySquirrel","steam_id":76561198206338200,"connected_time":862000000000,"state":"active","ping":115}]},{"server_id":19,"name":"Uncletopia | San Francisco | 3 | Stopwatch Beta","name_short":"sfo-3","host":"sfo-1.us.uncletopia.com","port":27035,"enabled":true,"region":"us-west","cc":"us","latitude":37.77397,"longitude":-122.4313,"reserved":0,"last_update":"0001-01-01T00:00:00Z","name_a2s":"Uncletopia | San Francisco | 3 | Stopwatch Beta","protocol":17,"map":"workshop/koth_bagel_rc6.ugc2514036946","folder":"tf","game":"Team Fortress","app_id":440,"player_count":0,"max_players":24,"Bots":0,"server_type":"Dedicated","server_os":"Linux","password":true,"vac":true,"version":"7757534","steam_id":85568392924742824,"keywords":["cp","nocrits","nodmgspread","uncletopia"],"game_id":440,"stv_port":27036,"stv_name":"Uncletopia | San Francisco | 3 | Stopwatch Beta | STV","players":null},{"server_id":20,"name":"Uncletopia | San Francisco | 4 | Community","name_short":"sfo-4","host":"sfo-1.us.uncletopia.com","port":27045,"enabled":true,"region":"us-west","cc":"us","latitude":37.77397,"longitude":-122.4313,"reserved":0,"last_update":"0001-01-01T00:00:00Z","name_a2s":"Uncletopia | San Francisco | 4 | Community","protocol":17,"map":"workshop/koth_trenchfoot_b1a.ugc731436616","folder":"tf","game":"Team Fortress","app_id":440,"player_count":24,"max_players":24,"Bots":0,"server_type":"Dedicated","server_os":"Linux","password":true,"vac":true,"version":"7757534","steam_id":85568392924742826,"keywords":["cp","nocrits","nodmgspread","uncletopia"],"game_id":440,"stv_port":27046,"stv_name":"Uncletopia | San Francisco | 4 | Community | STV","players":[{"user_id":109,"name":"jawnymac","steam_id":76561198179529599,"connected_time":4060000000000,"state":"active","ping":51},{"user_id":173,"name":"Bastee1021","steam_id":76561199456141163,"connected_time":604000000000,"state":"active","ping":87},{"user_id":137,"name":"TheDogeIsReal","steam_id":76561199331300024,"connected_time":2554000000000,"state":"active","ping":84},{"user_id":159,"name":"FakeBot","steam_id":76561197961193303,"connected_time":909000000000,"state":"active","ping":77},{"user_id":181,"name":"The Cop Fentanyl Debuff","steam_id":76561197991817974,"connected_time":13000000000,"state":"spawning","ping":79},{"user_id":167,"name":"StaticMask","steam_id":76561198195269583,"connected_time":804000000000,"state":"active","ping":123},{"user_id":146,"name":"girl pisser","steam_id":76561198065848254,"connected_time":1897000000000,"state":"active","ping":113},{"user_id":101,"name":"Hairy Pear","steam_id":76561198087397457,"connected_time":4720000000000,"state":"active","ping":86},{"user_id":176,"name":"Pancho the tf2ber (real)","steam_id":76561198956465989,"connected_time":349000000000,"state":"active","ping":119},{"user_id":139,"name":"DAMM BRO","steam_id":76561198984762462,"connected_time":2382000000000,"state":"active","ping":50},{"user_id":172,"name":"pythagorean theorem","steam_id":76561199043068973,"connected_time":679000000000,"state":"active","ping":47},{"user_id":157,"name":"TangenT","steam_id":76561198211278067,"connected_time":939000000000,"state":"active","ping":78},{"user_id":147,"name":"The Freak","steam_id":76561198145304571,"connected_time":1891000000000,"state":"active","ping":55},{"user_id":160,"name":"Phlogging Solly","steam_id":76561198020580071,"connected_time":895000000000,"state":"active","ping":63},{"user_id":180,"name":"tutituti","steam_id":76561199102070698,"connected_time":171000000000,"state":"active","ping":64},{"user_id":148,"name":"DerpMan","steam_id":76561198341191324,"connected_time":1888000000000,"state":"active","ping":61},{"user_id":149,"name":"Zach_The_Flower","steam_id":76561199151266003,"connected_time":1855000000000,"state":"active","ping":139},{"user_id":161,"name":"t.tv/FamilyGuyFunnyMoments277","steam_id":76561198416047580,"connected_time":872000000000,"state":"active","ping":140},{"user_id":162,"name":"WANKER .LLC","steam_id":76561198165773382,"connected_time":869000000000,"state":"active","ping":63},{"user_id":163,"name":"iamsohardrn","steam_id":76561199147510427,"connected_time":865000000000,"state":"active","ping":67},{"user_id":86,"name":"Raphael","steam_id":76561198101425586,"connected_time":5555000000000,"state":"active","ping":70},{"user_id":178,"name":"yung fujo","steam_id":76561198116908911,"connected_time":273000000000,"state":"active","ping":120},{"user_id":95,"name":"Captain Dain","steam_id":76561198204045832,"connected_time":5099000000000,"state":"active","ping":108},{"user_id":166,"name":"Blue Banana","steam_id":76561198100077411,"connected_time":840000000000,"state":"active","ping":60}]},{"server_id":141,"name":"Uncletopia | Sydney | 1 | All Maps","name_short":"syd-1","host":"syd-1.au.uncletopia.com","port":27015,"enabled":true,"region":"au","cc":"au","latitude":-33.865143,"longitude":151.2099,"reserved":0,"last_update":"0001-01-01T00:00:00Z","name_a2s":"Uncletopia | Sydney | 1 | All Maps","protocol":17,"map":"pl_borneo","folder":"tf","game":"Team Fortress","app_id":440,"player_count":0,"max_players":24,"Bots":0,"server_type":"Dedicated","server_os":"Linux","password":true,"vac":true,"version":"7757534","steam_id":85568392924470001,"keywords":["nocrits","nodmgspread","payload","uncletopia"],"game_id":440,"stv_port":27016,"stv_name":"Uncletopia | Sydney | 1 | All Maps | STV","players":null},{"server_id":123,"name":"Uncletopia | Sydney | 2 | All Maps","name_short":"syd-2","host":"syd-1.au.uncletopia.com","port":27025,"enabled":true,"region":"au","cc":"au","latitude":-33.865143,"longitude":151.2099,"reserved":0,"last_update":"0001-01-01T00:00:00Z","name_a2s":"Uncletopia | Sydney | 2 | All Maps","protocol":17,"map":"cp_snakewater_final1","folder":"tf","game":"Team Fortress","app_id":440,"player_count":0,"max_players":24,"Bots":0,"server_type":"Dedicated","server_os":"Linux","password":true,"vac":true,"version":"7757534","steam_id":85568392924470002,"keywords":["cp","nocrits","nodmgspread","uncletopia"],"game_id":440,"stv_port":27026,"stv_name":"Uncletopia | Sydney | 2 | All Maps | STV","players":null},{"server_id":395,"name":"Uncletopia | Sydney | 3 | All Maps","name_short":"syd-3","host":"syd-1.au.uncletopia.com","port":27035,"enabled":true,"region":"au","cc":"au","latitude":-33.865143,"longitude":151.2099,"reserved":0,"last_update":"0001-01-01T00:00:00Z","name_a2s":"Uncletopia | Sydney | 3 | All Maps","protocol":17,"map":"pl_borneo","folder":"tf","game":"Team Fortress","app_id":440,"player_count":0,"max_players":24,"Bots":0,"server_type":"Dedicated","server_os":"Linux","password":true,"vac":true,"version":"7757534","steam_id":85568392925194467,"keywords":["nocrits","nodmgspread","payload","uncletopia"],"game_id":440,"stv_port":27036,"stv_name":"Uncletopia | Sydney | 3 | All Maps | STV","players":null},{"server_id":396,"name":"Uncletopia | Sydney | 4 | All Maps","name_short":"syd-4","host":"syd-1.au.uncletopia.com","port":27045,"enabled":true,"region":"au","cc":"au","latitude":-33.865143,"longitude":151.2099,"reserved":0,"last_update":"0001-01-01T00:00:00Z","name_a2s":"Uncletopia | Sydney | 4 | All Maps","protocol":17,"map":"cp_process_final","folder":"tf","game":"Team Fortress","app_id":440,"player_count":0,"max_players":24,"Bots":0,"server_type":"Dedicated","server_os":"Linux","password":true,"vac":true,"version":"7757534","steam_id":85568392925397958,"keywords":["cp","nocrits","nodmgspread","uncletopia"],"game_id":440,"stv_port":27046,"stv_name":"Uncletopia | Sydney | 4 | All Maps | STV","players":null},{"server_id":58,"name":"Uncletopia | Sydney | 5 | Stopwatch Beta","name_short":"syd-5","host":"syd-1.au.uncletopia.com","port":27055,"enabled":true,"region":"au","cc":"au","latitude":-33.865143,"longitude":151.2099,"reserved":0,"last_update":"0001-01-01T00:00:00Z","name_a2s":"Uncletopia | Sydney | 5 | Stopwatch Beta","protocol":17,"map":"cp_sunshine","folder":"tf","game":"Team Fortress","app_id":440,"player_count":0,"max_players":24,"Bots":0,"server_type":"Dedicated","server_os":"Linux","password":true,"vac":true,"version":"7757534","steam_id":85568392925397959,"keywords":["cp","nocrits","nodmgspread","uncletopia"],"game_id":440,"stv_port":27056,"stv_name":"Uncletopia | Sydney | 5 | Stopwatch Beta | STV","players":null},{"server_id":59,"name":"Uncletopia | Sydney | 6 | Community","name_short":"syd-6","host":"syd-1.au.uncletopia.com","port":27065,"enabled":true,"region":"au","cc":"au","latitude":-33.865143,"longitude":151.2099,"reserved":0,"last_update":"0001-01-01T00:00:00Z","name_a2s":"Uncletopia | Sydney | 6 | Community","protocol":17,"map":"pl_badwater","folder":"tf","game":"Team Fortress","app_id":440,"player_count":0,"max_players":24,"Bots":0,"server_type":"Dedicated","server_os":"Linux","password":true,"vac":true,"version":"7757534","steam_id":85568392925397960,"keywords":["nocrits","nodmgspread","payload","uncletopia"],"game_id":440,"stv_port":27066,"stv_name":"Uncletopia | Sydney | 6 | Community | STV","players":null},{"server_id":49,"name":"Uncletopia | Warsaw | 1 | All Maps","name_short":"waw-1","host":"waw-1.pl.uncletopia.com","port":27015,"enabled":true,"region":"eu","cc":"pl","latitude":52.2297,"longitude":21.017532,"reserved":0,"last_update":"0001-01-01T00:00:00Z","name_a2s":"","protocol":0,"map":"","folder":"","game":"","app_id":0,"player_count":0,"max_players":0,"Bots":0,"server_type":"","server_os":"","password":false,"vac":false,"version":"","steam_id":0,"keywords":null,"game_id":0,"stv_port":0,"stv_name":"","players":null},{"server_id":50,"name":"Uncletopia | Warsaw | 2 | All Maps","name_short":"waw-2","host":"waw-1.pl.uncletopia.com","port":27025,"enabled":true,"region":"eu","cc":"pl","latitude":52.2297,"longitude":21.017532,"reserved":0,"last_update":"0001-01-01T00:00:00Z","name_a2s":"Uncletopia | Warsaw | 2 | All Maps","protocol":17,"map":"cp_gullywash_final1","folder":"tf","game":"Team Fortress","app_id":440,"player_count":0,"max_players":24,"Bots":0,"server_type":"Dedicated","server_os":"Linux","password":true,"vac":true,"version":"7757534","steam_id":85568392925397851,"keywords":["cp","nocrits","nodmgspread","uncletopia"],"game_id":440,"stv_port":27026,"stv_name":"Uncletopia | Warsaw | 2 | All Maps | STV","players":null},{"server_id":51,"name":"Uncletopia | Warsaw | 3 | All Maps","name_short":"waw-3","host":"waw-1.pl.uncletopia.com","port":27035,"enabled":true,"region":"eu","cc":"pl","latitude":52.2297,"longitude":21.017532,"reserved":0,"last_update":"0001-01-01T00:00:00Z","name_a2s":"Uncletopia | Warsaw | 3 | All Maps","protocol":17,"map":"pl_swiftwater_final1","folder":"tf","game":"Team Fortress","app_id":440,"player_count":0,"max_players":24,"Bots":0,"server_type":"Dedicated","server_os":"Linux","password":true,"vac":true,"version":"7757534","steam_id":85568392925397852,"keywords":["nocrits","nodmgspread","payload","uncletopia"],"game_id":440,"stv_port":27036,"stv_name":"Uncletopia | Warsaw | 3 | All Maps | STV","players":null},{"server_id":52,"name":"Uncletopia | Warsaw | 4 | All Maps","name_short":"waw-4","host":"waw-1.pl.uncletopia.com","port":27045,"enabled":true,"region":"eu","cc":"pl","latitude":52.2297,"longitude":21.017532,"reserved":0,"last_update":"0001-01-01T00:00:00Z","name_a2s":"Uncletopia | Warsaw | 4 | All Maps","protocol":17,"map":"koth_highpass","folder":"tf","game":"Team Fortress","app_id":440,"player_count":3,"max_players":24,"Bots":0,"server_type":"Dedicated","server_os":"Linux","password":true,"vac":true,"version":"7757534","steam_id":85568392925397853,"keywords":["cp","nocrits","nodmgspread","uncletopia"],"game_id":440,"stv_port":27046,"stv_name":"Uncletopia | Warsaw | 4 | All Maps | STV","players":[{"user_id":35,"name":"Osmo","steam_id":76561199286764992,"connected_time":2807000000000,"state":"active","ping":56},{"user_id":39,"name":"eric","steam_id":76561198988470542,"connected_time":1009000000000,"state":"active","ping":67},{"user_id":41,"name":"kravun","steam_id":76561198280995954,"connected_time":758000000000,"state":"active","ping":98}]},{"server_id":53,"name":"Uncletopia | Warsaw | 5 | Stopwatch Beta","name_short":"waw-5","host":"waw-1.pl.uncletopia.com","port":27055,"enabled":true,"region":"eu","cc":"pl","latitude":52.2297,"longitude":21.017532,"reserved":0,"last_update":"0001-01-01T00:00:00Z","name_a2s":"Uncletopia | Warsaw | 5 | Stopwatch Beta","protocol":17,"map":"pl_pier","folder":"tf","game":"Team Fortress","app_id":440,"player_count":0,"max_players":24,"Bots":0,"server_type":"Dedicated","server_os":"Linux","password":true,"vac":true,"version":"7757534","steam_id":85568392925397854,"keywords":["nocrits","nodmgspread","payload","uncletopia"],"game_id":440,"stv_port":27056,"stv_name":"Uncletopia | Warsaw | 5 | Stopwatch Beta | STV","players":null},{"server_id":54,"name":"Uncletopia | Warsaw | 6 | Community","name_short":"waw-6","host":"waw-1.pl.uncletopia.com","port":27065,"enabled":true,"region":"eu","cc":"pl","latitude":52.2297,"longitude":21.017532,"reserved":0,"last_update":"0001-01-01T00:00:00Z","name_a2s":"Uncletopia | Warsaw | 6 | Community","protocol":17,"map":"workshop/pl_divulgence_b4b.ugc2884808746","folder":"tf","game":"Team Fortress","app_id":440,"player_count":0,"max_players":24,"Bots":0,"server_type":"Dedicated","server_os":"Linux","password":true,"vac":true,"version":"7757534","steam_id":85568392925397856,"keywords":["nocrits","nodmgspread","payload","uncletopia"],"game_id":440,"stv_port":27066,"stv_name":"Uncletopia | Warsaw | 6 | Community | STV","players":null}]}