{"status":true,"message":"","result":[{"server_id":9,"name":"Uncletopia | Atlanta | 1 | All Maps","name_short":"atl-1","host":"atl-1.us.uncletopia.com","port":27015,"enabled":true,"region":"us-east","cc":"us","latitude":33.753746,"longitude":-84.38633,"reserved":0,"last_update":"0001-01-01T00:00:00Z","name_a2s":"Uncletopia | Atlanta | 1 | All Maps","protocol":17,"map":"pl_borneo","folder":"tf","game":"Team Fortress","app_id":440,"player_count":24,"max_players":24,"Bots":0,"server_type":"Dedicated","server_os":"Linux","password":true,"vac":true,"version":"7961495","steam_id":85568392924469982,"keywords":["nocrits","nodmgspread","payload","uncletopia"],"game_id":440,"stv_port":27016,"stv_name":"Uncletopia | Atlanta | 1 | All Maps | STV","players":[{"user_id":88,"name":"joyeuxnoelle","steam_id":76561198062423120,"connected_time":840000000000,"state":"active","ping":60},{"user_id":6,"name":"Obelisk","steam_id":76561198049416866,"connected_time":7643000000000,"state":"active","ping":45},{"user_id":81,"name":"why","steam_id":76561199059732212,"connected_time":1861000000000,"state":"active","ping":55},{"user_id":9,"name":"MARIOPARTYDSFAN","steam_id":76561198872122117,"connected_time":7369000000000,"state":"active","ping":82},{"user_id":77,"name":"Underscorn","steam_id":76561198374209415,"connected_time":2832000000000,"state":"active","ping":74},{"user_id":69,"name":"felon","steam_id":76561199100342013,"connected_time":3383000000000,"state":"active","ping":95},{"user_id":66,"name":"Talented","steam_id":76561198800259660,"connected_time":3559000000000,"state":"active","ping":48},{"user_id":93,"name":"metalfan666","steam_id":76561198386344068,"connected_time":682000000000,"state":"active","ping":74},{"user_id":45,"name":"Peter griffin","steam_id":76561198277602752,"connected_time":5517000000000,"state":"active","ping":166},{"user_id":78,"name":"Le4n!!!","steam_id":76561198045522596,"connected_time":2118000000000,"state":"active","ping":66},{"user_id":17,"name":"Mr. Trolle Gaming","steam_id":76561199162533951,"connected_time":7051000000000,"state":"active","ping":59},{"user_id":82,"name":"Junior605","steam_id":76561198818786845,"connected_time":1844000000000,"state":"active","ping":58},{"user_id":80,"name":"Shame","steam_id":76561198100490994,"connected_time":1938000000000,"state":"active","ping":65},{"user_id":44,"name":"Gimme your Teeth","steam_id":76561198240523882,"connected_time":5596000000000,"state":"active","ping":95},{"user_id":95,"name":"thomasdee725???","steam_id":76561199189526173,"connected_time":671000000000,"state":"active","ping":90},{"user_id":90,"name":"johnny_potatoes","steam_id":76561198823526581,"connected_time":807000000000,"state":"active","ping":75},{"user_id":92,"name":"Singular Rooster","steam_id":76561197983872657,"connected_time":707000000000,"state":"active","ping":36},{"user_id":97,"name":"Maestro","steam_id":76561198157325020,"connected_time":90000000000,"state":"active","ping":65},{"user_id":84,"name":"Albino Jellyfish","steam_id":76561198208561097,"connected_time":1840000000000,"state":"active","ping":58},{"user_id":57,"name":"ndvr (femboy (REAL))","steam_id":76561199379200102,"connected_time":4604000000000,"state":"active","ping":60},{"user_id":85,"name":"sansa musa","steam_id":76561198163723555,"connected_time":1300000000000,"state":"active","ping":74},{"user_id":86,"name":"icecxld","steam_id":76561198079018805,"connected_time":1154000000000,"state":"active","ping":75},{"user_id":96,"name":"Ghost","steam_id":76561198110914180,"connected_time":461000000000,"state":"active","ping":185},{"user_id":76,"name":"LLLFarm2012","steam_id":76561199199786915,"connected_time":2871000000000,"state":"active","ping":100}]},{"server_id":104,"name":"Uncletopia | Atlanta | 2 | All Maps","name_short":"atl-2","host":"atl-1.us.uncletopia.com","port":27025,"enabled":true,"region":"us-east","cc":"us","latitude":33.753746,"longitude":-84.38633,"reserved":0,"last_update":"0001-01-01T00:00:00Z","name_a2s":"Uncletopia | Atlanta | 2 | All Maps","protocol":17,"map":"koth_lakeside_final","folder":"tf","game":"Team Fortress","app_id":440,"player_count":0,"max_players":24,"Bots":0,"server_type":"Dedicated","server_os":"Linux","password":true,"vac":true,"version":"7961495","steam_id":85568392924469983,"keywords":["cp","nocrits","nodmgspread","uncletopia"],"game_id":440,"stv_port":27026,"stv_name":"Uncletopia | Atlanta | 2 | All Maps | STV","players":null},{"server_id":400,"name":"Uncletopia | Atlanta | 3 | Stopwatch","name_short":"atl-3","host":"atl-1.us.uncletopia.com","port":27035,"enabled":true,"region":"us-east","cc":"us","latitude":33.753746,"longitude":-84.38633,"reserved":0,"last_update":"0001-01-01T00:00:00Z","name_a2s":"Uncletopia | Atlanta | 3 | Stopwatch","protocol":17,"map":"workshop/koth_ashville_final.ugc2130459942","folder":"tf","game":"Team Fortress","app_id":440,"player_count":0,"max_players":24,"Bots":0,"server_type":"Dedicated","server_os":"Linux","password":true,"vac":true,"version":"7961495","steam_id":85568392924515187,"keywords":["cp","nocrits","nodmgspread","uncletopia"],"game_id":440,"stv_port":27036,"stv_name":"Uncletopia | Atlanta | 3 | Stopwatch | STV","players":null},{"server_id":401,"name":"Uncletopia | Atlanta | 4 | Community","name_short":"atl-4","host":"atl-1.us.uncletopia.com","port":27045,"enabled":true,"region":"us-east","cc":"us","latitude":33.753746,"longitude":-84.38633,"reserved":0,"last_update":"0001-01-01T00:00:00Z","name_a2s":"Uncletopia | Atlanta | 4 | Community","protocol":17,"map":"workshop/pl_badwater_pro_v12.ugc2142942074","folder":"tf","game":"Team Fortress","app_id":440,"player_count":0,"max_players":24,"Bots":0,"server_type":"Dedicated","server_os":"Linux","password":true,"vac":true,"version":"7961495","steam_id":85568392924515188,"keywords":["nocrits","nodmgspread","payload","uncletopia"],"game_id":440,"stv_port":27046,"stv_name":"Uncletopia | Atlanta | 4 | Community | STV","players":null},{"server_id":2,"name":"Uncletopia | Chicago | 1 | All Maps","name_short":"chi-1","host":"chi-1.us.uncletopia.com","port":27015,"enabled":true,"region":"us-central","cc":"us","latitude":41.881832,"longitude":-87.62318,"reserved":0,"last_update":"0001-01-01T00:00:00Z","name_a2s":"Uncletopia | Chicago | 1 | All Maps","protocol":17,"map":"pl_frontier_final","folder":"tf","game":"Team Fortress","app_id":440,"player_count":24,"max_players":24,"Bots":0,"server_type":"Dedicated","server_os":"Linux","password":true,"vac":true,"version":"7961495","steam_id":85568392924469984,"keywords":["nocrits","nodmgspread","payload","uncletopia"],"game_id":440,"stv_port":27016,"stv_name":"Uncletopia | Chicago | 1 | All Maps | STV","players":[{"user_id":349,"name":"Fiebs","steam_id":76561198073881842,"connected_time":844000000000,"state":"active","ping":69},{"user_id":273,"name":"Bloodborne","steam_id":76561198072541436,"connected_time":7692000000000,"state":"active","ping":45},{"user_id":336,"name":"toss","steam_id":76561198024060038,"connected_time":1931000000000,"state":"active","ping":72},{"user_id":345,"name":"Slab civilnetworks.net","steam_id":76561198968032452,"connected_time":1482000000000,"state":"active","ping":69},{"user_id":350,"name":"Aztea","steam_id":76561198982089893,"connected_time":697000000000,"state":"active","ping":91},{"user_id":334,"name":"Bi0llante","steam_id":76561198291007860,"connected_time":2107000000000,"state":"active","ping":95},{"user_id":357,"name":"Outta Kenya","steam_id":76561198153604875,"connected_time":523000000000,"state":"active","ping":72},{"user_id":332,"name":"Nic","steam_id":76561198333983754,"connected_time":2218000000000,"state":"active","ping":73},{"user_id":363,"name":"WorldsWorstGamer","steam_id":76561199126634917,"connected_time":142000000000,"state":"active","ping":45},{"user_id":361,"name":"bath","steam_id":76561197969993352,"connected_time":214000000000,"state":"active","ping":62},{"user_id":362,"name":"Person","steam_id":76561198093244204,"connected_time":168000000000,"state":"active","ping":77},{"user_id":346,"name":"beep","steam_id":76561199096448766,"connected_time":1388000000000,"state":"active","ping":60},{"user_id":364,"name":"Zodyxajon","steam_id":76561198165561581,"connected_time":68000000000,"state":"active","ping":74},{"user_id":249,"name":"Xavibite","steam_id":76561198209380493,"connected_time":9119000000000,"state":"active","ping":61},{"user_id":360,"name":"AB","steam_id":76561199487899460,"connected_time":226000000000,"state":"active","ping":110},{"user_id":304,"name":"Kirby.exe","steam_id":76561198242714582,"connected_time":3706000000000,"state":"active","ping":63},{"user_id":355,"name":"BicycleTube","steam_id":76561198078311430,"connected_time":630000000000,"state":"active","ping":74},{"user_id":330,"name":"Steak-Pocketer","steam_id":76561198277651410,"connected_time":2259000000000,"state":"active","ping":62},{"user_id":356,"name":"shadow6","steam_id":76561197979807910,"connected_time":560000000000,"state":"active","ping":70},{"user_id":298,"name":"Colonel Knacker","steam_id":76561198151578423,"connected_time":4593000000000,"state":"active","ping":51},{"user_id":325,"name":"moebius","steam_id":76561198013079739,"connected_time":2373000000000,"state":"active","ping":68},{"user_id":358,"name":"Skizzo","steam_id":76561198271050573,"connected_time":503000000000,"state":"active","ping":54},{"user_id":347,"name":"Noid","steam_id":76561197980496241,"connected_time":1161000000000,"state":"active","ping":120},{"user_id":328,"name":"m4rc 29k","steam_id":76561199083479139,"connected_time":2285000000000,"state":"active","ping":120}]},{"server_id":106,"name":"Uncletopia | Chicago | 2 | All Maps","name_short":"chi-2","host":"chi-1.us.uncletopia.com","port":27025,"enabled":true,"region":"us-central","cc":"us","latitude":41.881832,"longitude":-87.62318,"reserved":0,"last_update":"0001-01-01T00:00:00Z","name_a2s":"Uncletopia | Chicago | 2 | All Maps","protocol":17,"map":"cp_gorge","folder":"tf","game":"Team Fortress","app_id":440,"player_count":0,"max_players":24,"Bots":0,"server_type":"Dedicated","server_os":"Linux","password":true,"vac":true,"version":"7961495","steam_id":85568392924469985,"keywords":["cp","nocrits","nodmgspread","uncletopia"],"game_id":440,"stv_port":27026,"stv_name":"Uncletopia | Chicago | 2 | All Maps | STV","players":null},{"server_id":402,"name":"Uncletopia | Chicago | 3 | All Maps","name_short":"chi-3","host":"chi-1.us.uncletopia.com","port":27035,"enabled":true,"region":"us-central","cc":"us","latitude":41.881832,"longitude":-87.62318,"reserved":0,"last_update":"0001-01-01T00:00:00Z","name_a2s":"Uncletopia | Chicago | 3 | All Maps","protocol":17,"map":"koth_viaduct","folder":"tf","game":"Team Fortress","app_id":440,"player_count":0,"max_players":24,"Bots":0,"server_type":"Dedicated","server_os":"Linux","password":true,"vac":true,"version":"7961495","steam_id":85568392924515191,"keywords":["cp","nocrits","nodmgspread","uncletopia"],"game_id":440,"stv_port":27036,"stv_name":"Uncletopia | Chicago | 3 | All Maps | STV","players":null},{"server_id":403,"name":"Uncletopia | Chicago | 4 | All Maps","name_short":"chi-4","host":"chi-1.us.uncletopia.com","port":27045,"enabled":true,"region":"us-central","cc":"us","latitude":41.881832,"longitude":-87.62318,"reserved":0,"last_update":"0001-01-01T00:00:00Z","name_a2s":"Uncletopia | Chicago | 4 | All Maps","protocol":17,"map":"cp_snakewater_final1","folder":"tf","game":"Team Fortress","app_id":440,"player_count":24,"max_players":24,"Bots":0,"server_type":"Dedicated","server_os":"Linux","password":true,"vac":true,"version":"7961495","steam_id":85568392924515193,"keywords":["cp","nocrits","nodmgspread","uncletopia"],"game_id":440,"stv_port":27046,"stv_name":"Uncletopia | Chicago | 4 | All Maps | STV","players":[{"user_id":183,"name":"Aerospine","steam_id":76561198021438134,"connected_time":3393000000000,"state":"active","ping":102},{"user_id":239,"name":"scot","steam_id":76561199097866312,"connected_time":842000000000,"state":"active","ping":113},{"user_id":194,"name":"ThatGamingKiwi","steam_id":76561199170522237,"connected_time":2603000000000,"state":"active","ping":63},{"user_id":215,"name":"ol' musty","steam_id":76561198081075865,"connected_time":1551000000000,"state":"active","ping":74},{"user_id":214,"name":"NOLSEY","steam_id":76561198108959504,"connected_time":1707000000000,"state":"active","ping":44},{"user_id":159,"name":"Waesel","steam_id":76561198069188177,"connected_time":5319000000000,"state":"active","ping":74},{"user_id":218,"name":"Genderneutron","steam_id":76561199022773775,"connected_time":1379000000000,"state":"active","ping":77},{"user_id":234,"name":"The noise","steam_id":76561199498088524,"connected_time":956000000000,"state":"active","ping":105},{"user_id":241,"name":"mihazemtsov","steam_id":76561199169366382,"connected_time":721000000000,"state":"active","ping":163},{"user_id":181,"name":"Kung fu MUNGUS","steam_id":76561198069281556,"connected_time":3676000000000,"state":"active","ping":75},{"user_id":225,"name":"galaxy_nova379","steam_id":76561199004274122,"connected_time":1143000000000,"state":"active","ping":57},{"user_id":187,"name":"shrimp","steam_id":76561198092401427,"connected_time":3197000000000,"state":"active","ping":82},{"user_id":190,"name":"Artgrendadier","steam_id":76561198063305359,"connected_time":3045000000000,"state":"active","ping":60},{"user_id":244,"name":"The Spy From TF2","steam_id":76561198396460075,"connected_time":200000000000,"state":"active","ping":94},{"user_id":199,"name":"lets kill this guy","steam_id":76561198448451837,"connected_time":2363000000000,"state":"active","ping":52},{"user_id":240,"name":"Riff III","steam_id":76561198066921423,"connected_time":786000000000,"state":"active","ping":60},{"user_id":185,"name":"indi","steam_id":76561198045917538,"connected_time":3309000000000,"state":"active","ping":59},{"user_id":229,"name":"Ankliosumos","steam_id":76561198106443757,"connected_time":1110000000000,"state":"active","ping":71},{"user_id":216,"name":"seven1","steam_id":76561198082210257,"connected_time":1405000000000,"state":"active","ping":68},{"user_id":242,"name":"yes","steam_id":76561199094011002,"connected_time":452000000000,"state":"active","ping":51},{"user_id":243,"name":"oh yes","steam_id":76561199403427527,"connected_time":356000000000,"state":"active","ping":75},{"user_id":238,"name":"-_-","steam_id":76561198302976864,"connected_time":878000000000,"state":"active","ping":88},{"user_id":210,"name":"Renegaiden","steam_id":76561198060179109,"connected_time":1989000000000,"state":"active","ping":61},{"user_id":228,"name":"Ratlympics Gold Medalist","steam_id":76561198064981004,"connected_time":1128000000000,"state":"active","ping":60}]},{"server_id":36,"name":"Uncletopia | Chicago | 5 | All Maps","name_short":"chi-5","host":"chi-2.us.uncletopia.com","port":27015,"enabled":true,"region":"us-central","cc":"us","latitude":41.881832,"longitude":-87.62318,"reserved":0,"last_update":"0001-01-01T00:00:00Z","name_a2s":"Uncletopia | Chicago | 5 | All Maps","protocol":17,"map":"koth_cascade","folder":"tf","game":"Team Fortress","app_id":440,"player_count":16,"max_players":24,"Bots":0,"server_type":"Dedicated","server_os":"Linux","password":true,"vac":true,"version":"7961495","steam_id":85568392924866362,"keywords":["cp","nocrits","nodmgspread","uncletopia"],"game_id":440,"stv_port":27016,"stv_name":"Uncletopia | Chicago | 5 | All Maps | STV","players":[{"user_id":3,"name":"Average Medic","steam_id":76561198981106464,"connected_time":3216000000000,"state":"active","ping":103},{"user_id":4,"name":"SkooberDoodle","steam_id":76561198828522414,"connected_time":1385000000000,"state":"active","ping":53},{"user_id":5,"name":"Warlock With a Glock","steam_id":76561198271415834,"connected_time":981000000000,"state":"active","ping":55},{"user_id":6,"name":"mdb02","steam_id":76561198118921536,"connected_time":963000000000,"state":"active","ping":72},{"user_id":7,"name":"MangoMaster7834","steam_id":76561199231165397,"connected_time":825000000000,"state":"active","ping":87},{"user_id":8,"name":"i poop my pants","steam_id":76561199488347875,"connected_time":707000000000,"state":"active","ping":72},{"user_id":9,"name":"name420","steam_id":76561198129374525,"connected_time":559000000000,"state":"active","ping":68},{"user_id":10,"name":"pablo","steam_id":76561199190247198,"connected_time":524000000000,"state":"active","ping":117},{"user_id":22,"name":"SmugCoffeeMan","steam_id":76561198040765030,"connected_time":6000000000,"state":"spawning","ping":60},{"user_id":14,"name":"beyonder","steam_id":76561198045844070,"connected_time":256000000000,"state":"active","ping":77},{"user_id":15,"name":"menonamed","steam_id":76561198199564382,"connected_time":233000000000,"state":"active","ping":51},{"user_id":16,"name":"Bon gripper","steam_id":76561198090074621,"connected_time":200000000000,"state":"active","ping":45},{"user_id":17,"name":"BreakfastTacos","steam_id":76561198847620442,"connected_time":184000000000,"state":"active","ping":66},{"user_id":19,"name":"Tequila","steam_id":76561198968058652,"connected_time":57000000000,"state":"active","ping":105},{"user_id":20,"name":"Megatronn","steam_id":76561198796716496,"connected_time":19000000000,"state":"active","ping":533},{"user_id":21,"name":"Splexiey","steam_id":76561199122155213,"connected_time":17000000000,"state":"spawning","ping":80}]},{"server_id":37,"name":"Uncletopia | Chicago | 6 | All Maps","name_short":"chi-6","host":"chi-2.us.uncletopia.com","port":27025,"enabled":true,"region":"us-central","cc":"us","latitude":41.881832,"longitude":-87.62318,"reserved":0,"last_update":"0001-01-01T00:00:00Z","name_a2s":"Uncletopia | Chicago | 6 | All Maps","protocol":17,"map":"ctf_turbine","folder":"tf","game":"Team Fortress","app_id":440,"player_count":0,"max_players":24,"Bots":0,"server_type":"Dedicated","server_os":"Linux","password":true,"vac":true,"version":"7961495","steam_id":85568392924866363,"keywords":["ctf","nocrits","nodmgspread","uncletopia"],"game_id":440,"stv_port":27026,"stv_name":"Uncletopia | Chicago | 6 | All Maps | STV","players":null},{"server_id":38,"name":"Uncletopia | Chicago | 7 | Stopwatch","name_short":"chi-7","host":"chi-2.us.uncletopia.com","port":27035,"enabled":true,"region":"us-central","cc":"us","latitude":41.881832,"longitude":-87.62318,"reserved":0,"last_update":"0001-01-01T00:00:00Z","name_a2s":"Uncletopia | Chicago | 7 | Stopwatch","protocol":17,"map":"workshop/koth_clearcut_b15.ugc2107050255","folder":"tf","game":"Team Fortress","app_id":440,"player_count":0,"max_players":24,"Bots":0,"server_type":"Dedicated","server_os":"Linux","password":true,"vac":true,"version":"7961495","steam_id":85568392924866364,"keywords":["cp","nocrits","nodmgspread","uncletopia"],"game_id":440,"stv_port":27036,"stv_name":"Uncletopia | Chicago | 7 | Stopwatch | STV","players":null},{"server_id":39,"name":"Uncletopia | Chicago | 8 | Community","name_short":"chi-8","host":"chi-2.us.uncletopia.com","port":27045,"enabled":true,"region":"us-central","cc":"us","latitude":41.881832,"longitude":-87.62318,"reserved":0,"last_update":"0001-01-01T00:00:00Z","name_a2s":"Uncletopia | Chicago | 8 | Community","protocol":17,"map":"workshop/koth_slaughter_rc1.ugc1712845210","folder":"tf","game":"Team Fortress","app_id":440,"player_count":0,"max_players":24,"Bots":0,"server_type":"Dedicated","server_os":"Linux","password":true,"vac":true,"version":"7961495","steam_id":85568392924866365,"keywords":["cp","nocrits","nodmgspread","uncletopia"],"game_id":440,"stv_port":27046,"stv_name":"Uncletopia | Chicago | 8 | Community | STV","players":null},{"server_id":8,"name":"Uncletopia | Dallas | 1 | All Maps","name_short":"dal-1","host":"dal-1.us.uncletopia.com","port":27015,"enabled":true,"region":"us-central","cc":"us","latitude":32.779167,"longitude":-96.80889,"reserved":0,"last_update":"0001-01-01T00:00:00Z","name_a2s":"Uncletopia | Dallas | 1 | All Maps","protocol":17,"map":"koth_viaduct","folder":"tf","game":"Team Fortress","app_id":440,"player_count":24,"max_players":24,"Bots":0,"server_type":"Dedicated","server_os":"Linux","password":true,"vac":true,"version":"7961495","steam_id":85568392924469986,"keywords":["cp","nocrits","nodmgspread","uncletopia"],"game_id":440,"stv_port":27016,"stv_name":"Uncletopia | Dallas | 1 | All Maps | STV","players":[{"user_id":244,"name":"Pixelated Pussy","steam_id":76561198002511088,"connected_time":1161000000000,"state":"active","ping":76},{"user_id":235,"name":"Dude Bronson","steam_id":76561198310453894,"connected_time":1889000000000,"state":"active","ping":77},{"user_id":257,"name":"ttv/firepow10 #1fan","steam_id":76561199035458926,"connected_time":561000000000,"state":"active","ping":92},{"user_id":243,"name":"inshallah","steam_id":76561198165212575,"connected_time":1229000000000,"state":"active","ping":82},{"user_id":189,"name":"motherfucker 2.0","steam_id":76561198141189209,"connected_time":5301000000000,"state":"active","ping":41},{"user_id":229,"name":"Derblitz","steam_id":76561198040953176,"connected_time":2508000000000,"state":"active","ping":76},{"user_id":259,"name":"vebr","steam_id":76561199189391772,"connected_time":309000000000,"state":"active","ping":80},{"user_id":262,"name":"Coffee","steam_id":76561198154646418,"connected_time":39000000000,"state":"active","ping":61},{"user_id":254,"name":"TF2C | fac","steam_id":76561198009818412,"connected_time":751000000000,"state":"active","ping":57},{"user_id":252,"name":"transfem atsuko kagari","steam_id":76561198217402847,"connected_time":805000000000,"state":"active","ping":85},{"user_id":258,"name":"Arrluk","steam_id":76561198396679452,"connected_time":533000000000,"state":"active","ping":61},{"user_id":234,"name":"Fishstall","steam_id":76561198038126034,"connected_time":2004000000000,"state":"active","ping":62},{"user_id":260,"name":"ttv/ shouleil","steam_id":76561198970370243,"connected_time":296000000000,"state":"active","ping":77},{"user_id":261,"name":"PowerGem3000","steam_id":76561198944644691,"connected_time":42000000000,"state":"active","ping":66},{"user_id":238,"name":"H\u0026K G36 with pronouns","steam_id":76561199217503417,"connected_time":1864000000000,"state":"active","ping":109},{"user_id":256,"name":"ttv/firepow10","steam_id":76561198111259720,"connected_time":704000000000,"state":"active","ping":90},{"user_id":239,"name":"Bamu","steam_id":76561199069024497,"connected_time":1832000000000,"state":"active","ping":79},{"user_id":219,"name":"Fmr. Afghan Pres Ashraf Ghani","steam_id":76561199082027147,"connected_time":3387000000000,"state":"active","ping":62},{"user_id":232,"name":"bulbasaur890","steam_id":76561198093443639,"connected_time":2294000000000,"state":"active","ping":68},{"user_id":248,"name":"Kk","steam_id":76561198197211135,"connected_time":997000000000,"state":"active","ping":55},{"user_id":195,"name":"An Engineer","steam_id":76561198110381643,"connected_time":4903000000000,"state":"active","ping":59},{"user_id":225,"name":"Nostic","steam_id":76561199508767541,"connected_time":2817000000000,"state":"active","ping":61},{"user_id":249,"name":"Casual Pyro player","steam_id":76561199122146006,"connected_time":996000000000,"state":"active","ping":66},{"user_id":233,"name":"Certified Hood Classic","steam_id":76561199086159354,"connected_time":2073000000000,"state":"active","ping":52}]},{"server_id":108,"name":"Uncletopia | Dallas | 2 | All Maps","name_short":"dal-2","host":"dal-1.us.uncletopia.com","port":27025,"enabled":true,"region":"us-central","cc":"us","latitude":32.779167,"longitude":-96.80889,"reserved":0,"last_update":"0001-01-01T00:00:00Z","name_a2s":"Uncletopia | Dallas | 2 | All Maps","protocol":17,"map":"koth_harvest_final","folder":"tf","game":"Team Fortress","app_id":440,"player_count":0,"max_players":24,"Bots":0,"server_type":"Dedicated","server_os":"Linux","password":true,"vac":true,"version":"7961495","steam_id":85568392924469988,"keywords":["cp","nocrits","nodmgspread","uncletopia"],"game_id":440,"stv_port":27026,"stv_name":"Uncletopia | Dallas | 2 | All Maps | STV","players":null},{"server_id":404,"name":"Uncletopia | Dallas | 3 | All Maps","name_short":"dal-3","host":"dal-1.us.uncletopia.com","port":27035,"enabled":true,"region":"us-central","cc":"us","latitude":32.779167,"longitude":-96.80889,"reserved":0,"last_update":"0001-01-01T00:00:00Z","name_a2s":"Uncletopia | Dallas | 3 | All Maps","protocol":17,"map":"pl_borneo","folder":"tf","game":"Team Fortress","app_id":440,"player_count":0,"max_players":24,"Bots":0,"server_type":"Dedicated","server_os":"Linux","password":true,"vac":true,"version":"7961495","steam_id":85568392924515219,"keywords":["nocrits","nodmgspread","payload","uncletopia"],"game_id":440,"stv_port":27036,"stv_name":"Uncletopia | Dallas | 3 | All Maps | STV","players":null},{"server_id":405,"name":"Uncletopia | Dallas | 4 | Community","name_short":"dal-4","host":"dal-1.us.uncletopia.com","port":27045,"enabled":true,"region":"us-central","cc":"us","latitude":32.779167,"longitude":-96.80889,"reserved":0,"last_update":"0001-01-01T00:00:00Z","name_a2s":"Uncletopia | Dallas | 4 | Community","protocol":17,"map":"workshop/koth_synthetic_rc6a.ugc1549817316","folder":"tf","game":"Team Fortress","app_id":440,"player_count":0,"max_players":24,"Bots":0,"server_type":"Dedicated","server_os":"Linux","password":true,"vac":true,"version":"7961495","steam_id":85568392924515220,"keywords":["cp","nocrits","nodmgspread","uncletopia"],"game_id":440,"stv_port":27046,"stv_name":"Uncletopia | Dallas | 4 | Community | STV","players":null},{"server_id":5,"name":"Uncletopia | Frankfurt | 1 | All Maps","name_short":"frk-1","host":"frk-1.de.uncletopia.com","port":27015,"enabled":true,"region":"eu","cc":"de","latitude":50.110924,"longitude":8.682127,"reserved":0,"last_update":"0001-01-01T00:00:00Z","name_a2s":"Uncletopia | Frankfurt | 1 | All Maps","protocol":17,"map":"pl_borneo","folder":"tf","game":"Team Fortress","app_id":440,"player_count":24,"max_players":24,"Bots":0,"server_type":"Dedicated","server_os":"Linux","password":true,"vac":true,"version":"7961495","steam_id":85568392924469989,"keywords":["nocrits","nodmgspread","payload","uncletopia"],"game_id":440,"stv_port":27016,"stv_name":"Uncletopia | Frankfurt | 1 | All Maps | STV","players":[{"user_id":423,"name":"Ville","steam_id":76561198137424821,"connected_time":645000000000,"state":"active","ping":55},{"user_id":395,"name":"sareena","steam_id":76561198810194062,"connected_time":3065000000000,"state":"active","ping":74},{"user_id":415,"name":"sinkuchan","steam_id":76561198054012474,"connected_time":1349000000000,"state":"active","ping":56},{"user_id":430,"name":"broken","steam_id":76561198209118916,"connected_time":51000000000,"state":"active","ping":91},{"user_id":429,"name":"dochris.2","steam_id":76561198026478625,"connected_time":73000000000,"state":"active","ping":46},{"user_id":411,"name":"AidenQG","steam_id":76561198864678536,"connected_time":2012000000000,"state":"active","ping":57},{"user_id":424,"name":"blackstone_o","steam_id":76561199324934485,"connected_time":591000000000,"state":"active","ping":69},{"user_id":376,"name":"n-ski","steam_id":76561198020550849,"connected_time":4052000000000,"state":"active","ping":78},{"user_id":416,"name":"Pilaarius","steam_id":76561198120273212,"connected_time":1094000000000,"state":"active","ping":99},{"user_id":414,"name":"Gen","steam_id":76561198021775885,"connected_time":1449000000000,"state":"active","ping":48},{"user_id":421,"name":"Mr_Joergen","steam_id":76561198364713702,"connected_time":835000000000,"state":"active","ping":48},{"user_id":426,"name":"öööö✪","steam_id":76561198181645822,"connected_time":400000000000,"state":"active","ping":75},{"user_id":410,"name":"joebot","steam_id":76561197975606100,"connected_time":2027000000000,"state":"active","ping":155},{"user_id":412,"name":"ber.","steam_id":76561197993892057,"connected_time":1677000000000,"state":"active","ping":90},{"user_id":399,"name":"pablo","steam_id":76561198087800030,"connected_time":2928000000000,"state":"active","ping":48},{"user_id":425,"name":"Guru","steam_id":76561198093853069,"connected_time":511000000000,"state":"active","ping":51},{"user_id":420,"name":"Radegast the Brown","steam_id":76561198075489505,"connected_time":836000000000,"state":"active","ping":63},{"user_id":407,"name":"RAT BASTARD","steam_id":76561199195985387,"connected_time":2073000000000,"state":"active","ping":93},{"user_id":413,"name":"goop","steam_id":76561198190073005,"connected_time":1598000000000,"state":"active","ping":57},{"user_id":390,"name":"6bIK_0CeMEHuTEJIb","steam_id":76561198992528373,"connected_time":3230000000000,"state":"active","ping":69},{"user_id":428,"name":"Groose","steam_id":76561198261094295,"connected_time":363000000000,"state":"active","ping":55},{"user_id":382,"name":"mrdanfi","steam_id":76561198983691761,"connected_time":3830000000000,"state":"active","ping":59},{"user_id":419,"name":"ozz-man","steam_id":76561198084676522,"connected_time":951000000000,"state":"active","ping":101},{"user_id":374,"name":"Быдла вой","steam_id":76561198041371314,"connected_time":4079000000000,"state":"active","ping":113}]},{"server_id":110,"name":"Uncletopia | Frankfurt | 2 | All Maps","name_short":"frk-2","host":"frk-1.de.uncletopia.com","port":27025,"enabled":true,"region":"eu","cc":"de","latitude":50.110924,"longitude":8.682127,"reserved":0,"last_update":"0001-01-01T00:00:00Z","name_a2s":"Uncletopia | Frankfurt | 2 | All Maps","protocol":17,"map":"pl_upward","folder":"tf","game":"Team Fortress","app_id":440,"player_count":24,"max_players":24,"Bots":0,"server_type":"Dedicated","server_os":"Linux","password":true,"vac":true,"version":"7961495","steam_id":85568392924469990,"keywords":["nocrits","nodmgspread","payload","uncletopia"],"game_id":440,"stv_port":27026,"stv_name":"Uncletopia | Frankfurt | 2 | All Maps | STV","players":[{"user_id":604,"name":"Blu","steam_id":76561198147814781,"connected_time":1851000000000,"state":"active","ping":68},{"user_id":542,"name":"Jone","steam_id":76561198955248352,"connected_time":6164000000000,"state":"active","ping":65},{"user_id":603,"name":"guru{Hari}","steam_id":76561197997001681,"connected_time":1866000000000,"state":"active","ping":70},{"user_id":619,"name":"Dakeyras","steam_id":76561198057069564,"connected_time":482000000000,"state":"active","ping":91},{"user_id":597,"name":"Hoff","steam_id":76561198138540938,"connected_time":2340000000000,"state":"active","ping":67},{"user_id":624,"name":"Villdjack","steam_id":76561197999480096,"connected_time":271000000000,"state":"active","ping":60},{"user_id":616,"name":"LEGEND FUMO.","steam_id":76561198061033903,"connected_time":536000000000,"state":"active","ping":48},{"user_id":615,"name":"stepbro","steam_id":76561198119607160,"connected_time":886000000000,"state":"active","ping":70},{"user_id":612,"name":"Stellar Fox","steam_id":76561198236985244,"connected_time":1634000000000,"state":"active","ping":64},{"user_id":606,"name":"Fazbear","steam_id":76561198406606196,"connected_time":1822000000000,"state":"active","ping":74},{"user_id":617,"name":"Jude!","steam_id":76561197983597798,"connected_time":525000000000,"state":"active","ping":49},{"user_id":607,"name":"Zimkor","steam_id":76561198894444717,"connected_time":1801000000000,"state":"active","ping":80},{"user_id":618,"name":"Favi","steam_id":76561198013236935,"connected_time":520000000000,"state":"active","ping":53},{"user_id":608,"name":"Felwo3","steam_id":76561199217352978,"connected_time":1757000000000,"state":"active","ping":99},{"user_id":602,"name":"Novu","steam_id":76561198886997024,"connected_time":1881000000000,"state":"active","ping":150},{"user_id":620,"name":"bananilson","steam_id":76561198044219183,"connected_time":451000000000,"state":"active","ping":75},{"user_id":621,"name":"XxBenShapiro420xX","steam_id":76561199229373972,"connected_time":446000000000,"state":"active","ping":76},{"user_id":587,"name":"kurd pride","steam_id":76561198052898368,"connected_time":3145000000000,"state":"active","ping":70},{"user_id":601,"name":"tallen","steam_id":76561198061708595,"connected_time":1967000000000,"state":"active","ping":86},{"user_id":622,"name":"gagalak","steam_id":76561198089979108,"connected_time":444000000000,"state":"active","ping":121},{"user_id":614,"name":"Doctor Mobius","steam_id":76561197971281806,"connected_time":1038000000000,"state":"active","ping":51},{"user_id":613,"name":"hasky","steam_id":76561197986052798,"connected_time":1506000000000,"state":"active","ping":61},{"user_id":626,"name":"unnam3d","steam_id":76561198286257338,"connected_time":161000000000,"state":"active","ping":60},{"user_id":623,"name":"jones","steam_id":76561198044434971,"connected_time":415000000000,"state":"active","ping":60}]},{"server_id":308,"name":"Uncletopia | Frankfurt | 3 | All Maps","name_short":"frk-3","host":"frk-1.de.uncletopia.com","port":27035,"enabled":true,"region":"eu","cc":"de","latitude":50.110924,"longitude":8.682127,"reserved":0,"last_update":"0001-01-01T00:00:00Z","name_a2s":"Uncletopia | Frankfurt | 3 | All Maps","protocol":17,"map":"pl_snowycoast","folder":"tf","game":"Team Fortress","app_id":440,"player_count":0,"max_players":24,"Bots":0,"server_type":"Dedicated","server_os":"Linux","password":true,"vac":true,"version":"7961495","steam_id":85568392924504274,"keywords":["nocrits","nodmgspread","payload","uncletopia"],"game_id":440,"stv_port":27036,"stv_name":"Uncletopia | Frankfurt | 3 | All Maps | STV","players":null},{"server_id":309,"name":"Uncletopia | Frankfurt | 4 | All Maps","name_short":"frk-4","host":"frk-1.de.uncletopia.com","port":27045,"enabled":true,"region":"eu","cc":"de","latitude":50.110924,"longitude":8.682127,"reserved":0,"last_update":"0001-01-01T00:00:00Z","name_a2s":"Uncletopia | Frankfurt | 4 | All Maps","protocol":17,"map":"pl_pier","folder":"tf","game":"Team Fortress","app_id":440,"player_count":24,"max_players":24,"Bots":0,"server_type":"Dedicated","server_os":"Linux","password":true,"vac":true,"version":"7961495","steam_id":85568392924504275,"keywords":["nocrits","nodmgspread","payload","uncletopia"],"game_id":440,"stv_port":27046,"stv_name":"Uncletopia | Frankfurt | 4 | All Maps | STV","players":[{"user_id":433,"name":"NatP","steam_id":76561198012083811,"connected_time":896000000000,"state":"active","ping":73},{"user_id":439,"name":"NoName","steam_id":76561198108612230,"connected_time":651000000000,"state":"active","ping":73},{"user_id":386,"name":"Gordon Birdman","steam_id":76561198013382324,"connected_time":4627000000000,"state":"active","ping":67},{"user_id":350,"name":"ggwp","steam_id":76561199141037141,"connected_time":6432000000000,"state":"active","ping":67},{"user_id":393,"name":"cister0","steam_id":76561198130195469,"connected_time":4154000000000,"state":"active","ping":66},{"user_id":425,"name":"slippin jimmy","steam_id":76561198090788590,"connected_time":2009000000000,"state":"active","ping":56},{"user_id":435,"name":"Xx_LudZip_xX","steam_id":76561198321008764,"connected_time":681000000000,"state":"active","ping":56},{"user_id":437,"name":"AnDrG","steam_id":76561198200357702,"connected_time":663000000000,"state":"active","ping":75},{"user_id":360,"name":"jill sandwich","steam_id":76561198075068529,"connected_time":5990000000000,"state":"active","ping":52},{"user_id":438,"name":"Любитель Туч","steam_id":76561198984812061,"connected_time":660000000000,"state":"active","ping":69},{"user_id":443,"name":"HayLeX","steam_id":76561198130997343,"connected_time":538000000000,"state":"active","ping":75},{"user_id":441,"name":"NALA","steam_id":76561198039806469,"connected_time":637000000000,"state":"active","ping":68},{"user_id":419,"name":"6a6kin","steam_id":76561198020106655,"connected_time":2362000000000,"state":"active","ping":78},{"user_id":377,"name":"Dan","steam_id":76561198438672658,"connected_time":5102000000000,"state":"active","ping":65},{"user_id":424,"name":"Qwertuss","steam_id":76561198026305366,"connected_time":2165000000000,"state":"active","ping":49},{"user_id":429,"name":"Skelet","steam_id":76561198051685232,"connected_time":1664000000000,"state":"active","ping":54},{"user_id":442,"name":"✪Beer☭","steam_id":76561198129884760,"connected_time":601000000000,"state":"active","ping":71},{"user_id":340,"name":"❤Speedbump❤","steam_id":76561198388690313,"connected_time":7491000000000,"state":"active","ping":46},{"user_id":420,"name":"ko","steam_id":76561198010098129,"connected_time":2351000000000,"state":"active","ping":91},{"user_id":445,"name":"colgate","steam_id":76561198041035808,"connected_time":467000000000,"state":"active","ping":51},{"user_id":421,"name":"joe biden gamer","steam_id":76561198356383438,"connected_time":2251000000000,"state":"active","ping":49},{"user_id":446,"name":"Laru","steam_id":76561197998838438,"connected_time":291000000000,"state":"active","ping":80},{"user_id":385,"name":"MISTER SIUUU","steam_id":76561198018330092,"connected_time":4714000000000,"state":"active","ping":62},{"user_id":432,"name":"citronous","steam_id":76561198093290934,"connected_time":1119000000000,"state":"active","ping":46}]},{"server_id":310,"name":"Uncletopia | Frankfurt | 5 | All Maps","name_short":"frk-5","host":"frk-1.de.uncletopia.com","port":27055,"enabled":true,"region":"eu","cc":"de","latitude":50.110924,"longitude":8.682127,"reserved":0,"last_update":"0001-01-01T00:00:00Z","name_a2s":"Uncletopia | Frankfurt | 5 | All Maps","protocol":17,"map":"pl_borneo","folder":"tf","game":"Team Fortress","app_id":440,"player_count":24,"max_players":24,"Bots":0,"server_type":"Dedicated","server_os":"Linux","password":true,"vac":true,"version":"7961495","steam_id":85568392924504277,"keywords":["nocrits","nodmgspread","payload","uncletopia"],"game_id":440,"stv_port":27056,"stv_name":"Uncletopia | Frankfurt | 5 | All Maps | STV","players":[{"user_id":721,"name":"you will shit bricks","steam_id":76561198139303045,"connected_time":63000000000,"state":"active","ping":82},{"user_id":720,"name":"le big mac","steam_id":76561199026378253,"connected_time":74000000000,"state":"active","ping":50},{"user_id":701,"name":"Roofer","steam_id":76561198822735363,"connected_time":1115000000000,"state":"active","ping":69},{"user_id":716,"name":"Xens","steam_id":76561198208839507,"connected_time":141000000000,"state":"active","ping":116},{"user_id":675,"name":"Old Boy Anter","steam_id":76561198153786963,"connected_time":3071000000000,"state":"active","ping":81},{"user_id":706,"name":"teetoi","steam_id":76561198269382352,"connected_time":778000000000,"state":"active","ping":66},{"user_id":714,"name":"Shlyk","steam_id":76561198333387103,"connected_time":189000000000,"state":"active","ping":102},{"user_id":700,"name":"seed","steam_id":76561198413807861,"connected_time":1166000000000,"state":"active","ping":61},{"user_id":677,"name":"t0ksi","steam_id":76561198107240798,"connected_time":3021000000000,"state":"active","ping":68},{"user_id":717,"name":"JohnTraveltime","steam_id":76561199244281754,"connected_time":124000000000,"state":"active","ping":57},{"user_id":718,"name":"ramedlaV^^","steam_id":76561198074352339,"connected_time":117000000000,"state":"active","ping":73},{"user_id":702,"name":"Kuickfire","steam_id":76561198066476639,"connected_time":869000000000,"state":"active","ping":96},{"user_id":641,"name":"fish","steam_id":76561198092096689,"connected_time":6110000000000,"state":"active","ping":45},{"user_id":692,"name":"quesadilla","steam_id":76561198162873354,"connected_time":1338000000000,"state":"active","ping":106},{"user_id":709,"name":".apo","steam_id":76561198003042239,"connected_time":473000000000,"state":"active","ping":56},{"user_id":654,"name":"Lyncurion","steam_id":76561199260022725,"connected_time":5406000000000,"state":"active","ping":74},{"user_id":681,"name":"sAmasam","steam_id":76561198114953928,"connected_time":2785000000000,"state":"active","ping":58},{"user_id":708,"name":"Michael","steam_id":76561198003146906,"connected_time":720000000000,"state":"active","ping":58},{"user_id":722,"name":"´R3ddy","steam_id":76561198093203685,"connected_time":61000000000,"state":"active","ping":44},{"user_id":683,"name":"Crazy Duck","steam_id":76561198091149178,"connected_time":2420000000000,"state":"active","ping":92},{"user_id":723,"name":"Very Original Name","steam_id":76561199159833013,"connected_time":57000000000,"state":"active","ping":63},{"user_id":629,"name":"cirrem","steam_id":76561198265192382,"connected_time":6529000000000,"state":"active","ping":60},{"user_id":712,"name":"★poyo★","steam_id":76561198150078959,"connected_time":259000000000,"state":"active","ping":74}]},{"server_id":311,"name":"Uncletopia | Frankfurt | 6 | All Maps","name_short":"frk-6","host":"frk-1.de.uncletopia.com","port":27065,"enabled":true,"region":"eu","cc":"de","latitude":50.110924,"longitude":8.682127,"reserved":0,"last_update":"0001-01-01T00:00:00Z","name_a2s":"Uncletopia | Frankfurt | 6 | All Maps","protocol":17,"map":"pl_frontier_final","folder":"tf","game":"Team Fortress","app_id":440,"player_count":24,"max_players":24,"Bots":0,"server_type":"Dedicated","server_os":"Linux","password":true,"vac":true,"version":"7961495","steam_id":85568392924504278,"keywords":["nocrits","nodmgspread","payload","uncletopia"],"game_id":440,"stv_port":27066,"stv_name":"Uncletopia | Frankfurt | 6 | All Maps | STV","players":[{"user_id":366,"name":"silicon based life form","steam_id":76561199127121346,"connected_time":119000000000,"state":"active","ping":54},{"user_id":359,"name":"mesλ","steam_id":76561198324582918,"connected_time":849000000000,"state":"active","ping":105},{"user_id":316,"name":"Swayer","steam_id":76561198056192460,"connected_time":3947000000000,"state":"active","ping":65},{"user_id":364,"name":"G_raff","steam_id":76561199048512726,"connected_time":218000000000,"state":"active","ping":75},{"user_id":355,"name":"vurtun","steam_id":76561198857395274,"connected_time":905000000000,"state":"active","ping":37},{"user_id":337,"name":"ifre3","steam_id":76561198052545817,"connected_time":2366000000000,"state":"active","ping":94},{"user_id":264,"name":"literallyjasonx","steam_id":76561198835895387,"connected_time":6120000000000,"state":"active","ping":78},{"user_id":328,"name":"donatofina","steam_id":76561198353497885,"connected_time":3546000000000,"state":"active","ping":87},{"user_id":320,"name":"roblan11","steam_id":76561198066839258,"connected_time":3880000000000,"state":"active","ping":43},{"user_id":322,"name":"Jethro Tull","steam_id":76561199034041634,"connected_time":3748000000000,"state":"active","ping":58},{"user_id":332,"name":"spongebob's heroin overdose","steam_id":76561198399996680,"connected_time":2751000000000,"state":"active","ping":63},{"user_id":281,"name":"Hyperwizard of Space Conquest","steam_id":76561198953210459,"connected_time":5449000000000,"state":"active","ping":98},{"user_id":351,"name":"Marty™","steam_id":76561198060073673,"connected_time":1401000000000,"state":"active","ping":61},{"user_id":363,"name":"monocle chicken","steam_id":76561199020106029,"connected_time":322000000000,"state":"active","ping":76},{"user_id":344,"name":"go play rimworld","steam_id":76561199397932924,"connected_time":2200000000000,"state":"active","ping":71},{"user_id":333,"name":"Jesus","steam_id":76561199106262610,"connected_time":2746000000000,"state":"active","ping":53},{"user_id":335,"name":"Yupx","steam_id":76561199037930703,"connected_time":2459000000000,"state":"active","ping":61},{"user_id":353,"name":"Adushka","steam_id":76561198053095808,"connected_time":1158000000000,"state":"active","ping":63},{"user_id":365,"name":"Mega Man Legends 3","steam_id":76561198014110199,"connected_time":216000000000,"state":"active","ping":59},{"user_id":362,"name":"SaltyCupcakes","steam_id":76561198256386417,"connected_time":541000000000,"state":"active","ping":58},{"user_id":356,"name":"haha A-10 Warthog go bbrrrrrrrr","steam_id":76561198247954030,"connected_time":897000000000,"state":"active","ping":76},{"user_id":342,"name":"competetive cock n ball torture","steam_id":76561198874525842,"connected_time":2240000000000,"state":"active","ping":113},{"user_id":360,"name":"keleos82","steam_id":76561198123916013,"connected_time":828000000000,"state":"active","ping":46},{"user_id":358,"name":"slime ( ,'' w'' )","steam_id":76561198198984282,"connected_time":870000000000,"state":"active","ping":148}]},{"server_id":23,"name":"Uncletopia | Frankfurt | 7 | Stopwatch","name_short":"frk-7","host":"frk-1.de.uncletopia.com","port":27075,"enabled":true,"region":"eu","cc":"de","latitude":50.110924,"longitude":8.682127,"reserved":0,"last_update":"0001-01-01T00:00:00Z","name_a2s":"Uncletopia | Frankfurt | 7 | Stopwatch","protocol":17,"map":"workshop/koth_bagel_rc6.ugc2514036946","folder":"tf","game":"Team Fortress","app_id":440,"player_count":7,"max_players":24,"Bots":0,"server_type":"Dedicated","server_os":"Linux","password":true,"vac":true,"version":"7961495","steam_id":85568392924742827,"keywords":["cp","nocrits","nodmgspread","uncletopia"],"game_id":440,"stv_port":27076,"stv_name":"Uncletopia | Frankfurt | 7 | Stopwatch | STV","players":[{"user_id":41,"name":"GüçlüAYraNsAĞ","steam_id":76561199184988396,"connected_time":2615000000000,"state":"active","ping":103},{"user_id":42,"name":"Pasha","steam_id":76561198990967869,"connected_time":2521000000000,"state":"active","ping":90},{"user_id":47,"name":"eevee","steam_id":76561198447072392,"connected_time":528000000000,"state":"active","ping":79},{"user_id":48,"name":"fire","steam_id":76561198063674613,"connected_time":396000000000,"state":"active","ping":42},{"user_id":49,"name":"PerskuleBenener","steam_id":76561198156899375,"connected_time":356000000000,"state":"active","ping":75},{"user_id":50,"name":"Swedde","steam_id":76561198297296440,"connected_time":205000000000,"state":"active","ping":60},{"user_id":51,"name":"BIG Dave Gaming","steam_id":76561199170843929,"connected_time":2000000000,"state":"spawning","ping":51}]},{"server_id":24,"name":"Uncletopia | Frankfurt | 8 | Community","name_short":"frk-8","host":"frk-1.de.uncletopia.com","port":27085,"enabled":true,"region":"eu","cc":"de","latitude":50.110924,"longitude":8.682127,"reserved":0,"last_update":"0001-01-01T00:00:00Z","name_a2s":"Uncletopia | Frankfurt | 8 | Community","protocol":17,"map":"workshop/pl_fifthcurve_rc1.ugc648227046","folder":"tf","game":"Team Fortress","app_id":440,"player_count":0,"max_players":24,"Bots":0,"server_type":"Dedicated","server_os":"Linux","password":true,"vac":true,"version":"7961495","steam_id":85568392924742828,"keywords":["nocrits","nodmgspread","payload","uncletopia"],"game_id":440,"stv_port":27086,"stv_name":"Uncletopia | Frankfurt | 8 | Community | STV","players":null},{"server_id":202,"name":"Uncletopia | Hong Kong | 1 | All Maps","name_short":"hgk-1","host":"hgk-1.hk.uncletopia.com","port":27015,"enabled":true,"region":"asia","cc":"hk","latitude":22.302711,"longitude":114.177216,"reserved":0,"last_update":"0001-01-01T00:00:00Z","name_a2s":"Uncletopia | Hong Kong | 1 | All Maps","protocol":17,"map":"pl_barnblitz","folder":"tf","game":"Team Fortress","app_id":440,"player_count":0,"max_players":24,"Bots":0,"server_type":"Dedicated","server_os":"Linux","password":true,"vac":true,"version":"7961495","steam_id":85568392924494504,"keywords":["nocrits","nodmgspread","payload","uncletopia"],"game_id":440,"stv_port":27016,"stv_name":"Uncletopia | Hong Kong | 1 | All Maps | STV","players":null},{"server_id":1,"name":"Uncletopia | Los Angeles | 1 | All Maps","name_short":"lax-1","host":"lax-1.us.uncletopia.com","port":27015,"enabled":true,"region":"us-west","cc":"us","latitude":33.94279,"longitude":-118.41004,"reserved":0,"last_update":"0001-01-01T00:00:00Z","name_a2s":"Uncletopia | Los Angeles | 1 | All Maps","protocol":17,"map":"cp_gorge","folder":"tf","game":"Team Fortress","app_id":440,"player_count":0,"max_players":24,"Bots":0,"server_type":"Dedicated","server_os":"Linux","password":true,"vac":true,"version":"7961495","steam_id":85568392924469991,"keywords":["cp","nocrits","nodmgspread","uncletopia"],"game_id":440,"stv_port":27016,"stv_name":"Uncletopia | Los Angeles | 1 | All Maps | STV","players":null},{"server_id":112,"name":"Uncletopia | Los Angeles | 2 | All Maps","name_short":"lax-2","host":"lax-1.us.uncletopia.com","port":27025,"enabled":true,"region":"us-west","cc":"us","latitude":33.94279,"longitude":-118.41004,"reserved":0,"last_update":"0001-01-01T00:00:00Z","name_a2s":"Uncletopia | Los Angeles | 2 | All Maps","protocol":17,"map":"koth_cascade","folder":"tf","game":"Team Fortress","app_id":440,"player_count":0,"max_players":24,"Bots":0,"server_type":"Dedicated","server_os":"Linux","password":true,"vac":true,"version":"7961495","steam_id":85568392924469992,"keywords":["cp","nocrits","nodmgspread","uncletopia"],"game_id":440,"stv_port":27026,"stv_name":"Uncletopia | Los Angeles | 2 | All Maps | STV","players":null},{"server_id":324,"name":"Uncletopia | Los Angeles | 3 | All Maps","name_short":"lax-3","host":"lax-1.us.uncletopia.com","port":27035,"enabled":true,"region":"us-west","cc":"us","latitude":33.94279,"longitude":-118.41004,"reserved":0,"last_update":"0001-01-01T00:00:00Z","name_a2s":"Uncletopia | Los Angeles | 3 | All Maps","protocol":17,"map":"pl_upward","folder":"tf","game":"Team Fortress","app_id":440,"player_count":24,"max_players":24,"Bots":0,"server_type":"Dedicated","server_os":"Linux","password":true,"vac":true,"version":"7961495","steam_id":85568392924510198,"keywords":["nocrits","nodmgspread","payload","uncletopia"],"game_id":440,"stv_port":27036,"stv_name":"Uncletopia | Los Angeles | 3 | All Maps | STV","players":[{"user_id":132,"name":"SanitysEdge","steam_id":76561198130732813,"connected_time":637000000000,"state":"active","ping":45},{"user_id":129,"name":"KonaWolf02","steam_id":76561199075200891,"connected_time":850000000000,"state":"active","ping":53},{"user_id":115,"name":"nanoboosts","steam_id":76561199500861337,"connected_time":2152000000000,"state":"active","ping":48},{"user_id":78,"name":"᲼᲼᲼","steam_id":76561198845246815,"connected_time":4082000000000,"state":"active","ping":45},{"user_id":108,"name":"Spirit","steam_id":76561198861875678,"connected_time":2480000000000,"state":"active","ping":46},{"user_id":93,"name":"Larry Cañonga","steam_id":76561198081053203,"connected_time":3436000000000,"state":"active","ping":77},{"user_id":138,"name":"gummygeek","steam_id":76561198244543486,"connected_time":133000000000,"state":"active","ping":91},{"user_id":136,"name":"Grimprr","steam_id":76561198275816797,"connected_time":276000000000,"state":"active","ping":146},{"user_id":123,"name":"Gabeyboy321","steam_id":76561199379213615,"connected_time":1462000000000,"state":"active","ping":75},{"user_id":104,"name":"boboguguz","steam_id":76561198334924459,"connected_time":2715000000000,"state":"active","ping":59},{"user_id":122,"name":"Lemonade Juice","steam_id":76561198402892608,"connected_time":1529000000000,"state":"active","ping":46},{"user_id":99,"name":"Waff00","steam_id":76561198848377100,"connected_time":3291000000000,"state":"active","ping":108},{"user_id":141,"name":"omugai_","steam_id":76561198086481768,"connected_time":69000000000,"state":"active","ping":51},{"user_id":109,"name":"Mr. Luggy","steam_id":76561198072723392,"connected_time":2443000000000,"state":"active","ping":55},{"user_id":107,"name":"ZestyTrev","steam_id":76561198253391039,"connected_time":2523000000000,"state":"active","ping":91},{"user_id":139,"name":"John Calibur","steam_id":76561197999986606,"connected_time":126000000000,"state":"active","ping":46},{"user_id":125,"name":"J.","steam_id":76561198133615167,"connected_time":1321000000000,"state":"active","ping":102},{"user_id":83,"name":"the keebler","steam_id":76561199486326945,"connected_time":3823000000000,"state":"active","ping":103},{"user_id":140,"name":"Tralf Hardy","steam_id":76561197973818765,"connected_time":93000000000,"state":"active","ping":57},{"user_id":126,"name":"Goblin64","steam_id":76561198969156830,"connected_time":1302000000000,"state":"active","ping":60},{"user_id":117,"name":"Username","steam_id":76561198198918781,"connected_time":2099000000000,"state":"active","ping":56},{"user_id":49,"name":"BLØRG","steam_id":76561198036126673,"connected_time":5841000000000,"state":"active","ping":86},{"user_id":135,"name":"Pannington","steam_id":76561198138707710,"connected_time":520000000000,"state":"active","ping":111},{"user_id":52,"name":"King Cotton","steam_id":76561198292444376,"connected_time":5805000000000,"state":"active","ping":83}]},{"server_id":25,"name":"Uncletopia | Los Angeles | 4 | Stopwatch","name_short":"lax-4","host":"lax-1.us.uncletopia.com","port":27045,"enabled":true,"region":"us-west","cc":"us","latitude":33.94279,"longitude":-118.41004,"reserved":0,"last_update":"0001-01-01T00:00:00Z","name_a2s":"Uncletopia | Los Angeles | 4 | Stopwatch","protocol":17,"map":"workshop/koth_product_final.ugc454272353","folder":"tf","game":"Team Fortress","app_id":440,"player_count":0,"max_players":24,"Bots":0,"server_type":"Dedicated","server_os":"Linux","password":true,"vac":true,"version":"7961495","steam_id":85568392924510199,"keywords":["cp","nocrits","nodmgspread","uncletopia"],"game_id":440,"stv_port":27046,"stv_name":"Uncletopia | Los Angeles | 4 | Stopwatch | STV","players":null},{"server_id":11,"name":"Uncletopia | London | 1 | All Maps","name_short":"lon-1","host":"lon-1.uk.uncletopia.com","port":27015,"enabled":true,"region":"eu","cc":"gb","latitude":51.509865,"longitude":-0.118092,"reserved":0,"last_update":"0001-01-01T00:00:00Z","name_a2s":"Uncletopia | London | 1 | All Maps","protocol":17,"map":"cp_steel","folder":"tf","game":"Team Fortress","app_id":440,"player_count":24,"max_players":24,"Bots":0,"server_type":"Dedicated","server_os":"Linux","password":true,"vac":true,"version":"7961495","steam_id":85568392924367362,"keywords":["cp","nocrits","nodmgspread","uncletopia"],"game_id":440,"stv_port":27016,"stv_name":"Uncletopia | London | 1 | All Maps | STV","players":[{"user_id":443,"name":"Fran","steam_id":76561199070516960,"connected_time":3385000000000,"state":"active","ping":75},{"user_id":466,"name":"post-nuke jerma","steam_id":76561198094268619,"connected_time":2150000000000,"state":"active","ping":74},{"user_id":433,"name":"hqdefault.png","steam_id":76561198106049954,"connected_time":3586000000000,"state":"active","ping":82},{"user_id":491,"name":"TJ1212","steam_id":76561199013575313,"connected_time":83000000000,"state":"active","ping":73},{"user_id":484,"name":"mertefe","steam_id":76561199237126613,"connected_time":403000000000,"state":"active","ping":86},{"user_id":485,"name":"Scoundrel","steam_id":76561198056672372,"connected_time":386000000000,"state":"active","ping":108},{"user_id":486,"name":"Kahvi","steam_id":76561198723244199,"connected_time":375000000000,"state":"active","ping":86},{"user_id":468,"name":"Aaron","steam_id":76561197990046953,"connected_time":1878000000000,"state":"active","ping":51},{"user_id":474,"name":"Borlor","steam_id":76561198206059604,"connected_time":1472000000000,"state":"active","ping":40},{"user_id":473,"name":"Lyra","steam_id":76561198043601838,"connected_time":1491000000000,"state":"active","ping":60},{"user_id":487,"name":"Burgoo_King","steam_id":76561198133572225,"connected_time":356000000000,"state":"active","ping":71},{"user_id":490,"name":"Garoseth","steam_id":76561197961387454,"connected_time":154000000000,"state":"active","ping":60},{"user_id":456,"name":"Lux","steam_id":76561198060417740,"connected_time":2598000000000,"state":"active","ping":46},{"user_id":454,"name":"nudjura","steam_id":76561198281986139,"connected_time":2645000000000,"state":"active","ping":39},{"user_id":482,"name":"AuwNina","steam_id":76561198128231464,"connected_time":737000000000,"state":"active","ping":58},{"user_id":479,"name":"doktor spiele","steam_id":76561199057953617,"connected_time":1217000000000,"state":"active","ping":69},{"user_id":469,"name":"trite","steam_id":76561197983765323,"connected_time":1512000000000,"state":"active","ping":39},{"user_id":465,"name":"emss!!","steam_id":76561198163615254,"connected_time":2216000000000,"state":"active","ping":59},{"user_id":458,"name":"bolsonaro","steam_id":76561198074917015,"connected_time":2542000000000,"state":"active","ping":82},{"user_id":489,"name":"david zaydullin (Charles McGill","steam_id":76561198965191846,"connected_time":347000000000,"state":"active","ping":90},{"user_id":476,"name":"waahh im baby gugu gaga im cry","steam_id":76561198190583242,"connected_time":1440000000000,"state":"active","ping":90},{"user_id":467,"name":"VolcanicArts","steam_id":76561198063453246,"connected_time":1921000000000,"state":"active","ping":45},{"user_id":492,"name":"lawn","steam_id":76561198001243486,"connected_time":38000000000,"state":"active","ping":41},{"user_id":481,"name":"Son Goku","steam_id":76561199383437138,"connected_time":786000000000,"state":"active","ping":116}]},{"server_id":114,"name":"Uncletopia | London | 2 | All Maps","name_short":"lon-2","host":"lon-1.uk.uncletopia.com","port":27025,"enabled":true,"region":"eu","cc":"gb","latitude":51.509865,"longitude":-0.118092,"reserved":0,"last_update":"0001-01-01T00:00:00Z","name_a2s":"Uncletopia | London | 2 | All Maps","protocol":17,"map":"pl_barnblitz","folder":"tf","game":"Team Fortress","app_id":440,"player_count":24,"max_players":24,"Bots":0,"server_type":"Dedicated","server_os":"Linux","password":true,"vac":true,"version":"7961495","steam_id":85568392924470941,"keywords":["nocrits","nodmgspread","payload","uncletopia"],"game_id":440,"stv_port":27026,"stv_name":"Uncletopia | London | 2 | All Maps | STV","players":[{"user_id":201,"name":"LivEssense","steam_id":76561198052476979,"connected_time":362000000000,"state":"active","ping":89},{"user_id":202,"name":"Scr0b ʕᵔᴥᵔʔ","steam_id":76561198100855323,"connected_time":326000000000,"state":"active","ping":60},{"user_id":192,"name":"UpsetPuppy11","steam_id":76561199060288033,"connected_time":1056000000000,"state":"active","ping":91},{"user_id":173,"name":"Random Bagel","steam_id":76561198047213821,"connected_time":1643000000000,"state":"active","ping":69},{"user_id":178,"name":"Crimson","steam_id":76561197987552332,"connected_time":1556000000000,"state":"active","ping":51},{"user_id":179,"name":"Exe_Red","steam_id":76561198154952759,"connected_time":1522000000000,"state":"active","ping":90},{"user_id":163,"name":"gamerkiddo","steam_id":76561198047380360,"connected_time":2079000000000,"state":"active","ping":53},{"user_id":189,"name":"♂ Dungeon Master ♂","steam_id":76561198106441033,"connected_time":1268000000000,"state":"active","ping":95},{"user_id":195,"name":"zvekan","steam_id":76561198381101196,"connected_time":795000000000,"state":"active","ping":71},{"user_id":115,"name":"Yelowchy","steam_id":76561198199416121,"connected_time":4751000000000,"state":"active","ping":65},{"user_id":177,"name":"Amandus","steam_id":76561198036281079,"connected_time":1579000000000,"state":"active","ping":74},{"user_id":207,"name":"Forsén","steam_id":76561199131971501,"connected_time":68000000000,"state":"active","ping":69},{"user_id":151,"name":"РеДаНоВеЦ ^_^","steam_id":76561199032612973,"connected_time":2741000000000,"state":"active","ping":84},{"user_id":137,"name":"Razef","steam_id":76561198030309484,"connected_time":3810000000000,"state":"active","ping":48},{"user_id":206,"name":"Hoss","steam_id":76561198000169123,"connected_time":115000000000,"state":"active","ping":90},{"user_id":182,"name":"Fatmagic Mukbang ASMR","steam_id":76561198063492110,"connected_time":1366000000000,"state":"active","ping":73},{"user_id":200,"name":"Anus01","steam_id":76561198101884780,"connected_time":469000000000,"state":"active","ping":75},{"user_id":194,"name":"❤ [HoneyBe_] ❤","steam_id":76561198288930154,"connected_time":986000000000,"state":"active","ping":59},{"user_id":203,"name":"Egor Pomidor","steam_id":76561199175688390,"connected_time":318000000000,"state":"active","ping":90},{"user_id":205,"name":"shr1mple","steam_id":76561198173537027,"connected_time":263000000000,"state":"active","ping":108},{"user_id":183,"name":"executive producer larry david","steam_id":76561198057868438,"connected_time":1363000000000,"state":"active","ping":55},{"user_id":144,"name":"Vanilla Autismotron","steam_id":76561198278604277,"connected_time":3425000000000,"state":"active","ping":45},{"user_id":198,"name":"FreadGaming","steam_id":76561198844615191,"connected_time":639000000000,"state":"active","ping":88},{"user_id":180,"name":"warforge3","steam_id":76561199276024310,"connected_time":1511000000000,"state":"active","ping":98}]},{"server_id":320,"name":"Uncletopia | London | 3 | All Maps","name_short":"lon-3","host":"lon-1.uk.uncletopia.com","port":27035,"enabled":true,"region":"eu","cc":"gb","latitude":51.509865,"longitude":-0.118092,"reserved":0,"last_update":"0001-01-01T00:00:00Z","name_a2s":"Uncletopia | London | 3 | All Maps","protocol":17,"map":"koth_lakeside_final","folder":"tf","game":"Team Fortress","app_id":440,"player_count":1,"max_players":24,"Bots":0,"server_type":"Dedicated","server_os":"Linux","password":true,"vac":true,"version":"7961495","steam_id":85568392924510192,"keywords":["cp","nocrits","nodmgspread","uncletopia"],"game_id":440,"stv_port":27036,"stv_name":"Uncletopia | London | 3 | All Maps | STV","players":[{"user_id":22,"name":"BepisR47","steam_id":76561198084515716,"connected_time":273000000000,"state":"active","ping":32}]},{"server_id":321,"name":"Uncletopia | London | 4 | All Maps","name_short":"lon-4","host":"lon-1.uk.uncletopia.com","port":27045,"enabled":true,"region":"eu","cc":"gb","latitude":51.509865,"longitude":-0.118092,"reserved":0,"last_update":"0001-01-01T00:00:00Z","name_a2s":"Uncletopia | London | 4 | All Maps","protocol":17,"map":"pl_pier","folder":"tf","game":"Team Fortress","app_id":440,"player_count":24,"max_players":24,"Bots":0,"server_type":"Dedicated","server_os":"Linux","password":true,"vac":true,"version":"7961495","steam_id":85568392924510193,"keywords":["nocrits","nodmgspread","payload","uncletopia"],"game_id":440,"stv_port":27046,"stv_name":"Uncletopia | London | 4 | All Maps | STV","players":[{"user_id":293,"name":"Octopixel","steam_id":76561198346310753,"connected_time":455000000000,"state":"active","ping":68},{"user_id":301,"name":"kai","steam_id":76561198044847532,"connected_time":22000000000,"state":"active","ping":44},{"user_id":267,"name":"Blipper the Dialated","steam_id":76561198800726749,"connected_time":2331000000000,"state":"active","ping":127},{"user_id":291,"name":"SausageRoll","steam_id":76561197994072622,"connected_time":661000000000,"state":"active","ping":40},{"user_id":295,"name":"Joe","steam_id":76561198061717026,"connected_time":422000000000,"state":"active","ping":44},{"user_id":269,"name":"harry kane mbe","steam_id":76561199509318835,"connected_time":2315000000000,"state":"active","ping":101},{"user_id":264,"name":"Duktigafred","steam_id":76561199211222396,"connected_time":2612000000000,"state":"active","ping":65},{"user_id":299,"name":"Iris","steam_id":76561198430295815,"connected_time":222000000000,"state":"active","ping":62},{"user_id":282,"name":"точно проверено","steam_id":76561198005742337,"connected_time":2076000000000,"state":"active","ping":67},{"user_id":292,"name":"Goose","steam_id":76561198072261497,"connected_time":477000000000,"state":"active","ping":56},{"user_id":298,"name":"pandeux","steam_id":76561198343527617,"connected_time":249000000000,"state":"active","ping":59},{"user_id":297,"name":"blecha","steam_id":76561198256758947,"connected_time":352000000000,"state":"active","ping":60},{"user_id":234,"name":"Hoovy :]","steam_id":76561198418767816,"connected_time":4913000000000,"state":"active","ping":74},{"user_id":272,"name":"Kyy","steam_id":76561198041993514,"connected_time":2285000000000,"state":"active","ping":74},{"user_id":273,"name":"online orca","steam_id":76561197990442043,"connected_time":2284000000000,"state":"active","ping":74},{"user_id":274,"name":"Fishlover30","steam_id":76561199197436568,"connected_time":2251000000000,"state":"active","ping":81},{"user_id":300,"name":"ксюшаш ашлось","steam_id":76561199149307190,"connected_time":158000000000,"state":"active","ping":79},{"user_id":275,"name":"crit hit!","steam_id":76561198112693639,"connected_time":2196000000000,"state":"active","ping":53},{"user_id":146,"name":"Personano","steam_id":76561198994355577,"connected_time":11510000000000,"state":"active","ping":49},{"user_id":276,"name":"Mr. Hunts","steam_id":76561197981910397,"connected_time":2194000000000,"state":"active","ping":62},{"user_id":278,"name":"Dr Bondus Bolongus Dongus","steam_id":76561198378657692,"connected_time":2170000000000,"state":"active","ping":48},{"user_id":290,"name":"SoaCrow","steam_id":76561198069420717,"connected_time":874000000000,"state":"active","ping":60},{"user_id":303,"name":"KindlyRaze","steam_id":76561198159660970,"connected_time":17000000000,"state":"spawning","ping":162},{"user_id":304,"name":"misterwondo","steam_id":76561198187934110,"connected_time":16000000000,"state":"active","ping":72}]},{"server_id":21,"name":"Uncletopia | London | 5 | All Maps","name_short":"lon-5","host":"lon-1.uk.uncletopia.com","port":27055,"enabled":true,"region":"eu","cc":"gb","latitude":51.509865,"longitude":-0.118092,"reserved":0,"last_update":"0001-01-01T00:00:00Z","name_a2s":"Uncletopia | London | 5 | All Maps","protocol":17,"map":"pl_hoodoo_final","folder":"tf","game":"Team Fortress","app_id":440,"player_count":23,"max_players":24,"Bots":0,"server_type":"Dedicated","server_os":"Linux","password":true,"vac":true,"version":"7961495","steam_id":85568392924742829,"keywords":["nocrits","nodmgspread","payload","uncletopia"],"game_id":440,"stv_port":27056,"stv_name":"Uncletopia | London | 5 | All Maps | STV","players":[{"user_id":150,"name":"I-I","steam_id":76561198267969436,"connected_time":74000000000,"state":"active","ping":56},{"user_id":141,"name":"Sex Man TF2","steam_id":76561198798657045,"connected_time":1030000000000,"state":"active","ping":76},{"user_id":10,"name":"Lucky_Bambr","steam_id":76561198401330527,"connected_time":8346000000000,"state":"active","ping":106},{"user_id":151,"name":"Dave The Sloth","steam_id":76561199135831355,"connected_time":59000000000,"state":"active","ping":58},{"user_id":120,"name":"Mr. Data","steam_id":76561198039083551,"connected_time":1797000000000,"state":"active","ping":42},{"user_id":110,"name":"Hank J Wimbleton","steam_id":76561198408623293,"connected_time":2567000000000,"state":"active","ping":56},{"user_id":152,"name":"Akuma's Balls","steam_id":76561198030612444,"connected_time":18000000000,"state":"spawning","ping":53},{"user_id":117,"name":"sniper's kangaroo ex","steam_id":76561198334042273,"connected_time":1990000000000,"state":"active","ping":43},{"user_id":94,"name":"GrumpyGrey","steam_id":76561199504695656,"connected_time":3224000000000,"state":"active","ping":42},{"user_id":146,"name":"Tails8521","steam_id":76561198051747164,"connected_time":623000000000,"state":"active","ping":59},{"user_id":143,"name":"aapeli","steam_id":76561198800149689,"connected_time":966000000000,"state":"active","ping":102},{"user_id":118,"name":"rachel aldana's massive milkers","steam_id":76561198025916703,"connected_time":1979000000000,"state":"active","ping":51},{"user_id":149,"name":"zeppa114","steam_id":76561198065192734,"connected_time":376000000000,"state":"active","ping":47},{"user_id":138,"name":"NitPig","steam_id":76561198212991935,"connected_time":1125000000000,"state":"active","ping":76},{"user_id":147,"name":"TheBeardedM1G","steam_id":76561198040208946,"connected_time":610000000000,"state":"active","ping":44},{"user_id":153,"name":"Otto von Bismarck","steam_id":76561198964429990,"connected_time":16000000000,"state":"spawning","ping":70},{"user_id":122,"name":"heddwch","steam_id":76561198076097983,"connected_time":1736000000000,"state":"active","ping":85},{"user_id":154,"name":"\u003e\u003c\u003e","steam_id":76561198152392309,"connected_time":7000000000,"state":"spawning","ping":46},{"user_id":74,"name":"emeradik","steam_id":76561199195558370,"connected_time":4273000000000,"state":"active","ping":128},{"user_id":145,"name":"emkoç","steam_id":76561198846782346,"connected_time":945000000000,"state":"active","ping":93},{"user_id":135,"name":"they/them pussy enjoyer","steam_id":76561199071718151,"connected_time":1297000000000,"state":"active","ping":51},{"user_id":132,"name":"Le Saucy","steam_id":76561197960411299,"connected_time":1529000000000,"state":"active","ping":133},{"user_id":107,"name":"76561199094423561","steam_id":76561199094423561,"connected_time":2775000000000,"state":"active","ping":107}]},{"server_id":22,"name":"Uncletopia | London | 6 | All Maps","name_short":"lon-6","host":"lon-1.uk.uncletopia.com","port":27065,"enabled":true,"region":"eu","cc":"gb","latitude":51.509865,"longitude":-0.118092,"reserved":0,"last_update":"0001-01-01T00:00:00Z","name_a2s":"Uncletopia | London | 6 | All Maps","protocol":17,"map":"pl_pier","folder":"tf","game":"Team Fortress","app_id":440,"player_count":0,"max_players":24,"Bots":0,"server_type":"Dedicated","server_os":"Linux","password":true,"vac":true,"version":"7961495","steam_id":85568392924742830,"keywords":["nocrits","nodmgspread","payload","uncletopia"],"game_id":440,"stv_port":27066,"stv_name":"Uncletopia | London | 6 | All Maps | STV","players":null},{"server_id":40,"name":"Uncletopia | London | 7 | Stopwatch","name_short":"lon-7","host":"lon-1.uk.uncletopia.com","port":27075,"enabled":true,"region":"eu","cc":"gb","latitude":51.509865,"longitude":-0.118092,"reserved":0,"last_update":"0001-01-01T00:00:00Z","name_a2s":"Uncletopia | London | 7 | Stopwatch","protocol":17,"map":"workshop/koth_ashville_final.ugc2130459942","folder":"tf","game":"Team Fortress","app_id":440,"player_count":0,"max_players":24,"Bots":0,"server_type":"Dedicated","server_os":"Linux","password":true,"vac":true,"version":"7961495","steam_id":85568392924964314,"keywords":["cp","nocrits","nodmgspread","uncletopia"],"game_id":440,"stv_port":27076,"stv_name":"Uncletopia | London | 7 | Stopwatch | STV","players":null},{"server_id":41,"name":"Uncletopia | London | 8 | Community","name_short":"lon-8","host":"lon-1.uk.uncletopia.com","port":27085,"enabled":true,"region":"eu","cc":"gb","latitude":51.509865,"longitude":-0.118092,"reserved":0,"last_update":"0001-01-01T00:00:00Z","name_a2s":"Uncletopia | London | 8 | Community","protocol":17,"map":"workshop/pl_shoreleave_rc2.ugc1238849347","folder":"tf","game":"Team Fortress","app_id":440,"player_count":0,"max_players":24,"Bots":0,"server_type":"Dedicated","server_os":"Linux","password":true,"vac":true,"version":"7961495","steam_id":85568392924964315,"keywords":["nocrits","nodmgspread","payload","uncletopia"],"game_id":440,"stv_port":27086,"stv_name":"Uncletopia | London | 8 | Community | STV","players":null},{"server_id":300,"name":"Uncletopia | Montréal | 1 | One Thousand Uncles","name_short":"mtl-1","host":"mtl-1.ca.uncletopia.com","port":27015,"enabled":true,"region":"us-east","cc":"ca","latitude":45.50889,"longitude":-73.56167,"reserved":0,"last_update":"0001-01-01T00:00:00Z","name_a2s":"Uncletopia | Montréal | 1 | One Thousand Uncles","protocol":17,"map":"pl_chilly","folder":"tf","game":"Team Fortress","app_id":440,"player_count":0,"max_players":32,"Bots":0,"server_type":"Dedicated","server_os":"Linux","password":true,"vac":true,"version":"7961495","steam_id":85568392924500087,"keywords":["alltalk","danepve","increased_maxplayers","norespawntime","payload","uncletopia"],"game_id":440,"stv_port":0,"stv_name":"","players":null},{"server_id":301,"name":"Uncletopia | Montréal | 2 | One Thousand Uncles","name_short":"mtl-2","host":"mtl-1.ca.uncletopia.com","port":27025,"enabled":true,"region":"us-east","cc":"ca","latitude":45.50889,"longitude":-73.56167,"reserved":0,"last_update":"0001-01-01T00:00:00Z","name_a2s":"Uncletopia | Montréal | 2 | One Thousand Uncles","protocol":17,"map":"pl_snowycoast","folder":"tf","game":"Team Fortress","app_id":440,"player_count":0,"max_players":32,"Bots":0,"server_type":"Dedicated","server_os":"Linux","password":true,"vac":true,"version":"7961495","steam_id":85568392924500088,"keywords":["alltalk","danepve","increased_maxplayers","norespawntime","payload","uncletopia"],"game_id":440,"stv_port":0,"stv_name":"","players":null},{"server_id":302,"name":"Uncletopia | Montréal | 3 | One Thousand Uncles","name_short":"mtl-3","host":"mtl-1.ca.uncletopia.com","port":27035,"enabled":true,"region":"us-east","cc":"ca","latitude":45.50889,"longitude":-73.56167,"reserved":0,"last_update":"0001-01-01T00:00:00Z","name_a2s":"Uncletopia | Montréal | 3 | One Thousand Uncles","protocol":17,"map":"pl_upward","folder":"tf","game":"Team Fortress","app_id":440,"player_count":0,"max_players":32,"Bots":0,"server_type":"Dedicated","server_os":"Linux","password":true,"vac":true,"version":"7961495","steam_id":85568392924500089,"keywords":["alltalk","danepve","increased_maxplayers","norespawntime","payload","uncletopia"],"game_id":440,"stv_port":0,"stv_name":"","players":null},{"server_id":13,"name":"Uncletopia | New York City | 1 | All Maps","name_short":"nyc-1","host":"nyc-1.us.uncletopia.com","port":27015,"enabled":true,"region":"us-east","cc":"us","latitude":40.73061,"longitude":-73.93524,"reserved":0,"last_update":"0001-01-01T00:00:00Z","name_a2s":"Uncletopia | New York City | 1 | All Maps","protocol":17,"map":"koth_lakeside_final","folder":"tf","game":"Team Fortress","app_id":440,"player_count":22,"max_players":24,"Bots":0,"server_type":"Dedicated","server_os":"Linux","password":true,"vac":true,"version":"7961495","steam_id":85568392924469993,"keywords":["cp","nocrits","nodmgspread","uncletopia"],"game_id":440,"stv_port":27016,"stv_name":"Uncletopia | New York City | 1 | All Maps | STV","players":[{"user_id":62,"name":"ｓｋｏｏｐｓ　ョッょ","steam_id":76561198083276946,"connected_time":2097000000000,"state":"active","ping":54},{"user_id":63,"name":"Dezorbo","steam_id":76561197971883897,"connected_time":1906000000000,"state":"active","ping":62},{"user_id":79,"name":"War on Drugs Fighter","steam_id":76561198103211035,"connected_time":608000000000,"state":"active","ping":61},{"user_id":64,"name":"PunishedJoe","steam_id":76561199105539011,"connected_time":1904000000000,"state":"active","ping":36},{"user_id":55,"name":"The Ratt","steam_id":76561198242201120,"connected_time":2463000000000,"state":"active","ping":94},{"user_id":30,"name":"crox","steam_id":76561199024792831,"connected_time":3908000000000,"state":"active","ping":43},{"user_id":22,"name":"Reverie","steam_id":76561198987005784,"connected_time":4530000000000,"state":"active","ping":89},{"user_id":76,"name":"Rexost","steam_id":76561198038520125,"connected_time":705000000000,"state":"active","ping":64},{"user_id":31,"name":"Lord_HoboJo","steam_id":76561198039800002,"connected_time":3890000000000,"state":"active","ping":56},{"user_id":32,"name":"luigifan","steam_id":76561199428693962,"connected_time":3863000000000,"state":"active","ping":72},{"user_id":33,"name":"Rexonance","steam_id":76561198842932634,"connected_time":3863000000000,"state":"active","ping":118},{"user_id":77,"name":"ugly.","steam_id":76561198016826181,"connected_time":681000000000,"state":"active","ping":61},{"user_id":70,"name":"SafetyInstructor","steam_id":76561199195205705,"connected_time":1203000000000,"state":"active","ping":90},{"user_id":36,"name":"Typh","steam_id":76561198315344079,"connected_time":3812000000000,"state":"active","ping":70},{"user_id":84,"name":"Larry","steam_id":76561198069458873,"connected_time":146000000000,"state":"active","ping":48},{"user_id":72,"name":"yall boots hats??","steam_id":76561198097396447,"connected_time":786000000000,"state":"active","ping":118},{"user_id":82,"name":"Pockets","steam_id":76561198001742296,"connected_time":314000000000,"state":"active","ping":68},{"user_id":41,"name":"tau0976","steam_id":76561199149015168,"connected_time":3759000000000,"state":"active","ping":73},{"user_id":73,"name":"Bother","steam_id":76561198336750909,"connected_time":783000000000,"state":"active","ping":41},{"user_id":74,"name":"Honolulu","steam_id":76561198106381764,"connected_time":782000000000,"state":"active","ping":68},{"user_id":68,"name":"Ganondorf","steam_id":76561198010421059,"connected_time":1519000000000,"state":"active","ping":64},{"user_id":78,"name":"Mataqs4o","steam_id":76561199052449621,"connected_time":656000000000,"state":"active","ping":151}]},{"server_id":14,"name":"Uncletopia | New York City | 2 | All Maps","name_short":"nyc-2","host":"nyc-1.us.uncletopia.com","port":27025,"enabled":true,"region":"us-east","cc":"us","latitude":40.73061,"longitude":-73.93524,"reserved":0,"last_update":"0001-01-01T00:00:00Z","name_a2s":"Uncletopia | New York City | 2 | All Maps","protocol":17,"map":"pl_frontier_final","folder":"tf","game":"Team Fortress","app_id":440,"player_count":24,"max_players":24,"Bots":0,"server_type":"Dedicated","server_os":"Linux","password":true,"vac":true,"version":"7961495","steam_id":85568392924469994,"keywords":["nocrits","nodmgspread","payload","uncletopia"],"game_id":440,"stv_port":27026,"stv_name":"Uncletopia | New York City | 2 | All Maps | STV","players":[{"user_id":221,"name":"dietcokefan42","steam_id":76561198135307995,"connected_time":400000000000,"state":"active","ping":44},{"user_id":191,"name":"DualiTea","steam_id":76561198081733870,"connected_time":2295000000000,"state":"active","ping":65},{"user_id":206,"name":"Boter","steam_id":76561198035572821,"connected_time":1397000000000,"state":"active","ping":44},{"user_id":199,"name":"A_Malebolgia","steam_id":76561198097722818,"connected_time":1782000000000,"state":"active","ping":77},{"user_id":205,"name":"Coke Himmy","steam_id":76561198397459211,"connected_time":1406000000000,"state":"active","ping":51},{"user_id":118,"name":"Kraftlos","steam_id":76561198074350350,"connected_time":7238000000000,"state":"active","ping":46},{"user_id":218,"name":"Shrebbie","steam_id":76561198875230824,"connected_time":739000000000,"state":"active","ping":50},{"user_id":192,"name":"Real Life Drug Dealer","steam_id":76561198263739357,"connected_time":2256000000000,"state":"active","ping":117},{"user_id":220,"name":"doiku","steam_id":76561198347818558,"connected_time":509000000000,"state":"active","ping":64},{"user_id":211,"name":"Pacts Gornax","steam_id":76561198066256419,"connected_time":1188000000000,"state":"active","ping":86},{"user_id":208,"name":"fried rice","steam_id":76561198928939100,"connected_time":1246000000000,"state":"active","ping":92},{"user_id":209,"name":"Who?","steam_id":76561199229661082,"connected_time":1243000000000,"state":"active","ping":64},{"user_id":167,"name":"That's So Raven! [Dexgod]","steam_id":76561198017130786,"connected_time":3517000000000,"state":"active","ping":59},{"user_id":160,"name":"Season Leaf","steam_id":76561198133121805,"connected_time":3912000000000,"state":"active","ping":80},{"user_id":125,"name":"the bomber","steam_id":76561199140679685,"connected_time":6326000000000,"state":"active","ping":30},{"user_id":193,"name":"Ian Brandon Anderson","steam_id":76561198302118756,"connected_time":2249000000000,"state":"active","ping":127},{"user_id":197,"name":"7 spider crabs with a keyboard","steam_id":76561198848669104,"connected_time":2024000000000,"state":"active","ping":66},{"user_id":177,"name":"starfungus","steam_id":76561198158312789,"connected_time":3271000000000,"state":"active","ping":49},{"user_id":200,"name":"chiswola","steam_id":76561198046920142,"connected_time":1776000000000,"state":"active","ping":82},{"user_id":217,"name":"badabing badaboom","steam_id":76561198850358863,"connected_time":969000000000,"state":"active","ping":149},{"user_id":183,"name":"Nukem","steam_id":76561198166236574,"connected_time":2897000000000,"state":"active","ping":62},{"user_id":219,"name":"GirlGoneMad0564","steam_id":76561198372552602,"connected_time":614000000000,"state":"active","ping":113},{"user_id":147,"name":"Sly","steam_id":76561198046116172,"connected_time":4643000000000,"state":"active","ping":58},{"user_id":214,"name":"Telly G","steam_id":76561198049592405,"connected_time":1035000000000,"state":"active","ping":101}]},{"server_id":15,"name":"Uncletopia | New York City | 3 | Stopwatch","name_short":"nyc-3","host":"nyc-1.us.uncletopia.com","port":27035,"enabled":true,"region":"us-east","cc":"us","latitude":40.73061,"longitude":-73.93524,"reserved":0,"last_update":"0001-01-01T00:00:00Z","name_a2s":"Uncletopia | New York City | 3 | Stopwatch","protocol":17,"map":"koth_lakeside_final","folder":"tf","game":"Team Fortress","app_id":440,"player_count":0,"max_players":24,"Bots":0,"server_type":"Dedicated","server_os":"Linux","password":true,"vac":true,"version":"7961495","steam_id":85568392924742820,"keywords":["cp","nocrits","nodmgspread","uncletopia"],"game_id":440,"stv_port":27036,"stv_name":"Uncletopia | New York City | 3 | Stopwatch | STV","players":null},{"server_id":16,"name":"Uncletopia | New York City | 4 | Community","name_short":"nyc-4","host":"nyc-1.us.uncletopia.com","port":27045,"enabled":true,"region":"us-east","cc":"us","latitude":40.73061,"longitude":-73.93524,"reserved":0,"last_update":"0001-01-01T00:00:00Z","name_a2s":"Uncletopia | New York City | 4 | Community","protocol":17,"map":"workshop/cp_indulge.ugc528106646","folder":"tf","game":"Team Fortress","app_id":440,"player_count":0,"max_players":24,"Bots":0,"server_type":"Dedicated","server_os":"Linux","password":true,"vac":true,"version":"7961495","steam_id":85568392924742821,"keywords":["cp","nocrits","nodmgspread","uncletopia"],"game_id":440,"stv_port":27046,"stv_name":"Uncletopia | New York City | 4 | Community | STV","players":null},{"server_id":142,"name":"Uncletopia | São Paulo | 1 | All Maps","name_short":"sao-1","host":"sao-1.br.uncletopia.com","port":27015,"enabled":true,"region":"sa","cc":"br","latitude":-23.533773,"longitude":-46.62529,"reserved":0,"last_update":"0001-01-01T00:00:00Z","name_a2s":"Uncletopia | São Paulo | 1 | All Maps","protocol":17,"map":"koth_highpass","folder":"tf","game":"Team Fortress","app_id":440,"player_count":0,"max_players":24,"Bots":0,"server_type":"Dedicated","server_os":"Linux","password":true,"vac":true,"version":"7961495","steam_id":85568392924469996,"keywords":["cp","nocrits","nodmgspread","uncletopia"],"game_id":440,"stv_port":27016,"stv_name":"Uncletopia | São Paulo | 1 | All Maps | STV","players":null},{"server_id":143,"name":"Uncletopia | São Paulo | 2 | Community","name_short":"sao-2","host":"sao-2.br.uncletopia.com","port":27015,"enabled":true,"region":"sa","cc":"br","latitude":-23.533773,"longitude":-46.62529,"reserved":0,"last_update":"0001-01-01T00:00:00Z","name_a2s":"Uncletopia | São Paulo | 2 | Community","protocol":17,"map":"workshop/koth_jamram_rc1a.ugc2964065613","folder":"tf","game":"Team Fortress","app_id":440,"player_count":0,"max_players":24,"Bots":0,"server_type":"Dedicated","server_os":"Linux","password":true,"vac":true,"version":"7961495","steam_id":85568392924485349,"keywords":["cp","nocrits","nodmgspread","uncletopia"],"game_id":440,"stv_port":27016,"stv_name":"Uncletopia | São Paulo | 2 | Community | STV","players":null},{"server_id":7,"name":"Uncletopia | Seattle | 1 | All Maps","name_short":"sea-1","host":"sea-1.us.uncletopia.com","port":27015,"enabled":true,"region":"us-west","cc":"us","latitude":47.608013,"longitude":-122.33517,"reserved":0,"last_update":"0001-01-01T00:00:00Z","name_a2s":"Uncletopia | Seattle | 1 | All Maps","protocol":17,"map":"pl_swiftwater_final1","folder":"tf","game":"Team Fortress","app_id":440,"player_count":0,"max_players":24,"Bots":0,"server_type":"Dedicated","server_os":"Linux","password":true,"vac":true,"version":"7961495","steam_id":85568392924469997,"keywords":["nocrits","nodmgspread","payload","uncletopia"],"game_id":440,"stv_port":27016,"stv_name":"Uncletopia | Seattle | 1 | All Maps | STV","players":null},{"server_id":119,"name":"Uncletopia | Seattle | 2 | All Maps","name_short":"sea-2","host":"sea-1.us.uncletopia.com","port":27025,"enabled":true,"region":"us-west","cc":"us","latitude":47.608013,"longitude":-122.33517,"reserved":0,"last_update":"0001-01-01T00:00:00Z","name_a2s":"Uncletopia | Seattle | 2 | All Maps","protocol":17,"map":"pl_badwater","folder":"tf","game":"Team Fortress","app_id":440,"player_count":23,"max_players":24,"Bots":0,"server_type":"Dedicated","server_os":"Linux","password":true,"vac":true,"version":"7961495","steam_id":85568392924469998,"keywords":["nocrits","nodmgspread","payload","uncletopia"],"game_id":440,"stv_port":27026,"stv_name":"Uncletopia | Seattle | 2 | All Maps | STV","players":[{"user_id":5,"name":"ilyKittyXOXO","steam_id":76561198179569849,"connected_time":3162000000000,"state":"active","ping":76},{"user_id":7,"name":"[SUKIII]","steam_id":76561198797583670,"connected_time":3099000000000,"state":"active","ping":109},{"user_id":18,"name":"dantheman","steam_id":76561199486390813,"connected_time":1374000000000,"state":"active","ping":124},{"user_id":44,"name":"Lunch","steam_id":76561199173852120,"connected_time":440000000000,"state":"active","ping":37},{"user_id":60,"name":"Clagger","steam_id":76561198066701092,"connected_time":25000000000,"state":"active","ping":32},{"user_id":46,"name":"haha_yes07","steam_id":76561199237904287,"connected_time":334000000000,"state":"active","ping":136},{"user_id":22,"name":"Foyold","steam_id":76561198121024729,"connected_time":1267000000000,"state":"active","ping":63},{"user_id":19,"name":"Dimple","steam_id":76561198980324190,"connected_time":1365000000000,"state":"active","ping":57},{"user_id":23,"name":"Whoodie","steam_id":76561198027514565,"connected_time":996000000000,"state":"active","ping":47},{"user_id":24,"name":"Daddy Topps","steam_id":76561198203594332,"connected_time":965000000000,"state":"active","ping":33},{"user_id":26,"name":"Dog Hands Phone","steam_id":76561198090419068,"connected_time":946000000000,"state":"active","ping":59},{"user_id":51,"name":"TheGrayMann","steam_id":76561198084203796,"connected_time":170000000000,"state":"active","ping":105},{"user_id":29,"name":"IBYoung","steam_id":76561198170813457,"connected_time":875000000000,"state":"active","ping":50},{"user_id":30,"name":"Crustacean Daddy","steam_id":76561198993807061,"connected_time":874000000000,"state":"active","ping":61},{"user_id":31,"name":"DaddyGalaxy","steam_id":76561198139697796,"connected_time":867000000000,"state":"active","ping":55},{"user_id":56,"name":"you just got dyked on","steam_id":76561198018977723,"connected_time":70000000000,"state":"active","ping":49},{"user_id":33,"name":"brisky","steam_id":76561198869675719,"connected_time":836000000000,"state":"active","ping":131},{"user_id":34,"name":"MrDudeMan","steam_id":76561198959351282,"connected_time":823000000000,"state":"active","ping":111},{"user_id":35,"name":"Dr. Eduardo","steam_id":76561198865808161,"connected_time":821000000000,"state":"active","ping":82},{"user_id":36,"name":"Tom","steam_id":76561198070630154,"connected_time":813000000000,"state":"active","ping":65},{"user_id":37,"name":"Sudsen","steam_id":76561198370603787,"connected_time":805000000000,"state":"active","ping":114},{"user_id":38,"name":"duckie","steam_id":76561198333163800,"connected_time":769000000000,"state":"active","ping":35},{"user_id":58,"name":"goblin","steam_id":76561199004451589,"connected_time":61000000000,"state":"active","ping":90}]},{"server_id":406,"name":"Uncletopia | Seattle | 3 | Stopwatch","name_short":"sea-3","host":"sea-1.us.uncletopia.com","port":27035,"enabled":true,"region":"us-west","cc":"us","latitude":47.608013,"longitude":-122.33517,"reserved":0,"last_update":"0001-01-01T00:00:00Z","name_a2s":"Uncletopia | Seattle | 3 | Stopwatch","protocol":17,"map":"cp_gullywash_final1","folder":"tf","game":"Team Fortress","app_id":440,"player_count":0,"max_players":24,"Bots":0,"server_type":"Dedicated","server_os":"Linux","password":true,"vac":true,"version":"7961495","steam_id":85568392924515217,"keywords":["cp","nocrits","nodmgspread","uncletopia"],"game_id":440,"stv_port":27036,"stv_name":"Uncletopia | Seattle | 3 | Stopwatch | STV","players":null},{"server_id":17,"name":"Uncletopia | San Francisco | 1 | All Maps","name_short":"sfo-1","host":"sfo-1.us.uncletopia.com","port":27015,"enabled":true,"region":"us-west","cc":"us","latitude":37.77397,"longitude":-122.4313,"reserved":0,"last_update":"0001-01-01T00:00:00Z","name_a2s":"Uncletopia | San Francisco | 1 | All Maps","protocol":17,"map":"pl_upward","folder":"tf","game":"Team Fortress","app_id":440,"player_count":23,"max_players":24,"Bots":0,"server_type":"Dedicated","server_os":"Linux","password":true,"vac":true,"version":"7961495","steam_id":85568392924469999,"keywords":["nocrits","nodmgspread","payload","uncletopia"],"game_id":440,"stv_port":27016,"stv_name":"Uncletopia | San Francisco | 1 | All Maps | STV","players":[{"user_id":195,"name":"Sterling Nano","steam_id":76561198048580088,"connected_time":1891000000000,"state":"active","ping":55},{"user_id":205,"name":"Mighty Morphin Flower Arrangers","steam_id":76561198133158032,"connected_time":950000000000,"state":"active","ping":59},{"user_id":188,"name":"Dim","steam_id":76561198061411324,"connected_time":2271000000000,"state":"active","ping":135},{"user_id":173,"name":"Grify","steam_id":76561198012292317,"connected_time":3282000000000,"state":"active","ping":120},{"user_id":192,"name":"voip","steam_id":76561198251603164,"connected_time":2012000000000,"state":"active","ping":48},{"user_id":201,"name":"Angler","steam_id":76561198138143023,"connected_time":1674000000000,"state":"active","ping":71},{"user_id":156,"name":"dust | it/she [no mic]","steam_id":76561198045218909,"connected_time":3991000000000,"state":"active","ping":61},{"user_id":202,"name":"JelloSniffer","steam_id":76561198142770733,"connected_time":1531000000000,"state":"active","ping":95},{"user_id":206,"name":"Skabbety","steam_id":76561198168044257,"connected_time":810000000000,"state":"active","ping":60},{"user_id":174,"name":"Imitation Caucasian","steam_id":76561198320536166,"connected_time":3233000000000,"state":"active","ping":61},{"user_id":209,"name":"Person1268","steam_id":76561198855949094,"connected_time":459000000000,"state":"active","ping":113},{"user_id":191,"name":"Ockulus","steam_id":76561199069638460,"connected_time":2025000000000,"state":"active","ping":62},{"user_id":200,"name":"Klip","steam_id":76561198316254429,"connected_time":1738000000000,"state":"active","ping":90},{"user_id":207,"name":"Doctor Bear ʕ •ᴥ•ʔ","steam_id":76561197968103161,"connected_time":641000000000,"state":"active","ping":105},{"user_id":157,"name":"Keamy","steam_id":76561199471434875,"connected_time":3964000000000,"state":"active","ping":64},{"user_id":198,"name":"baunter","steam_id":76561198024311871,"connected_time":1850000000000,"state":"active","ping":46},{"user_id":204,"name":"mobe","steam_id":76561198121633820,"connected_time":1439000000000,"state":"active","ping":59},{"user_id":185,"name":"ᵐᵉᵒʷ","steam_id":76561199200969139,"connected_time":2510000000000,"state":"active","ping":114},{"user_id":210,"name":"Sammy!","steam_id":76561198184171743,"connected_time":246000000000,"state":"active","ping":50},{"user_id":181,"name":"Hazel The Maid Boy :3","steam_id":76561199247095754,"connected_time":2990000000000,"state":"active","ping":62},{"user_id":182,"name":"Banana Man","steam_id":76561199012105803,"connected_time":2924000000000,"state":"active","ping":68},{"user_id":151,"name":"Phantomesque","steam_id":76561198254066269,"connected_time":4528000000000,"state":"active","ping":70},{"user_id":211,"name":"darkness.danny3481","steam_id":76561198132808002,"connected_time":193000000000,"state":"active","ping":56}]},{"server_id":18,"name":"Uncletopia | San Francisco | 2 | All Maps","name_short":"sfo-2","host":"sfo-1.us.uncletopia.com","port":27025,"enabled":true,"region":"us-west","cc":"us","latitude":37.77397,"longitude":-122.4313,"reserved":0,"last_update":"0001-01-01T00:00:00Z","name_a2s":"Uncletopia | San Francisco | 2 | All Maps","protocol":17,"map":"cp_freight_final1","folder":"tf","game":"Team Fortress","app_id":440,"player_count":0,"max_players":24,"Bots":0,"server_type":"Dedicated","server_os":"Linux","password":true,"vac":true,"version":"7961495","steam_id":85568392924470000,"keywords":["cp","nocrits","nodmgspread","uncletopia"],"game_id":440,"stv_port":27026,"stv_name":"Uncletopia | San Francisco | 2 | All Maps | STV","players":null},{"server_id":19,"name":"Uncletopia | San Francisco | 3 | Stopwatch","name_short":"sfo-3","host":"sfo-1.us.uncletopia.com","port":27035,"enabled":true,"region":"us-west","cc":"us","latitude":37.77397,"longitude":-122.4313,"reserved":0,"last_update":"0001-01-01T00:00:00Z","name_a2s":"Uncletopia | San Francisco | 3 | Stopwatch","protocol":17,"map":"workshop/koth_product_final.ugc454272353","folder":"tf","game":"Team Fortress","app_id":440,"player_count":0,"max_players":24,"Bots":0,"server_type":"Dedicated","server_os":"Linux","password":true,"vac":true,"version":"7961495","steam_id":85568392924742824,"keywords":["cp","nocrits","nodmgspread","uncletopia"],"game_id":440,"stv_port":27036,"stv_name":"Uncletopia | San Francisco | 3 | Stopwatch | STV","players":null},{"server_id":20,"name":"Uncletopia | San Francisco | 4 | Community","name_short":"sfo-4","host":"sfo-1.us.uncletopia.com","port":27045,"enabled":true,"region":"us-west","cc":"us","latitude":37.77397,"longitude":-122.4313,"reserved":0,"last_update":"0001-01-01T00:00:00Z","name_a2s":"Uncletopia | San Francisco | 4 | Community","protocol":17,"map":"workshop/pl_cactuscanyon_redux_final2.ugc2579644293","folder":"tf","game":"Team Fortress","app_id":440,"player_count":0,"max_players":24,"Bots":0,"server_type":"Dedicated","server_os":"Linux","password":true,"vac":true,"version":"7961495","steam_id":85568392924742826,"keywords":["nocrits","nodmgspread","payload","uncletopia"],"game_id":440,"stv_port":27046,"stv_name":"Uncletopia | San Francisco | 4 | Community | STV","players":null},{"server_id":141,"name":"Uncletopia | Sydney | 1 | All Maps","name_short":"syd-1","host":"syd-1.au.uncletopia.com","port":27015,"enabled":true,"region":"au","cc":"au","latitude":-33.865143,"longitude":151.2099,"reserved":0,"last_update":"0001-01-01T00:00:00Z","name_a2s":"Uncletopia | Sydney | 1 | All Maps","protocol":17,"map":"cp_sunshine","folder":"tf","game":"Team Fortress","app_id":440,"player_count":0,"max_players":24,"Bots":0,"server_type":"Dedicated","server_os":"Linux","password":true,"vac":true,"version":"7961495","steam_id":85568392924470001,"keywords":["cp","nocrits","nodmgspread","uncletopia"],"game_id":440,"stv_port":27016,"stv_name":"Uncletopia | Sydney | 1 | All Maps | STV","players":null},{"server_id":123,"name":"Uncletopia | Sydney | 2 | All Maps","name_short":"syd-2","host":"syd-1.au.uncletopia.com","port":27025,"enabled":true,"region":"au","cc":"au","latitude":-33.865143,"longitude":151.2099,"reserved":0,"last_update":"0001-01-01T00:00:00Z","name_a2s":"Uncletopia | Sydney | 2 | All Maps","protocol":17,"map":"koth_cascade","folder":"tf","game":"Team Fortress","app_id":440,"player_count":0,"max_players":24,"Bots":0,"server_type":"Dedicated","server_os":"Linux","password":true,"vac":true,"version":"7961495","steam_id":85568392924470002,"keywords":["cp","nocrits","nodmgspread","uncletopia"],"game_id":440,"stv_port":27026,"stv_name":"Uncletopia | Sydney | 2 | All Maps | STV","players":null},{"server_id":395,"name":"Uncletopia | Sydney | 3 | All Maps","name_short":"syd-3","host":"syd-1.au.uncletopia.com","port":27035,"enabled":true,"region":"au","cc":"au","latitude":-33.865143,"longitude":151.2099,"reserved":0,"last_update":"0001-01-01T00:00:00Z","name_a2s":"Uncletopia | Sydney | 3 | All Maps","protocol":17,"map":"cp_mountainlab","folder":"tf","game":"Team Fortress","app_id":440,"player_count":0,"max_players":24,"Bots":0,"server_type":"Dedicated","server_os":"Linux","password":true,"vac":true,"version":"7961495","steam_id":85568392925194467,"keywords":["cp","nocrits","nodmgspread","uncletopia"],"game_id":440,"stv_port":27036,"stv_name":"Uncletopia | Sydney | 3 | All Maps | STV","players":null},{"server_id":396,"name":"Uncletopia | Sydney | 4 | All Maps","name_short":"syd-4","host":"syd-1.au.uncletopia.com","port":27045,"enabled":true,"region":"au","cc":"au","latitude":-33.865143,"longitude":151.2099,"reserved":0,"last_update":"0001-01-01T00:00:00Z","name_a2s":"Uncletopia | Sydney | 4 | All Maps","protocol":17,"map":"koth_lakeside_final","folder":"tf","game":"Team Fortress","app_id":440,"player_count":0,"max_players":24,"Bots":0,"server_type":"Dedicated","server_os":"Linux","password":true,"vac":true,"version":"7961495","steam_id":85568392925397958,"keywords":["cp","nocrits","nodmgspread","uncletopia"],"game_id":440,"stv_port":27046,"stv_name":"Uncletopia | Sydney | 4 | All Maps | STV","players":null},{"server_id":58,"name":"Uncletopia | Sydney | 5 | Stopwatch","name_short":"syd-5","host":"syd-1.au.uncletopia.com","port":27055,"enabled":true,"region":"au","cc":"au","latitude":-33.865143,"longitude":151.2099,"reserved":0,"last_update":"0001-01-01T00:00:00Z","name_a2s":"Uncletopia | Sydney | 5 | Stopwatch","protocol":17,"map":"workshop/pl_summercoast_rc8e.ugc1761528829","folder":"tf","game":"Team Fortress","app_id":440,"player_count":0,"max_players":24,"Bots":0,"server_type":"Dedicated","server_os":"Linux","password":true,"vac":true,"version":"7961495","steam_id":85568392925397959,"keywords":["nocrits","nodmgspread","payload","uncletopia"],"game_id":440,"stv_port":27056,"stv_name":"Uncletopia | Sydney | 5 | Stopwatch | STV","players":null},{"server_id":59,"name":"Uncletopia | Sydney | 6 | Community","name_short":"syd-6","host":"syd-1.au.uncletopia.com","port":27065,"enabled":true,"region":"au","cc":"au","latitude":-33.865143,"longitude":151.2099,"reserved":0,"last_update":"0001-01-01T00:00:00Z","name_a2s":"Uncletopia | Sydney | 6 | Community","protocol":17,"map":"workshop/koth_trenchfoot_ab1.ugc731436616","folder":"tf","game":"Team Fortress","app_id":440,"player_count":0,"max_players":24,"Bots":0,"server_type":"Dedicated","server_os":"Linux","password":true,"vac":true,"version":"7961495","steam_id":85568392925397960,"keywords":["cp","nocrits","nodmgspread","uncletopia"],"game_id":440,"stv_port":27066,"stv_name":"Uncletopia | Sydney | 6 | Community | STV","players":null},{"server_id":49,"name":"Uncletopia | Warsaw | 1 | One Thousand Uncles","name_short":"waw-1","host":"waw-1.pl.uncletopia.com","port":27015,"enabled":true,"region":"eu","cc":"pl","latitude":52.2297,"longitude":21.017532,"reserved":0,"last_update":"0001-01-01T00:00:00Z","name_a2s":"Uncletopia | Warsaw | 1 | One Thousand Uncles","protocol":17,"map":"cp_egypt_final","folder":"tf","game":"Team Fortress","app_id":440,"player_count":25,"max_players":32,"Bots":16,"server_type":"Dedicated","server_os":"Linux","password":true,"vac":true,"version":"7961495","steam_id":85568392925397850,"keywords":["alltalk","bots","cp","danepve","increased_maxplayers","norespawntime","uncletopia"],"game_id":440,"stv_port":0,"stv_name":"","players":[{"user_id":632,"name":"Klendathu","steam_id":76561197979797269,"connected_time":608000000000,"state":"active","ping":68},{"user_id":583,"name":"Limner.exe","steam_id":76561199200274345,"connected_time":3417000000000,"state":"active","ping":165},{"user_id":625,"name":"not spy.","steam_id":76561198430556160,"connected_time":1350000000000,"state":"active","ping":77},{"user_id":622,"name":"Kemalismus","steam_id":76561198394441106,"connected_time":1583000000000,"state":"active","ping":129},{"user_id":545,"name":"UNCLE SEM (MADNESS EDGE)","steam_id":76561199026872580,"connected_time":7834000000000,"state":"active","ping":107},{"user_id":585,"name":"Palc0vva","steam_id":76561199044887226,"connected_time":3310000000000,"state":"active","ping":42},{"user_id":522,"name":"G.L.O.R.I.","steam_id":76561198134414380,"connected_time":8625000000000,"state":"active","ping":79},{"user_id":591,"name":"mark.simfi","steam_id":76561198966432244,"connected_time":2838000000000,"state":"active","ping":44},{"user_id":609,"name":"vietnamese farmer","steam_id":76561199084680369,"connected_time":2725000000000,"state":"active","ping":36}]},{"server_id":50,"name":"Uncletopia | Warsaw | 2 | One Thousand Uncles","name_short":"waw-2","host":"waw-1.pl.uncletopia.com","port":27025,"enabled":true,"region":"eu","cc":"pl","latitude":52.2297,"longitude":21.017532,"reserved":0,"last_update":"0001-01-01T00:00:00Z","name_a2s":"Uncletopia | Warsaw | 2 | One Thousand Uncles","protocol":17,"map":"pl_goldrush","folder":"tf","game":"Team Fortress","app_id":440,"player_count":23,"max_players":32,"Bots":16,"server_type":"Dedicated","server_os":"Linux","password":true,"vac":true,"version":"7961495","steam_id":85568392925397851,"keywords":["alltalk","bots","danepve","increased_maxplayers","norespawntime","payload","uncletopia"],"game_id":440,"stv_port":0,"stv_name":"","players":[{"user_id":224,"name":"Kotlet schabowy","steam_id":76561198048983509,"connected_time":1935000000000,"state":"active","ping":45},{"user_id":225,"name":"Tekor","steam_id":76561198088542862,"connected_time":1915000000000,"state":"active","ping":43},{"user_id":244,"name":"Boy Killer","steam_id":76561198083265858,"connected_time":919000000000,"state":"active","ping":71},{"user_id":245,"name":"Baby Killer","steam_id":76561197977822608,"connected_time":892000000000,"state":"active","ping":64},{"user_id":246,"name":"TUROK","steam_id":76561199231065766,"connected_time":876000000000,"state":"active","ping":65},{"user_id":247,"name":"LizardMilk_19","steam_id":76561199435002235,"connected_time":341000000000,"state":"active","ping":272},{"user_id":248,"name":"chewBAKA","steam_id":76561198278889109,"connected_time":276000000000,"state":"active","ping":63}]},{"server_id":51,"name":"Uncletopia | Warsaw | 3 | All Maps","name_short":"waw-3","host":"waw-1.pl.uncletopia.com","port":27035,"enabled":true,"region":"eu","cc":"pl","latitude":52.2297,"longitude":21.017532,"reserved":0,"last_update":"0001-01-01T00:00:00Z","name_a2s":"Uncletopia | Warsaw | 3 | All Maps","protocol":17,"map":"pl_barnblitz","folder":"tf","game":"Team Fortress","app_id":440,"player_count":6,"max_players":24,"Bots":0,"server_type":"Dedicated","server_os":"Linux","password":true,"vac":true,"version":"7961495","steam_id":85568392925397852,"keywords":["nocrits","nodmgspread","payload","uncletopia"],"game_id":440,"stv_port":27036,"stv_name":"Uncletopia | Warsaw | 3 | All Maps | STV","players":[{"user_id":7,"name":"Guthlaf","steam_id":76561198153564078,"connected_time":1837000000000,"state":"active","ping":49},{"user_id":29,"name":"Laryssa","steam_id":76561198271084076,"connected_time":299000000000,"state":"active","ping":31},{"user_id":10,"name":"TheRock","steam_id":76561198386889558,"connected_time":1755000000000,"state":"active","ping":51},{"user_id":11,"name":"GryffiN","steam_id":76561199508575910,"connected_time":1750000000000,"state":"active","ping":58},{"user_id":12,"name":"MLC","steam_id":76561198188971214,"connected_time":1676000000000,"state":"active","ping":55},{"user_id":13,"name":"Ursyn","steam_id":76561198287800213,"connected_time":1636000000000,"state":"active","ping":54}]},{"server_id":52,"name":"Uncletopia | Warsaw | 4 | All Maps","name_short":"waw-4","host":"waw-1.pl.uncletopia.com","port":27045,"enabled":true,"region":"eu","cc":"pl","latitude":52.2297,"longitude":21.017532,"reserved":0,"last_update":"0001-01-01T00:00:00Z","name_a2s":"Uncletopia | Warsaw | 4 | All Maps","protocol":17,"map":"koth_lakeside_final","folder":"tf","game":"Team Fortress","app_id":440,"player_count":0,"max_players":24,"Bots":0,"server_type":"Dedicated","server_os":"Linux","password":true,"vac":true,"version":"7961495","steam_id":85568392925397853,"keywords":["cp","nocrits","nodmgspread","uncletopia"],"game_id":440,"stv_port":27046,"stv_name":"Uncletopia | Warsaw | 4 | All Maps | STV","players":null},{"server_id":53,"name":"Uncletopia | Warsaw | 5 | Stopwatch","name_short":"waw-5","host":"waw-1.pl.uncletopia.com","port":27055,"enabled":true,"region":"eu","cc":"pl","latitude":52.2297,"longitude":21.017532,"reserved":0,"last_update":"0001-01-01T00:00:00Z","name_a2s":"Uncletopia | Warsaw | 5 | Stopwatch","protocol":17,"map":"workshop/koth_bagel_rc6.ugc2514036946","folder":"tf","game":"Team Fortress","app_id":440,"player_count":0,"max_players":24,"Bots":0,"server_type":"Dedicated","server_os":"Linux","password":true,"vac":true,"version":"7961495","steam_id":85568392925397854,"keywords":["cp","nocrits","nodmgspread","uncletopia"],"game_id":440,"stv_port":27056,"stv_name":"Uncletopia | Warsaw | 5 | Stopwatch | STV","players":null},{"server_id":54,"name":"Uncletopia | Warsaw | 6 | Community","name_short":"waw-6","host":"waw-1.pl.uncletopia.com","port":27065,"enabled":true,"region":"eu","cc":"pl","latitude":52.2297,"longitude":21.017532,"reserved":0,"last_update":"0001-01-01T00:00:00Z","name_a2s":"Uncletopia | Warsaw | 6 | Community","protocol":17,"map":"workshop/rd_asteroid_redux_b1.ugc2154902912","folder":"tf","game":"Team Fortress","app_id":440,"player_count":2,"max_players":24,"Bots":0,"server_type":"Dedicated","server_os":"Linux","password":true,"vac":true,"version":"7961495","steam_id":85568392925397856,"keywords":["beta","nocrits","nodmgspread","rd","uncletopia"],"game_id":440,"stv_port":27066,"stv_name":"Uncletopia | Warsaw | 6 | Community | STV","players":[{"user_id":9,"name":"ZeltarVerron","steam_id":76561198061753026,"connected_time":223000000000,"state":"active","ping":30},{"user_id":10,"name":"illone121","steam_id":76561199438915375,"connected_time":214000000000,"state":"active","ping":34}]}]}