{"status":true,"message":"","result":[{"server_id":9,"name":"Uncletopia | Atlanta | 1 | All Maps","name_short":"atl-1","host":"atl-1.us.uncletopia.com","port":27015,"enabled":true,"region":"us-east","cc":"us","latitude":33.753746,"longitude":-84.38633,"reserved":0,"last_update":"0001-01-01T00:00:00Z","name_a2s":"Uncletopia | Atlanta | 1 | All Maps","protocol":17,"map":"cp_altitude","folder":"tf","game":"Team Fortress","app_id":440,"player_count":0,"max_players":24,"Bots":0,"server_type":"Dedicated","server_os":"Linux","password":true,"vac":true,"version":"7961495","steam_id":85568392924469982,"keywords":["cp","nocrits","nodmgspread","uncletopia"],"game_id":440,"stv_port":27016,"stv_name":"Uncletopia | Atlanta | 1 | All Maps | STV","players":null},{"server_id":104,"name":"Uncletopia | Atlanta | 2 | All Maps","name_short":"atl-2","host":"atl-1.us.uncletopia.com","port":27025,"enabled":true,"region":"us-east","cc":"us","latitude":33.753746,"longitude":-84.38633,"reserved":0,"last_update":"0001-01-01T00:00:00Z","name_a2s":"Uncletopia | Atlanta | 2 | All Maps","protocol":17,"map":"koth_cascade","folder":"tf","game":"Team Fortress","app_id":440,"player_count":0,"max_players":24,"Bots":0,"server_type":"Dedicated","server_os":"Linux","password":true,"vac":true,"version":"7961495","steam_id":85568392924469983,"keywords":["cp","nocrits","nodmgspread","uncletopia"],"game_id":440,"stv_port":27026,"stv_name":"Uncletopia | Atlanta | 2 | All Maps | STV","players":null},{"server_id":400,"name":"Uncletopia | Atlanta | 3 | Stopwatch","name_short":"atl-3","host":"atl-1.us.uncletopia.com","port":27035,"enabled":true,"region":"us-east","cc":"us","latitude":33.753746,"longitude":-84.38633,"reserved":0,"last_update":"0001-01-01T00:00:00Z","name_a2s":"Uncletopia | Atlanta | 3 | Stopwatch","protocol":17,"map":"pl_badwater","folder":"tf","game":"Team Fortress","app_id":440,"player_count":0,"max_players":24,"Bots":0,"server_type":"Dedicated","server_os":"Linux","password":true,"vac":true,"version":"7961495","steam_id":85568392924515187,"keywords":["nocrits","nodmgspread","payload","uncletopia"],"game_id":440,"stv_port":27036,"stv_name":"Uncletopia | Atlanta | 3 | Stopwatch | STV","players":null},{"server_id":401,"name":"Uncletopia | Atlanta | 4 | Community","name_short":"atl-4","host":"atl-1.us.uncletopia.com","port":27045,"enabled":true,"region":"us-east","cc":"us","latitude":33.753746,"longitude":-84.38633,"reserved":0,"last_update":"0001-01-01T00:00:00Z","name_a2s":"Uncletopia | Atlanta | 4 | Community","protocol":17,"map":"cp_kalinka_rc6a","folder":"tf","game":"Team Fortress","app_id":440,"player_count":0,"max_players":24,"Bots":0,"server_type":"Dedicated","server_os":"Linux","password":true,"vac":true,"version":"7961495","steam_id":85568392924515188,"keywords":["cp","nocrits","nodmgspread","uncletopia"],"game_id":440,"stv_port":27046,"stv_name":"Uncletopia | Atlanta | 4 | Community | STV","players":null},{"server_id":2,"name":"Uncletopia | Chicago | 1 | All Maps","name_short":"chi-1","host":"chi-1.us.uncletopia.com","port":27015,"enabled":true,"region":"us-central","cc":"us","latitude":41.881832,"longitude":-87.62318,"reserved":0,"last_update":"0001-01-01T00:00:00Z","name_a2s":"Uncletopia | Chicago | 1 | All Maps","protocol":17,"map":"plr_hightower","folder":"tf","game":"Team Fortress","app_id":440,"player_count":24,"max_players":24,"Bots":0,"server_type":"Dedicated","server_os":"Linux","password":true,"vac":true,"version":"7961495","steam_id":85568392924469984,"keywords":["nocrits","nodmgspread","payload","uncletopia"],"game_id":440,"stv_port":27016,"stv_name":"Uncletopia | Chicago | 1 | All Maps | STV","players":[{"user_id":173,"name":"rock raiders enjoyer","steam_id":76561198139718219,"connected_time":2020000000000,"state":"active","ping":80},{"user_id":177,"name":"Bottom Trans Cowgirl","steam_id":76561198304239680,"connected_time":1367000000000,"state":"active","ping":79},{"user_id":197,"name":"debin","steam_id":76561198070711217,"connected_time":119000000000,"state":"active","ping":47},{"user_id":123,"name":"burger bill","steam_id":76561198116829392,"connected_time":6030000000000,"state":"active","ping":104},{"user_id":192,"name":"Gappy","steam_id":76561198803079897,"connected_time":216000000000,"state":"active","ping":46},{"user_id":181,"name":"localmeat.gov","steam_id":76561198079178866,"connected_time":1020000000000,"state":"active","ping":61},{"user_id":188,"name":"RuinLucky","steam_id":76561199481172481,"connected_time":572000000000,"state":"active","ping":88},{"user_id":187,"name":"thunderous prophet","steam_id":76561198131166135,"connected_time":648000000000,"state":"active","ping":82},{"user_id":193,"name":"Angle Dane","steam_id":76561198310874055,"connected_time":192000000000,"state":"active","ping":112},{"user_id":176,"name":"Captain","steam_id":76561198155723294,"connected_time":1592000000000,"state":"active","ping":54},{"user_id":178,"name":"sirrad","steam_id":76561199403589748,"connected_time":1362000000000,"state":"active","ping":50},{"user_id":87,"name":"james may","steam_id":76561198043857339,"connected_time":7861000000000,"state":"active","ping":102},{"user_id":170,"name":"TheDapperTaco","steam_id":76561199103076602,"connected_time":2147000000000,"state":"active","ping":125},{"user_id":163,"name":"hey buddy","steam_id":76561198066521617,"connected_time":2465000000000,"state":"active","ping":67},{"user_id":180,"name":"[„èà] Bumpercars","steam_id":76561198061591743,"connected_time":1320000000000,"state":"active","ping":67},{"user_id":189,"name":"ali oop","steam_id":76561198057516213,"connected_time":268000000000,"state":"active","ping":83},{"user_id":133,"name":"Ashes!","steam_id":76561197998475441,"connected_time":5374000000000,"state":"active","ping":86},{"user_id":171,"name":"amagicowl","steam_id":76561199060487814,"connected_time":2096000000000,"state":"active","ping":104},{"user_id":195,"name":"Vem","steam_id":76561198117273112,"connected_time":173000000000,"state":"active","ping":69},{"user_id":196,"name":"snobis","steam_id":76561198084927866,"connected_time":168000000000,"state":"active","ping":55},{"user_id":169,"name":"Kasimir","steam_id":76561198013840333,"connected_time":2292000000000,"state":"active","ping":85},{"user_id":145,"name":"Archimedes!","steam_id":76561199446023933,"connected_time":4754000000000,"state":"active","ping":90},{"user_id":159,"name":"yes daddy","steam_id":76561198166100997,"connected_time":2619000000000,"state":"active","ping":73},{"user_id":190,"name":"Doctor Emerald(Bison king)","steam_id":76561199123003872,"connected_time":266000000000,"state":"active","ping":91}]},{"server_id":106,"name":"Uncletopia | Chicago | 2 | All Maps","name_short":"chi-2","host":"chi-1.us.uncletopia.com","port":27025,"enabled":true,"region":"us-central","cc":"us","latitude":41.881832,"longitude":-87.62318,"reserved":0,"last_update":"0001-01-01T00:00:00Z","name_a2s":"Uncletopia | Chicago | 2 | All Maps","protocol":17,"map":"koth_viaduct","folder":"tf","game":"Team Fortress","app_id":440,"player_count":24,"max_players":24,"Bots":0,"server_type":"Dedicated","server_os":"Linux","password":true,"vac":true,"version":"7961495","steam_id":85568392924469985,"keywords":["cp","nocrits","nodmgspread","uncletopia"],"game_id":440,"stv_port":27026,"stv_name":"Uncletopia | Chicago | 2 | All Maps | STV","players":[{"user_id":274,"name":"crulorys","steam_id":76561198070794764,"connected_time":528000000000,"state":"active","ping":96},{"user_id":246,"name":"King Cotton","steam_id":76561198292444376,"connected_time":2625000000000,"state":"active","ping":87},{"user_id":273,"name":"Unnecessary Toxicity","steam_id":76561198249397292,"connected_time":769000000000,"state":"active","ping":78},{"user_id":257,"name":"QwipQwop","steam_id":76561198019028725,"connected_time":1592000000000,"state":"active","ping":76},{"user_id":222,"name":"Satori Komeiji","steam_id":76561198158211423,"connected_time":4618000000000,"state":"active","ping":102},{"user_id":275,"name":"peace dog","steam_id":76561198267988522,"connected_time":511000000000,"state":"active","ping":76},{"user_id":226,"name":"Nephi","steam_id":76561198031525122,"connected_time":4152000000000,"state":"active","ping":76},{"user_id":286,"name":"Elpipiribao","steam_id":76561198825371499,"connected_time":360000000000,"state":"active","ping":133},{"user_id":253,"name":"g00bur","steam_id":76561197993622520,"connected_time":1790000000000,"state":"active","ping":66},{"user_id":277,"name":"Skeleop","steam_id":76561198981106464,"connected_time":472000000000,"state":"active","ping":95},{"user_id":271,"name":"The Barnyard","steam_id":76561199062074592,"connected_time":908000000000,"state":"active","ping":53},{"user_id":247,"name":"Helty","steam_id":76561199121365950,"connected_time":2616000000000,"state":"active","ping":160},{"user_id":288,"name":"Â≠´Â≠ê","steam_id":76561198083112681,"connected_time":237000000000,"state":"active","ping":57},{"user_id":235,"name":"Would You Make Me A Sandwich?","steam_id":76561198152332211,"connected_time":3479000000000,"state":"active","ping":59},{"user_id":272,"name":"Pigeon Hunter","steam_id":76561198102176850,"connected_time":886000000000,"state":"active","ping":97},{"user_id":281,"name":"Indian Elephant From Pokemon","steam_id":76561198064249841,"connected_time":441000000000,"state":"active","ping":61},{"user_id":258,"name":"spidex91","steam_id":76561198254338312,"connected_time":1574000000000,"state":"active","ping":150},{"user_id":282,"name":"new york city pizza rat","steam_id":76561198202589758,"connected_time":441000000000,"state":"active","ping":75},{"user_id":221,"name":"FIJI","steam_id":76561198126087725,"connected_time":4755000000000,"state":"active","ping":73},{"user_id":290,"name":"Cosmic Torgue","steam_id":76561198828724945,"connected_time":99000000000,"state":"active","ping":74},{"user_id":284,"name":"QWERTY","steam_id":76561198211430420,"connected_time":433000000000,"state":"active","ping":67},{"user_id":289,"name":"Howard Hamlin","steam_id":76561198881039861,"connected_time":173000000000,"state":"active","ping":39},{"user_id":292,"name":"its so over","steam_id":76561198103496593,"connected_time":20000000000,"state":"spawning","ping":67},{"user_id":269,"name":"Don't Fuckle with Shuckle","steam_id":76561199020102367,"connected_time":960000000000,"state":"active","ping":76}]},{"server_id":402,"name":"Uncletopia | Chicago | 3 | All Maps","name_short":"chi-3","host":"chi-1.us.uncletopia.com","port":27035,"enabled":true,"region":"us-central","cc":"us","latitude":41.881832,"longitude":-87.62318,"reserved":0,"last_update":"0001-01-01T00:00:00Z","name_a2s":"Uncletopia | Chicago | 3 | All Maps","protocol":17,"map":"cp_process_final","folder":"tf","game":"Team Fortress","app_id":440,"player_count":5,"max_players":24,"Bots":0,"server_type":"Dedicated","server_os":"Linux","password":true,"vac":true,"version":"7961495","steam_id":85568392924515191,"keywords":["cp","nocrits","nodmgspread","uncletopia"],"game_id":440,"stv_port":27036,"stv_name":"Uncletopia | Chicago | 3 | All Maps | STV","players":[{"user_id":11,"name":"Pepsiman","steam_id":76561198085789499,"connected_time":911000000000,"state":"active","ping":57},{"user_id":12,"name":"blind4545","steam_id":76561198983194317,"connected_time":351000000000,"state":"active","ping":96},{"user_id":13,"name":"mild mannered mystery man","steam_id":76561198072095399,"connected_time":154000000000,"state":"active","ping":51},{"user_id":14,"name":"TimeWarper","steam_id":76561198307258839,"connected_time":118000000000,"state":"active","ping":58},{"user_id":15,"name":"gideon nav my beloved","steam_id":76561198259092181,"connected_time":13000000000,"state":"spawning","ping":60}]},{"server_id":403,"name":"Uncletopia | Chicago | 4 | All Maps","name_short":"chi-4","host":"chi-1.us.uncletopia.com","port":27045,"enabled":true,"region":"us-central","cc":"us","latitude":41.881832,"longitude":-87.62318,"reserved":0,"last_update":"0001-01-01T00:00:00Z","name_a2s":"Uncletopia | Chicago | 4 | All Maps","protocol":17,"map":"cp_snakewater_final1","folder":"tf","game":"Team Fortress","app_id":440,"player_count":24,"max_players":24,"Bots":0,"server_type":"Dedicated","server_os":"Linux","password":true,"vac":true,"version":"7961495","steam_id":85568392924515193,"keywords":["cp","nocrits","nodmgspread","uncletopia"],"game_id":440,"stv_port":27046,"stv_name":"Uncletopia | Chicago | 4 | All Maps | STV","players":[{"user_id":99,"name":"purire","steam_id":76561197967066490,"connected_time":908000000000,"state":"active","ping":50},{"user_id":98,"name":"banana bay enthusiast","steam_id":76561198124791670,"connected_time":923000000000,"state":"active","ping":58},{"user_id":95,"name":"stall","steam_id":76561199152861652,"connected_time":988000000000,"state":"active","ping":51},{"user_id":96,"name":"Urbanzpinapple","steam_id":76561198115426938,"connected_time":969000000000,"state":"active","ping":57},{"user_id":31,"name":"ADRIEN BRODY","steam_id":76561198009299473,"connected_time":4236000000000,"state":"active","ping":65},{"user_id":103,"name":"duct tape ass fart cure","steam_id":76561198057076267,"connected_time":698000000000,"state":"active","ping":76},{"user_id":102,"name":"ceres fauna free use","steam_id":76561198097330521,"connected_time":857000000000,"state":"active","ping":156},{"user_id":80,"name":"watersonterrence","steam_id":76561199110507045,"connected_time":1928000000000,"state":"active","ping":72},{"user_id":79,"name":"probably_mudkipz","steam_id":76561197992543592,"connected_time":1950000000000,"state":"active","ping":100},{"user_id":104,"name":"big steve","steam_id":76561199037050183,"connected_time":692000000000,"state":"active","ping":85},{"user_id":89,"name":"rando","steam_id":76561197982325629,"connected_time":1569000000000,"state":"active","ping":70},{"user_id":101,"name":"mario.hernandez.2006","steam_id":76561198811827433,"connected_time":861000000000,"state":"active","ping":52},{"user_id":78,"name":"NikoOS (NO SOUND)","steam_id":76561198180020521,"connected_time":1956000000000,"state":"active","ping":122},{"user_id":81,"name":"Prof. Shittington","steam_id":76561198135137213,"connected_time":1925000000000,"state":"active","ping":53},{"user_id":82,"name":"Junkan","steam_id":76561198127676420,"connected_time":1906000000000,"state":"active","ping":76},{"user_id":100,"name":"La Bomba","steam_id":76561198069948353,"connected_time":908000000000,"state":"active","ping":90},{"user_id":63,"name":"louise sneeze","steam_id":76561198062451648,"connected_time":3253000000000,"state":"active","ping":60},{"user_id":92,"name":"‚òºBarracuda‚òº","steam_id":76561198013022083,"connected_time":1187000000000,"state":"active","ping":59},{"user_id":50,"name":"gods hungriest pitbull","steam_id":76561198111669774,"connected_time":3977000000000,"state":"active","ping":48},{"user_id":51,"name":"chikin.sauce","steam_id":76561198042464635,"connected_time":3977000000000,"state":"active","ping":81},{"user_id":75,"name":"William Wallace","steam_id":76561199343316814,"connected_time":1994000000000,"state":"active","ping":73},{"user_id":105,"name":"Elena Manetta","steam_id":76561197998344054,"connected_time":646000000000,"state":"active","ping":60},{"user_id":111,"name":"my name jeff","steam_id":76561198179816898,"connected_time":469000000000,"state":"active","ping":76},{"user_id":94,"name":"Tech Deck","steam_id":76561199070437675,"connected_time":1155000000000,"state":"active","ping":119}]},{"server_id":36,"name":"Uncletopia | Chicago | 5 | All Maps","name_short":"chi-5","host":"chi-2.us.uncletopia.com","port":27015,"enabled":true,"region":"us-central","cc":"us","latitude":41.881832,"longitude":-87.62318,"reserved":0,"last_update":"0001-01-01T00:00:00Z","name_a2s":"Uncletopia | Chicago | 5 | All Maps","protocol":17,"map":"koth_viaduct","folder":"tf","game":"Team Fortress","app_id":440,"player_count":0,"max_players":24,"Bots":0,"server_type":"Dedicated","server_os":"Linux","password":true,"vac":true,"version":"7961495","steam_id":85568392924866362,"keywords":["cp","nocrits","nodmgspread","uncletopia"],"game_id":440,"stv_port":27016,"stv_name":"Uncletopia | Chicago | 5 | All Maps | STV","players":null},{"server_id":37,"name":"Uncletopia | Chicago | 6 | All Maps","name_short":"chi-6","host":"chi-2.us.uncletopia.com","port":27025,"enabled":true,"region":"us-central","cc":"us","latitude":41.881832,"longitude":-87.62318,"reserved":0,"last_update":"0001-01-01T00:00:00Z","name_a2s":"Uncletopia | Chicago | 6 | All Maps","protocol":17,"map":"pl_barnblitz","folder":"tf","game":"Team Fortress","app_id":440,"player_count":24,"max_players":24,"Bots":0,"server_type":"Dedicated","server_os":"Linux","password":true,"vac":true,"version":"7961495","steam_id":85568392924866363,"keywords":["nocrits","nodmgspread","payload","uncletopia"],"game_id":440,"stv_port":27026,"stv_name":"Uncletopia | Chicago | 6 | All Maps | STV","players":[{"user_id":10,"name":"Lord Commissar Drac","steam_id":76561198030371218,"connected_time":1575000000000,"state":"active","ping":154},{"user_id":5,"name":"[hoodie]","steam_id":76561198105408624,"connected_time":1820000000000,"state":"active","ping":119},{"user_id":6,"name":"Shadowy The Insane Bovinemancer","steam_id":76561198026512497,"connected_time":1771000000000,"state":"active","ping":156},{"user_id":8,"name":"Danse","steam_id":76561198065545203,"connected_time":1688000000000,"state":"active","ping":161},{"user_id":14,"name":"cass","steam_id":76561198074502046,"connected_time":1117000000000,"state":"active","ping":98},{"user_id":13,"name":"Thequirka (regular trackpad use","steam_id":76561198968058652,"connected_time":1173000000000,"state":"active","ping":95},{"user_id":15,"name":"DragonXneoN","steam_id":76561198005974781,"connected_time":938000000000,"state":"active","ping":175},{"user_id":16,"name":"coolalepher","steam_id":76561199002989143,"connected_time":810000000000,"state":"active","ping":85},{"user_id":18,"name":"exe-blue-cat","steam_id":76561199385932189,"connected_time":556000000000,"state":"active","ping":157},{"user_id":19,"name":"ScoutBox","steam_id":76561198111539895,"connected_time":484000000000,"state":"active","ping":96},{"user_id":20,"name":"Justario","steam_id":76561198016095410,"connected_time":427000000000,"state":"active","ping":62},{"user_id":21,"name":"/·ê†ÔΩ°ÍûàÔΩ°·êü\\","steam_id":76561198185980055,"connected_time":393000000000,"state":"active","ping":67},{"user_id":24,"name":"mechiimi","steam_id":76561198321627268,"connected_time":314000000000,"state":"active","ping":128},{"user_id":23,"name":"blazen","steam_id":76561198921007863,"connected_time":369000000000,"state":"active","ping":110},{"user_id":25,"name":"Dan","steam_id":76561199236719411,"connected_time":271000000000,"state":"active","ping":67},{"user_id":26,"name":"t.tv/FamilyGuyFunnyMoments277","steam_id":76561198416047580,"connected_time":187000000000,"state":"active","ping":61},{"user_id":27,"name":"TheGirthquake","steam_id":76561198238895056,"connected_time":138000000000,"state":"active","ping":67},{"user_id":28,"name":"jxh300","steam_id":76561199196579894,"connected_time":132000000000,"state":"active","ping":66},{"user_id":29,"name":"„Éì„Éº„Éä„Éº","steam_id":76561199196918355,"connected_time":104000000000,"state":"active","ping":54},{"user_id":30,"name":"Disco Fever","steam_id":76561198069532215,"connected_time":84000000000,"state":"active","ping":70},{"user_id":31,"name":"pinglefingle","steam_id":76561198216580197,"connected_time":77000000000,"state":"active","ping":83},{"user_id":35,"name":"That Guy","steam_id":76561198851266251,"connected_time":62000000000,"state":"active","ping":124},{"user_id":33,"name":"barney","steam_id":76561198166433332,"connected_time":70000000000,"state":"active","ping":102},{"user_id":34,"name":"I am the pinnacle of funny","steam_id":76561198306393090,"connected_time":70000000000,"state":"active","ping":45}]},{"server_id":38,"name":"Uncletopia | Chicago | 7 | Stopwatch","name_short":"chi-7","host":"chi-2.us.uncletopia.com","port":27035,"enabled":true,"region":"us-central","cc":"us","latitude":41.881832,"longitude":-87.62318,"reserved":0,"last_update":"0001-01-01T00:00:00Z","name_a2s":"Uncletopia | Chicago | 7 | Stopwatch","protocol":17,"map":"workshop/koth_product_final.ugc454272353","folder":"tf","game":"Team Fortress","app_id":440,"player_count":0,"max_players":24,"Bots":0,"server_type":"Dedicated","server_os":"Linux","password":true,"vac":true,"version":"7961495","steam_id":85568392924866364,"keywords":["cp","nocrits","nodmgspread","uncletopia"],"game_id":440,"stv_port":27036,"stv_name":"Uncletopia | Chicago | 7 | Stopwatch | STV","players":null},{"server_id":39,"name":"Uncletopia | Chicago | 8 | Community","name_short":"chi-8","host":"chi-2.us.uncletopia.com","port":27045,"enabled":true,"region":"us-central","cc":"us","latitude":41.881832,"longitude":-87.62318,"reserved":0,"last_update":"0001-01-01T00:00:00Z","name_a2s":"Uncletopia | Chicago | 8 | Community","protocol":17,"map":"workshop/pl_eruption_b9a.ugc2807898013","folder":"tf","game":"Team Fortress","app_id":440,"player_count":0,"max_players":24,"Bots":0,"server_type":"Dedicated","server_os":"Linux","password":true,"vac":true,"version":"7961495","steam_id":85568392924866365,"keywords":["nocrits","nodmgspread","payload","uncletopia"],"game_id":440,"stv_port":27046,"stv_name":"Uncletopia | Chicago | 8 | Community | STV","players":null},{"server_id":8,"name":"Uncletopia | Dallas | 1 | All Maps","name_short":"dal-1","host":"dal-1.us.uncletopia.com","port":27015,"enabled":true,"region":"us-central","cc":"us","latitude":32.779167,"longitude":-96.80889,"reserved":0,"last_update":"0001-01-01T00:00:00Z","name_a2s":"Uncletopia | Dallas | 1 | All Maps","protocol":17,"map":"pl_pier","folder":"tf","game":"Team Fortress","app_id":440,"player_count":24,"max_players":24,"Bots":0,"server_type":"Dedicated","server_os":"Linux","password":true,"vac":true,"version":"7961495","steam_id":85568392924469986,"keywords":["nocrits","nodmgspread","payload","uncletopia"],"game_id":440,"stv_port":27016,"stv_name":"Uncletopia | Dallas | 1 | All Maps | STV","players":[{"user_id":155,"name":"Sup m8","steam_id":76561198081659121,"connected_time":184000000000,"state":"active","ping":41},{"user_id":43,"name":"NavyDinosaur","steam_id":76561198088459962,"connected_time":7984000000000,"state":"active","ping":99},{"user_id":125,"name":"tsz","steam_id":76561199246231090,"connected_time":2159000000000,"state":"active","ping":88},{"user_id":135,"name":"landon","steam_id":76561198854364921,"connected_time":1558000000000,"state":"active","ping":86},{"user_id":137,"name":"TheAilingSword","steam_id":76561198250350844,"connected_time":1490000000000,"state":"active","ping":53},{"user_id":132,"name":"Dr. Kaine","steam_id":76561197982183984,"connected_time":1600000000000,"state":"active","ping":125},{"user_id":147,"name":"bleach‚Ç™","steam_id":76561198004482768,"connected_time":1106000000000,"state":"active","ping":90},{"user_id":104,"name":"Chris Hansen, Kell of Kells","steam_id":76561198986775156,"connected_time":3083000000000,"state":"active","ping":97},{"user_id":138,"name":"Boris","steam_id":76561198142939843,"connected_time":1486000000000,"state":"active","ping":188},{"user_id":140,"name":"FI LO","steam_id":76561198976530881,"connected_time":1451000000000,"state":"active","ping":72},{"user_id":139,"name":"Waffle Wannabe","steam_id":76561198064510650,"connected_time":1465000000000,"state":"active","ping":77},{"user_id":148,"name":"BONERPHONE","steam_id":76561198332877441,"connected_time":1045000000000,"state":"active","ping":90},{"user_id":143,"name":"Fishandfish","steam_id":76561198298483804,"connected_time":1239000000000,"state":"active","ping":99},{"user_id":108,"name":"Lock'd","steam_id":76561198170108230,"connected_time":2935000000000,"state":"active","ping":60},{"user_id":128,"name":"J.C. Leyendenton","steam_id":76561198096306325,"connected_time":1656000000000,"state":"active","ping":91},{"user_id":118,"name":"small meth pouch","steam_id":76561198130412963,"connected_time":2507000000000,"state":"active","ping":63},{"user_id":145,"name":"hide on bush","steam_id":76561198067047284,"connected_time":1215000000000,"state":"active","ping":93},{"user_id":153,"name":"DiscoTraveler","steam_id":76561199240168088,"connected_time":594000000000,"state":"active","ping":77},{"user_id":120,"name":"Din√∂bro","steam_id":76561198065597770,"connected_time":2456000000000,"state":"active","ping":66},{"user_id":149,"name":"Joshy","steam_id":76561198061405421,"connected_time":1004000000000,"state":"active","ping":91},{"user_id":124,"name":"Igrium","steam_id":76561198119549811,"connected_time":2415000000000,"state":"active","ping":98},{"user_id":127,"name":"monkey squirts","steam_id":76561197983101644,"connected_time":2072000000000,"state":"active","ping":76},{"user_id":142,"name":"The Informant","steam_id":76561198293593033,"connected_time":1291000000000,"state":"active","ping":60},{"user_id":154,"name":"e doctor","steam_id":76561198081851446,"connected_time":572000000000,"state":"active","ping":68}]},{"server_id":108,"name":"Uncletopia | Dallas | 2 | All Maps","name_short":"dal-2","host":"dal-1.us.uncletopia.com","port":27025,"enabled":true,"region":"us-central","cc":"us","latitude":32.779167,"longitude":-96.80889,"reserved":0,"last_update":"0001-01-01T00:00:00Z","name_a2s":"Uncletopia | Dallas | 2 | All Maps","protocol":17,"map":"pl_pier","folder":"tf","game":"Team Fortress","app_id":440,"player_count":24,"max_players":24,"Bots":0,"server_type":"Dedicated","server_os":"Linux","password":true,"vac":true,"version":"7961495","steam_id":85568392924469988,"keywords":["nocrits","nodmgspread","payload","uncletopia"],"game_id":440,"stv_port":27026,"stv_name":"Uncletopia | Dallas | 2 | All Maps | STV","players":[{"user_id":53,"name":"Panda Loser","steam_id":76561198828745176,"connected_time":830000000000,"state":"active","ping":97},{"user_id":62,"name":"MixelPixel","steam_id":76561198079708701,"connected_time":525000000000,"state":"active","ping":99},{"user_id":13,"name":"Ghost","steam_id":76561198426370628,"connected_time":3201000000000,"state":"active","ping":70},{"user_id":19,"name":"TechnoBear2099","steam_id":76561198238863596,"connected_time":2438000000000,"state":"active","ping":47},{"user_id":65,"name":"lynt","steam_id":76561198988333976,"connected_time":279000000000,"state":"active","ping":61},{"user_id":52,"name":"Prof. Eggnog","steam_id":76561198193389166,"connected_time":1155000000000,"state":"active","ping":93},{"user_id":66,"name":"JayRawgTV","steam_id":76561198044402840,"connected_time":162000000000,"state":"active","ping":44},{"user_id":22,"name":"trying to get my bf pregnant","steam_id":76561198097175164,"connected_time":2279000000000,"state":"active","ping":108},{"user_id":31,"name":"acron","steam_id":76561198992182757,"connected_time":2149000000000,"state":"active","ping":76},{"user_id":55,"name":"The Sydney Sleeper Itself","steam_id":76561198180251763,"connected_time":816000000000,"state":"active","ping":56},{"user_id":32,"name":"Dreszerg","steam_id":76561198838757422,"connected_time":2095000000000,"state":"active","ping":82},{"user_id":56,"name":"slowdance","steam_id":76561198097427947,"connected_time":796000000000,"state":"active","ping":132},{"user_id":64,"name":"Mellou","steam_id":76561198212048740,"connected_time":301000000000,"state":"active","ping":45},{"user_id":28,"name":"Jack the Dripper","steam_id":76561198043911582,"connected_time":2180000000000,"state":"active","ping":86},{"user_id":57,"name":"Yeehaw Cousin","steam_id":76561198010819049,"connected_time":759000000000,"state":"active","ping":95},{"user_id":30,"name":"brimblobeeple","steam_id":76561198073176682,"connected_time":2176000000000,"state":"active","ping":88},{"user_id":58,"name":"Moonman327","steam_id":76561197992616059,"connected_time":745000000000,"state":"active","ping":75},{"user_id":34,"name":" è·¥ú·¥ä…™","steam_id":76561198401572620,"connected_time":2061000000000,"state":"active","ping":84},{"user_id":35,"name":"tryxxy :3","steam_id":76561198344899796,"connected_time":2058000000000,"state":"active","ping":99},{"user_id":67,"name":"Epifiny","steam_id":76561198027958086,"connected_time":155000000000,"state":"active","ping":93},{"user_id":50,"name":"Maid 'n' China","steam_id":76561198423392976,"connected_time":1481000000000,"state":"active","ping":97},{"user_id":60,"name":"King","steam_id":76561198039763676,"connected_time":604000000000,"state":"active","ping":70},{"user_id":59,"name":"locoweed","steam_id":76561198020534493,"connected_time":706000000000,"state":"active","ping":89},{"user_id":40,"name":"rocketj23","steam_id":76561198143048082,"connected_time":1997000000000,"state":"active","ping":108}]},{"server_id":404,"name":"Uncletopia | Dallas | 3 | All Maps","name_short":"dal-3","host":"dal-1.us.uncletopia.com","port":27035,"enabled":true,"region":"us-central","cc":"us","latitude":32.779167,"longitude":-96.80889,"reserved":0,"last_update":"0001-01-01T00:00:00Z","name_a2s":"Uncletopia | Dallas | 3 | All Maps","protocol":17,"map":"koth_viaduct","folder":"tf","game":"Team Fortress","app_id":440,"player_count":0,"max_players":24,"Bots":0,"server_type":"Dedicated","server_os":"Linux","password":true,"vac":true,"version":"7961495","steam_id":85568392924515219,"keywords":["cp","nocrits","nodmgspread","uncletopia"],"game_id":440,"stv_port":27036,"stv_name":"Uncletopia | Dallas | 3 | All Maps | STV","players":null},{"server_id":405,"name":"Uncletopia | Dallas | 4 | Community","name_short":"dal-4","host":"dal-1.us.uncletopia.com","port":27045,"enabled":true,"region":"us-central","cc":"us","latitude":32.779167,"longitude":-96.80889,"reserved":0,"last_update":"0001-01-01T00:00:00Z","name_a2s":"Uncletopia | Dallas | 4 | Community","protocol":17,"map":"workshop/pl_cactuscanyon_redux_final2.ugc2579644293","folder":"tf","game":"Team Fortress","app_id":440,"player_count":2,"max_players":24,"Bots":0,"server_type":"Dedicated","server_os":"Linux","password":true,"vac":true,"version":"7961495","steam_id":85568392924515220,"keywords":["nocrits","nodmgspread","payload","uncletopia"],"game_id":440,"stv_port":27046,"stv_name":"Uncletopia | Dallas | 4 | Community | STV","players":[{"user_id":7,"name":"Spinch","steam_id":76561198296224166,"connected_time":218000000000,"state":"active","ping":69},{"user_id":6,"name":"Publo","steam_id":76561198161777140,"connected_time":295000000000,"state":"active","ping":58}]},{"server_id":5,"name":"Uncletopia | Frankfurt | 1 | All Maps","name_short":"frk-1","host":"frk-1.de.uncletopia.com","port":27015,"enabled":true,"region":"eu","cc":"de","latitude":50.110924,"longitude":8.682127,"reserved":0,"last_update":"0001-01-01T00:00:00Z","name_a2s":"Uncletopia | Frankfurt | 1 | All Maps","protocol":17,"map":"pl_upward","folder":"tf","game":"Team Fortress","app_id":440,"player_count":24,"max_players":24,"Bots":0,"server_type":"Dedicated","server_os":"Linux","password":true,"vac":true,"version":"7961495","steam_id":85568392924469989,"keywords":["nocrits","nodmgspread","payload","uncletopia"],"game_id":440,"stv_port":27016,"stv_name":"Uncletopia | Frankfurt | 1 | All Maps | STV","players":[{"user_id":456,"name":"[P-roc] Cmm Bert","steam_id":76561198016658674,"connected_time":1219000000000,"state":"active","ping":70},{"user_id":461,"name":"Milosz52","steam_id":76561199060940204,"connected_time":600000000000,"state":"active","ping":76},{"user_id":460,"name":"VIN WEASEL","steam_id":76561198014387066,"connected_time":691000000000,"state":"active","ping":49},{"user_id":398,"name":"hej","steam_id":76561198110530761,"connected_time":3777000000000,"state":"active","ping":62},{"user_id":452,"name":"lyudmilakh","steam_id":76561198362779878,"connected_time":1488000000000,"state":"active","ping":86},{"user_id":419,"name":"Piox","steam_id":76561198125689157,"connected_time":2803000000000,"state":"active","ping":65},{"user_id":401,"name":"Vidrox","steam_id":76561199217854983,"connected_time":3581000000000,"state":"active","ping":75},{"user_id":464,"name":"sus197","steam_id":76561199496179862,"connected_time":282000000000,"state":"active","ping":59},{"user_id":437,"name":"Poor Fucking Infantry","steam_id":76561198055978522,"connected_time":2379000000000,"state":"active","ping":60},{"user_id":473,"name":"240km/h.PEEK Mizel","steam_id":76561199226604824,"connected_time":17000000000,"state":"active","ping":90},{"user_id":449,"name":"‚Ä†ùî•e œâoo","steam_id":76561198929808815,"connected_time":1530000000000,"state":"active","ping":50},{"user_id":466,"name":"James","steam_id":76561198138558005,"connected_time":250000000000,"state":"active","ping":64},{"user_id":404,"name":"Pyrolander","steam_id":76561198050785450,"connected_time":3526000000000,"state":"active","ping":48},{"user_id":453,"name":"TJ1212","steam_id":76561199013575313,"connected_time":1417000000000,"state":"active","ping":64},{"user_id":440,"name":"MoeruKurowassan","steam_id":76561198319349647,"connected_time":2210000000000,"state":"active","ping":84},{"user_id":459,"name":"Weeping Peep","steam_id":76561198134336641,"connected_time":775000000000,"state":"active","ping":102},{"user_id":448,"name":"Flohr","steam_id":76561198191948841,"connected_time":1579000000000,"state":"active","ping":54},{"user_id":444,"name":"EnchantedTap","steam_id":76561199007516083,"connected_time":1818000000000,"state":"active","ping":88},{"user_id":467,"name":"antondstepanenko","steam_id":76561198966147466,"connected_time":242000000000,"state":"active","ping":78},{"user_id":455,"name":"the keebler","steam_id":76561199486326945,"connected_time":1379000000000,"state":"active","ping":158},{"user_id":413,"name":"·µÄ·¥∏","steam_id":76561198906245877,"connected_time":3122000000000,"state":"active","ping":53},{"user_id":390,"name":"Schmack","steam_id":76561198026535437,"connected_time":4153000000000,"state":"active","ping":61},{"user_id":470,"name":"Washburne","steam_id":76561198032810579,"connected_time":155000000000,"state":"active","ping":69},{"user_id":472,"name":"Willow-w-","steam_id":76561199400481314,"connected_time":80000000000,"state":"active","ping":61}]},{"server_id":110,"name":"Uncletopia | Frankfurt | 2 | All Maps","name_short":"frk-2","host":"frk-1.de.uncletopia.com","port":27025,"enabled":true,"region":"eu","cc":"de","latitude":50.110924,"longitude":8.682127,"reserved":0,"last_update":"0001-01-01T00:00:00Z","name_a2s":"Uncletopia | Frankfurt | 2 | All Maps","protocol":17,"map":"pl_frontier_final","folder":"tf","game":"Team Fortress","app_id":440,"player_count":24,"max_players":24,"Bots":0,"server_type":"Dedicated","server_os":"Linux","password":true,"vac":true,"version":"7961495","steam_id":85568392924469990,"keywords":["nocrits","nodmgspread","payload","uncletopia"],"game_id":440,"stv_port":27026,"stv_name":"Uncletopia | Frankfurt | 2 | All Maps | STV","players":[{"user_id":73,"name":"Chocolate Orange","steam_id":76561198134952872,"connected_time":1401000000000,"state":"active","ping":73},{"user_id":74,"name":"x","steam_id":76561198043837480,"connected_time":1393000000000,"state":"active","ping":60},{"user_id":22,"name":"Skuld","steam_id":76561198064734905,"connected_time":2375000000000,"state":"active","ping":91},{"user_id":85,"name":"Charles Darwin","steam_id":76561197973496139,"connected_time":698000000000,"state":"active","ping":71},{"user_id":26,"name":"skorp1le","steam_id":76561198862770825,"connected_time":2346000000000,"state":"active","ping":86},{"user_id":97,"name":"Niemen","steam_id":76561198021559905,"connected_time":26000000000,"state":"active","ping":75},{"user_id":90,"name":"Amon Gus","steam_id":76561199094540960,"connected_time":652000000000,"state":"active","ping":67},{"user_id":82,"name":"idenburg","steam_id":76561198063574956,"connected_time":1062000000000,"state":"active","ping":63},{"user_id":80,"name":"Favi","steam_id":76561198013236935,"connected_time":1245000000000,"state":"active","ping":66},{"user_id":32,"name":"Babyron","steam_id":76561198219644235,"connected_time":2258000000000,"state":"active","ping":76},{"user_id":79,"name":"Itai","steam_id":76561198804555329,"connected_time":1293000000000,"state":"active","ping":99},{"user_id":93,"name":"Pop Kamoel","steam_id":76561197972131979,"connected_time":578000000000,"state":"active","ping":41},{"user_id":88,"name":"Clitorina","steam_id":76561198077570815,"connected_time":675000000000,"state":"active","ping":57},{"user_id":83,"name":"Fat Pigeon","steam_id":76561198817940142,"connected_time":747000000000,"state":"active","ping":50},{"user_id":89,"name":"Pakistan International Airlines","steam_id":76561198870340075,"connected_time":670000000000,"state":"active","ping":91},{"user_id":41,"name":"Michal Jordan (real)","steam_id":76561199106262610,"connected_time":2085000000000,"state":"active","ping":50},{"user_id":42,"name":"Froggy","steam_id":76561198072289216,"connected_time":2080000000000,"state":"active","ping":84},{"user_id":43,"name":"8 Ball","steam_id":76561197960988736,"connected_time":2080000000000,"state":"active","ping":61},{"user_id":84,"name":"the scringly dingly","steam_id":76561198192179174,"connected_time":720000000000,"state":"active","ping":119},{"user_id":47,"name":"twscsvl","steam_id":76561198045304929,"connected_time":2004000000000,"state":"active","ping":90},{"user_id":58,"name":"chgivan","steam_id":76561198060010064,"connected_time":1776000000000,"state":"active","ping":72},{"user_id":96,"name":"svantezch","steam_id":76561198373831657,"connected_time":275000000000,"state":"active","ping":87},{"user_id":92,"name":"Weather Report","steam_id":76561199109494283,"connected_time":643000000000,"state":"active","ping":142},{"user_id":72,"name":"Mitt","steam_id":76561199011013919,"connected_time":1430000000000,"state":"active","ping":73}]},{"server_id":308,"name":"Uncletopia | Frankfurt | 3 | All Maps","name_short":"frk-3","host":"frk-1.de.uncletopia.com","port":27035,"enabled":true,"region":"eu","cc":"de","latitude":50.110924,"longitude":8.682127,"reserved":0,"last_update":"0001-01-01T00:00:00Z","name_a2s":"Uncletopia | Frankfurt | 3 | All Maps","protocol":17,"map":"pl_upward","folder":"tf","game":"Team Fortress","app_id":440,"player_count":24,"max_players":24,"Bots":0,"server_type":"Dedicated","server_os":"Linux","password":true,"vac":true,"version":"7961495","steam_id":85568392924504274,"keywords":["nocrits","nodmgspread","payload","uncletopia"],"game_id":440,"stv_port":27036,"stv_name":"Uncletopia | Frankfurt | 3 | All Maps | STV","players":[{"user_id":287,"name":"M√©bh √ìg MacT√≠re","steam_id":76561198346399624,"connected_time":676000000000,"state":"active","ping":70},{"user_id":271,"name":"cursedbygod‚ô°","steam_id":76561198318291047,"connected_time":2324000000000,"state":"active","ping":104},{"user_id":259,"name":"MoR0Z","steam_id":76561199174561702,"connected_time":3345000000000,"state":"active","ping":70},{"user_id":278,"name":"Dolcelatte","steam_id":76561198038501770,"connected_time":1678000000000,"state":"active","ping":50},{"user_id":267,"name":"„ÄåSSR„Äç Monsieur Sagesse","steam_id":76561198144631384,"connected_time":2581000000000,"state":"active","ping":57},{"user_id":283,"name":"Gigachad tf2","steam_id":76561198324660577,"connected_time":855000000000,"state":"active","ping":78},{"user_id":270,"name":"Maru","steam_id":76561198030931030,"connected_time":2420000000000,"state":"active","ping":70},{"user_id":245,"name":"Real (Real)","steam_id":76561198323425034,"connected_time":4380000000000,"state":"active","ping":91},{"user_id":294,"name":"The man from the window","steam_id":76561198055949151,"connected_time":110000000000,"state":"active","ping":57},{"user_id":262,"name":"glorpis","steam_id":76561199225333422,"connected_time":2798000000000,"state":"active","ping":64},{"user_id":295,"name":"Petra","steam_id":76561198388355121,"connected_time":4000000000,"state":"spawning","ping":88},{"user_id":284,"name":"snert","steam_id":76561198451550309,"connected_time":835000000000,"state":"active","ping":56},{"user_id":254,"name":"NovaByte","steam_id":76561199024222387,"connected_time":3724000000000,"state":"active","ping":71},{"user_id":285,"name":"MilkAndBiscuits","steam_id":76561198022924626,"connected_time":825000000000,"state":"active","ping":81},{"user_id":292,"name":"kubanamaxa","steam_id":76561198154315656,"connected_time":198000000000,"state":"active","ping":83},{"user_id":275,"name":"Jon ÔΩ•·¥óÔΩ•","steam_id":76561199380849468,"connected_time":1906000000000,"state":"active","ping":62},{"user_id":280,"name":"Jonak","steam_id":76561198080832458,"connected_time":1331000000000,"state":"active","ping":59},{"user_id":293,"name":"Tohtori gerhard (official)","steam_id":76561198835081622,"connected_time":137000000000,"state":"active","ping":96},{"user_id":276,"name":"bitkomet","steam_id":76561198058232147,"connected_time":1902000000000,"state":"active","ping":62},{"user_id":286,"name":"Wattseyy","steam_id":76561198248567360,"connected_time":817000000000,"state":"active","ping":55},{"user_id":289,"name":"LazerMaster","steam_id":76561198880611571,"connected_time":469000000000,"state":"active","ping":62},{"user_id":218,"name":"ŸÖŸÖÿßÿ±ÿ≥ ÿßŸÑÿπŸÜŸÅ","steam_id":76561198093073758,"connected_time":6754000000000,"state":"active","ping":72},{"user_id":281,"name":"3600 dpi gamer","steam_id":76561198977420882,"connected_time":1139000000000,"state":"active","ping":52},{"user_id":243,"name":"Sakari","steam_id":76561197997811299,"connected_time":4544000000000,"state":"active","ping":50}]},{"server_id":309,"name":"Uncletopia | Frankfurt | 4 | All Maps","name_short":"frk-4","host":"frk-1.de.uncletopia.com","port":27045,"enabled":true,"region":"eu","cc":"de","latitude":50.110924,"longitude":8.682127,"reserved":0,"last_update":"0001-01-01T00:00:00Z","name_a2s":"Uncletopia | Frankfurt | 4 | All Maps","protocol":17,"map":"koth_highpass","folder":"tf","game":"Team Fortress","app_id":440,"player_count":0,"max_players":24,"Bots":0,"server_type":"Dedicated","server_os":"Linux","password":true,"vac":true,"version":"7961495","steam_id":85568392924504275,"keywords":["cp","nocrits","nodmgspread","uncletopia"],"game_id":440,"stv_port":27046,"stv_name":"Uncletopia | Frankfurt | 4 | All Maps | STV","players":null},{"server_id":310,"name":"Uncletopia | Frankfurt | 5 | All Maps","name_short":"frk-5","host":"frk-1.de.uncletopia.com","port":27055,"enabled":true,"region":"eu","cc":"de","latitude":50.110924,"longitude":8.682127,"reserved":0,"last_update":"0001-01-01T00:00:00Z","name_a2s":"Uncletopia | Frankfurt | 5 | All Maps","protocol":17,"map":"koth_lakeside_final","folder":"tf","game":"Team Fortress","app_id":440,"player_count":21,"max_players":24,"Bots":0,"server_type":"Dedicated","server_os":"Linux","password":true,"vac":true,"version":"7961495","steam_id":85568392924504277,"keywords":["cp","nocrits","nodmgspread","uncletopia"],"game_id":440,"stv_port":27056,"stv_name":"Uncletopia | Frankfurt | 5 | All Maps | STV","players":[{"user_id":335,"name":"Jannisxxl","steam_id":76561198048377916,"connected_time":363000000000,"state":"active","ping":68},{"user_id":319,"name":"cult","steam_id":76561198188647690,"connected_time":1831000000000,"state":"active","ping":62},{"user_id":336,"name":"Marabosha","steam_id":76561198137599173,"connected_time":112000000000,"state":"active","ping":106},{"user_id":334,"name":"ALARM","steam_id":76561198120686521,"connected_time":485000000000,"state":"active","ping":48},{"user_id":317,"name":"the grongle","steam_id":76561198989398023,"connected_time":2061000000000,"state":"active","ping":108},{"user_id":322,"name":"Quiet Kid","steam_id":76561199134800446,"connected_time":1792000000000,"state":"spawning","ping":112},{"user_id":323,"name":"failed poet","steam_id":76561198987041283,"connected_time":1708000000000,"state":"active","ping":86},{"user_id":338,"name":"Sacco","steam_id":76561199048451187,"connected_time":29000000000,"state":"active","ping":64},{"user_id":288,"name":"Diablo","steam_id":76561198054024627,"connected_time":3316000000000,"state":"active","ping":56},{"user_id":295,"name":"‚úß:9 LE","steam_id":76561198026659536,"connected_time":2870000000000,"state":"active","ping":76},{"user_id":325,"name":"dusty","steam_id":76561199011977567,"connected_time":1631000000000,"state":"active","ping":55},{"user_id":316,"name":"\"w\"esley \"s\"o","steam_id":76561199415989636,"connected_time":2137000000000,"state":"active","ping":94},{"user_id":326,"name":"Penis Contortionist","steam_id":76561198073663784,"connected_time":1629000000000,"state":"active","ping":55},{"user_id":327,"name":"Magician Wen-li","steam_id":76561198189688217,"connected_time":1626000000000,"state":"active","ping":151},{"user_id":329,"name":"LizCul","steam_id":76561198024436969,"connected_time":1584000000000,"state":"active","ping":46},{"user_id":312,"name":"HAMtastic","steam_id":76561198879769410,"connected_time":2205000000000,"state":"active","ping":73},{"user_id":332,"name":"EpicWinMaster","steam_id":76561198044688093,"connected_time":1152000000000,"state":"active","ping":59},{"user_id":333,"name":"Jetstream S(G)am","steam_id":76561198452894711,"connected_time":1122000000000,"state":"active","ping":42},{"user_id":215,"name":"mamma mia","steam_id":76561198111134021,"connected_time":7724000000000,"state":"active","ping":76},{"user_id":255,"name":"Mafew","steam_id":76561198119993886,"connected_time":5147000000000,"state":"active","ping":69},{"user_id":297,"name":"Verggy","steam_id":76561198068565268,"connected_time":2857000000000,"state":"active","ping":76}]},{"server_id":311,"name":"Uncletopia | Frankfurt | 6 | All Maps","name_short":"frk-6","host":"frk-1.de.uncletopia.com","port":27065,"enabled":true,"region":"eu","cc":"de","latitude":50.110924,"longitude":8.682127,"reserved":0,"last_update":"0001-01-01T00:00:00Z","name_a2s":"Uncletopia | Frankfurt | 6 | All Maps","protocol":17,"map":"pl_badwater","folder":"tf","game":"Team Fortress","app_id":440,"player_count":24,"max_players":24,"Bots":0,"server_type":"Dedicated","server_os":"Linux","password":true,"vac":true,"version":"7961495","steam_id":85568392924504278,"keywords":["nocrits","nodmgspread","payload","uncletopia"],"game_id":440,"stv_port":27066,"stv_name":"Uncletopia | Frankfurt | 6 | All Maps | STV","players":[{"user_id":180,"name":"Family guy try not to laugh","steam_id":76561198031455800,"connected_time":1260000000000,"state":"active","ping":75},{"user_id":87,"name":"else1","steam_id":76561197996558319,"connected_time":8657000000000,"state":"active","ping":74},{"user_id":132,"name":"Boki","steam_id":76561198044553351,"connected_time":4246000000000,"state":"active","ping":74},{"user_id":169,"name":"anders McFlanders","steam_id":76561198022811995,"connected_time":2087000000000,"state":"active","ping":60},{"user_id":162,"name":"Axter","steam_id":76561198118747192,"connected_time":2321000000000,"state":"active","ping":70},{"user_id":102,"name":"ÔΩÑÔΩÖÔΩìÔΩãÔΩíÔΩÅÔΩô","steam_id":76561198805536170,"connected_time":6976000000000,"state":"active","ping":75},{"user_id":165,"name":"Hexagon","steam_id":76561198151205758,"connected_time":2304000000000,"state":"active","ping":51},{"user_id":121,"name":"Kali","steam_id":76561198796327257,"connected_time":5544000000000,"state":"active","ping":54},{"user_id":187,"name":"M4R1O","steam_id":76561198050528464,"connected_time":236000000000,"state":"active","ping":52},{"user_id":176,"name":"GoatLord1","steam_id":76561198157964544,"connected_time":1476000000000,"state":"active","ping":63},{"user_id":182,"name":"Warped","steam_id":76561197989916494,"connected_time":1238000000000,"state":"active","ping":60},{"user_id":163,"name":"Mr. Mundy","steam_id":76561198132008918,"connected_time":2316000000000,"state":"active","ping":82},{"user_id":173,"name":"Nag","steam_id":76561197970488206,"connected_time":1951000000000,"state":"active","ping":77},{"user_id":158,"name":"Luuk","steam_id":76561198088266026,"connected_time":2823000000000,"state":"active","ping":44},{"user_id":188,"name":"najed","steam_id":76561198107767664,"connected_time":211000000000,"state":"active","ping":62},{"user_id":181,"name":"Heavy TF2 in irl?!","steam_id":76561198082502910,"connected_time":1253000000000,"state":"active","ping":49},{"user_id":167,"name":"howabe","steam_id":76561197996486818,"connected_time":2285000000000,"state":"active","ping":53},{"user_id":185,"name":"BoJack","steam_id":76561199021228675,"connected_time":815000000000,"state":"active","ping":81},{"user_id":190,"name":"Zazou","steam_id":76561198028076362,"connected_time":0,"state":"spawning","ping":0},{"user_id":174,"name":"ScampSixteen","steam_id":76561198021771000,"connected_time":1936000000000,"state":"active","ping":63},{"user_id":183,"name":"Dr√•be","steam_id":76561197979603871,"connected_time":1233000000000,"state":"active","ping":59},{"user_id":184,"name":"dolo","steam_id":76561198206672297,"connected_time":1229000000000,"state":"active","ping":45},{"user_id":175,"name":"kreeekz","steam_id":76561198014431602,"connected_time":1857000000000,"state":"active","ping":60},{"user_id":178,"name":"Baklava Enjoyer","steam_id":76561198990679631,"connected_time":1340000000000,"state":"active","ping":74}]},{"server_id":23,"name":"Uncletopia | Frankfurt | 7 | Stopwatch","name_short":"frk-7","host":"frk-1.de.uncletopia.com","port":27075,"enabled":true,"region":"eu","cc":"de","latitude":50.110924,"longitude":8.682127,"reserved":0,"last_update":"0001-01-01T00:00:00Z","name_a2s":"Uncletopia | Frankfurt | 7 | Stopwatch","protocol":17,"map":"pl_borneo","folder":"tf","game":"Team Fortress","app_id":440,"player_count":0,"max_players":24,"Bots":0,"server_type":"Dedicated","server_os":"Linux","password":true,"vac":true,"version":"7961495","steam_id":85568392924742827,"keywords":["nocrits","nodmgspread","payload","uncletopia"],"game_id":440,"stv_port":27076,"stv_name":"Uncletopia | Frankfurt | 7 | Stopwatch | STV","players":null},{"server_id":24,"name":"Uncletopia | Frankfurt | 8 | Community","name_short":"frk-8","host":"frk-1.de.uncletopia.com","port":27085,"enabled":true,"region":"eu","cc":"de","latitude":50.110924,"longitude":8.682127,"reserved":0,"last_update":"0001-01-01T00:00:00Z","name_a2s":"Uncletopia | Frankfurt | 8 | Community","protocol":17,"map":"workshop/koth_trenchfoot_b1a.ugc731436616","folder":"tf","game":"Team Fortress","app_id":440,"player_count":0,"max_players":24,"Bots":0,"server_type":"Dedicated","server_os":"Linux","password":true,"vac":true,"version":"7961495","steam_id":85568392924742828,"keywords":["cp","nocrits","nodmgspread","uncletopia"],"game_id":440,"stv_port":27086,"stv_name":"Uncletopia | Frankfurt | 8 | Community | STV","players":null},{"server_id":202,"name":"Uncletopia | Hong Kong | 1 | All Maps","name_short":"hgk-1","host":"hgk-1.hk.uncletopia.com","port":27015,"enabled":true,"region":"asia","cc":"hk","latitude":22.302711,"longitude":114.177216,"reserved":0,"last_update":"0001-01-01T00:00:00Z","name_a2s":"Uncletopia | Hong Kong | 1 | All Maps","protocol":17,"map":"koth_harvest_final","folder":"tf","game":"Team Fortress","app_id":440,"player_count":0,"max_players":24,"Bots":0,"server_type":"Dedicated","server_os":"Linux","password":true,"vac":true,"version":"7961495","steam_id":85568392924494504,"keywords":["cp","nocrits","nodmgspread","uncletopia"],"game_id":440,"stv_port":27016,"stv_name":"Uncletopia | Hong Kong | 1 | All Maps | STV","players":null},{"server_id":1,"name":"Uncletopia | Los Angeles | 1 | All Maps","name_short":"lax-1","host":"lax-1.us.uncletopia.com","port":27015,"enabled":true,"region":"us-west","cc":"us","latitude":33.94279,"longitude":-118.41004,"reserved":0,"last_update":"0001-01-01T00:00:00Z","name_a2s":"Uncletopia | Los Angeles | 1 | All Maps","protocol":17,"map":"koth_highpass","folder":"tf","game":"Team Fortress","app_id":440,"player_count":0,"max_players":24,"Bots":0,"server_type":"Dedicated","server_os":"Linux","password":true,"vac":true,"version":"7961495","steam_id":85568392924469991,"keywords":["cp","nocrits","nodmgspread","uncletopia"],"game_id":440,"stv_port":27016,"stv_name":"Uncletopia | Los Angeles | 1 | All Maps | STV","players":null},{"server_id":112,"name":"Uncletopia | Los Angeles | 2 | All Maps","name_short":"lax-2","host":"lax-1.us.uncletopia.com","port":27025,"enabled":true,"region":"us-west","cc":"us","latitude":33.94279,"longitude":-118.41004,"reserved":0,"last_update":"0001-01-01T00:00:00Z","name_a2s":"Uncletopia | Los Angeles | 2 | All Maps","protocol":17,"map":"pl_snowycoast","folder":"tf","game":"Team Fortress","app_id":440,"player_count":0,"max_players":24,"Bots":0,"server_type":"Dedicated","server_os":"Linux","password":true,"vac":true,"version":"7961495","steam_id":85568392924469992,"keywords":["nocrits","nodmgspread","payload","uncletopia"],"game_id":440,"stv_port":27026,"stv_name":"Uncletopia | Los Angeles | 2 | All Maps | STV","players":null},{"server_id":324,"name":"Uncletopia | Los Angeles | 3 | All Maps","name_short":"lax-3","host":"lax-1.us.uncletopia.com","port":27035,"enabled":true,"region":"us-west","cc":"us","latitude":33.94279,"longitude":-118.41004,"reserved":0,"last_update":"0001-01-01T00:00:00Z","name_a2s":"Uncletopia | Los Angeles | 3 | All Maps","protocol":17,"map":"pl_frontier_final","folder":"tf","game":"Team Fortress","app_id":440,"player_count":0,"max_players":24,"Bots":0,"server_type":"Dedicated","server_os":"Linux","password":true,"vac":true,"version":"7961495","steam_id":85568392924510198,"keywords":["nocrits","nodmgspread","payload","uncletopia"],"game_id":440,"stv_port":27036,"stv_name":"Uncletopia | Los Angeles | 3 | All Maps | STV","players":null},{"server_id":25,"name":"Uncletopia | Los Angeles | 4 | Stopwatch","name_short":"lax-4","host":"lax-1.us.uncletopia.com","port":27045,"enabled":true,"region":"us-west","cc":"us","latitude":33.94279,"longitude":-118.41004,"reserved":0,"last_update":"0001-01-01T00:00:00Z","name_a2s":"Uncletopia | Los Angeles | 4 | Stopwatch","protocol":17,"map":"cp_process_final","folder":"tf","game":"Team Fortress","app_id":440,"player_count":0,"max_players":24,"Bots":0,"server_type":"Dedicated","server_os":"Linux","password":true,"vac":true,"version":"7961495","steam_id":85568392924510199,"keywords":["cp","nocrits","nodmgspread","uncletopia"],"game_id":440,"stv_port":27046,"stv_name":"Uncletopia | Los Angeles | 4 | Stopwatch | STV","players":null},{"server_id":11,"name":"Uncletopia | London | 1 | All Maps","name_short":"lon-1","host":"lon-1.uk.uncletopia.com","port":27015,"enabled":true,"region":"eu","cc":"gb","latitude":51.509865,"longitude":-0.118092,"reserved":0,"last_update":"0001-01-01T00:00:00Z","name_a2s":"Uncletopia | London | 1 | All Maps","protocol":17,"map":"cp_mercenarypark","folder":"tf","game":"Team Fortress","app_id":440,"player_count":24,"max_players":24,"Bots":0,"server_type":"Dedicated","server_os":"Linux","password":true,"vac":true,"version":"7961495","steam_id":85568392924367362,"keywords":["cp","nocrits","nodmgspread","uncletopia"],"game_id":440,"stv_port":27016,"stv_name":"Uncletopia | London | 1 | All Maps | STV","players":[{"user_id":468,"name":"Trendyboy","steam_id":76561197994908436,"connected_time":1239000000000,"state":"active","ping":78},{"user_id":431,"name":"YARrICk.¬´+¬ª","steam_id":76561197990126485,"connected_time":4279000000000,"state":"active","ping":57},{"user_id":456,"name":"Stunner John Mode! „ÉÑ","steam_id":76561199085822219,"connected_time":1846000000000,"state":"active","ping":90},{"user_id":478,"name":"Mr. Enjoy da money","steam_id":76561198152681460,"connected_time":853000000000,"state":"active","ping":74},{"user_id":461,"name":"stroyo","steam_id":76561198409592046,"connected_time":1615000000000,"state":"active","ping":39},{"user_id":470,"name":"crosssmiling","steam_id":76561199205453100,"connected_time":1217000000000,"state":"active","ping":67},{"user_id":489,"name":"GGabe","steam_id":76561198117199068,"connected_time":33000000000,"state":"active","ping":72},{"user_id":472,"name":"Parky","steam_id":76561198013803623,"connected_time":1185000000000,"state":"active","ping":38},{"user_id":482,"name":"Sakuya Izayoi","steam_id":76561198030593616,"connected_time":442000000000,"state":"active","ping":52},{"user_id":464,"name":"Fuck it (unhandicaps)","steam_id":76561197983095579,"connected_time":1444000000000,"state":"active","ping":85},{"user_id":486,"name":"Mircoxi","steam_id":76561199407632710,"connected_time":202000000000,"state":"active","ping":51},{"user_id":476,"name":"toomas2018 gaming(real)","steam_id":76561199105796083,"connected_time":983000000000,"state":"active","ping":81},{"user_id":481,"name":"Dr. Le Quack","steam_id":76561197995711176,"connected_time":513000000000,"state":"active","ping":92},{"user_id":458,"name":"transgender e-girl","steam_id":76561198168589809,"connected_time":1824000000000,"state":"active","ping":68},{"user_id":459,"name":"Purps","steam_id":76561198053886680,"connected_time":1677000000000,"state":"active","ping":46},{"user_id":340,"name":"halow","steam_id":76561198061505163,"connected_time":13068000000000,"state":"active","ping":100},{"user_id":473,"name":"MaypulSoyrup","steam_id":76561199213966821,"connected_time":1163000000000,"state":"active","ping":72},{"user_id":446,"name":"Archer","steam_id":76561197994239444,"connected_time":2524000000000,"state":"active","ping":117},{"user_id":487,"name":"JohnTraveltime","steam_id":76561199244281754,"connected_time":186000000000,"state":"active","ping":90},{"user_id":348,"name":"shooer!","steam_id":76561198110531281,"connected_time":12699000000000,"state":"active","ping":71},{"user_id":475,"name":"Maurdakar","steam_id":76561197983420976,"connected_time":1154000000000,"state":"active","ping":131},{"user_id":467,"name":"randompixel","steam_id":76561198003941207,"connected_time":1378000000000,"state":"active","ping":57},{"user_id":460,"name":"gibb (official)","steam_id":76561198074097655,"connected_time":1630000000000,"state":"active","ping":46},{"user_id":485,"name":"‚ô•aura‚ô•","steam_id":76561198066258544,"connected_time":381000000000,"state":"active","ping":60}]},{"server_id":114,"name":"Uncletopia | London | 2 | All Maps","name_short":"lon-2","host":"lon-1.uk.uncletopia.com","port":27025,"enabled":true,"region":"eu","cc":"gb","latitude":51.509865,"longitude":-0.118092,"reserved":0,"last_update":"0001-01-01T00:00:00Z","name_a2s":"Uncletopia | London | 2 | All Maps","protocol":17,"map":"cp_process_final","folder":"tf","game":"Team Fortress","app_id":440,"player_count":24,"max_players":24,"Bots":0,"server_type":"Dedicated","server_os":"Linux","password":true,"vac":true,"version":"7961495","steam_id":85568392924470941,"keywords":["cp","nocrits","nodmgspread","uncletopia"],"game_id":440,"stv_port":27026,"stv_name":"Uncletopia | London | 2 | All Maps | STV","players":[{"user_id":405,"name":"rez777ka","steam_id":76561198107605938,"connected_time":260000000000,"state":"active","ping":123},{"user_id":397,"name":"IndigoJones","steam_id":76561198050284262,"connected_time":601000000000,"state":"active","ping":47},{"user_id":394,"name":"Plep","steam_id":76561198840259819,"connected_time":827000000000,"state":"active","ping":55},{"user_id":408,"name":"A literal heavy","steam_id":76561199219233587,"connected_time":31000000000,"state":"active","ping":68},{"user_id":399,"name":"Sensei","steam_id":76561198383582429,"connected_time":498000000000,"state":"active","ping":92},{"user_id":387,"name":"Goblin","steam_id":76561198153545458,"connected_time":933000000000,"state":"active","ping":72},{"user_id":407,"name":"Varsity Athlete","steam_id":76561198012296395,"connected_time":83000000000,"state":"active","ping":55},{"user_id":406,"name":"Kaishakunin","steam_id":76561198028123874,"connected_time":155000000000,"state":"active","ping":99},{"user_id":396,"name":"SpyCrab  Erik Twice","steam_id":76561198009710309,"connected_time":765000000000,"state":"active","ping":63},{"user_id":368,"name":"Level 666 Cursed Priest","steam_id":76561199279295106,"connected_time":2663000000000,"state":"active","ping":118},{"user_id":395,"name":"Level 60 holy priest","steam_id":76561198031573426,"connected_time":785000000000,"state":"active","ping":75},{"user_id":373,"name":"Fors√©n","steam_id":76561199131971501,"connected_time":2473000000000,"state":"active","ping":99},{"user_id":382,"name":"kbourbery","steam_id":76561198109943492,"connected_time":1219000000000,"state":"active","ping":56},{"user_id":389,"name":"MatheoSTG","steam_id":76561198041755276,"connected_time":903000000000,"state":"active","ping":84},{"user_id":369,"name":"Yrj√∂ Koskinen Yrj√∂-Koskinen","steam_id":76561198368181145,"connected_time":2648000000000,"state":"active","ping":89},{"user_id":380,"name":"Cosmetic brain","steam_id":76561198055936410,"connected_time":1299000000000,"state":"active","ping":82},{"user_id":401,"name":"≈†tƒõp√°n","steam_id":76561198275742101,"connected_time":326000000000,"state":"active","ping":67},{"user_id":349,"name":"Micha≈Ç","steam_id":76561198320346362,"connected_time":3804000000000,"state":"active","ping":72},{"user_id":391,"name":"The Uruk-Hai Suicider From LotR","steam_id":76561198105520278,"connected_time":872000000000,"state":"active","ping":91},{"user_id":378,"name":"akakez","steam_id":76561198095432821,"connected_time":1409000000000,"state":"active","ping":113},{"user_id":402,"name":"No Name","steam_id":76561198149455155,"connected_time":323000000000,"state":"active","ping":82},{"user_id":372,"name":"Flying Squirrel","steam_id":76561198005202791,"connected_time":2560000000000,"state":"active","ping":72},{"user_id":403,"name":"Twik","steam_id":76561198023835056,"connected_time":320000000000,"state":"active","ping":61},{"user_id":393,"name":"Lorenzo Lovers","steam_id":76561198073973581,"connected_time":836000000000,"state":"active","ping":90}]},{"server_id":320,"name":"Uncletopia | London | 3 | All Maps","name_short":"lon-3","host":"lon-1.uk.uncletopia.com","port":27035,"enabled":true,"region":"eu","cc":"gb","latitude":51.509865,"longitude":-0.118092,"reserved":0,"last_update":"0001-01-01T00:00:00Z","name_a2s":"Uncletopia | London | 3 | All Maps","protocol":17,"map":"pl_upward","folder":"tf","game":"Team Fortress","app_id":440,"player_count":19,"max_players":24,"Bots":0,"server_type":"Dedicated","server_os":"Linux","password":true,"vac":true,"version":"7961495","steam_id":85568392924510192,"keywords":["nocrits","nodmgspread","payload","uncletopia"],"game_id":440,"stv_port":27036,"stv_name":"Uncletopia | London | 3 | All Maps | STV","players":[{"user_id":11,"name":"Sheen (Khang)","steam_id":76561198371062974,"connected_time":533000000000,"state":"active","ping":94},{"user_id":12,"name":"Our Hero","steam_id":76561198132047538,"connected_time":514000000000,"state":"active","ping":91},{"user_id":14,"name":"F","steam_id":76561199149462792,"connected_time":372000000000,"state":"active","ping":61},{"user_id":15,"name":"Milk","steam_id":76561198125876588,"connected_time":367000000000,"state":"active","ping":38},{"user_id":20,"name":"arcticcu","steam_id":76561198002435882,"connected_time":301000000000,"state":"active","ping":94},{"user_id":17,"name":"'Tis But A Scratch!","steam_id":76561198054360605,"connected_time":350000000000,"state":"active","ping":60},{"user_id":18,"name":"Rockfrenzy","steam_id":76561198005428050,"connected_time":343000000000,"state":"active","ping":72},{"user_id":19,"name":"fireman sam","steam_id":76561198083615367,"connected_time":338000000000,"state":"active","ping":33},{"user_id":21,"name":"Meff","steam_id":76561197970610839,"connected_time":290000000000,"state":"active","ping":52},{"user_id":22,"name":"reewith4Es","steam_id":76561199121618780,"connected_time":239000000000,"state":"active","ping":46},{"user_id":33,"name":"Return of the heavenly HEAVY","steam_id":76561199034335566,"connected_time":55000000000,"state":"active","ping":35},{"user_id":24,"name":"Spich","steam_id":76561199017245962,"connected_time":158000000000,"state":"active","ping":92},{"user_id":25,"name":"Genesis","steam_id":76561198999652040,"connected_time":150000000000,"state":"active","ping":45},{"user_id":26,"name":"10lb squat","steam_id":76561199046026021,"connected_time":117000000000,"state":"active","ping":55},{"user_id":28,"name":"NoPfizer","steam_id":76561198307914381,"connected_time":106000000000,"state":"active","ping":62},{"user_id":36,"name":"AllInTw0","steam_id":76561199063146937,"connected_time":16000000000,"state":"active","ping":79},{"user_id":30,"name":"Plurnk","steam_id":76561198272364461,"connected_time":101000000000,"state":"active","ping":66},{"user_id":32,"name":"VORTEX(COMMS OPEN)","steam_id":76561199074746528,"connected_time":60000000000,"state":"active","ping":69},{"user_id":34,"name":"Ixsus\u003c3","steam_id":76561198094756869,"connected_time":55000000000,"state":"active","ping":62}]},{"server_id":321,"name":"Uncletopia | London | 4 | All Maps","name_short":"lon-4","host":"lon-1.uk.uncletopia.com","port":27045,"enabled":true,"region":"eu","cc":"gb","latitude":51.509865,"longitude":-0.118092,"reserved":0,"last_update":"0001-01-01T00:00:00Z","name_a2s":"Uncletopia | London | 4 | All Maps","protocol":17,"map":"cp_dustbowl","folder":"tf","game":"Team Fortress","app_id":440,"player_count":24,"max_players":24,"Bots":0,"server_type":"Dedicated","server_os":"Linux","password":true,"vac":true,"version":"7961495","steam_id":85568392924510193,"keywords":["cp","nocrits","nodmgspread","uncletopia"],"game_id":440,"stv_port":27046,"stv_name":"Uncletopia | London | 4 | All Maps | STV","players":[{"user_id":171,"name":"Acid in Metropolis","steam_id":76561198052805031,"connected_time":245000000000,"state":"active","ping":54},{"user_id":145,"name":"MrKampfCookie","steam_id":76561198085490175,"connected_time":2192000000000,"state":"active","ping":59},{"user_id":116,"name":"Abby","steam_id":76561198170528489,"connected_time":3332000000000,"state":"active","ping":62},{"user_id":169,"name":"Blar","steam_id":76561198042438229,"connected_time":631000000000,"state":"active","ping":65},{"user_id":173,"name":"jj","steam_id":76561198079200985,"connected_time":67000000000,"state":"active","ping":59},{"user_id":146,"name":"The Groundhog","steam_id":76561198881037607,"connected_time":1923000000000,"state":"active","ping":75},{"user_id":149,"name":"Solus","steam_id":76561199486493777,"connected_time":1864000000000,"state":"active","ping":50},{"user_id":156,"name":"DiracDeltaFunction","steam_id":76561199201624841,"connected_time":825000000000,"state":"active","ping":93},{"user_id":109,"name":"tenta brella-wielding octopus","steam_id":76561198837919828,"connected_time":4082000000000,"state":"active","ping":113},{"user_id":132,"name":"Zerotheweirdo","steam_id":76561199182198560,"connected_time":2569000000000,"state":"active","ping":146},{"user_id":118,"name":"Spore","steam_id":76561198889433116,"connected_time":3326000000000,"state":"active","ping":71},{"user_id":160,"name":"Righty","steam_id":76561199224705434,"connected_time":801000000000,"state":"active","ping":124},{"user_id":159,"name":"‚ô• Cirno ‚ô•","steam_id":76561198834982738,"connected_time":807000000000,"state":"active","ping":70},{"user_id":153,"name":"Ôº¥rendyÔº¨emon","steam_id":76561198158957324,"connected_time":1299000000000,"state":"active","ping":50},{"user_id":161,"name":"FNF","steam_id":76561199151422826,"connected_time":796000000000,"state":"active","ping":117},{"user_id":164,"name":"let him cook","steam_id":76561199486823632,"connected_time":773000000000,"state":"active","ping":71},{"user_id":121,"name":"Kibby","steam_id":76561197990056450,"connected_time":3268000000000,"state":"active","ping":60},{"user_id":154,"name":"Tombobx","steam_id":76561198862443949,"connected_time":1246000000000,"state":"active","ping":63},{"user_id":165,"name":"KiteNock","steam_id":76561198160622922,"connected_time":749000000000,"state":"active","ping":81},{"user_id":131,"name":"Tea","steam_id":76561198799243030,"connected_time":2814000000000,"state":"active","ping":67},{"user_id":166,"name":"Mario Gagnon","steam_id":76561198321687106,"connected_time":749000000000,"state":"active","ping":142},{"user_id":168,"name":"gr3821","steam_id":76561198091531010,"connected_time":744000000000,"state":"active","ping":42},{"user_id":170,"name":"Mike Rotch","steam_id":76561198111232378,"connected_time":594000000000,"state":"active","ping":84},{"user_id":172,"name":"Grim the lemon","steam_id":76561199083433988,"connected_time":232000000000,"state":"active","ping":46}]},{"server_id":21,"name":"Uncletopia | London | 5 | All Maps","name_short":"lon-5","host":"lon-1.uk.uncletopia.com","port":27055,"enabled":true,"region":"eu","cc":"gb","latitude":51.509865,"longitude":-0.118092,"reserved":0,"last_update":"0001-01-01T00:00:00Z","name_a2s":"Uncletopia | London | 5 | All Maps","protocol":17,"map":"koth_lakeside_final","folder":"tf","game":"Team Fortress","app_id":440,"player_count":0,"max_players":24,"Bots":0,"server_type":"Dedicated","server_os":"Linux","password":true,"vac":true,"version":"7961495","steam_id":85568392924742829,"keywords":["cp","nocrits","nodmgspread","uncletopia"],"game_id":440,"stv_port":27056,"stv_name":"Uncletopia | London | 5 | All Maps | STV","players":null},{"server_id":22,"name":"Uncletopia | London | 6 | All Maps","name_short":"lon-6","host":"lon-1.uk.uncletopia.com","port":27065,"enabled":true,"region":"eu","cc":"gb","latitude":51.509865,"longitude":-0.118092,"reserved":0,"last_update":"0001-01-01T00:00:00Z","name_a2s":"Uncletopia | London | 6 | All Maps","protocol":17,"map":"pl_barnblitz","folder":"tf","game":"Team Fortress","app_id":440,"player_count":24,"max_players":24,"Bots":0,"server_type":"Dedicated","server_os":"Linux","password":true,"vac":true,"version":"7961495","steam_id":85568392924742830,"keywords":["nocrits","nodmgspread","payload","uncletopia"],"game_id":440,"stv_port":27066,"stv_name":"Uncletopia | London | 6 | All Maps | STV","players":[{"user_id":457,"name":"Cypher","steam_id":76561197996967254,"connected_time":990000000000,"state":"active","ping":57},{"user_id":415,"name":"sw1ft","steam_id":76561198878687085,"connected_time":2657000000000,"state":"active","ping":88},{"user_id":458,"name":"RandoART","steam_id":76561198818165503,"connected_time":988000000000,"state":"active","ping":100},{"user_id":460,"name":"Vonacht","steam_id":76561198016033944,"connected_time":967000000000,"state":"active","ping":61},{"user_id":472,"name":"Deformed Gollum","steam_id":76561198155563589,"connected_time":43000000000,"state":"active","ping":58},{"user_id":470,"name":"Cava","steam_id":76561198054840118,"connected_time":475000000000,"state":"active","ping":66},{"user_id":447,"name":"Mike","steam_id":76561198228455736,"connected_time":1892000000000,"state":"active","ping":49},{"user_id":462,"name":"neo","steam_id":76561198136265838,"connected_time":963000000000,"state":"active","ping":75},{"user_id":451,"name":"T√° pr√°ta√≠ go maith","steam_id":76561198372536459,"connected_time":1566000000000,"state":"active","ping":49},{"user_id":445,"name":"BazookaRooster0","steam_id":76561199005816586,"connected_time":1977000000000,"state":"active","ping":63},{"user_id":463,"name":"jjkun786","steam_id":76561199438517484,"connected_time":954000000000,"state":"active","ping":40},{"user_id":394,"name":"Grand Master Bilbosaurus Rex","steam_id":76561198115244861,"connected_time":3996000000000,"state":"active","ping":52},{"user_id":454,"name":"Dr. Funkenstein","steam_id":76561197977816210,"connected_time":1261000000000,"state":"active","ping":120},{"user_id":467,"name":"McCheezy","steam_id":76561198834780242,"connected_time":674000000000,"state":"active","ping":114},{"user_id":452,"name":"Chris_Fur","steam_id":76561198321233968,"connected_time":1526000000000,"state":"active","ping":48},{"user_id":464,"name":"Young trunks","steam_id":76561198807869634,"connected_time":943000000000,"state":"active","ping":57},{"user_id":455,"name":"Heinz","steam_id":76561198141897738,"connected_time":1170000000000,"state":"active","ping":70},{"user_id":411,"name":"Aaronbill3","steam_id":76561198014056212,"connected_time":2789000000000,"state":"active","ping":72},{"user_id":432,"name":"Crafter Studios","steam_id":76561198957544814,"connected_time":2343000000000,"state":"active","ping":56},{"user_id":471,"name":"XxBenShapiro420xX","steam_id":76561199229373972,"connected_time":212000000000,"state":"active","ping":60},{"user_id":397,"name":"cuzimlatin2704","steam_id":76561199094752899,"connected_time":3649000000000,"state":"active","ping":134},{"user_id":369,"name":"The Engineer","steam_id":76561199437330739,"connected_time":5700000000000,"state":"active","ping":63},{"user_id":466,"name":"nemelex","steam_id":76561198958005865,"connected_time":894000000000,"state":"active","ping":59},{"user_id":405,"name":"Habimbi","steam_id":76561198047271252,"connected_time":3103000000000,"state":"active","ping":60}]},{"server_id":40,"name":"Uncletopia | London | 7 | Stopwatch","name_short":"lon-7","host":"lon-1.uk.uncletopia.com","port":27075,"enabled":true,"region":"eu","cc":"gb","latitude":51.509865,"longitude":-0.118092,"reserved":0,"last_update":"0001-01-01T00:00:00Z","name_a2s":"Uncletopia | London | 7 | Stopwatch","protocol":17,"map":"cp_sunshine","folder":"tf","game":"Team Fortress","app_id":440,"player_count":23,"max_players":24,"Bots":0,"server_type":"Dedicated","server_os":"Linux","password":true,"vac":true,"version":"7961495","steam_id":85568392924964314,"keywords":["cp","nocrits","nodmgspread","uncletopia"],"game_id":440,"stv_port":27076,"stv_name":"Uncletopia | London | 7 | Stopwatch | STV","players":[{"user_id":336,"name":"s a i","steam_id":76561197970379754,"connected_time":1263000000000,"state":"active","ping":66},{"user_id":252,"name":"God's Goofiest Goober","steam_id":76561198103175187,"connected_time":6569000000000,"state":"active","ping":82},{"user_id":337,"name":"Jack","steam_id":76561198116372629,"connected_time":1134000000000,"state":"active","ping":175},{"user_id":290,"name":"Pomson 6000","steam_id":76561198344588858,"connected_time":4044000000000,"state":"active","ping":57},{"user_id":341,"name":"d","steam_id":76561198165550964,"connected_time":387000000000,"state":"active","ping":54},{"user_id":282,"name":"NeonPixel","steam_id":76561198165901066,"connected_time":4636000000000,"state":"active","ping":75},{"user_id":328,"name":"Jay Jay","steam_id":76561199080320963,"connected_time":1493000000000,"state":"active","ping":104},{"user_id":303,"name":"Lessoz","steam_id":76561199211572036,"connected_time":3239000000000,"state":"active","ping":84},{"user_id":340,"name":"Mr Xbow","steam_id":76561198862864460,"connected_time":1015000000000,"state":"active","ping":55},{"user_id":310,"name":"Keho","steam_id":76561198087962709,"connected_time":2894000000000,"state":"active","ping":80},{"user_id":326,"name":"Uzi","steam_id":76561198436817109,"connected_time":1770000000000,"state":"active","ping":56},{"user_id":241,"name":"Theleomaster","steam_id":76561198342580499,"connected_time":7525000000000,"state":"active","ping":94},{"user_id":258,"name":"Skittles","steam_id":76561198024077569,"connected_time":6356000000000,"state":"active","ping":72},{"user_id":308,"name":"Heura","steam_id":76561198328304087,"connected_time":3006000000000,"state":"active","ping":73},{"user_id":278,"name":"smallGIGACHAD","steam_id":76561198047359132,"connected_time":4805000000000,"state":"active","ping":74},{"user_id":338,"name":"Crafting Guide","steam_id":76561199103410870,"connected_time":1132000000000,"state":"active","ping":60},{"user_id":335,"name":"Roman","steam_id":76561197967683724,"connected_time":1296000000000,"state":"active","ping":36},{"user_id":205,"name":"M2rtRa","steam_id":76561198111036466,"connected_time":11123000000000,"state":"active","ping":75},{"user_id":317,"name":"4444rn","steam_id":76561198122300668,"connected_time":2464000000000,"state":"active","ping":100},{"user_id":345,"name":"MalleJongen","steam_id":76561198142728039,"connected_time":140000000000,"state":"active","ping":72},{"user_id":346,"name":"PROFILE NAME","steam_id":76561198180056982,"connected_time":122000000000,"state":"active","ping":50},{"user_id":321,"name":"Bonk drinker/back breaker","steam_id":76561199108282473,"connected_time":2189000000000,"state":"active","ping":124},{"user_id":297,"name":"Zembis","steam_id":76561198008017918,"connected_time":3534000000000,"state":"active","ping":96}]},{"server_id":41,"name":"Uncletopia | London | 8 | Community","name_short":"lon-8","host":"lon-1.uk.uncletopia.com","port":27085,"enabled":true,"region":"eu","cc":"gb","latitude":51.509865,"longitude":-0.118092,"reserved":0,"last_update":"0001-01-01T00:00:00Z","name_a2s":"Uncletopia | London | 8 | Community","protocol":17,"map":"workshop/koth_trenchfoot_b1a.ugc731436616","folder":"tf","game":"Team Fortress","app_id":440,"player_count":0,"max_players":24,"Bots":0,"server_type":"Dedicated","server_os":"Linux","password":true,"vac":true,"version":"7961495","steam_id":85568392924964315,"keywords":["cp","nocrits","nodmgspread","uncletopia"],"game_id":440,"stv_port":27086,"stv_name":"Uncletopia | London | 8 | Community | STV","players":null},{"server_id":300,"name":"Uncletopia | Montr√©al | 1 | All Maps","name_short":"mtl-1","host":"mtl-1.ca.uncletopia.com","port":27015,"enabled":true,"region":"us-east","cc":"ca","latitude":45.50889,"longitude":-73.56167,"reserved":0,"last_update":"0001-01-01T00:00:00Z","name_a2s":"","protocol":0,"map":"","folder":"","game":"","app_id":0,"player_count":0,"max_players":0,"Bots":0,"server_type":"","server_os":"","password":false,"vac":false,"version":"","steam_id":0,"keywords":null,"game_id":0,"stv_port":0,"stv_name":"","players":null},{"server_id":301,"name":"Uncletopia | Montr√©al | 2 | One Thousand Uncles","name_short":"mtl-2","host":"mtl-1.ca.uncletopia.com","port":27025,"enabled":true,"region":"us-east","cc":"ca","latitude":45.50889,"longitude":-73.56167,"reserved":0,"last_update":"0001-01-01T00:00:00Z","name_a2s":"","protocol":0,"map":"","folder":"","game":"","app_id":0,"player_count":10,"max_players":0,"Bots":0,"server_type":"","server_os":"","password":false,"vac":false,"version":"","steam_id":0,"keywords":null,"game_id":0,"stv_port":0,"stv_name":"","players":[{"user_id":89,"name":"Cornmac","steam_id":76561198104780569,"connected_time":161000000000,"state":"active","ping":139},{"user_id":107,"name":"hawkson","steam_id":76561198328814390,"connected_time":45000000000,"state":"active","ping":194},{"user_id":83,"name":"Amestris","steam_id":76561198097284610,"connected_time":442000000000,"state":"active","ping":34},{"user_id":74,"name":"Mr. Call You Back","steam_id":76561198025172811,"connected_time":1138000000000,"state":"active","ping":44},{"user_id":57,"name":"A Terrible Shot","steam_id":76561198045523833,"connected_time":3081000000000,"state":"active","ping":77},{"user_id":58,"name":"MancalaMadMan","steam_id":76561198347324053,"connected_time":2880000000000,"state":"active","ping":132},{"user_id":62,"name":"Vincent Van Bro","steam_id":76561197966919802,"connected_time":2375000000000,"state":"active","ping":111},{"user_id":106,"name":"leboeufbn","steam_id":76561199228923100,"connected_time":136000000000,"state":"active","ping":72},{"user_id":65,"name":"Acorn","steam_id":76561198353480153,"connected_time":2221000000000,"state":"active","ping":51},{"user_id":68,"name":"Daladex","steam_id":76561198254991505,"connected_time":1869000000000,"state":"active","ping":45}]},{"server_id":13,"name":"Uncletopia | New York City | 1 | All Maps","name_short":"nyc-1","host":"nyc-1.us.uncletopia.com","port":27015,"enabled":true,"region":"us-east","cc":"us","latitude":40.73061,"longitude":-73.93524,"reserved":0,"last_update":"0001-01-01T00:00:00Z","name_a2s":"Uncletopia | New York City | 1 | All Maps","protocol":17,"map":"cp_dustbowl","folder":"tf","game":"Team Fortress","app_id":440,"player_count":1,"max_players":24,"Bots":0,"server_type":"Dedicated","server_os":"Linux","password":true,"vac":true,"version":"7961495","steam_id":85568392924469993,"keywords":["cp","nocrits","nodmgspread","uncletopia"],"game_id":440,"stv_port":27016,"stv_name":"Uncletopia | New York City | 1 | All Maps | STV","players":[{"user_id":19,"name":"BSGNetwork","steam_id":76561198188006763,"connected_time":115000000000,"state":"active","ping":83}]},{"server_id":14,"name":"Uncletopia | New York City | 2 | All Maps","name_short":"nyc-2","host":"nyc-1.us.uncletopia.com","port":27025,"enabled":true,"region":"us-east","cc":"us","latitude":40.73061,"longitude":-73.93524,"reserved":0,"last_update":"0001-01-01T00:00:00Z","name_a2s":"Uncletopia | New York City | 2 | All Maps","protocol":17,"map":"pl_pier","folder":"tf","game":"Team Fortress","app_id":440,"player_count":24,"max_players":24,"Bots":0,"server_type":"Dedicated","server_os":"Linux","password":true,"vac":true,"version":"7961495","steam_id":85568392924469994,"keywords":["nocrits","nodmgspread","payload","uncletopia"],"game_id":440,"stv_port":27026,"stv_name":"Uncletopia | New York City | 2 | All Maps | STV","players":[{"user_id":272,"name":"Baron von Whoopsie","steam_id":76561197996691013,"connected_time":304000000000,"state":"active","ping":53},{"user_id":274,"name":"THE ANTAGONIST","steam_id":76561198171091281,"connected_time":263000000000,"state":"active","ping":47},{"user_id":269,"name":"GP","steam_id":76561198215438831,"connected_time":1601000000000,"state":"active","ping":75},{"user_id":275,"name":"‡∂û","steam_id":76561199365672047,"connected_time":262000000000,"state":"active","ping":63},{"user_id":276,"name":"Rachi","steam_id":76561198083826053,"connected_time":253000000000,"state":"active","ping":68},{"user_id":243,"name":"guy","steam_id":76561198079925551,"connected_time":3651000000000,"state":"active","ping":47},{"user_id":264,"name":"Dog Goggles","steam_id":76561197995233692,"connected_time":1660000000000,"state":"active","ping":64},{"user_id":260,"name":"l3fty","steam_id":76561198057788958,"connected_time":1719000000000,"state":"active","ping":61},{"user_id":239,"name":"punk cock","steam_id":76561198418182764,"connected_time":3979000000000,"state":"active","ping":57},{"user_id":265,"name":"Spy on cart","steam_id":76561198025466913,"connected_time":1645000000000,"state":"active","ping":111},{"user_id":271,"name":"Tony hawks pro skater 2 dlc","steam_id":76561198243387974,"connected_time":1099000000000,"state":"active","ping":55},{"user_id":257,"name":"Jasper‚Ñ¢","steam_id":76561198260018463,"connected_time":2942000000000,"state":"active","ping":94},{"user_id":222,"name":"space man","steam_id":76561198066333670,"connected_time":5462000000000,"state":"active","ping":68},{"user_id":252,"name":"Gl4ssesGuy","steam_id":76561198182431082,"connected_time":3535000000000,"state":"active","ping":71},{"user_id":253,"name":"jT","steam_id":76561198053353148,"connected_time":3519000000000,"state":"active","ping":73},{"user_id":241,"name":"Brown_Dream","steam_id":76561198975766145,"connected_time":3867000000000,"state":"active","ping":66},{"user_id":255,"name":"Cla1rv0yant","steam_id":76561198073841803,"connected_time":3446000000000,"state":"active","ping":62},{"user_id":261,"name":"Broadway Rose","steam_id":76561198046083342,"connected_time":1714000000000,"state":"active","ping":41},{"user_id":262,"name":"kkoduh","steam_id":76561198142884645,"connected_time":1714000000000,"state":"active","ping":79},{"user_id":270,"name":"Gibs Degrossi","steam_id":76561198066152609,"connected_time":1594000000000,"state":"active","ping":60},{"user_id":277,"name":"maxeatpie","steam_id":76561198438294875,"connected_time":246000000000,"state":"active","ping":56},{"user_id":278,"name":"BRUH NATOR","steam_id":76561199094694437,"connected_time":200000000000,"state":"active","ping":86},{"user_id":135,"name":"Chris","steam_id":76561198044278802,"connected_time":11128000000000,"state":"active","ping":55},{"user_id":224,"name":"Voracious Puma","steam_id":76561197963621649,"connected_time":5132000000000,"state":"active","ping":88}]},{"server_id":15,"name":"Uncletopia | New York City | 3 | Stopwatch","name_short":"nyc-3","host":"nyc-1.us.uncletopia.com","port":27035,"enabled":true,"region":"us-east","cc":"us","latitude":40.73061,"longitude":-73.93524,"reserved":0,"last_update":"0001-01-01T00:00:00Z","name_a2s":"Uncletopia | New York City | 3 | Stopwatch","protocol":17,"map":"pl_snowycoast","folder":"tf","game":"Team Fortress","app_id":440,"player_count":0,"max_players":24,"Bots":0,"server_type":"Dedicated","server_os":"Linux","password":true,"vac":true,"version":"7961495","steam_id":85568392924742820,"keywords":["nocrits","nodmgspread","payload","uncletopia"],"game_id":440,"stv_port":27036,"stv_name":"Uncletopia | New York City | 3 | Stopwatch | STV","players":null},{"server_id":16,"name":"Uncletopia | New York City | 4 | Community","name_short":"nyc-4","host":"nyc-1.us.uncletopia.com","port":27045,"enabled":true,"region":"us-east","cc":"us","latitude":40.73061,"longitude":-73.93524,"reserved":0,"last_update":"0001-01-01T00:00:00Z","name_a2s":"Uncletopia | New York City | 4 | Community","protocol":17,"map":"workshop/pl_cactuscanyon_redux_final2.ugc2579644293","folder":"tf","game":"Team Fortress","app_id":440,"player_count":0,"max_players":24,"Bots":0,"server_type":"Dedicated","server_os":"Linux","password":true,"vac":true,"version":"7961495","steam_id":85568392924742821,"keywords":["nocrits","nodmgspread","payload","uncletopia"],"game_id":440,"stv_port":27046,"stv_name":"Uncletopia | New York City | 4 | Community | STV","players":null},{"server_id":142,"name":"Uncletopia | S√£o Paulo | 1 | All Maps","name_short":"sao-1","host":"sao-1.br.uncletopia.com","port":27015,"enabled":true,"region":"sa","cc":"br","latitude":-23.533773,"longitude":-46.62529,"reserved":0,"last_update":"0001-01-01T00:00:00Z","name_a2s":"Uncletopia | S√£o Paulo | 1 | All Maps","protocol":17,"map":"cp_mountainlab","folder":"tf","game":"Team Fortress","app_id":440,"player_count":0,"max_players":24,"Bots":0,"server_type":"Dedicated","server_os":"Linux","password":true,"vac":true,"version":"7961495","steam_id":85568392924469996,"keywords":["cp","nocrits","nodmgspread","uncletopia"],"game_id":440,"stv_port":27016,"stv_name":"Uncletopia | S√£o Paulo | 1 | All Maps | STV","players":null},{"server_id":143,"name":"Uncletopia | S√£o Paulo | 2 | Community","name_short":"sao-2","host":"sao-2.br.uncletopia.com","port":27015,"enabled":true,"region":"sa","cc":"br","latitude":-23.533773,"longitude":-46.62529,"reserved":0,"last_update":"0001-01-01T00:00:00Z","name_a2s":"Uncletopia | S√£o Paulo | 2 | Community","protocol":17,"map":"pl_badwater","folder":"tf","game":"Team Fortress","app_id":440,"player_count":0,"max_players":24,"Bots":0,"server_type":"Dedicated","server_os":"Linux","password":true,"vac":true,"version":"7961495","steam_id":85568392924485349,"keywords":["nocrits","nodmgspread","payload","uncletopia"],"game_id":440,"stv_port":27016,"stv_name":"Uncletopia | S√£o Paulo | 2 | Community | STV","players":null},{"server_id":7,"name":"Uncletopia | Seattle | 1 | All Maps","name_short":"sea-1","host":"sea-1.us.uncletopia.com","port":27015,"enabled":true,"region":"us-west","cc":"us","latitude":47.608013,"longitude":-122.33517,"reserved":0,"last_update":"0001-01-01T00:00:00Z","name_a2s":"Uncletopia | Seattle | 1 | All Maps","protocol":17,"map":"cp_mountainlab","folder":"tf","game":"Team Fortress","app_id":440,"player_count":0,"max_players":24,"Bots":0,"server_type":"Dedicated","server_os":"Linux","password":true,"vac":true,"version":"7961495","steam_id":85568392924469997,"keywords":["cp","nocrits","nodmgspread","uncletopia"],"game_id":440,"stv_port":27016,"stv_name":"Uncletopia | Seattle | 1 | All Maps | STV","players":null},{"server_id":119,"name":"Uncletopia | Seattle | 2 | All Maps","name_short":"sea-2","host":"sea-1.us.uncletopia.com","port":27025,"enabled":true,"region":"us-west","cc":"us","latitude":47.608013,"longitude":-122.33517,"reserved":0,"last_update":"0001-01-01T00:00:00Z","name_a2s":"Uncletopia | Seattle | 2 | All Maps","protocol":17,"map":"cp_dustbowl","folder":"tf","game":"Team Fortress","app_id":440,"player_count":0,"max_players":24,"Bots":0,"server_type":"Dedicated","server_os":"Linux","password":true,"vac":true,"version":"7961495","steam_id":85568392924469998,"keywords":["cp","nocrits","nodmgspread","uncletopia"],"game_id":440,"stv_port":27026,"stv_name":"Uncletopia | Seattle | 2 | All Maps | STV","players":null},{"server_id":406,"name":"Uncletopia | Seattle | 3 | Stopwatch","name_short":"sea-3","host":"sea-1.us.uncletopia.com","port":27035,"enabled":true,"region":"us-west","cc":"us","latitude":47.608013,"longitude":-122.33517,"reserved":0,"last_update":"0001-01-01T00:00:00Z","name_a2s":"Uncletopia | Seattle | 3 | Stopwatch","protocol":17,"map":"cp_process_final","folder":"tf","game":"Team Fortress","app_id":440,"player_count":0,"max_players":24,"Bots":0,"server_type":"Dedicated","server_os":"Linux","password":true,"vac":true,"version":"7961495","steam_id":85568392924515217,"keywords":["cp","nocrits","nodmgspread","uncletopia"],"game_id":440,"stv_port":27036,"stv_name":"Uncletopia | Seattle | 3 | Stopwatch | STV","players":null},{"server_id":17,"name":"Uncletopia | San Francisco | 1 | All Maps","name_short":"sfo-1","host":"sfo-1.us.uncletopia.com","port":27015,"enabled":true,"region":"us-west","cc":"us","latitude":37.77397,"longitude":-122.4313,"reserved":0,"last_update":"0001-01-01T00:00:00Z","name_a2s":"Uncletopia | San Francisco | 1 | All Maps","protocol":17,"map":"koth_cascade","folder":"tf","game":"Team Fortress","app_id":440,"player_count":0,"max_players":24,"Bots":0,"server_type":"Dedicated","server_os":"Linux","password":true,"vac":true,"version":"7961495","steam_id":85568392924469999,"keywords":["cp","nocrits","nodmgspread","uncletopia"],"game_id":440,"stv_port":27016,"stv_name":"Uncletopia | San Francisco | 1 | All Maps | STV","players":null},{"server_id":18,"name":"Uncletopia | San Francisco | 2 | All Maps","name_short":"sfo-2","host":"sfo-1.us.uncletopia.com","port":27025,"enabled":true,"region":"us-west","cc":"us","latitude":37.77397,"longitude":-122.4313,"reserved":0,"last_update":"0001-01-01T00:00:00Z","name_a2s":"Uncletopia | San Francisco | 2 | All Maps","protocol":17,"map":"pl_frontier_final","folder":"tf","game":"Team Fortress","app_id":440,"player_count":0,"max_players":24,"Bots":0,"server_type":"Dedicated","server_os":"Linux","password":true,"vac":true,"version":"7961495","steam_id":85568392924470000,"keywords":["nocrits","nodmgspread","payload","uncletopia"],"game_id":440,"stv_port":27026,"stv_name":"Uncletopia | San Francisco | 2 | All Maps | STV","players":null},{"server_id":19,"name":"Uncletopia | San Francisco | 3 | Stopwatch","name_short":"sfo-3","host":"sfo-1.us.uncletopia.com","port":27035,"enabled":true,"region":"us-west","cc":"us","latitude":37.77397,"longitude":-122.4313,"reserved":0,"last_update":"0001-01-01T00:00:00Z","name_a2s":"Uncletopia | San Francisco | 3 | Stopwatch","protocol":17,"map":"pl_pier","folder":"tf","game":"Team Fortress","app_id":440,"player_count":0,"max_players":24,"Bots":0,"server_type":"Dedicated","server_os":"Linux","password":true,"vac":true,"version":"7961495","steam_id":85568392924742824,"keywords":["nocrits","nodmgspread","payload","uncletopia"],"game_id":440,"stv_port":27036,"stv_name":"Uncletopia | San Francisco | 3 | Stopwatch | STV","players":null},{"server_id":20,"name":"Uncletopia | San Francisco | 4 | Community","name_short":"sfo-4","host":"sfo-1.us.uncletopia.com","port":27045,"enabled":true,"region":"us-west","cc":"us","latitude":37.77397,"longitude":-122.4313,"reserved":0,"last_update":"0001-01-01T00:00:00Z","name_a2s":"Uncletopia | San Francisco | 4 | Community","protocol":17,"map":"pl_pier","folder":"tf","game":"Team Fortress","app_id":440,"player_count":0,"max_players":24,"Bots":0,"server_type":"Dedicated","server_os":"Linux","password":true,"vac":true,"version":"7961495","steam_id":85568392924742826,"keywords":["nocrits","nodmgspread","payload","uncletopia"],"game_id":440,"stv_port":27046,"stv_name":"Uncletopia | San Francisco | 4 | Community | STV","players":null},{"server_id":141,"name":"Uncletopia | Sydney | 1 | All Maps","name_short":"syd-1","host":"syd-1.au.uncletopia.com","port":27015,"enabled":true,"region":"au","cc":"au","latitude":-33.865143,"longitude":151.2099,"reserved":0,"last_update":"0001-01-01T00:00:00Z","name_a2s":"Uncletopia | Sydney | 1 | All Maps","protocol":17,"map":"koth_lakeside_final","folder":"tf","game":"Team Fortress","app_id":440,"player_count":0,"max_players":24,"Bots":0,"server_type":"Dedicated","server_os":"Linux","password":true,"vac":true,"version":"7961495","steam_id":85568392924470001,"keywords":["cp","nocrits","nodmgspread","uncletopia"],"game_id":440,"stv_port":27016,"stv_name":"Uncletopia | Sydney | 1 | All Maps | STV","players":null},{"server_id":123,"name":"Uncletopia | Sydney | 2 | All Maps","name_short":"syd-2","host":"syd-1.au.uncletopia.com","port":27025,"enabled":true,"region":"au","cc":"au","latitude":-33.865143,"longitude":151.2099,"reserved":0,"last_update":"0001-01-01T00:00:00Z","name_a2s":"Uncletopia | Sydney | 2 | All Maps","protocol":17,"map":"cp_5gorge","folder":"tf","game":"Team Fortress","app_id":440,"player_count":0,"max_players":24,"Bots":0,"server_type":"Dedicated","server_os":"Linux","password":true,"vac":true,"version":"7961495","steam_id":85568392924470002,"keywords":["cp","nocrits","nodmgspread","uncletopia"],"game_id":440,"stv_port":27026,"stv_name":"Uncletopia | Sydney | 2 | All Maps | STV","players":null},{"server_id":395,"name":"Uncletopia | Sydney | 3 | All Maps","name_short":"syd-3","host":"syd-1.au.uncletopia.com","port":27035,"enabled":true,"region":"au","cc":"au","latitude":-33.865143,"longitude":151.2099,"reserved":0,"last_update":"0001-01-01T00:00:00Z","name_a2s":"Uncletopia | Sydney | 3 | All Maps","protocol":17,"map":"cp_altitude","folder":"tf","game":"Team Fortress","app_id":440,"player_count":0,"max_players":24,"Bots":0,"server_type":"Dedicated","server_os":"Linux","password":true,"vac":true,"version":"7961495","steam_id":85568392925194467,"keywords":["cp","nocrits","nodmgspread","uncletopia"],"game_id":440,"stv_port":27036,"stv_name":"Uncletopia | Sydney | 3 | All Maps | STV","players":null},{"server_id":396,"name":"Uncletopia | Sydney | 4 | All Maps","name_short":"syd-4","host":"syd-1.au.uncletopia.com","port":27045,"enabled":true,"region":"au","cc":"au","latitude":-33.865143,"longitude":151.2099,"reserved":0,"last_update":"0001-01-01T00:00:00Z","name_a2s":"Uncletopia | Sydney | 4 | All Maps","protocol":17,"map":"koth_highpass","folder":"tf","game":"Team Fortress","app_id":440,"player_count":0,"max_players":24,"Bots":0,"server_type":"Dedicated","server_os":"Linux","password":true,"vac":true,"version":"7961495","steam_id":85568392925397958,"keywords":["cp","nocrits","nodmgspread","uncletopia"],"game_id":440,"stv_port":27046,"stv_name":"Uncletopia | Sydney | 4 | All Maps | STV","players":null},{"server_id":58,"name":"Uncletopia | Sydney | 5 | Stopwatch","name_short":"syd-5","host":"syd-1.au.uncletopia.com","port":27055,"enabled":true,"region":"au","cc":"au","latitude":-33.865143,"longitude":151.2099,"reserved":0,"last_update":"0001-01-01T00:00:00Z","name_a2s":"Uncletopia | Sydney | 5 | Stopwatch","protocol":17,"map":"workshop/koth_clearcut_b15.ugc2107050255","folder":"tf","game":"Team Fortress","app_id":440,"player_count":0,"max_players":24,"Bots":0,"server_type":"Dedicated","server_os":"Linux","password":true,"vac":true,"version":"7961495","steam_id":85568392925397959,"keywords":["cp","nocrits","nodmgspread","uncletopia"],"game_id":440,"stv_port":27056,"stv_name":"Uncletopia | Sydney | 5 | Stopwatch | STV","players":null},{"server_id":59,"name":"Uncletopia | Sydney | 6 | Community","name_short":"syd-6","host":"syd-1.au.uncletopia.com","port":27065,"enabled":true,"region":"au","cc":"au","latitude":-33.865143,"longitude":151.2099,"reserved":0,"last_update":"0001-01-01T00:00:00Z","name_a2s":"Uncletopia | Sydney | 6 | Community","protocol":17,"map":"cp_sunshine","folder":"tf","game":"Team Fortress","app_id":440,"player_count":0,"max_players":24,"Bots":0,"server_type":"Dedicated","server_os":"Linux","password":true,"vac":true,"version":"7961495","steam_id":85568392925397960,"keywords":["cp","nocrits","nodmgspread","uncletopia"],"game_id":440,"stv_port":27066,"stv_name":"Uncletopia | Sydney | 6 | Community | STV","players":null},{"server_id":49,"name":"Uncletopia | Warsaw | 1 | All Maps","name_short":"waw-1","host":"waw-1.pl.uncletopia.com","port":27015,"enabled":true,"region":"eu","cc":"pl","latitude":52.2297,"longitude":21.017532,"reserved":0,"last_update":"0001-01-01T00:00:00Z","name_a2s":"Uncletopia | Warsaw | 1 | All Maps","protocol":17,"map":"koth_lakeside_final","folder":"tf","game":"Team Fortress","app_id":440,"player_count":2,"max_players":24,"Bots":0,"server_type":"Dedicated","server_os":"Linux","password":true,"vac":true,"version":"7961495","steam_id":85568392925397850,"keywords":["cp","nocrits","nodmgspread","uncletopia"],"game_id":440,"stv_port":27016,"stv_name":"Uncletopia | Warsaw | 1 | All Maps | STV","players":[{"user_id":7,"name":"Master Of Noob","steam_id":76561198217926783,"connected_time":1400000000000,"state":"active","ping":89},{"user_id":8,"name":"Venenakki","steam_id":76561198311526482,"connected_time":1396000000000,"state":"active","ping":65}]},{"server_id":50,"name":"Uncletopia | Warsaw | 2 | All Maps","name_short":"waw-2","host":"waw-1.pl.uncletopia.com","port":27025,"enabled":true,"region":"eu","cc":"pl","latitude":52.2297,"longitude":21.017532,"reserved":0,"last_update":"0001-01-01T00:00:00Z","name_a2s":"Uncletopia | Warsaw | 2 | All Maps","protocol":17,"map":"pl_pier","folder":"tf","game":"Team Fortress","app_id":440,"player_count":24,"max_players":24,"Bots":0,"server_type":"Dedicated","server_os":"Linux","password":true,"vac":true,"version":"7961495","steam_id":85568392925397851,"keywords":["nocrits","nodmgspread","payload","uncletopia"],"game_id":440,"stv_port":27026,"stv_name":"Uncletopia | Warsaw | 2 | All Maps | STV","players":[{"user_id":22,"name":"Artgrendadier","steam_id":76561198063305359,"connected_time":5035000000000,"state":"active","ping":154},{"user_id":101,"name":"LOBZIK","steam_id":76561198114830120,"connected_time":650000000000,"state":"active","ping":49},{"user_id":104,"name":"Ross from F.R.I.E.N.D.S.","steam_id":76561198008511665,"connected_time":603000000000,"state":"active","ping":75},{"user_id":105,"name":"OrangeBanana","steam_id":76561199230233875,"connected_time":600000000000,"state":"active","ping":77},{"user_id":71,"name":"Kjat","steam_id":76561198839433592,"connected_time":2844000000000,"state":"active","ping":63},{"user_id":18,"name":"owenxm","steam_id":76561198123081750,"connected_time":5168000000000,"state":"active","ping":157},{"user_id":12,"name":"orneps489","steam_id":76561199124755916,"connected_time":6109000000000,"state":"active","ping":159},{"user_id":93,"name":"blurst of times","steam_id":76561197972325640,"connected_time":1677000000000,"state":"active","ping":60},{"user_id":97,"name":"skeletonizermal","steam_id":76561199122586095,"connected_time":1300000000000,"state":"active","ping":88},{"user_id":106,"name":"Cookies and Bakies","steam_id":76561198017442928,"connected_time":586000000000,"state":"active","ping":94},{"user_id":72,"name":"Serg","steam_id":76561198218959001,"connected_time":2834000000000,"state":"active","ping":46},{"user_id":88,"name":"HotnIcy","steam_id":76561199372011801,"connected_time":2163000000000,"state":"active","ping":146},{"user_id":107,"name":"a","steam_id":76561198159073505,"connected_time":532000000000,"state":"active","ping":106},{"user_id":95,"name":"Sashko Gupalo","steam_id":76561198253252434,"connected_time":1444000000000,"state":"active","ping":48},{"user_id":60,"name":"Rez","steam_id":76561198410598772,"connected_time":3135000000000,"state":"active","ping":57},{"user_id":98,"name":"Procra Stinator","steam_id":76561198039326848,"connected_time":1238000000000,"state":"active","ping":76},{"user_id":75,"name":"Mr.Duck","steam_id":76561197983710667,"connected_time":2710000000000,"state":"active","ping":98},{"user_id":79,"name":"Squanchy","steam_id":76561198013657513,"connected_time":2610000000000,"state":"active","ping":46},{"user_id":108,"name":"random guy (real)","steam_id":76561199199499453,"connected_time":148000000000,"state":"active","ping":96},{"user_id":65,"name":"HilldogGaming‚ôõ","steam_id":76561198082209322,"connected_time":3033000000000,"state":"active","ping":119},{"user_id":81,"name":"g-man is kakyoin","steam_id":76561198976382242,"connected_time":2253000000000,"state":"active","ping":115},{"user_id":66,"name":"medicinal man","steam_id":76561198202668788,"connected_time":3027000000000,"state":"active","ping":42},{"user_id":91,"name":"Caliban","steam_id":76561197999696839,"connected_time":1779000000000,"state":"active","ping":100},{"user_id":77,"name":"iniT","steam_id":76561198019883794,"connected_time":2673000000000,"state":"active","ping":74}]},{"server_id":51,"name":"Uncletopia | Warsaw | 3 | All Maps","name_short":"waw-3","host":"waw-1.pl.uncletopia.com","port":27035,"enabled":true,"region":"eu","cc":"pl","latitude":52.2297,"longitude":21.017532,"reserved":0,"last_update":"0001-01-01T00:00:00Z","name_a2s":"Uncletopia | Warsaw | 3 | All Maps","protocol":17,"map":"pl_barnblitz","folder":"tf","game":"Team Fortress","app_id":440,"player_count":24,"max_players":24,"Bots":0,"server_type":"Dedicated","server_os":"Linux","password":true,"vac":true,"version":"7961495","steam_id":85568392925397852,"keywords":["nocrits","nodmgspread","payload","uncletopia"],"game_id":440,"stv_port":27036,"stv_name":"Uncletopia | Warsaw | 3 | All Maps | STV","players":[{"user_id":324,"name":"epic party rat","steam_id":76561199100632053,"connected_time":1354000000000,"state":"active","ping":86},{"user_id":304,"name":"VERS","steam_id":76561198884232373,"connected_time":2621000000000,"state":"active","ping":56},{"user_id":302,"name":"≈Ωukovoviƒç","steam_id":76561199026620464,"connected_time":2664000000000,"state":"active","ping":75},{"user_id":306,"name":"stefanbejenari","steam_id":76561199466718294,"connected_time":2609000000000,"state":"active","ping":84},{"user_id":329,"name":"Charged","steam_id":76561199127215130,"connected_time":1189000000000,"state":"active","ping":102},{"user_id":325,"name":"NANI?!?!?!","steam_id":76561198172078559,"connected_time":1347000000000,"state":"active","ping":91},{"user_id":320,"name":"Ah shit, here we go again","steam_id":76561198382080975,"connected_time":1662000000000,"state":"active","ping":70},{"user_id":321,"name":"meatsoupcube","steam_id":76561198276802249,"connected_time":1579000000000,"state":"active","ping":130},{"user_id":333,"name":"Mascky","steam_id":76561198318046431,"connected_time":924000000000,"state":"active","ping":74},{"user_id":332,"name":"Valoxi","steam_id":76561197995042938,"connected_time":1095000000000,"state":"active","ping":90},{"user_id":277,"name":"Bullet magnet (FIN)","steam_id":76561197975715220,"connected_time":4576000000000,"state":"active","ping":95},{"user_id":244,"name":"Sniff","steam_id":76561198090841018,"connected_time":6503000000000,"state":"active","ping":41},{"user_id":221,"name":"taste Fanta through your balls","steam_id":76561198823497252,"connected_time":8253000000000,"state":"active","ping":66},{"user_id":267,"name":"ThellanM","steam_id":76561199014222387,"connected_time":5000000000000,"state":"active","ping":87},{"user_id":327,"name":"jack","steam_id":76561198158634028,"connected_time":1230000000000,"state":"active","ping":63},{"user_id":273,"name":"TylowStar","steam_id":76561198357107806,"connected_time":4691000000000,"state":"active","ping":86},{"user_id":289,"name":"Trolling Man","steam_id":76561198044084210,"connected_time":3541000000000,"state":"active","ping":107},{"user_id":301,"name":"Tomaash","steam_id":76561198115542042,"connected_time":2821000000000,"state":"active","ping":76},{"user_id":328,"name":"bestuan","steam_id":76561199083610617,"connected_time":1225000000000,"state":"active","ping":162},{"user_id":336,"name":"78","steam_id":76561198159465404,"connected_time":481000000000,"state":"active","ping":101},{"user_id":330,"name":"Daemon","steam_id":76561198007015109,"connected_time":1181000000000,"state":"active","ping":81},{"user_id":314,"name":"Toxic_Cicity","steam_id":76561198165753440,"connected_time":2324000000000,"state":"active","ping":119},{"user_id":338,"name":"A Red Brick","steam_id":76561198317522580,"connected_time":273000000000,"state":"active","ping":113},{"user_id":334,"name":"Forgotten George","steam_id":76561198104609997,"connected_time":645000000000,"state":"active","ping":48}]},{"server_id":52,"name":"Uncletopia | Warsaw | 4 | All Maps","name_short":"waw-4","host":"waw-1.pl.uncletopia.com","port":27045,"enabled":true,"region":"eu","cc":"pl","latitude":52.2297,"longitude":21.017532,"reserved":0,"last_update":"0001-01-01T00:00:00Z","name_a2s":"Uncletopia | Warsaw | 4 | All Maps","protocol":17,"map":"cp_dustbowl","folder":"tf","game":"Team Fortress","app_id":440,"player_count":0,"max_players":24,"Bots":0,"server_type":"Dedicated","server_os":"Linux","password":true,"vac":true,"version":"7961495","steam_id":85568392925397853,"keywords":["cp","nocrits","nodmgspread","uncletopia"],"game_id":440,"stv_port":27046,"stv_name":"Uncletopia | Warsaw | 4 | All Maps | STV","players":null},{"server_id":53,"name":"Uncletopia | Warsaw | 5 | Stopwatch","name_short":"waw-5","host":"waw-1.pl.uncletopia.com","port":27055,"enabled":true,"region":"eu","cc":"pl","latitude":52.2297,"longitude":21.017532,"reserved":0,"last_update":"0001-01-01T00:00:00Z","name_a2s":"Uncletopia | Warsaw | 5 | Stopwatch","protocol":17,"map":"workshop/koth_ramjam_rc1.ugc459778887","folder":"tf","game":"Team Fortress","app_id":440,"player_count":0,"max_players":24,"Bots":0,"server_type":"Dedicated","server_os":"Linux","password":true,"vac":true,"version":"7961495","steam_id":85568392925397854,"keywords":["cp","nocrits","nodmgspread","uncletopia"],"game_id":440,"stv_port":27056,"stv_name":"Uncletopia | Warsaw | 5 | Stopwatch | STV","players":null},{"server_id":54,"name":"Uncletopia | Warsaw | 6 | Community","name_short":"waw-6","host":"waw-1.pl.uncletopia.com","port":27065,"enabled":true,"region":"eu","cc":"pl","latitude":52.2297,"longitude":21.017532,"reserved":0,"last_update":"0001-01-01T00:00:00Z","name_a2s":"Uncletopia | Warsaw | 6 | Community","protocol":17,"map":"workshop/pl_emerge_rc2.ugc888027758","folder":"tf","game":"Team Fortress","app_id":440,"player_count":0,"max_players":24,"Bots":0,"server_type":"Dedicated","server_os":"Linux","password":true,"vac":true,"version":"7961495","steam_id":85568392925397856,"keywords":["nocrits","nodmgspread","payload","uncletopia"],"game_id":440,"stv_port":27066,"stv_name":"Uncletopia | Warsaw | 6 | Community | STV","players":null}]}