{"status":true,"message":"","result":[{"server_id":2,"name":"Uncletopia | Chicago | 1 | All Maps","name_short":"chi-1","host":"chi-1.us.uncletopia.com","port":27015,"enabled":true,"region":"us-central","cc":"us","latitude":41.881832,"longitude":-87.62318,"reserved":0,"last_update":"0001-01-01T00:00:00Z","name_a2s":"Uncletopia | Chicago | 1 | All Maps","protocol":17,"map":"pl_frontier_final","folder":"tf","game":"Team Fortress","app_id":440,"player_count":20,"max_players":24,"Bots":0,"server_type":"Dedicated","server_os":"Linux","password":true,"vac":true,"version":"7932396","steam_id":85568392924469984,"keywords":["nocrits","nodmgspread","payload","uncletopia"],"game_id":440,"stv_port":27016,"stv_name":"Uncletopia | Chicago | 1 | All Maps | STV","players":[{"user_id":993,"name":"Your Dinosaurs","steam_id":76561198392670237,"connected_time":124000000000,"state":"active","ping":105},{"user_id":923,"name":"rAnch","steam_id":76561198024562587,"connected_time":6938000000000,"state":"active","ping":55},{"user_id":994,"name":"Travorski","steam_id":76561198072493142,"connected_time":116000000000,"state":"active","ping":89},{"user_id":995,"name":"Edwon","steam_id":76561198319902846,"connected_time":80000000000,"state":"active","ping":98},{"user_id":986,"name":"Vorpas Jabwak","steam_id":76561198112186064,"connected_time":1128000000000,"state":"active","ping":80},{"user_id":996,"name":"Tots","steam_id":76561198027485007,"connected_time":65000000000,"state":"active","ping":61},{"user_id":997,"name":"Subject Delta","steam_id":76561199109118980,"connected_time":58000000000,"state":"active","ping":107},{"user_id":990,"name":"nullptr","steam_id":76561198111790388,"connected_time":221000000000,"state":"active","ping":81},{"user_id":998,"name":"phon","steam_id":76561198140659236,"connected_time":58000000000,"state":"active","ping":94},{"user_id":999,"name":"scrapheap","steam_id":76561198202407087,"connected_time":11000000000,"state":"spawning","ping":58},{"user_id":960,"name":"‚òÇBliffenstimmers‚òÇ","steam_id":76561198059984896,"connected_time":3304000000000,"state":"active","ping":85},{"user_id":992,"name":"Stranger in a Strange Land","steam_id":76561198049843671,"connected_time":209000000000,"state":"active","ping":65},{"user_id":955,"name":"Charlotte","steam_id":76561198194975870,"connected_time":3520000000000,"state":"active","ping":75},{"user_id":991,"name":"Always Here for You","steam_id":76561198219252313,"connected_time":212000000000,"state":"active","ping":58},{"user_id":977,"name":"1-800-GHOST-DANCE","steam_id":76561198835430429,"connected_time":1302000000000,"state":"active","ping":84},{"user_id":978,"name":"juanjoesc","steam_id":76561198186368430,"connected_time":1301000000000,"state":"active","ping":126},{"user_id":922,"name":"room temp IQ","steam_id":76561198018724712,"connected_time":7160000000000,"state":"active","ping":60},{"user_id":971,"name":"Max","steam_id":76561199033599445,"connected_time":2212000000000,"state":"active","ping":107},{"user_id":973,"name":"TDOB","steam_id":76561198062701904,"connected_time":1693000000000,"state":"active","ping":77},{"user_id":975,"name":"IRS Spec Ops","steam_id":76561198129148160,"connected_time":1581000000000,"state":"active","ping":71}]},{"server_id":106,"name":"Uncletopia | Chicago | 2 | All Maps","name_short":"chi-2","host":"chi-1.us.uncletopia.com","port":27025,"enabled":true,"region":"us-central","cc":"us","latitude":41.881832,"longitude":-87.62318,"reserved":0,"last_update":"0001-01-01T00:00:00Z","name_a2s":"Uncletopia | Chicago | 2 | All Maps","protocol":17,"map":"koth_sawmill","folder":"tf","game":"Team Fortress","app_id":440,"player_count":24,"max_players":24,"Bots":0,"server_type":"Dedicated","server_os":"Linux","password":true,"vac":true,"version":"7932396","steam_id":85568392924469985,"keywords":["cp","nocrits","nodmgspread","uncletopia"],"game_id":440,"stv_port":27026,"stv_name":"Uncletopia | Chicago | 2 | All Maps | STV","players":[{"user_id":756,"name":"TGGHaze gaming","steam_id":76561199134730784,"connected_time":372000000000,"state":"active","ping":182},{"user_id":730,"name":"vulcan nightclub pon farr night","steam_id":76561197974283797,"connected_time":1755000000000,"state":"active","ping":45},{"user_id":675,"name":"RainbowHeavy FM","steam_id":76561198070800159,"connected_time":6125000000000,"state":"active","ping":105},{"user_id":678,"name":"Zolt√°n","steam_id":76561197996909075,"connected_time":5195000000000,"state":"active","ping":86},{"user_id":752,"name":"lb Diamond","steam_id":76561197967998740,"connected_time":753000000000,"state":"active","ping":113},{"user_id":749,"name":"mel kush","steam_id":76561198215559840,"connected_time":1159000000000,"state":"active","ping":60},{"user_id":732,"name":"Bob Sapp","steam_id":76561197980254440,"connected_time":1746000000000,"state":"active","ping":62},{"user_id":751,"name":"reero","steam_id":76561198071785065,"connected_time":949000000000,"state":"active","ping":59},{"user_id":724,"name":"Dr.Calamity","steam_id":76561199074296320,"connected_time":2095000000000,"state":"active","ping":114},{"user_id":750,"name":"cucumper","steam_id":76561198079504588,"connected_time":1002000000000,"state":"active","ping":64},{"user_id":762,"name":"gerg","steam_id":76561197997127387,"connected_time":124000000000,"state":"active","ping":113},{"user_id":734,"name":"amalgam","steam_id":76561198159058576,"connected_time":1603000000000,"state":"active","ping":86},{"user_id":735,"name":"BOofii","steam_id":76561198171133082,"connected_time":1596000000000,"state":"active","ping":87},{"user_id":736,"name":"pinkytoe","steam_id":76561198254052870,"connected_time":1587000000000,"state":"active","ping":54},{"user_id":740,"name":"Ludcmorais","steam_id":76561198359217809,"connected_time":1466000000000,"state":"active","ping":180},{"user_id":757,"name":"trash beast","steam_id":76561198015792736,"connected_time":256000000000,"state":"active","ping":73},{"user_id":760,"name":"codeine demon","steam_id":76561198051015496,"connected_time":164000000000,"state":"active","ping":104},{"user_id":761,"name":"Me Himself","steam_id":76561198862623007,"connected_time":163000000000,"state":"active","ping":152},{"user_id":738,"name":"High School Nudical","steam_id":76561198172120615,"connected_time":1551000000000,"state":"active","ping":54},{"user_id":708,"name":"haikranok","steam_id":76561198084885479,"connected_time":3542000000000,"state":"active","ping":88},{"user_id":763,"name":"Chiaki Nanami","steam_id":76561198164782653,"connected_time":123000000000,"state":"active","ping":64},{"user_id":698,"name":"Whatsapp Spy","steam_id":76561198085410969,"connected_time":4815000000000,"state":"active","ping":55},{"user_id":741,"name":"Yummy Kabobz","steam_id":76561198067661705,"connected_time":1464000000000,"state":"active","ping":75},{"user_id":768,"name":"s2000","steam_id":76561198012414439,"connected_time":6000000000,"state":"connecting","ping":0}]},{"server_id":402,"name":"Uncletopia | Chicago | 3 | All Maps","name_short":"chi-3","host":"chi-1.us.uncletopia.com","port":27035,"enabled":true,"region":"us-central","cc":"us","latitude":41.881832,"longitude":-87.62318,"reserved":0,"last_update":"0001-01-01T00:00:00Z","name_a2s":"Uncletopia | Chicago | 3 | All Maps","protocol":17,"map":"pl_barnblitz","folder":"tf","game":"Team Fortress","app_id":440,"player_count":12,"max_players":24,"Bots":0,"server_type":"Dedicated","server_os":"Linux","password":true,"vac":true,"version":"7932396","steam_id":85568392924515191,"keywords":["nocrits","nodmgspread","payload","uncletopia"],"game_id":440,"stv_port":27036,"stv_name":"Uncletopia | Chicago | 3 | All Maps | STV","players":[{"user_id":817,"name":"his flatulence","steam_id":76561198799404824,"connected_time":2401000000000,"state":"active","ping":77},{"user_id":876,"name":"connected","steam_id":76561198257241799,"connected_time":56000000000,"state":"active","ping":56},{"user_id":861,"name":"Zen56","steam_id":76561198074554894,"connected_time":742000000000,"state":"active","ping":84},{"user_id":877,"name":"ChozoChorizo","steam_id":76561198272609196,"connected_time":25000000000,"state":"active","ping":68},{"user_id":844,"name":"Ebenezer Splooge","steam_id":76561197962831078,"connected_time":1167000000000,"state":"active","ping":64},{"user_id":873,"name":"MaybeMars","steam_id":76561198084736804,"connected_time":271000000000,"state":"active","ping":74},{"user_id":874,"name":"ayyyy","steam_id":76561198081555031,"connected_time":147000000000,"state":"active","ping":148},{"user_id":863,"name":"Lerny_Bander69","steam_id":76561199467619936,"connected_time":679000000000,"state":"active","ping":120},{"user_id":812,"name":"Ping","steam_id":76561198072947773,"connected_time":2728000000000,"state":"active","ping":51},{"user_id":865,"name":"JanChr98","steam_id":76561198256239784,"connected_time":535000000000,"state":"active","ping":160},{"user_id":801,"name":"Wizard02","steam_id":76561198178293623,"connected_time":3630000000000,"state":"active","ping":83},{"user_id":871,"name":"Sharpshot76","steam_id":76561198260163913,"connected_time":385000000000,"state":"active","ping":48}]},{"server_id":403,"name":"Uncletopia | Chicago | 4 | All Maps","name_short":"chi-4","host":"chi-1.us.uncletopia.com","port":27045,"enabled":true,"region":"us-central","cc":"us","latitude":41.881832,"longitude":-87.62318,"reserved":0,"last_update":"0001-01-01T00:00:00Z","name_a2s":"Uncletopia | Chicago | 4 | All Maps","protocol":17,"map":"pl_upward","folder":"tf","game":"Team Fortress","app_id":440,"player_count":0,"max_players":24,"Bots":0,"server_type":"Dedicated","server_os":"Linux","password":true,"vac":true,"version":"7932396","steam_id":85568392924515193,"keywords":["nocrits","nodmgspread","payload","uncletopia"],"game_id":440,"stv_port":27046,"stv_name":"Uncletopia | Chicago | 4 | All Maps | STV","players":null},{"server_id":36,"name":"Uncletopia | Chicago | 5 | All Maps","name_short":"chi-5","host":"chi-2.us.uncletopia.com","port":27015,"enabled":true,"region":"us-central","cc":"us","latitude":41.881832,"longitude":-87.62318,"reserved":0,"last_update":"0001-01-01T00:00:00Z","name_a2s":"Uncletopia | Chicago | 5 | All Maps","protocol":17,"map":"pl_borneo","folder":"tf","game":"Team Fortress","app_id":440,"player_count":0,"max_players":24,"Bots":0,"server_type":"Dedicated","server_os":"Linux","password":true,"vac":true,"version":"7932396","steam_id":85568392924866362,"keywords":["nocrits","nodmgspread","payload","uncletopia"],"game_id":440,"stv_port":27016,"stv_name":"Uncletopia | Chicago | 5 | All Maps | STV","players":null},{"server_id":37,"name":"Uncletopia | Chicago | 6 | All Maps","name_short":"chi-6","host":"chi-2.us.uncletopia.com","port":27025,"enabled":true,"region":"us-central","cc":"us","latitude":41.881832,"longitude":-87.62318,"reserved":0,"last_update":"0001-01-01T00:00:00Z","name_a2s":"Uncletopia | Chicago | 6 | All Maps","protocol":17,"map":"pl_upward","folder":"tf","game":"Team Fortress","app_id":440,"player_count":0,"max_players":24,"Bots":0,"server_type":"Dedicated","server_os":"Linux","password":true,"vac":true,"version":"7932396","steam_id":85568392924866363,"keywords":["nocrits","nodmgspread","payload","uncletopia"],"game_id":440,"stv_port":27026,"stv_name":"Uncletopia | Chicago | 6 | All Maps | STV","players":null},{"server_id":38,"name":"Uncletopia | Chicago | 7 | Stopwatch Beta","name_short":"chi-7","host":"chi-2.us.uncletopia.com","port":27035,"enabled":true,"region":"us-central","cc":"us","latitude":41.881832,"longitude":-87.62318,"reserved":0,"last_update":"0001-01-01T00:00:00Z","name_a2s":"Uncletopia | Chicago | 7 | Stopwatch Beta","protocol":17,"map":"workshop/pl_badwater_pro_v12.ugc2142942074","folder":"tf","game":"Team Fortress","app_id":440,"player_count":0,"max_players":24,"Bots":0,"server_type":"Dedicated","server_os":"Linux","password":true,"vac":true,"version":"7932396","steam_id":85568392924866364,"keywords":["nocrits","nodmgspread","payload","uncletopia"],"game_id":440,"stv_port":27036,"stv_name":"Uncletopia | Chicago | 7 | Stopwatch Beta | STV","players":null},{"server_id":39,"name":"Uncletopia | Chicago | 8 | Community","name_short":"chi-8","host":"chi-2.us.uncletopia.com","port":27045,"enabled":true,"region":"us-central","cc":"us","latitude":41.881832,"longitude":-87.62318,"reserved":0,"last_update":"0001-01-01T00:00:00Z","name_a2s":"Uncletopia | Chicago | 8 | Community","protocol":17,"map":"workshop/pl_divulgence_b4b.ugc2884808746","folder":"tf","game":"Team Fortress","app_id":440,"player_count":0,"max_players":24,"Bots":0,"server_type":"Dedicated","server_os":"Linux","password":true,"vac":true,"version":"7932396","steam_id":85568392924866365,"keywords":["nocrits","nodmgspread","payload","uncletopia"],"game_id":440,"stv_port":27046,"stv_name":"Uncletopia | Chicago | 8 | Community | STV","players":null},{"server_id":8,"name":"Uncletopia | Dallas | 1 | All Maps","name_short":"dal-1","host":"dal-1.us.uncletopia.com","port":27015,"enabled":true,"region":"us-central","cc":"us","latitude":32.779167,"longitude":-96.80889,"reserved":0,"last_update":"0001-01-01T00:00:00Z","name_a2s":"Uncletopia | Dallas | 1 | All Maps","protocol":17,"map":"cp_dustbowl","folder":"tf","game":"Team Fortress","app_id":440,"player_count":23,"max_players":24,"Bots":0,"server_type":"Dedicated","server_os":"Linux","password":true,"vac":true,"version":"7932396","steam_id":85568392924469986,"keywords":["cp","nocrits","nodmgspread","uncletopia"],"game_id":440,"stv_port":27016,"stv_name":"Uncletopia | Dallas | 1 | All Maps | STV","players":[{"user_id":778,"name":"dekapon","steam_id":76561198069523062,"connected_time":1940000000000,"state":"active","ping":79},{"user_id":801,"name":"bombthezoms","steam_id":76561198138467073,"connected_time":417000000000,"state":"active","ping":60},{"user_id":755,"name":"AzuriousAlex","steam_id":76561198158026405,"connected_time":4051000000000,"state":"active","ping":73},{"user_id":802,"name":"CyanPlaza","steam_id":76561198037850703,"connected_time":298000000000,"state":"active","ping":71},{"user_id":715,"name":"AudaCD","steam_id":76561198202775853,"connected_time":6419000000000,"state":"active","ping":60},{"user_id":784,"name":"DSM-IVCE","steam_id":76561199438515797,"connected_time":1446000000000,"state":"active","ping":116},{"user_id":782,"name":"SpamTheAlien","steam_id":76561199122290968,"connected_time":1633000000000,"state":"active","ping":129},{"user_id":771,"name":"Zeodexic","steam_id":76561198055636655,"connected_time":2160000000000,"state":"active","ping":83},{"user_id":803,"name":"Fat Kid","steam_id":76561198304180941,"connected_time":276000000000,"state":"active","ping":69},{"user_id":797,"name":"Rusted Cake","steam_id":76561198209755931,"connected_time":568000000000,"state":"active","ping":84},{"user_id":757,"name":"Cave Dweller","steam_id":76561198374825685,"connected_time":3559000000000,"state":"active","ping":90},{"user_id":750,"name":"younggflylyfe","steam_id":76561199477357832,"connected_time":4556000000000,"state":"active","ping":34},{"user_id":790,"name":"The Great Karizma!","steam_id":76561198346191193,"connected_time":914000000000,"state":"active","ping":79},{"user_id":804,"name":"Caster","steam_id":76561198131592341,"connected_time":243000000000,"state":"active","ping":96},{"user_id":805,"name":"starry","steam_id":76561198989740125,"connected_time":233000000000,"state":"active","ping":107},{"user_id":770,"name":"euphoricfilth (it/her)","steam_id":76561198100160865,"connected_time":2192000000000,"state":"active","ping":74},{"user_id":793,"name":"Zelith","steam_id":76561198234980480,"connected_time":707000000000,"state":"active","ping":73},{"user_id":794,"name":"Space Magic","steam_id":76561199006292310,"connected_time":706000000000,"state":"active","ping":87},{"user_id":773,"name":"Kenku","steam_id":76561199086762926,"connected_time":2120000000000,"state":"active","ping":65},{"user_id":806,"name":"1 pogger","steam_id":76561198145128040,"connected_time":156000000000,"state":"active","ping":69},{"user_id":799,"name":"Frostiie","steam_id":76561199220977117,"connected_time":530000000000,"state":"active","ping":89},{"user_id":777,"name":"Milk T34","steam_id":76561198116115227,"connected_time":2028000000000,"state":"active","ping":81},{"user_id":779,"name":"King","steam_id":76561198039763676,"connected_time":1892000000000,"state":"active","ping":75}]},{"server_id":108,"name":"Uncletopia | Dallas | 2 | All Maps","name_short":"dal-2","host":"dal-1.us.uncletopia.com","port":27025,"enabled":true,"region":"us-central","cc":"us","latitude":32.779167,"longitude":-96.80889,"reserved":0,"last_update":"0001-01-01T00:00:00Z","name_a2s":"Uncletopia | Dallas | 2 | All Maps","protocol":17,"map":"koth_viaduct","folder":"tf","game":"Team Fortress","app_id":440,"player_count":0,"max_players":24,"Bots":0,"server_type":"Dedicated","server_os":"Linux","password":true,"vac":true,"version":"7932396","steam_id":85568392924469988,"keywords":["cp","nocrits","nodmgspread","uncletopia"],"game_id":440,"stv_port":27026,"stv_name":"Uncletopia | Dallas | 2 | All Maps | STV","players":null},{"server_id":5,"name":"Uncletopia | Frankfurt | 1 | All Maps","name_short":"frk-1","host":"frk-1.de.uncletopia.com","port":27015,"enabled":true,"region":"eu","cc":"de","latitude":50.110924,"longitude":8.682127,"reserved":0,"last_update":"0001-01-01T00:00:00Z","name_a2s":"Uncletopia | Frankfurt | 1 | All Maps","protocol":17,"map":"pl_badwater","folder":"tf","game":"Team Fortress","app_id":440,"player_count":0,"max_players":24,"Bots":0,"server_type":"Dedicated","server_os":"Linux","password":true,"vac":true,"version":"7932396","steam_id":85568392924469989,"keywords":["nocrits","nodmgspread","payload","uncletopia"],"game_id":440,"stv_port":27016,"stv_name":"Uncletopia | Frankfurt | 1 | All Maps | STV","players":null},{"server_id":110,"name":"Uncletopia | Frankfurt | 2 | All Maps","name_short":"frk-2","host":"frk-1.de.uncletopia.com","port":27025,"enabled":true,"region":"eu","cc":"de","latitude":50.110924,"longitude":8.682127,"reserved":0,"last_update":"0001-01-01T00:00:00Z","name_a2s":"Uncletopia | Frankfurt | 2 | All Maps","protocol":17,"map":"pl_borneo","folder":"tf","game":"Team Fortress","app_id":440,"player_count":0,"max_players":24,"Bots":0,"server_type":"Dedicated","server_os":"Linux","password":true,"vac":true,"version":"7932396","steam_id":85568392924469990,"keywords":["nocrits","nodmgspread","payload","uncletopia"],"game_id":440,"stv_port":27026,"stv_name":"Uncletopia | Frankfurt | 2 | All Maps | STV","players":null},{"server_id":308,"name":"Uncletopia | Frankfurt | 3 | All Maps","name_short":"frk-3","host":"frk-1.de.uncletopia.com","port":27035,"enabled":true,"region":"eu","cc":"de","latitude":50.110924,"longitude":8.682127,"reserved":0,"last_update":"0001-01-01T00:00:00Z","name_a2s":"Uncletopia | Frankfurt | 3 | All Maps","protocol":17,"map":"pl_badwater","folder":"tf","game":"Team Fortress","app_id":440,"player_count":0,"max_players":24,"Bots":0,"server_type":"Dedicated","server_os":"Linux","password":true,"vac":true,"version":"7932396","steam_id":85568392924504274,"keywords":["nocrits","nodmgspread","payload","uncletopia"],"game_id":440,"stv_port":27036,"stv_name":"Uncletopia | Frankfurt | 3 | All Maps | STV","players":null},{"server_id":309,"name":"Uncletopia | Frankfurt | 4 | All Maps","name_short":"frk-4","host":"frk-1.de.uncletopia.com","port":27045,"enabled":true,"region":"eu","cc":"de","latitude":50.110924,"longitude":8.682127,"reserved":0,"last_update":"0001-01-01T00:00:00Z","name_a2s":"Uncletopia | Frankfurt | 4 | All Maps","protocol":17,"map":"pl_barnblitz","folder":"tf","game":"Team Fortress","app_id":440,"player_count":0,"max_players":24,"Bots":0,"server_type":"Dedicated","server_os":"Linux","password":true,"vac":true,"version":"7932396","steam_id":85568392924504275,"keywords":["nocrits","nodmgspread","payload","uncletopia"],"game_id":440,"stv_port":27046,"stv_name":"Uncletopia | Frankfurt | 4 | All Maps | STV","players":null},{"server_id":310,"name":"Uncletopia | Frankfurt | 5 | All Maps","name_short":"frk-5","host":"frk-1.de.uncletopia.com","port":27055,"enabled":true,"region":"eu","cc":"de","latitude":50.110924,"longitude":8.682127,"reserved":0,"last_update":"0001-01-01T00:00:00Z","name_a2s":"Uncletopia | Frankfurt | 5 | All Maps","protocol":17,"map":"pl_badwater","folder":"tf","game":"Team Fortress","app_id":440,"player_count":0,"max_players":24,"Bots":0,"server_type":"Dedicated","server_os":"Linux","password":true,"vac":true,"version":"7932396","steam_id":85568392924504277,"keywords":["nocrits","nodmgspread","payload","uncletopia"],"game_id":440,"stv_port":27056,"stv_name":"Uncletopia | Frankfurt | 5 | All Maps | STV","players":null},{"server_id":311,"name":"Uncletopia | Frankfurt | 6 | All Maps","name_short":"frk-6","host":"frk-1.de.uncletopia.com","port":27065,"enabled":true,"region":"eu","cc":"de","latitude":50.110924,"longitude":8.682127,"reserved":0,"last_update":"0001-01-01T00:00:00Z","name_a2s":"Uncletopia | Frankfurt | 6 | All Maps","protocol":17,"map":"koth_viaduct","folder":"tf","game":"Team Fortress","app_id":440,"player_count":0,"max_players":24,"Bots":0,"server_type":"Dedicated","server_os":"Linux","password":true,"vac":true,"version":"7932396","steam_id":85568392924504278,"keywords":["cp","nocrits","nodmgspread","uncletopia"],"game_id":440,"stv_port":27066,"stv_name":"Uncletopia | Frankfurt | 6 | All Maps | STV","players":null},{"server_id":23,"name":"Uncletopia | Frankfurt | 7 | Stopwatch Beta","name_short":"frk-7","host":"frk-1.de.uncletopia.com","port":27075,"enabled":true,"region":"eu","cc":"de","latitude":50.110924,"longitude":8.682127,"reserved":0,"last_update":"0001-01-01T00:00:00Z","name_a2s":"Uncletopia | Frankfurt | 7 | Stopwatch Beta","protocol":17,"map":"pl_snowycoast","folder":"tf","game":"Team Fortress","app_id":440,"player_count":0,"max_players":24,"Bots":0,"server_type":"Dedicated","server_os":"Linux","password":true,"vac":true,"version":"7932396","steam_id":85568392924742827,"keywords":["nocrits","nodmgspread","payload","uncletopia"],"game_id":440,"stv_port":27076,"stv_name":"Uncletopia | Frankfurt | 7 | Stopwatch Beta | STV","players":null},{"server_id":24,"name":"Uncletopia | Frankfurt | 8 | Community","name_short":"frk-8","host":"frk-1.de.uncletopia.com","port":27085,"enabled":true,"region":"eu","cc":"de","latitude":50.110924,"longitude":8.682127,"reserved":0,"last_update":"0001-01-01T00:00:00Z","name_a2s":"Uncletopia | Frankfurt | 8 | Community","protocol":17,"map":"pl_barnblitz","folder":"tf","game":"Team Fortress","app_id":440,"player_count":0,"max_players":24,"Bots":0,"server_type":"Dedicated","server_os":"Linux","password":true,"vac":true,"version":"7932396","steam_id":85568392924742828,"keywords":["nocrits","nodmgspread","payload","uncletopia"],"game_id":440,"stv_port":27086,"stv_name":"Uncletopia | Frankfurt | 8 | Community | STV","players":null},{"server_id":202,"name":"Uncletopia | Hong Kong | 1 | All Maps","name_short":"hgk-1","host":"hgk-1.hk.uncletopia.com","port":27015,"enabled":true,"region":"asia","cc":"hk","latitude":22.302711,"longitude":114.177216,"reserved":0,"last_update":"0001-01-01T00:00:00Z","name_a2s":"Uncletopia | Hong Kong | 1 | All Maps","protocol":17,"map":"cp_mountainlab","folder":"tf","game":"Team Fortress","app_id":440,"player_count":7,"max_players":24,"Bots":0,"server_type":"Dedicated","server_os":"Linux","password":true,"vac":true,"version":"7932396","steam_id":85568392924494504,"keywords":["cp","nocrits","nodmgspread","uncletopia"],"game_id":440,"stv_port":27016,"stv_name":"Uncletopia | Hong Kong | 1 | All Maps | STV","players":[{"user_id":12,"name":"hotgamerth","steam_id":76561199026418153,"connected_time":1146000000000,"state":"active","ping":104},{"user_id":13,"name":"KHMaster","steam_id":76561199198453345,"connected_time":1087000000000,"state":"active","ping":63},{"user_id":14,"name":":weed:","steam_id":76561198386626651,"connected_time":846000000000,"state":"active","ping":59},{"user_id":18,"name":"Rheum","steam_id":76561198053081224,"connected_time":425000000000,"state":"active","ping":77},{"user_id":19,"name":"powpao","steam_id":76561198112337267,"connected_time":405000000000,"state":"active","ping":100},{"user_id":21,"name":"fork","steam_id":76561199215763743,"connected_time":243000000000,"state":"active","ping":84}]},{"server_id":1,"name":"Uncletopia | Los Angeles | 1 | All Maps","name_short":"lax-1","host":"lax-1.us.uncletopia.com","port":27015,"enabled":true,"region":"us-west","cc":"us","latitude":33.94279,"longitude":-118.41004,"reserved":0,"last_update":"0001-01-01T00:00:00Z","name_a2s":"Uncletopia | Los Angeles | 1 | All Maps","protocol":17,"map":"cp_sunshine","folder":"tf","game":"Team Fortress","app_id":440,"player_count":0,"max_players":24,"Bots":0,"server_type":"Dedicated","server_os":"Linux","password":true,"vac":true,"version":"7932396","steam_id":85568392924469991,"keywords":["cp","nocrits","nodmgspread","uncletopia"],"game_id":440,"stv_port":27016,"stv_name":"Uncletopia | Los Angeles | 1 | All Maps | STV","players":null},{"server_id":112,"name":"Uncletopia | Los Angeles | 2 | All Maps","name_short":"lax-2","host":"lax-1.us.uncletopia.com","port":27025,"enabled":true,"region":"us-west","cc":"us","latitude":33.94279,"longitude":-118.41004,"reserved":0,"last_update":"0001-01-01T00:00:00Z","name_a2s":"Uncletopia | Los Angeles | 2 | All Maps","protocol":17,"map":"pl_pier","folder":"tf","game":"Team Fortress","app_id":440,"player_count":24,"max_players":24,"Bots":0,"server_type":"Dedicated","server_os":"Linux","password":true,"vac":true,"version":"7932396","steam_id":85568392924469992,"keywords":["nocrits","nodmgspread","payload","uncletopia"],"game_id":440,"stv_port":27026,"stv_name":"Uncletopia | Los Angeles | 2 | All Maps | STV","players":[{"user_id":651,"name":"neil","steam_id":76561198122666918,"connected_time":1912000000000,"state":"active","ping":110},{"user_id":662,"name":"Mia Foxx ‚ù§","steam_id":76561198044337051,"connected_time":346000000000,"state":"active","ping":61},{"user_id":653,"name":"azureglxy","steam_id":76561198861388315,"connected_time":1093000000000,"state":"active","ping":173},{"user_id":654,"name":"Thunderchief","steam_id":76561198022802780,"connected_time":1073000000000,"state":"active","ping":65},{"user_id":652,"name":"TimeForHype","steam_id":76561197996714494,"connected_time":1309000000000,"state":"active","ping":74},{"user_id":658,"name":"gatorbelt","steam_id":76561198145784505,"connected_time":507000000000,"state":"active","ping":50},{"user_id":625,"name":"LiveLongNote","steam_id":76561198138118635,"connected_time":3986000000000,"state":"active","ping":83},{"user_id":664,"name":"ketsu","steam_id":76561197966171554,"connected_time":219000000000,"state":"active","ping":171},{"user_id":646,"name":"everythingrhymeswithorange","steam_id":76561198010306193,"connected_time":2195000000000,"state":"active","ping":72},{"user_id":665,"name":"ExplosiveGamer21","steam_id":76561198132370955,"connected_time":202000000000,"state":"active","ping":83},{"user_id":624,"name":"blobmasterer","steam_id":76561198001131403,"connected_time":3997000000000,"state":"active","ping":61},{"user_id":649,"name":"tr","steam_id":76561198046944222,"connected_time":2128000000000,"state":"active","ping":73},{"user_id":657,"name":"toes","steam_id":76561198221151676,"connected_time":528000000000,"state":"active","ping":91},{"user_id":650,"name":"hakken","steam_id":76561199102391736,"connected_time":2110000000000,"state":"active","ping":52},{"user_id":639,"name":"Ashanti Clan","steam_id":76561198032651105,"connected_time":2726000000000,"state":"active","ping":84},{"user_id":660,"name":"Sanguimancer","steam_id":76561198095634738,"connected_time":443000000000,"state":"active","ping":88},{"user_id":542,"name":"Lucerne‚òÖFlower","steam_id":76561198264105406,"connected_time":9919000000000,"state":"active","ping":114},{"user_id":661,"name":"shittystripper","steam_id":76561198101012071,"connected_time":431000000000,"state":"active","ping":86},{"user_id":571,"name":"KILLER FLY","steam_id":76561198846480611,"connected_time":7470000000000,"state":"active","ping":68},{"user_id":631,"name":"Time-Breaker","steam_id":76561198065363648,"connected_time":3819000000000,"state":"active","ping":60},{"user_id":655,"name":"Erntest","steam_id":76561198049499899,"connected_time":911000000000,"state":"active","ping":71},{"user_id":604,"name":"SanitysEdge","steam_id":76561198130732813,"connected_time":5917000000000,"state":"active","ping":51},{"user_id":636,"name":"Literal Vampire Potbelly Goblin","steam_id":76561197970527356,"connected_time":2818000000000,"state":"active","ping":48},{"user_id":656,"name":"dubious little creature","steam_id":76561198113251746,"connected_time":824000000000,"state":"active","ping":62}]},{"server_id":324,"name":"Uncletopia | Los Angeles | 3 | All Maps","name_short":"lax-3","host":"lax-1.us.uncletopia.com","port":27035,"enabled":true,"region":"us-west","cc":"us","latitude":33.94279,"longitude":-118.41004,"reserved":0,"last_update":"0001-01-01T00:00:00Z","name_a2s":"Uncletopia | Los Angeles | 3 | All Maps","protocol":17,"map":"cp_mountainlab","folder":"tf","game":"Team Fortress","app_id":440,"player_count":0,"max_players":24,"Bots":0,"server_type":"Dedicated","server_os":"Linux","password":true,"vac":true,"version":"7932396","steam_id":85568392924510198,"keywords":["cp","nocrits","nodmgspread","uncletopia"],"game_id":440,"stv_port":27036,"stv_name":"Uncletopia | Los Angeles | 3 | All Maps | STV","players":null},{"server_id":25,"name":"Uncletopia | Los Angeles | 4 | Stopwatch Beta","name_short":"lax-4","host":"lax-1.us.uncletopia.com","port":27045,"enabled":true,"region":"us-west","cc":"us","latitude":33.94279,"longitude":-118.41004,"reserved":0,"last_update":"0001-01-01T00:00:00Z","name_a2s":"Uncletopia | Los Angeles | 4 | Stopwatch Beta","protocol":17,"map":"cp_granary","folder":"tf","game":"Team Fortress","app_id":440,"player_count":0,"max_players":24,"Bots":0,"server_type":"Dedicated","server_os":"Linux","password":true,"vac":true,"version":"7932396","steam_id":85568392924510199,"keywords":["cp","nocrits","nodmgspread","uncletopia"],"game_id":440,"stv_port":27046,"stv_name":"Uncletopia | Los Angeles | 4 | Stopwatch Beta | STV","players":null},{"server_id":11,"name":"Uncletopia | London | 1 | All Maps","name_short":"lon-1","host":"lon-1.uk.uncletopia.com","port":27015,"enabled":true,"region":"eu","cc":"gb","latitude":51.509865,"longitude":-0.118092,"reserved":0,"last_update":"0001-01-01T00:00:00Z","name_a2s":"Uncletopia | London | 1 | All Maps","protocol":17,"map":"koth_cascade","folder":"tf","game":"Team Fortress","app_id":440,"player_count":0,"max_players":24,"Bots":0,"server_type":"Dedicated","server_os":"Linux","password":true,"vac":true,"version":"7932396","steam_id":85568392924367362,"keywords":["cp","nocrits","nodmgspread","uncletopia"],"game_id":440,"stv_port":27016,"stv_name":"Uncletopia | London | 1 | All Maps | STV","players":null},{"server_id":114,"name":"Uncletopia | London | 2 | All Maps","name_short":"lon-2","host":"lon-1.uk.uncletopia.com","port":27025,"enabled":true,"region":"eu","cc":"gb","latitude":51.509865,"longitude":-0.118092,"reserved":0,"last_update":"0001-01-01T00:00:00Z","name_a2s":"Uncletopia | London | 2 | All Maps","protocol":17,"map":"koth_highpass","folder":"tf","game":"Team Fortress","app_id":440,"player_count":0,"max_players":24,"Bots":0,"server_type":"Dedicated","server_os":"Linux","password":true,"vac":true,"version":"7932396","steam_id":85568392924470941,"keywords":["cp","nocrits","nodmgspread","uncletopia"],"game_id":440,"stv_port":27026,"stv_name":"Uncletopia | London | 2 | All Maps | STV","players":null},{"server_id":320,"name":"Uncletopia | London | 3 | All Maps","name_short":"lon-3","host":"lon-1.uk.uncletopia.com","port":27035,"enabled":true,"region":"eu","cc":"gb","latitude":51.509865,"longitude":-0.118092,"reserved":0,"last_update":"0001-01-01T00:00:00Z","name_a2s":"Uncletopia | London | 3 | All Maps","protocol":17,"map":"cp_altitude","folder":"tf","game":"Team Fortress","app_id":440,"player_count":0,"max_players":24,"Bots":0,"server_type":"Dedicated","server_os":"Linux","password":true,"vac":true,"version":"7932396","steam_id":85568392924510192,"keywords":["cp","nocrits","nodmgspread","uncletopia"],"game_id":440,"stv_port":27036,"stv_name":"Uncletopia | London | 3 | All Maps | STV","players":null},{"server_id":321,"name":"Uncletopia | London | 4 | All Maps","name_short":"lon-4","host":"lon-1.uk.uncletopia.com","port":27045,"enabled":true,"region":"eu","cc":"gb","latitude":51.509865,"longitude":-0.118092,"reserved":0,"last_update":"0001-01-01T00:00:00Z","name_a2s":"Uncletopia | London | 4 | All Maps","protocol":17,"map":"pl_snowycoast","folder":"tf","game":"Team Fortress","app_id":440,"player_count":23,"max_players":24,"Bots":0,"server_type":"Dedicated","server_os":"Linux","password":true,"vac":true,"version":"7932396","steam_id":85568392924510193,"keywords":["nocrits","nodmgspread","payload","uncletopia"],"game_id":440,"stv_port":27046,"stv_name":"Uncletopia | London | 4 | All Maps | STV","players":[{"user_id":62,"name":"voco","steam_id":76561198179250642,"connected_time":4864000000000,"state":"active","ping":118},{"user_id":118,"name":"thekoolest88","steam_id":76561199022415672,"connected_time":1590000000000,"state":"active","ping":139},{"user_id":108,"name":"big naked bruh","steam_id":76561199179040672,"connected_time":2748000000000,"state":"active","ping":46},{"user_id":112,"name":"Twin Ih","steam_id":76561198159968450,"connected_time":2503000000000,"state":"active","ping":90},{"user_id":121,"name":"Neimon","steam_id":76561198343485710,"connected_time":919000000000,"state":"active","ping":125},{"user_id":75,"name":"levnemcev","steam_id":76561198057205970,"connected_time":4142000000000,"state":"active","ping":84},{"user_id":129,"name":"sol316","steam_id":76561198242607954,"connected_time":642000000000,"state":"active","ping":60},{"user_id":125,"name":"Jerryx01","steam_id":76561198145236247,"connected_time":857000000000,"state":"active","ping":71},{"user_id":117,"name":"S E X P R E S I D E N T","steam_id":76561198139714370,"connected_time":1773000000000,"state":"active","ping":69},{"user_id":122,"name":"scott steiners strongest warrio","steam_id":76561198148888622,"connected_time":918000000000,"state":"active","ping":56},{"user_id":128,"name":"Holo","steam_id":76561198348567663,"connected_time":666000000000,"state":"active","ping":75},{"user_id":130,"name":"yeldad","steam_id":76561198447264153,"connected_time":622000000000,"state":"active","ping":118},{"user_id":133,"name":"Cookies and Bakies","steam_id":76561198017442928,"connected_time":66000000000,"state":"active","ping":66},{"user_id":126,"name":"We're Just Normal Men","steam_id":76561197962053375,"connected_time":831000000000,"state":"active","ping":49},{"user_id":40,"name":"BoxLag","steam_id":76561198303995144,"connected_time":7226000000000,"state":"active","ping":48},{"user_id":61,"name":"aki","steam_id":76561198997320513,"connected_time":4925000000000,"state":"active","ping":62},{"user_id":134,"name":"\"w\"esley \"s\"o","steam_id":76561199415989636,"connected_time":66000000000,"state":"active","ping":90},{"user_id":103,"name":"BONVH","steam_id":76561199080666656,"connected_time":2963000000000,"state":"active","ping":130},{"user_id":123,"name":"Jagad","steam_id":76561199468174681,"connected_time":907000000000,"state":"active","ping":85},{"user_id":127,"name":"Tyler J","steam_id":76561198358666346,"connected_time":809000000000,"state":"active","ping":90},{"user_id":119,"name":"peee pee man","steam_id":76561198044979205,"connected_time":1590000000000,"state":"active","ping":126},{"user_id":90,"name":"üÉî Katarina","steam_id":76561198065652251,"connected_time":3683000000000,"state":"active","ping":48},{"user_id":114,"name":"seigfried","steam_id":76561198047260133,"connected_time":2132000000000,"state":"active","ping":80}]},{"server_id":21,"name":"Uncletopia | London | 5 | All Maps","name_short":"lon-5","host":"lon-1.uk.uncletopia.com","port":27055,"enabled":true,"region":"eu","cc":"gb","latitude":51.509865,"longitude":-0.118092,"reserved":0,"last_update":"0001-01-01T00:00:00Z","name_a2s":"Uncletopia | London | 5 | All Maps","protocol":17,"map":"pl_borneo","folder":"tf","game":"Team Fortress","app_id":440,"player_count":0,"max_players":24,"Bots":0,"server_type":"Dedicated","server_os":"Linux","password":true,"vac":true,"version":"7932396","steam_id":85568392924742829,"keywords":["nocrits","nodmgspread","payload","uncletopia"],"game_id":440,"stv_port":27056,"stv_name":"Uncletopia | London | 5 | All Maps | STV","players":null},{"server_id":22,"name":"Uncletopia | London | 6 | All Maps","name_short":"lon-6","host":"lon-1.uk.uncletopia.com","port":27065,"enabled":true,"region":"eu","cc":"gb","latitude":51.509865,"longitude":-0.118092,"reserved":0,"last_update":"0001-01-01T00:00:00Z","name_a2s":"Uncletopia | London | 6 | All Maps","protocol":17,"map":"cp_mountainlab","folder":"tf","game":"Team Fortress","app_id":440,"player_count":0,"max_players":24,"Bots":0,"server_type":"Dedicated","server_os":"Linux","password":true,"vac":true,"version":"7932396","steam_id":85568392924742830,"keywords":["cp","nocrits","nodmgspread","uncletopia"],"game_id":440,"stv_port":27066,"stv_name":"Uncletopia | London | 6 | All Maps | STV","players":null},{"server_id":40,"name":"Uncletopia | London | 7 | No Payload","name_short":"lon-7","host":"lon-1.uk.uncletopia.com","port":27075,"enabled":true,"region":"eu","cc":"gb","latitude":51.509865,"longitude":-0.118092,"reserved":0,"last_update":"0001-01-01T00:00:00Z","name_a2s":"Uncletopia | London | 7 | No Payload","protocol":17,"map":"pl_snowycoast","folder":"tf","game":"Team Fortress","app_id":440,"player_count":0,"max_players":24,"Bots":0,"server_type":"Dedicated","server_os":"Linux","password":true,"vac":true,"version":"7932396","steam_id":85568392924964314,"keywords":["nocrits","nodmgspread","payload","uncletopia"],"game_id":440,"stv_port":27076,"stv_name":"Uncletopia | London | 7 | No Payload | STV","players":null},{"server_id":41,"name":"Uncletopia | London | 8 | Community","name_short":"lon-8","host":"lon-1.uk.uncletopia.com","port":27085,"enabled":true,"region":"eu","cc":"gb","latitude":51.509865,"longitude":-0.118092,"reserved":0,"last_update":"0001-01-01T00:00:00Z","name_a2s":"Uncletopia | London | 8 | Community","protocol":17,"map":"pl_barnblitz","folder":"tf","game":"Team Fortress","app_id":440,"player_count":0,"max_players":24,"Bots":0,"server_type":"Dedicated","server_os":"Linux","password":true,"vac":true,"version":"7932396","steam_id":85568392924964315,"keywords":["nocrits","nodmgspread","payload","uncletopia"],"game_id":440,"stv_port":27086,"stv_name":"Uncletopia | London | 8 | Community | STV","players":null},{"server_id":300,"name":"Uncletopia | Montr√©al | 1 | All Maps","name_short":"mtl-1","host":"mtl-1.ca.uncletopia.com","port":27015,"enabled":true,"region":"us-east","cc":"ca","latitude":45.50889,"longitude":-73.56167,"reserved":0,"last_update":"0001-01-01T00:00:00Z","name_a2s":"Uncletopia | Montr√©al | 1 | All Maps","protocol":17,"map":"koth_cascade","folder":"tf","game":"Team Fortress","app_id":440,"player_count":0,"max_players":24,"Bots":0,"server_type":"Dedicated","server_os":"Linux","password":true,"vac":true,"version":"7932396","steam_id":85568392924500087,"keywords":["cp","nocrits","nodmgspread","uncletopia"],"game_id":440,"stv_port":27016,"stv_name":"Uncletopia | Montr√©al | 1 | All Maps | STV","players":null},{"server_id":301,"name":"Uncletopia | Montr√©al | 2 | All Maps","name_short":"mtl-2","host":"mtl-1.ca.uncletopia.com","port":27025,"enabled":true,"region":"us-east","cc":"ca","latitude":45.50889,"longitude":-73.56167,"reserved":0,"last_update":"0001-01-01T00:00:00Z","name_a2s":"Uncletopia | Montr√©al | 2 | All Maps","protocol":17,"map":"cp_altitude","folder":"tf","game":"Team Fortress","app_id":440,"player_count":0,"max_players":24,"Bots":0,"server_type":"Dedicated","server_os":"Linux","password":true,"vac":true,"version":"7932396","steam_id":85568392924500088,"keywords":["cp","nocrits","nodmgspread","uncletopia"],"game_id":440,"stv_port":27026,"stv_name":"Uncletopia | Montr√©al | 2 | All Maps | STV","players":null},{"server_id":302,"name":"Uncletopia | Montr√©al | 3 | All Maps","name_short":"mtl-3","host":"mtl-1.ca.uncletopia.com","port":27035,"enabled":true,"region":"us-east","cc":"ca","latitude":45.50889,"longitude":-73.56167,"reserved":0,"last_update":"0001-01-01T00:00:00Z","name_a2s":"Uncletopia | Montr√©al | 3 | All Maps","protocol":17,"map":"pl_swiftwater_final1","folder":"tf","game":"Team Fortress","app_id":440,"player_count":0,"max_players":24,"Bots":0,"server_type":"Dedicated","server_os":"Linux","password":true,"vac":true,"version":"7932396","steam_id":85568392924500089,"keywords":["nocrits","nodmgspread","payload","uncletopia"],"game_id":440,"stv_port":27036,"stv_name":"Uncletopia | Montr√©al | 3 | All Maps | STV","players":null},{"server_id":303,"name":"Uncletopia | Montr√©al | 4 | No Payload","name_short":"mtl-4","host":"mtl-1.ca.uncletopia.com","port":27045,"enabled":true,"region":"us-east","cc":"ca","latitude":45.50889,"longitude":-73.56167,"reserved":0,"last_update":"0001-01-01T00:00:00Z","name_a2s":"Uncletopia | Montr√©al | 4 | No Payload","protocol":17,"map":"cp_standin_final","folder":"tf","game":"Team Fortress","app_id":440,"player_count":0,"max_players":24,"Bots":0,"server_type":"Dedicated","server_os":"Linux","password":true,"vac":true,"version":"7932396","steam_id":85568392924500090,"keywords":["cp","nocrits","nodmgspread","uncletopia"],"game_id":440,"stv_port":27046,"stv_name":"Uncletopia | Montr√©al | 4 | No Payload | STV","players":null},{"server_id":13,"name":"Uncletopia | New York City | 1 | All Maps","name_short":"nyc-1","host":"nyc-1.us.uncletopia.com","port":27015,"enabled":true,"region":"us-east","cc":"us","latitude":40.73061,"longitude":-73.93524,"reserved":0,"last_update":"0001-01-01T00:00:00Z","name_a2s":"Uncletopia | New York City | 1 | All Maps","protocol":17,"map":"cp_mountainlab","folder":"tf","game":"Team Fortress","app_id":440,"player_count":0,"max_players":24,"Bots":0,"server_type":"Dedicated","server_os":"Linux","password":true,"vac":true,"version":"7932396","steam_id":85568392924469993,"keywords":["cp","nocrits","nodmgspread","uncletopia"],"game_id":440,"stv_port":27016,"stv_name":"Uncletopia | New York City | 1 | All Maps | STV","players":null},{"server_id":14,"name":"Uncletopia | New York City | 2 | All Maps","name_short":"nyc-2","host":"nyc-1.us.uncletopia.com","port":27025,"enabled":true,"region":"us-east","cc":"us","latitude":40.73061,"longitude":-73.93524,"reserved":0,"last_update":"0001-01-01T00:00:00Z","name_a2s":"Uncletopia | New York City | 2 | All Maps","protocol":17,"map":"pl_frontier_final","folder":"tf","game":"Team Fortress","app_id":440,"player_count":2,"max_players":24,"Bots":0,"server_type":"Dedicated","server_os":"Linux","password":true,"vac":true,"version":"7932396","steam_id":85568392924469994,"keywords":["nocrits","nodmgspread","payload","uncletopia"],"game_id":440,"stv_port":27026,"stv_name":"Uncletopia | New York City | 2 | All Maps | STV","players":[{"user_id":357,"name":"BluNight","steam_id":76561198037116567,"connected_time":1554000000000,"state":"active","ping":114},{"user_id":356,"name":"papersamurai","steam_id":76561198313608698,"connected_time":1783000000000,"state":"active","ping":62}]},{"server_id":15,"name":"Uncletopia | New York City | 3 | Stopwatch Beta","name_short":"nyc-3","host":"nyc-1.us.uncletopia.com","port":27035,"enabled":true,"region":"us-east","cc":"us","latitude":40.73061,"longitude":-73.93524,"reserved":0,"last_update":"0001-01-01T00:00:00Z","name_a2s":"Uncletopia | New York City | 3 | Stopwatch Beta","protocol":17,"map":"workshop/koth_ashville_final.ugc2130459942","folder":"tf","game":"Team Fortress","app_id":440,"player_count":0,"max_players":24,"Bots":0,"server_type":"Dedicated","server_os":"Linux","password":true,"vac":true,"version":"7932396","steam_id":85568392924742820,"keywords":["cp","nocrits","nodmgspread","uncletopia"],"game_id":440,"stv_port":27036,"stv_name":"Uncletopia | New York City | 3 | Stopwatch Beta | STV","players":null},{"server_id":16,"name":"Uncletopia | New York City | 4 | Community","name_short":"nyc-4","host":"nyc-1.us.uncletopia.com","port":27045,"enabled":true,"region":"us-east","cc":"us","latitude":40.73061,"longitude":-73.93524,"reserved":0,"last_update":"0001-01-01T00:00:00Z","name_a2s":"Uncletopia | New York City | 4 | Community","protocol":17,"map":"workshop/cp_logjam_rc12.ugc454812035","folder":"tf","game":"Team Fortress","app_id":440,"player_count":0,"max_players":24,"Bots":0,"server_type":"Dedicated","server_os":"Linux","password":true,"vac":true,"version":"7932396","steam_id":85568392924742821,"keywords":["cp","nocrits","nodmgspread","uncletopia"],"game_id":440,"stv_port":27046,"stv_name":"Uncletopia | New York City | 4 | Community | STV","players":null},{"server_id":142,"name":"Uncletopia | S√£o Paulo | 1 | All Maps","name_short":"sao-1","host":"sao-1.br.uncletopia.com","port":27015,"enabled":true,"region":"sa","cc":"br","latitude":-23.533773,"longitude":-46.62529,"reserved":0,"last_update":"0001-01-01T00:00:00Z","name_a2s":"Uncletopia | S√£o Paulo | 1 | All Maps","protocol":17,"map":"cp_dustbowl","folder":"tf","game":"Team Fortress","app_id":440,"player_count":0,"max_players":24,"Bots":0,"server_type":"Dedicated","server_os":"Linux","password":true,"vac":true,"version":"7932396","steam_id":85568392924469996,"keywords":["cp","nocrits","nodmgspread","uncletopia"],"game_id":440,"stv_port":27016,"stv_name":"Uncletopia | S√£o Paulo | 1 | All Maps | STV","players":null},{"server_id":143,"name":"Uncletopia | S√£o Paulo | 2 | All Maps","name_short":"sao-2","host":"sao-2.br.uncletopia.com","port":27015,"enabled":true,"region":"sa","cc":"br","latitude":-23.533773,"longitude":-46.62529,"reserved":0,"last_update":"0001-01-01T00:00:00Z","name_a2s":"Uncletopia | S√£o Paulo | 2 | All Maps","protocol":17,"map":"pl_badwater","folder":"tf","game":"Team Fortress","app_id":440,"player_count":0,"max_players":24,"Bots":0,"server_type":"Dedicated","server_os":"Linux","password":true,"vac":true,"version":"7932396","steam_id":85568392924485349,"keywords":["nocrits","nodmgspread","payload","uncletopia"],"game_id":440,"stv_port":27016,"stv_name":"Uncletopia | S√£o Paulo | 2 | All Maps | STV","players":null},{"server_id":7,"name":"Uncletopia | Seattle | 1 | All Maps","name_short":"sea-1","host":"sea-1.us.uncletopia.com","port":27015,"enabled":true,"region":"us-west","cc":"us","latitude":47.608013,"longitude":-122.33517,"reserved":0,"last_update":"0001-01-01T00:00:00Z","name_a2s":"Uncletopia | Seattle | 1 | All Maps","protocol":17,"map":"pl_upward","folder":"tf","game":"Team Fortress","app_id":440,"player_count":24,"max_players":24,"Bots":0,"server_type":"Dedicated","server_os":"Linux","password":true,"vac":true,"version":"7932396","steam_id":85568392924469997,"keywords":["nocrits","nodmgspread","payload","uncletopia"],"game_id":440,"stv_port":27016,"stv_name":"Uncletopia | Seattle | 1 | All Maps | STV","players":[{"user_id":885,"name":"reiidaya","steam_id":76561198325306660,"connected_time":1305000000000,"state":"active","ping":51},{"user_id":897,"name":"gorlab","steam_id":76561198025089694,"connected_time":944000000000,"state":"active","ping":60},{"user_id":850,"name":"jumbi!","steam_id":76561198353456379,"connected_time":4079000000000,"state":"active","ping":74},{"user_id":904,"name":"Boobie and vagene","steam_id":76561198078464924,"connected_time":540000000000,"state":"active","ping":45},{"user_id":871,"name":"thunderous prophet","steam_id":76561198131166135,"connected_time":2914000000000,"state":"active","ping":38},{"user_id":842,"name":"Arsonist Goose","steam_id":76561198147441830,"connected_time":4397000000000,"state":"active","ping":70},{"user_id":893,"name":"saber","steam_id":76561198059041027,"connected_time":1161000000000,"state":"active","ping":55},{"user_id":781,"name":"rat gets the cheese","steam_id":76561198031234032,"connected_time":11955000000000,"state":"active","ping":100},{"user_id":886,"name":"[TrC] Nosy","steam_id":76561197978859310,"connected_time":1305000000000,"state":"active","ping":61},{"user_id":898,"name":"Scorpianswag","steam_id":76561198260651036,"connected_time":936000000000,"state":"active","ping":75},{"user_id":867,"name":"Florist","steam_id":76561198009121060,"connected_time":3060000000000,"state":"active","ping":45},{"user_id":900,"name":"roryisveryoutofit","steam_id":76561198065825165,"connected_time":903000000000,"state":"active","ping":121},{"user_id":901,"name":"Starkiller","steam_id":76561198101643120,"connected_time":892000000000,"state":"active","ping":97},{"user_id":869,"name":"NEBULA","steam_id":76561198086878595,"connected_time":2946000000000,"state":"active","ping":105},{"user_id":866,"name":"Finkly","steam_id":76561198049828110,"connected_time":3280000000000,"state":"active","ping":47},{"user_id":887,"name":"delight","steam_id":76561197980280272,"connected_time":1301000000000,"state":"active","ping":48},{"user_id":865,"name":"never knows best","steam_id":76561197989933601,"connected_time":3281000000000,"state":"active","ping":56},{"user_id":868,"name":"im mr ____hed look at me","steam_id":76561198051751133,"connected_time":3039000000000,"state":"active","ping":60},{"user_id":879,"name":"tetrapyrgos","steam_id":76561198169755734,"connected_time":1589000000000,"state":"active","ping":98},{"user_id":880,"name":"mike, 2.4 GPA","steam_id":76561198225411004,"connected_time":1508000000000,"state":"active","ping":71},{"user_id":882,"name":"[TrC] Dackstrus","steam_id":76561197973518509,"connected_time":1318000000000,"state":"active","ping":61},{"user_id":903,"name":"jorts","steam_id":76561199041179985,"connected_time":850000000000,"state":"active","ping":61},{"user_id":870,"name":"resh","steam_id":76561198239598834,"connected_time":2946000000000,"state":"active","ping":137},{"user_id":876,"name":"Yesmar","steam_id":76561198236328806,"connected_time":1882000000000,"state":"active","ping":121}]},{"server_id":119,"name":"Uncletopia | Seattle | 2 | All Maps","name_short":"sea-2","host":"sea-1.us.uncletopia.com","port":27025,"enabled":true,"region":"us-west","cc":"us","latitude":47.608013,"longitude":-122.33517,"reserved":0,"last_update":"0001-01-01T00:00:00Z","name_a2s":"Uncletopia | Seattle | 2 | All Maps","protocol":17,"map":"koth_viaduct","folder":"tf","game":"Team Fortress","app_id":440,"player_count":0,"max_players":24,"Bots":0,"server_type":"Dedicated","server_os":"Linux","password":true,"vac":true,"version":"7932396","steam_id":85568392924469998,"keywords":["cp","nocrits","nodmgspread","uncletopia"],"game_id":440,"stv_port":27026,"stv_name":"Uncletopia | Seattle | 2 | All Maps | STV","players":null},{"server_id":406,"name":"Uncletopia | Seattle | 3 | Stopwatch Beta","name_short":"sea-3","host":"sea-1.us.uncletopia.com","port":27035,"enabled":true,"region":"us-west","cc":"us","latitude":47.608013,"longitude":-122.33517,"reserved":0,"last_update":"0001-01-01T00:00:00Z","name_a2s":"Uncletopia | Seattle | 3 | Stopwatch Beta","protocol":17,"map":"pl_borneo","folder":"tf","game":"Team Fortress","app_id":440,"player_count":0,"max_players":24,"Bots":0,"server_type":"Dedicated","server_os":"Linux","password":true,"vac":true,"version":"7932396","steam_id":85568392924515217,"keywords":["nocrits","nodmgspread","payload","uncletopia"],"game_id":440,"stv_port":27036,"stv_name":"Uncletopia | Seattle | 3 | Stopwatch Beta | STV","players":null},{"server_id":17,"name":"Uncletopia | San Francisco | 1 | All Maps","name_short":"sfo-1","host":"sfo-1.us.uncletopia.com","port":27015,"enabled":true,"region":"us-west","cc":"us","latitude":37.77397,"longitude":-122.4313,"reserved":0,"last_update":"0001-01-01T00:00:00Z","name_a2s":"Uncletopia | San Francisco | 1 | All Maps","protocol":17,"map":"cp_process_final","folder":"tf","game":"Team Fortress","app_id":440,"player_count":0,"max_players":24,"Bots":0,"server_type":"Dedicated","server_os":"Linux","password":true,"vac":true,"version":"7932396","steam_id":85568392924469999,"keywords":["cp","nocrits","nodmgspread","uncletopia"],"game_id":440,"stv_port":27016,"stv_name":"Uncletopia | San Francisco | 1 | All Maps | STV","players":null},{"server_id":18,"name":"Uncletopia | San Francisco | 2 | All Maps","name_short":"sfo-2","host":"sfo-1.us.uncletopia.com","port":27025,"enabled":true,"region":"us-west","cc":"us","latitude":37.77397,"longitude":-122.4313,"reserved":0,"last_update":"0001-01-01T00:00:00Z","name_a2s":"Uncletopia | San Francisco | 2 | All Maps","protocol":17,"map":"pl_pier","folder":"tf","game":"Team Fortress","app_id":440,"player_count":23,"max_players":24,"Bots":0,"server_type":"Dedicated","server_os":"Linux","password":true,"vac":true,"version":"7932396","steam_id":85568392924470000,"keywords":["nocrits","nodmgspread","payload","uncletopia"],"game_id":440,"stv_port":27026,"stv_name":"Uncletopia | San Francisco | 2 | All Maps | STV","players":[{"user_id":356,"name":"not jeff bezos","steam_id":76561198018177887,"connected_time":816000000000,"state":"active","ping":42},{"user_id":309,"name":"OctraSource","steam_id":76561198193630455,"connected_time":3476000000000,"state":"active","ping":55},{"user_id":350,"name":"FI LO","steam_id":76561198976530881,"connected_time":1002000000000,"state":"active","ping":45},{"user_id":374,"name":"Tanner The Fish Man","steam_id":76561198372696640,"connected_time":120000000000,"state":"active","ping":60},{"user_id":354,"name":"Bheem","steam_id":76561198170453459,"connected_time":966000000000,"state":"active","ping":57},{"user_id":373,"name":"Bing Soy","steam_id":76561199091381775,"connected_time":172000000000,"state":"active","ping":70},{"user_id":337,"name":"owie","steam_id":76561198858474714,"connected_time":2049000000000,"state":"active","ping":65},{"user_id":355,"name":"joubrou.13","steam_id":76561198208567991,"connected_time":945000000000,"state":"active","ping":139},{"user_id":313,"name":"mina","steam_id":76561198881665250,"connected_time":3304000000000,"state":"active","ping":69},{"user_id":358,"name":"smeasly","steam_id":76561198028718812,"connected_time":754000000000,"state":"active","ping":60},{"user_id":327,"name":"Viren","steam_id":76561198012636897,"connected_time":2446000000000,"state":"active","ping":77},{"user_id":370,"name":"BurritoCat","steam_id":76561198059822805,"connected_time":220000000000,"state":"active","ping":130},{"user_id":360,"name":"Mozz","steam_id":76561198132892873,"connected_time":670000000000,"state":"active","ping":66},{"user_id":361,"name":"‚éù‚ßπMythicalTwinkie‚ß∏‚é†","steam_id":76561198167969738,"connected_time":651000000000,"state":"active","ping":70},{"user_id":328,"name":"Omegashart","steam_id":76561198209393060,"connected_time":2392000000000,"state":"active","ping":75},{"user_id":348,"name":"PocketTieAMPLFY","steam_id":76561199080485881,"connected_time":1247000000000,"state":"active","ping":144},{"user_id":363,"name":"Jimbo","steam_id":76561198082238388,"connected_time":607000000000,"state":"active","ping":87},{"user_id":332,"name":"rock gaming","steam_id":76561199402868311,"connected_time":2259000000000,"state":"active","ping":70},{"user_id":283,"name":"Defeat","steam_id":76561198065203818,"connected_time":5327000000000,"state":"active","ping":59},{"user_id":366,"name":"Jolly Wolly","steam_id":76561198087571347,"connected_time":300000000000,"state":"active","ping":67},{"user_id":345,"name":"VELOURIA","steam_id":76561198116550170,"connected_time":1471000000000,"state":"active","ping":48},{"user_id":372,"name":"Zippy","steam_id":76561198279229422,"connected_time":197000000000,"state":"active","ping":127},{"user_id":347,"name":"sandman","steam_id":76561198144772540,"connected_time":1271000000000,"state":"active","ping":93}]},{"server_id":19,"name":"Uncletopia | San Francisco | 3 | Stopwatch Beta","name_short":"sfo-3","host":"sfo-1.us.uncletopia.com","port":27035,"enabled":true,"region":"us-west","cc":"us","latitude":37.77397,"longitude":-122.4313,"reserved":0,"last_update":"0001-01-01T00:00:00Z","name_a2s":"Uncletopia | San Francisco | 3 | Stopwatch Beta","protocol":17,"map":"workshop/koth_product_final.ugc454272353","folder":"tf","game":"Team Fortress","app_id":440,"player_count":0,"max_players":24,"Bots":0,"server_type":"Dedicated","server_os":"Linux","password":true,"vac":true,"version":"7932396","steam_id":85568392924742824,"keywords":["cp","nocrits","nodmgspread","uncletopia"],"game_id":440,"stv_port":27036,"stv_name":"Uncletopia | San Francisco | 3 | Stopwatch Beta | STV","players":null},{"server_id":20,"name":"Uncletopia | San Francisco | 4 | Community","name_short":"sfo-4","host":"sfo-1.us.uncletopia.com","port":27045,"enabled":true,"region":"us-west","cc":"us","latitude":37.77397,"longitude":-122.4313,"reserved":0,"last_update":"0001-01-01T00:00:00Z","name_a2s":"Uncletopia | San Francisco | 4 | Community","protocol":17,"map":"workshop/koth_kemptown_rc1.ugc767410655","folder":"tf","game":"Team Fortress","app_id":440,"player_count":0,"max_players":24,"Bots":0,"server_type":"Dedicated","server_os":"Linux","password":true,"vac":true,"version":"7932396","steam_id":85568392924742826,"keywords":["cp","nocrits","nodmgspread","uncletopia"],"game_id":440,"stv_port":27046,"stv_name":"Uncletopia | San Francisco | 4 | Community | STV","players":null},{"server_id":141,"name":"Uncletopia | Sydney | 1 | All Maps","name_short":"syd-1","host":"syd-1.au.uncletopia.com","port":27015,"enabled":true,"region":"au","cc":"au","latitude":-33.865143,"longitude":151.2099,"reserved":0,"last_update":"0001-01-01T00:00:00Z","name_a2s":"Uncletopia | Sydney | 1 | All Maps","protocol":17,"map":"pl_badwater","folder":"tf","game":"Team Fortress","app_id":440,"player_count":24,"max_players":24,"Bots":0,"server_type":"Dedicated","server_os":"Linux","password":true,"vac":true,"version":"7932396","steam_id":85568392924470001,"keywords":["nocrits","nodmgspread","payload","uncletopia"],"game_id":440,"stv_port":27016,"stv_name":"Uncletopia | Sydney | 1 | All Maps | STV","players":[{"user_id":135,"name":"Dokt√≥r","steam_id":76561198302841509,"connected_time":2740000000000,"state":"active","ping":59},{"user_id":109,"name":"Marmalade Cat","steam_id":76561198086309767,"connected_time":4977000000000,"state":"active","ping":69},{"user_id":145,"name":"Rodan","steam_id":76561198038401873,"connected_time":1851000000000,"state":"active","ping":89},{"user_id":161,"name":"Chops","steam_id":76561198071178936,"connected_time":473000000000,"state":"active","ping":100},{"user_id":167,"name":"Seedage","steam_id":76561199088810459,"connected_time":73000000000,"state":"active","ping":109},{"user_id":150,"name":"jim :)","steam_id":76561198127508905,"connected_time":1578000000000,"state":"active","ping":37},{"user_id":100,"name":"no teles 4 u","steam_id":76561198018478297,"connected_time":5482000000000,"state":"active","ping":74},{"user_id":164,"name":"Okie Dokie","steam_id":76561198125237921,"connected_time":126000000000,"state":"active","ping":50},{"user_id":140,"name":"BigLadBoyga","steam_id":76561198985263763,"connected_time":2637000000000,"state":"active","ping":76},{"user_id":157,"name":"lynx","steam_id":76561198940833932,"connected_time":904000000000,"state":"active","ping":86},{"user_id":130,"name":"Doctor Estonia","steam_id":76561198057365089,"connected_time":3289000000000,"state":"active","ping":81},{"user_id":81,"name":"squrrel","steam_id":76561198083429611,"connected_time":6719000000000,"state":"active","ping":45},{"user_id":141,"name":"Dr Vinnie Boombotz","steam_id":76561198062311556,"connected_time":2388000000000,"state":"active","ping":55},{"user_id":149,"name":"michael","steam_id":76561198052848358,"connected_time":1602000000000,"state":"active","ping":62},{"user_id":143,"name":"cakey","steam_id":76561198173746761,"connected_time":1879000000000,"state":"active","ping":56},{"user_id":151,"name":"42","steam_id":76561198184593855,"connected_time":1194000000000,"state":"active","ping":43},{"user_id":120,"name":"horrid webbon ·òõ‚ÅêÃ§·ïê·ê∑","steam_id":76561198061998379,"connected_time":4558000000000,"state":"active","ping":46},{"user_id":165,"name":"chonk","steam_id":76561198002924796,"connected_time":118000000000,"state":"active","ping":54},{"user_id":160,"name":"Owlenstein‚Ñ¢","steam_id":76561198093983826,"connected_time":667000000000,"state":"active","ping":117},{"user_id":162,"name":"Toaster Lad","steam_id":76561199070168033,"connected_time":325000000000,"state":"active","ping":61},{"user_id":166,"name":"theory haver","steam_id":76561198133867907,"connected_time":97000000000,"state":"active","ping":65},{"user_id":132,"name":"Fleetfoot","steam_id":76561198072845816,"connected_time":3027000000000,"state":"active","ping":58},{"user_id":158,"name":"maso","steam_id":76561199213969854,"connected_time":683000000000,"state":"active","ping":87},{"user_id":154,"name":"wackel","steam_id":76561198091003826,"connected_time":1130000000000,"state":"active","ping":62}]},{"server_id":123,"name":"Uncletopia | Sydney | 2 | All Maps","name_short":"syd-2","host":"syd-1.au.uncletopia.com","port":27025,"enabled":true,"region":"au","cc":"au","latitude":-33.865143,"longitude":151.2099,"reserved":0,"last_update":"0001-01-01T00:00:00Z","name_a2s":"Uncletopia | Sydney | 2 | All Maps","protocol":17,"map":"koth_highpass","folder":"tf","game":"Team Fortress","app_id":440,"player_count":0,"max_players":24,"Bots":0,"server_type":"Dedicated","server_os":"Linux","password":true,"vac":true,"version":"7932396","steam_id":85568392924470002,"keywords":["cp","nocrits","nodmgspread","uncletopia"],"game_id":440,"stv_port":27026,"stv_name":"Uncletopia | Sydney | 2 | All Maps | STV","players":null},{"server_id":395,"name":"Uncletopia | Sydney | 3 | All Maps","name_short":"syd-3","host":"syd-1.au.uncletopia.com","port":27035,"enabled":true,"region":"au","cc":"au","latitude":-33.865143,"longitude":151.2099,"reserved":0,"last_update":"0001-01-01T00:00:00Z","name_a2s":"Uncletopia | Sydney | 3 | All Maps","protocol":17,"map":"cp_mountainlab","folder":"tf","game":"Team Fortress","app_id":440,"player_count":0,"max_players":24,"Bots":0,"server_type":"Dedicated","server_os":"Linux","password":true,"vac":true,"version":"7932396","steam_id":85568392925194467,"keywords":["cp","nocrits","nodmgspread","uncletopia"],"game_id":440,"stv_port":27036,"stv_name":"Uncletopia | Sydney | 3 | All Maps | STV","players":null},{"server_id":396,"name":"Uncletopia | Sydney | 4 | All Maps","name_short":"syd-4","host":"syd-1.au.uncletopia.com","port":27045,"enabled":true,"region":"au","cc":"au","latitude":-33.865143,"longitude":151.2099,"reserved":0,"last_update":"0001-01-01T00:00:00Z","name_a2s":"Uncletopia | Sydney | 4 | All Maps","protocol":17,"map":"cp_sunshine","folder":"tf","game":"Team Fortress","app_id":440,"player_count":0,"max_players":24,"Bots":0,"server_type":"Dedicated","server_os":"Linux","password":true,"vac":true,"version":"7932396","steam_id":85568392925397958,"keywords":["cp","nocrits","nodmgspread","uncletopia"],"game_id":440,"stv_port":27046,"stv_name":"Uncletopia | Sydney | 4 | All Maps | STV","players":null},{"server_id":58,"name":"Uncletopia | Sydney | 5 | Stopwatch Beta","name_short":"syd-5","host":"syd-1.au.uncletopia.com","port":27055,"enabled":true,"region":"au","cc":"au","latitude":-33.865143,"longitude":151.2099,"reserved":0,"last_update":"0001-01-01T00:00:00Z","name_a2s":"Uncletopia | Sydney | 5 | Stopwatch Beta","protocol":17,"map":"pl_borneo","folder":"tf","game":"Team Fortress","app_id":440,"player_count":0,"max_players":24,"Bots":0,"server_type":"Dedicated","server_os":"Linux","password":true,"vac":true,"version":"7932396","steam_id":85568392925397959,"keywords":["nocrits","nodmgspread","payload","uncletopia"],"game_id":440,"stv_port":27056,"stv_name":"Uncletopia | Sydney | 5 | Stopwatch Beta | STV","players":null},{"server_id":59,"name":"Uncletopia | Sydney | 6 | Community","name_short":"syd-6","host":"syd-1.au.uncletopia.com","port":27065,"enabled":true,"region":"au","cc":"au","latitude":-33.865143,"longitude":151.2099,"reserved":0,"last_update":"0001-01-01T00:00:00Z","name_a2s":"Uncletopia | Sydney | 6 | Community","protocol":17,"map":"workshop/cp_glacier_rc6.ugc2905735376","folder":"tf","game":"Team Fortress","app_id":440,"player_count":0,"max_players":24,"Bots":0,"server_type":"Dedicated","server_os":"Linux","password":true,"vac":true,"version":"7932396","steam_id":85568392925397960,"keywords":["cp","nocrits","nodmgspread","uncletopia"],"game_id":440,"stv_port":27066,"stv_name":"Uncletopia | Sydney | 6 | Community | STV","players":null},{"server_id":49,"name":"Uncletopia | Warsaw | 1 | All Maps","name_short":"waw-1","host":"waw-1.pl.uncletopia.com","port":27015,"enabled":true,"region":"eu","cc":"pl","latitude":52.2297,"longitude":21.017532,"reserved":0,"last_update":"0001-01-01T00:00:00Z","name_a2s":"","protocol":0,"map":"","folder":"","game":"","app_id":0,"player_count":0,"max_players":0,"Bots":0,"server_type":"","server_os":"","password":false,"vac":false,"version":"","steam_id":0,"keywords":null,"game_id":0,"stv_port":0,"stv_name":"","players":null},{"server_id":50,"name":"Uncletopia | Warsaw | 2 | All Maps","name_short":"waw-2","host":"waw-1.pl.uncletopia.com","port":27025,"enabled":true,"region":"eu","cc":"pl","latitude":52.2297,"longitude":21.017532,"reserved":0,"last_update":"0001-01-01T00:00:00Z","name_a2s":"Uncletopia | Warsaw | 2 | All Maps","protocol":17,"map":"pl_badwater","folder":"tf","game":"Team Fortress","app_id":440,"player_count":0,"max_players":24,"Bots":0,"server_type":"Dedicated","server_os":"Linux","password":true,"vac":true,"version":"7932396","steam_id":85568392925397851,"keywords":["nocrits","nodmgspread","payload","uncletopia"],"game_id":440,"stv_port":27026,"stv_name":"Uncletopia | Warsaw | 2 | All Maps | STV","players":null},{"server_id":51,"name":"Uncletopia | Warsaw | 3 | All Maps","name_short":"waw-3","host":"waw-1.pl.uncletopia.com","port":27035,"enabled":true,"region":"eu","cc":"pl","latitude":52.2297,"longitude":21.017532,"reserved":0,"last_update":"0001-01-01T00:00:00Z","name_a2s":"Uncletopia | Warsaw | 3 | All Maps","protocol":17,"map":"koth_lakeside_final","folder":"tf","game":"Team Fortress","app_id":440,"player_count":0,"max_players":24,"Bots":0,"server_type":"Dedicated","server_os":"Linux","password":true,"vac":true,"version":"7932396","steam_id":85568392925397852,"keywords":["cp","nocrits","nodmgspread","uncletopia"],"game_id":440,"stv_port":27036,"stv_name":"Uncletopia | Warsaw | 3 | All Maps | STV","players":null},{"server_id":52,"name":"Uncletopia | Warsaw | 4 | All Maps","name_short":"waw-4","host":"waw-1.pl.uncletopia.com","port":27045,"enabled":true,"region":"eu","cc":"pl","latitude":52.2297,"longitude":21.017532,"reserved":0,"last_update":"0001-01-01T00:00:00Z","name_a2s":"Uncletopia | Warsaw | 4 | All Maps","protocol":17,"map":"pl_swiftwater_final1","folder":"tf","game":"Team Fortress","app_id":440,"player_count":0,"max_players":24,"Bots":0,"server_type":"Dedicated","server_os":"Linux","password":true,"vac":true,"version":"7932396","steam_id":85568392925397853,"keywords":["nocrits","nodmgspread","payload","uncletopia"],"game_id":440,"stv_port":27046,"stv_name":"Uncletopia | Warsaw | 4 | All Maps | STV","players":null},{"server_id":53,"name":"Uncletopia | Warsaw | 5 | Stopwatch Beta","name_short":"waw-5","host":"waw-1.pl.uncletopia.com","port":27055,"enabled":true,"region":"eu","cc":"pl","latitude":52.2297,"longitude":21.017532,"reserved":0,"last_update":"0001-01-01T00:00:00Z","name_a2s":"Uncletopia | Warsaw | 5 | Stopwatch Beta","protocol":17,"map":"koth_highpass","folder":"tf","game":"Team Fortress","app_id":440,"player_count":0,"max_players":24,"Bots":0,"server_type":"Dedicated","server_os":"Linux","password":true,"vac":true,"version":"7932396","steam_id":85568392925397854,"keywords":["cp","nocrits","nodmgspread","uncletopia"],"game_id":440,"stv_port":27056,"stv_name":"Uncletopia | Warsaw | 5 | Stopwatch Beta | STV","players":null},{"server_id":54,"name":"Uncletopia | Warsaw | 6 | Community","name_short":"waw-6","host":"waw-1.pl.uncletopia.com","port":27065,"enabled":true,"region":"eu","cc":"pl","latitude":52.2297,"longitude":21.017532,"reserved":0,"last_update":"0001-01-01T00:00:00Z","name_a2s":"Uncletopia | Warsaw | 6 | Community","protocol":17,"map":"pl_upward","folder":"tf","game":"Team Fortress","app_id":440,"player_count":0,"max_players":24,"Bots":0,"server_type":"Dedicated","server_os":"Linux","password":true,"vac":true,"version":"7932396","steam_id":85568392925397856,"keywords":["nocrits","nodmgspread","payload","uncletopia"],"game_id":440,"stv_port":27066,"stv_name":"Uncletopia | Warsaw | 6 | Community | STV","players":null}]}