{"status":true,"message":"","result":[{"server_id":9,"name":"Uncletopia | Atlanta | 1 | All Maps","name_short":"atl-1","host":"atl-1.us.uncletopia.com","port":27015,"enabled":true,"region":"us-east","cc":"us","latitude":33.753746,"longitude":-84.38633,"reserved":0,"last_update":"0001-01-01T00:00:00Z","name_a2s":"Uncletopia | Atlanta | 1 | All Maps","protocol":17,"map":"koth_nucleus","folder":"tf","game":"Team Fortress","app_id":440,"player_count":4,"max_players":24,"Bots":0,"server_type":"Dedicated","server_os":"Linux","password":true,"vac":true,"version":"7757534","steam_id":85568392924469982,"keywords":["cp","nocrits","nodmgspread","uncletopia"],"game_id":440,"stv_port":27016,"stv_name":"Uncletopia | Atlanta | 1 | All Maps | STV","players":[{"user_id":182,"name":"Shmoopy","steam_id":76561198030459152,"connected_time":664000000000,"state":"active","ping":51},{"user_id":174,"name":"Miramar","steam_id":76561198022057653,"connected_time":1908000000000,"state":"active","ping":76},{"user_id":187,"name":"illious","steam_id":76561198169925494,"connected_time":324000000000,"state":"active","ping":54},{"user_id":186,"name":"KoolBucky","steam_id":76561198147927648,"connected_time":335000000000,"state":"active","ping":56}]},{"server_id":400,"name":"Uncletopia | Atlanta | 3 | Stopwatch Beta","name_short":"atl-3","host":"atl-1.us.uncletopia.com","port":27035,"enabled":true,"region":"us-east","cc":"us","latitude":33.753746,"longitude":-84.38633,"reserved":0,"last_update":"0001-01-01T00:00:00Z","name_a2s":"Uncletopia | Atlanta | 3 | Stopwatch Beta","protocol":17,"map":"workshop/koth_ramjam_rc1.ugc459778887","folder":"tf","game":"Team Fortress","app_id":440,"player_count":0,"max_players":24,"Bots":0,"server_type":"Dedicated","server_os":"Linux","password":true,"vac":true,"version":"7757534","steam_id":85568392924515187,"keywords":["cp","nocrits","nodmgspread","uncletopia"],"game_id":440,"stv_port":27036,"stv_name":"Uncletopia | Atlanta | 3 | Stopwatch Beta | STV","players":null},{"server_id":401,"name":"Uncletopia | Atlanta | 4 | No Payload","name_short":"atl-4","host":"atl-1.us.uncletopia.com","port":27045,"enabled":true,"region":"us-east","cc":"us","latitude":33.753746,"longitude":-84.38633,"reserved":0,"last_update":"0001-01-01T00:00:00Z","name_a2s":"Uncletopia | Atlanta | 4 | No Payload","protocol":17,"map":"pl_pier","folder":"tf","game":"Team Fortress","app_id":440,"player_count":0,"max_players":24,"Bots":0,"server_type":"Dedicated","server_os":"Linux","password":true,"vac":true,"version":"7723704","steam_id":85568392924515188,"keywords":["nocrits","nodmgspread","payload","uncletopia"],"game_id":440,"stv_port":27046,"stv_name":"Uncletopia | Atlanta | 4 | No Payload | STV","players":null},{"server_id":2,"name":"Uncletopia | Chicago | 1 | All Maps","name_short":"chi-1","host":"chi-1.us.uncletopia.com","port":27015,"enabled":true,"region":"us-central","cc":"us","latitude":41.881832,"longitude":-87.62318,"reserved":0,"last_update":"0001-01-01T00:00:00Z","name_a2s":"Uncletopia | Chicago | 1 | All Maps","protocol":17,"map":"pl_upward","folder":"tf","game":"Team Fortress","app_id":440,"player_count":24,"max_players":24,"Bots":0,"server_type":"Dedicated","server_os":"Linux","password":true,"vac":true,"version":"7757534","steam_id":85568392924469984,"keywords":["nocrits","nodmgspread","payload","uncletopia"],"game_id":440,"stv_port":27016,"stv_name":"Uncletopia | Chicago | 1 | All Maps | STV","players":[{"user_id":291,"name":"swivelfest","steam_id":76561198845349737,"connected_time":646000000000,"state":"active","ping":147},{"user_id":294,"name":"gallowsCalibrator","steam_id":76561198404707578,"connected_time":570000000000,"state":"active","ping":64},{"user_id":209,"name":"PKBEAST_7","steam_id":76561198177136537,"connected_time":6053000000000,"state":"active","ping":88},{"user_id":255,"name":"NOLSEY","steam_id":76561198108959504,"connected_time":3268000000000,"state":"active","ping":50},{"user_id":284,"name":"High Plains Drifter","steam_id":76561198047398433,"connected_time":934000000000,"state":"active","ping":64},{"user_id":262,"name":"Spike","steam_id":76561198141356571,"connected_time":2738000000000,"state":"active","ping":60},{"user_id":292,"name":"Adawnby","steam_id":76561198103057295,"connected_time":620000000000,"state":"active","ping":75},{"user_id":282,"name":"pablo.drain2005","steam_id":76561199253405698,"connected_time":1054000000000,"state":"active","ping":126},{"user_id":276,"name":"WalterMondale_84","steam_id":76561198979196151,"connected_time":1113000000000,"state":"active","ping":61},{"user_id":285,"name":"resoNathan","steam_id":76561198089458688,"connected_time":920000000000,"state":"active","ping":71},{"user_id":264,"name":"SketchMeister","steam_id":76561198042362032,"connected_time":2721000000000,"state":"active","ping":58},{"user_id":293,"name":"shield guy","steam_id":76561198036162718,"connected_time":617000000000,"state":"active","ping":67},{"user_id":286,"name":"She's giving you a WUTVILLE??","steam_id":76561198172792271,"connected_time":884000000000,"state":"active","ping":87},{"user_id":298,"name":"A Fruit","steam_id":76561198951830050,"connected_time":83000000000,"state":"active","ping":73},{"user_id":272,"name":"Ye ( I Love Caulk ) West","steam_id":76561198068830312,"connected_time":2169000000000,"state":"active","ping":47},{"user_id":223,"name":"barbara","steam_id":76561198072417792,"connected_time":5209000000000,"state":"active","ping":118},{"user_id":275,"name":"arashsmash","steam_id":76561198277649058,"connected_time":1245000000000,"state":"active","ping":60},{"user_id":237,"name":"xZackAttack27x","steam_id":76561198035446639,"connected_time":4630000000000,"state":"active","ping":70},{"user_id":289,"name":"Dovid65","steam_id":76561199277530814,"connected_time":823000000000,"state":"active","ping":132},{"user_id":273,"name":"YO PIERRE STAY IN THERE üî•\ufffd\ufffd\ufffd","steam_id":76561198126358045,"connected_time":2167000000000,"state":"active","ping":64},{"user_id":242,"name":"ShitsandGiggles‚Ñ¢","steam_id":76561198058708019,"connected_time":4332000000000,"state":"active","ping":56},{"user_id":232,"name":"Rx Auntie","steam_id":76561198051618393,"connected_time":5008000000000,"state":"active","ping":92},{"user_id":245,"name":"Maxxycat","steam_id":76561198194062681,"connected_time":4176000000000,"state":"active","ping":60},{"user_id":297,"name":"botulism","steam_id":76561198141204302,"connected_time":543000000000,"state":"active","ping":75}]},{"server_id":106,"name":"Uncletopia | Chicago | 2 | All Maps","name_short":"chi-2","host":"chi-1.us.uncletopia.com","port":27025,"enabled":true,"region":"us-central","cc":"us","latitude":41.881832,"longitude":-87.62318,"reserved":0,"last_update":"0001-01-01T00:00:00Z","name_a2s":"Uncletopia | Chicago | 2 | All Maps","protocol":17,"map":"cp_dustbowl","folder":"tf","game":"Team Fortress","app_id":440,"player_count":14,"max_players":24,"Bots":0,"server_type":"Dedicated","server_os":"Linux","password":true,"vac":true,"version":"7757534","steam_id":85568392924469985,"keywords":["cp","nocrits","nodmgspread","uncletopia"],"game_id":440,"stv_port":27026,"stv_name":"Uncletopia | Chicago | 2 | All Maps | STV","players":[{"user_id":352,"name":"BreadGod","steam_id":76561198050665205,"connected_time":39000000000,"state":"active","ping":111},{"user_id":272,"name":"GuyGoom","steam_id":76561198254522178,"connected_time":6265000000000,"state":"active","ping":46},{"user_id":332,"name":"Fermenting Kiwi","steam_id":76561198253303497,"connected_time":1105000000000,"state":"active","ping":73},{"user_id":351,"name":"Huge","steam_id":76561199030987614,"connected_time":110000000000,"state":"active","ping":86},{"user_id":345,"name":"supcupman","steam_id":76561198051513866,"connected_time":476000000000,"state":"active","ping":105},{"user_id":333,"name":"RaT","steam_id":76561198383498049,"connected_time":1098000000000,"state":"active","ping":79},{"user_id":311,"name":"calube","steam_id":76561198029350858,"connected_time":3698000000000,"state":"active","ping":86},{"user_id":348,"name":"Minerkid2004","steam_id":76561198044262827,"connected_time":339000000000,"state":"active","ping":94},{"user_id":346,"name":"M.L.JEW","steam_id":76561198997375055,"connected_time":449000000000,"state":"active","ping":76},{"user_id":335,"name":"Lore","steam_id":76561198098407538,"connected_time":1066000000000,"state":"active","ping":56},{"user_id":312,"name":"ali oop","steam_id":76561198057516213,"connected_time":3684000000000,"state":"active","ping":90},{"user_id":350,"name":"fuckterry","steam_id":76561198271957738,"connected_time":122000000000,"state":"active","ping":60},{"user_id":341,"name":"Ooga","steam_id":76561198053395161,"connected_time":735000000000,"state":"active","ping":115},{"user_id":319,"name":"CropFarmer","steam_id":76561198173712581,"connected_time":3343000000000,"state":"active","ping":106}]},{"server_id":402,"name":"Uncletopia | Chicago | 3 | All Maps","name_short":"chi-3","host":"chi-1.us.uncletopia.com","port":27035,"enabled":true,"region":"us-central","cc":"us","latitude":41.881832,"longitude":-87.62318,"reserved":0,"last_update":"0001-01-01T00:00:00Z","name_a2s":"Uncletopia | Chicago | 3 | All Maps","protocol":17,"map":"pl_upward","folder":"tf","game":"Team Fortress","app_id":440,"player_count":24,"max_players":24,"Bots":0,"server_type":"Dedicated","server_os":"Linux","password":true,"vac":true,"version":"7757534","steam_id":85568392924515191,"keywords":["nocrits","nodmgspread","payload","uncletopia"],"game_id":440,"stv_port":27036,"stv_name":"Uncletopia | Chicago | 3 | All Maps | STV","players":[{"user_id":209,"name":"DS8U","steam_id":76561198151554321,"connected_time":4890000000000,"state":"active","ping":54},{"user_id":269,"name":"jiim jaam","steam_id":76561198069814977,"connected_time":843000000000,"state":"active","ping":70},{"user_id":258,"name":"gendermutt","steam_id":76561198152857317,"connected_time":2045000000000,"state":"active","ping":81},{"user_id":272,"name":"Ch4rl33","steam_id":76561198037008621,"connected_time":585000000000,"state":"active","ping":47},{"user_id":281,"name":"Kozaky","steam_id":76561198047144993,"connected_time":415000000000,"state":"active","ping":96},{"user_id":282,"name":"Tony Del Monaco","steam_id":76561198050912837,"connected_time":405000000000,"state":"active","ping":86},{"user_id":273,"name":"weed lesbian","steam_id":76561198042263805,"connected_time":576000000000,"state":"active","ping":81},{"user_id":274,"name":"GardenOfStone","steam_id":76561199069870534,"connected_time":573000000000,"state":"active","ping":85},{"user_id":275,"name":"Eduardo","steam_id":76561198236519984,"connected_time":544000000000,"state":"active","ping":104},{"user_id":267,"name":"guap master smelvin (no mic)","steam_id":76561198058209703,"connected_time":1408000000000,"state":"active","ping":52},{"user_id":288,"name":"CherriKat (she/her)","steam_id":76561198821297512,"connected_time":26000000000,"state":"active","ping":113},{"user_id":261,"name":"Zebulon Pike","steam_id":76561198025719753,"connected_time":1917000000000,"state":"active","ping":84},{"user_id":278,"name":"Laundry","steam_id":76561198106170346,"connected_time":500000000000,"state":"active","ping":61},{"user_id":285,"name":"tod","steam_id":76561198010204565,"connected_time":340000000000,"state":"active","ping":61},{"user_id":239,"name":"Jupiter","steam_id":76561198181315681,"connected_time":2761000000000,"state":"active","ping":67},{"user_id":286,"name":"Jack","steam_id":76561198254716942,"connected_time":333000000000,"state":"active","ping":73},{"user_id":249,"name":"Myracle","steam_id":76561198070916920,"connected_time":2364000000000,"state":"active","ping":49},{"user_id":268,"name":"cheeser","steam_id":76561198281772700,"connected_time":982000000000,"state":"active","ping":70},{"user_id":279,"name":"brian eats you","steam_id":76561198109901138,"connected_time":473000000000,"state":"active","ping":76},{"user_id":252,"name":"Facet","steam_id":76561197999782628,"connected_time":2289000000000,"state":"active","ping":67},{"user_id":280,"name":"Jousty","steam_id":76561199162677853,"connected_time":446000000000,"state":"active","ping":93},{"user_id":287,"name":"stinker","steam_id":76561198142024125,"connected_time":314000000000,"state":"active","ping":52},{"user_id":203,"name":"ExoTheFlyingFish","steam_id":76561198034388243,"connected_time":5876000000000,"state":"active","ping":70},{"user_id":266,"name":"swonstar","steam_id":76561198110597187,"connected_time":1458000000000,"state":"active","ping":63}]},{"server_id":403,"name":"Uncletopia | Chicago | 4 | All Maps","name_short":"chi-4","host":"chi-1.us.uncletopia.com","port":27045,"enabled":true,"region":"us-central","cc":"us","latitude":41.881832,"longitude":-87.62318,"reserved":0,"last_update":"0001-01-01T00:00:00Z","name_a2s":"Uncletopia | Chicago | 4 | All Maps","protocol":17,"map":"pl_upward","folder":"tf","game":"Team Fortress","app_id":440,"player_count":24,"max_players":24,"Bots":0,"server_type":"Dedicated","server_os":"Linux","password":true,"vac":true,"version":"7757534","steam_id":85568392924515193,"keywords":["nocrits","nodmgspread","payload","uncletopia"],"game_id":440,"stv_port":27046,"stv_name":"Uncletopia | Chicago | 4 | All Maps | STV","players":[{"user_id":282,"name":"Jojoker","steam_id":76561198049833406,"connected_time":781000000000,"state":"active","ping":76},{"user_id":287,"name":"Uhonlapjontetzika","steam_id":76561199431280503,"connected_time":395000000000,"state":"active","ping":84},{"user_id":265,"name":"Missing Minus","steam_id":76561198120822928,"connected_time":2541000000000,"state":"active","ping":59},{"user_id":270,"name":"Smitty Werbenjagermanjensen","steam_id":76561198065782439,"connected_time":2195000000000,"state":"active","ping":129},{"user_id":286,"name":"THIRDPIERCE","steam_id":76561198405366314,"connected_time":428000000000,"state":"active","ping":83},{"user_id":241,"name":"Daddy","steam_id":76561198093028567,"connected_time":3429000000000,"state":"active","ping":72},{"user_id":277,"name":"Gay Cake","steam_id":76561198004388831,"connected_time":1823000000000,"state":"active","ping":90},{"user_id":255,"name":"skaj","steam_id":76561198082278586,"connected_time":2813000000000,"state":"active","ping":68},{"user_id":266,"name":"Mr. Twister","steam_id":76561198016791916,"connected_time":2533000000000,"state":"active","ping":88},{"user_id":288,"name":"cyra","steam_id":76561198025454291,"connected_time":213000000000,"state":"active","ping":89},{"user_id":271,"name":"Dzhoshua","steam_id":76561198071915251,"connected_time":2194000000000,"state":"active","ping":60},{"user_id":273,"name":"Batman Grant Williams","steam_id":76561198115458307,"connected_time":2049000000000,"state":"active","ping":105},{"user_id":267,"name":"Nuisance!!!","steam_id":76561199021471671,"connected_time":2488000000000,"state":"active","ping":108},{"user_id":278,"name":"Chex","steam_id":76561198978688451,"connected_time":1809000000000,"state":"active","ping":67},{"user_id":284,"name":"Draikel","steam_id":76561198029010525,"connected_time":717000000000,"state":"active","ping":148},{"user_id":272,"name":"Gubgub","steam_id":76561198060863130,"connected_time":2162000000000,"state":"active","ping":98},{"user_id":261,"name":"Rizz Khalifa","steam_id":76561198805499264,"connected_time":2690000000000,"state":"active","ping":85},{"user_id":199,"name":"B45Guy","steam_id":76561198117290531,"connected_time":6130000000000,"state":"active","ping":63},{"user_id":258,"name":"three three","steam_id":76561198177354155,"connected_time":2786000000000,"state":"active","ping":45},{"user_id":200,"name":"I_Am_Lazy","steam_id":76561199030283067,"connected_time":6120000000000,"state":"active","ping":84},{"user_id":274,"name":"Yarn","steam_id":76561199227148369,"connected_time":1990000000000,"state":"active","ping":99},{"user_id":281,"name":"Lt. Dan's Legs","steam_id":76561198043851584,"connected_time":1082000000000,"state":"active","ping":123},{"user_id":208,"name":"Passes the Bungus","steam_id":76561198040647717,"connected_time":5516000000000,"state":"active","ping":87},{"user_id":285,"name":"Beyond Trash","steam_id":76561198835198281,"connected_time":619000000000,"state":"active","ping":55}]},{"server_id":36,"name":"Uncletopia | Chicago | 5 | All Maps","name_short":"chi-5","host":"chi-2.us.uncletopia.com","port":27015,"enabled":true,"region":"us-central","cc":"us","latitude":41.881832,"longitude":-87.62318,"reserved":0,"last_update":"0001-01-01T00:00:00Z","name_a2s":"Uncletopia | Chicago | 5 | All Maps","protocol":17,"map":"pl_snowycoast","folder":"tf","game":"Team Fortress","app_id":440,"player_count":0,"max_players":24,"Bots":0,"server_type":"Dedicated","server_os":"Linux","password":true,"vac":true,"version":"7757534","steam_id":85568392924866362,"keywords":["nocrits","nodmgspread","payload","uncletopia"],"game_id":440,"stv_port":27016,"stv_name":"Uncletopia | Chicago | 5 | All Maps | STV","players":null},{"server_id":37,"name":"Uncletopia | Chicago | 6 | All Maps","name_short":"chi-6","host":"chi-2.us.uncletopia.com","port":27025,"enabled":true,"region":"us-central","cc":"us","latitude":41.881832,"longitude":-87.62318,"reserved":0,"last_update":"0001-01-01T00:00:00Z","name_a2s":"Uncletopia | Chicago | 6 | All Maps","protocol":17,"map":"pl_swiftwater_final1","folder":"tf","game":"Team Fortress","app_id":440,"player_count":23,"max_players":24,"Bots":0,"server_type":"Dedicated","server_os":"Linux","password":true,"vac":true,"version":"7757534","steam_id":85568392924866363,"keywords":["nocrits","nodmgspread","payload","uncletopia"],"game_id":440,"stv_port":27026,"stv_name":"Uncletopia | Chicago | 6 | All Maps | STV","players":[{"user_id":200,"name":"capybara","steam_id":76561198798828328,"connected_time":5266000000000,"state":"active","ping":46},{"user_id":242,"name":"Rabbitone","steam_id":76561198132691749,"connected_time":1419000000000,"state":"active","ping":83},{"user_id":263,"name":"Atlas-Robo","steam_id":76561199236613331,"connected_time":301000000000,"state":"active","ping":120},{"user_id":239,"name":"yema","steam_id":76561198095638530,"connected_time":1592000000000,"state":"active","ping":87},{"user_id":241,"name":"KillPact","steam_id":76561197976319415,"connected_time":1520000000000,"state":"active","ping":64},{"user_id":265,"name":"Delta Weenie","steam_id":76561198040524814,"connected_time":257000000000,"state":"active","ping":91},{"user_id":260,"name":"‚òô Corrupt ‚ùß","steam_id":76561197977631915,"connected_time":472000000000,"state":"active","ping":78},{"user_id":266,"name":"SHADOW (he/him)","steam_id":76561198207768148,"connected_time":91000000000,"state":"active","ping":116},{"user_id":233,"name":"BroBama","steam_id":76561198203732587,"connected_time":2126000000000,"state":"active","ping":85},{"user_id":257,"name":"JellyParrot","steam_id":76561199190990163,"connected_time":801000000000,"state":"active","ping":78},{"user_id":212,"name":"Oscar","steam_id":76561198096972418,"connected_time":4073000000000,"state":"active","ping":80},{"user_id":251,"name":"flipnote hatena frog","steam_id":76561198096334078,"connected_time":1069000000000,"state":"active","ping":60},{"user_id":267,"name":"uhooter","steam_id":76561198007829078,"connected_time":17000000000,"state":"active","ping":51},{"user_id":248,"name":"mommy","steam_id":76561198129195009,"connected_time":1174000000000,"state":"active","ping":70},{"user_id":261,"name":"KiKonas","steam_id":76561198048332591,"connected_time":351000000000,"state":"active","ping":93},{"user_id":213,"name":"Haunting","steam_id":76561198088529360,"connected_time":3905000000000,"state":"active","ping":65},{"user_id":250,"name":"Regi","steam_id":76561198271508598,"connected_time":1097000000000,"state":"active","ping":50},{"user_id":268,"name":"Holly Jolly Berd","steam_id":76561199159837759,"connected_time":15000000000,"state":"spawning","ping":45},{"user_id":253,"name":"ThisBeeSparta18","steam_id":76561198174023582,"connected_time":1013000000000,"state":"active","ping":54},{"user_id":254,"name":"All 24 Pok√©mon movies at once","steam_id":76561198164738311,"connected_time":983000000000,"state":"active","ping":54},{"user_id":255,"name":"Ignatius J. Reilly","steam_id":76561198026393621,"connected_time":958000000000,"state":"active","ping":84},{"user_id":238,"name":"thatbedrockblock","steam_id":76561199069286524,"connected_time":1721000000000,"state":"active","ping":102},{"user_id":264,"name":"Happy Yaoi Friday","steam_id":76561198111290441,"connected_time":281000000000,"state":"active","ping":50}]},{"server_id":38,"name":"Uncletopia | Chicago | 7 | Stopwatch Beta","name_short":"chi-7","host":"chi-2.us.uncletopia.com","port":27035,"enabled":true,"region":"us-central","cc":"us","latitude":41.881832,"longitude":-87.62318,"reserved":0,"last_update":"0001-01-01T00:00:00Z","name_a2s":"Uncletopia | Chicago | 7 | Stopwatch Beta","protocol":17,"map":"workshop/pl_badwater_pro_v12.ugc2142942074","folder":"tf","game":"Team Fortress","app_id":440,"player_count":0,"max_players":24,"Bots":0,"server_type":"Dedicated","server_os":"Linux","password":true,"vac":true,"version":"7757534","steam_id":85568392924866364,"keywords":["nocrits","nodmgspread","payload","uncletopia"],"game_id":440,"stv_port":27036,"stv_name":"Uncletopia | Chicago | 7 | Stopwatch Beta | STV","players":null},{"server_id":39,"name":"Uncletopia | Chicago | 8 | Community","name_short":"chi-8","host":"chi-2.us.uncletopia.com","port":27045,"enabled":true,"region":"us-central","cc":"us","latitude":41.881832,"longitude":-87.62318,"reserved":0,"last_update":"0001-01-01T00:00:00Z","name_a2s":"Uncletopia | Chicago | 8 | Community","protocol":17,"map":"workshop/cp_logjam_rc12.ugc454812035","folder":"tf","game":"Team Fortress","app_id":440,"player_count":0,"max_players":24,"Bots":0,"server_type":"Dedicated","server_os":"Linux","password":true,"vac":true,"version":"7757534","steam_id":85568392924866365,"keywords":["cp","nocrits","nodmgspread","uncletopia"],"game_id":440,"stv_port":27046,"stv_name":"Uncletopia | Chicago | 8 | Community | STV","players":null},{"server_id":8,"name":"Uncletopia | Dallas | 1 | All Maps","name_short":"dal-1","host":"dal-1.us.uncletopia.com","port":27015,"enabled":true,"region":"us-central","cc":"us","latitude":32.779167,"longitude":-96.80889,"reserved":0,"last_update":"0001-01-01T00:00:00Z","name_a2s":"Uncletopia | Dallas | 1 | All Maps","protocol":17,"map":"cp_mountainlab","folder":"tf","game":"Team Fortress","app_id":440,"player_count":23,"max_players":24,"Bots":0,"server_type":"Dedicated","server_os":"Linux","password":true,"vac":true,"version":"7757534","steam_id":85568392924469986,"keywords":["cp","nocrits","nodmgspread","uncletopia"],"game_id":440,"stv_port":27016,"stv_name":"Uncletopia | Dallas | 1 | All Maps | STV","players":[{"user_id":227,"name":"Thequirka (not NC ready)","steam_id":76561198968058652,"connected_time":425000000000,"state":"active","ping":96},{"user_id":177,"name":"NIGHTGAMER7","steam_id":76561198079419562,"connected_time":4348000000000,"state":"active","ping":65},{"user_id":231,"name":"–∫–∏–ª–ª–∞","steam_id":76561198055483081,"connected_time":249000000000,"state":"active","ping":75},{"user_id":222,"name":"plink","steam_id":76561198057829889,"connected_time":759000000000,"state":"active","ping":117},{"user_id":228,"name":"POPE GONZALES FRANCIS","steam_id":76561198860246781,"connected_time":381000000000,"state":"active","ping":107},{"user_id":166,"name":"Caoticaos","steam_id":76561198114800227,"connected_time":4745000000000,"state":"active","ping":137},{"user_id":200,"name":"sniffy","steam_id":76561198184933255,"connected_time":1524000000000,"state":"active","ping":88},{"user_id":237,"name":"BUFF THE SCORCH SHOT","steam_id":76561198042899484,"connected_time":73000000000,"state":"active","ping":120},{"user_id":216,"name":"EatSomeBEES","steam_id":76561198047334307,"connected_time":1136000000000,"state":"active","ping":105},{"user_id":225,"name":"Eevee (She/Her)","steam_id":76561198271393589,"connected_time":555000000000,"state":"active","ping":117},{"user_id":229,"name":"[S]Mr. X [No Monitor]","steam_id":76561197963746035,"connected_time":373000000000,"state":"active","ping":123},{"user_id":219,"name":"Coaltin","steam_id":76561198071556393,"connected_time":886000000000,"state":"active","ping":98},{"user_id":190,"name":"+","steam_id":76561198262422184,"connected_time":3051000000000,"state":"active","ping":55},{"user_id":230,"name":"floofy","steam_id":76561198389769098,"connected_time":348000000000,"state":"active","ping":78},{"user_id":202,"name":"Captain Murphy","steam_id":76561197983931315,"connected_time":1478000000000,"state":"active","ping":98},{"user_id":220,"name":"damiankiller1243","steam_id":76561198868885090,"connected_time":839000000000,"state":"active","ping":69},{"user_id":232,"name":"shoes","steam_id":76561198044104086,"connected_time":193000000000,"state":"active","ping":70},{"user_id":236,"name":"Nova Academy of Salmon Action","steam_id":76561198021842526,"connected_time":95000000000,"state":"active","ping":94},{"user_id":195,"name":"DejectedKiwi","steam_id":76561198115055574,"connected_time":1936000000000,"state":"active","ping":53},{"user_id":221,"name":"andromedaamour12","steam_id":76561199193620262,"connected_time":818000000000,"state":"active","ping":114},{"user_id":234,"name":"cixcin","steam_id":76561199215821942,"connected_time":137000000000,"state":"active","ping":46},{"user_id":235,"name":"gancho","steam_id":76561198170706982,"connected_time":135000000000,"state":"active","ping":36},{"user_id":215,"name":"Vionas","steam_id":76561198012478039,"connected_time":1147000000000,"state":"active","ping":75}]},{"server_id":108,"name":"Uncletopia | Dallas | 2 | All Maps","name_short":"dal-2","host":"dal-1.us.uncletopia.com","port":27025,"enabled":true,"region":"us-central","cc":"us","latitude":32.779167,"longitude":-96.80889,"reserved":0,"last_update":"0001-01-01T00:00:00Z","name_a2s":"Uncletopia | Dallas | 2 | All Maps","protocol":17,"map":"cp_egypt_final","folder":"tf","game":"Team Fortress","app_id":440,"player_count":16,"max_players":24,"Bots":0,"server_type":"Dedicated","server_os":"Linux","password":true,"vac":true,"version":"7757534","steam_id":85568392924469988,"keywords":["cp","nocrits","nodmgspread","uncletopia"],"game_id":440,"stv_port":27026,"stv_name":"Uncletopia | Dallas | 2 | All Maps | STV","players":[{"user_id":272,"name":"[LINUX] Purple Penguin Pybro","steam_id":76561198093538786,"connected_time":136000000000,"state":"active","ping":46},{"user_id":273,"name":"EnablingTrash101","steam_id":76561198132151550,"connected_time":104000000000,"state":"active","ping":106},{"user_id":271,"name":"Pimastr","steam_id":76561198230996464,"connected_time":216000000000,"state":"active","ping":87},{"user_id":258,"name":"westward","steam_id":76561198805512350,"connected_time":1686000000000,"state":"active","ping":100},{"user_id":268,"name":"Karma's Camera","steam_id":76561198059385185,"connected_time":630000000000,"state":"active","ping":90},{"user_id":274,"name":"cologne","steam_id":76561198069600113,"connected_time":64000000000,"state":"active","ping":69},{"user_id":269,"name":"G_Bob","steam_id":76561198098133233,"connected_time":613000000000,"state":"active","ping":71},{"user_id":198,"name":"UnsettlingVoice","steam_id":76561198036614583,"connected_time":4952000000000,"state":"active","ping":69},{"user_id":252,"name":"Metal 9","steam_id":76561198178318343,"connected_time":2129000000000,"state":"active","ping":93},{"user_id":254,"name":"Saikyo","steam_id":76561198212461467,"connected_time":2074000000000,"state":"active","ping":46},{"user_id":227,"name":"Deno! Í∞ÑÎ∂Ä","steam_id":76561198041113335,"connected_time":3242000000000,"state":"active","ping":100},{"user_id":255,"name":"You Want Me","steam_id":76561198135492119,"connected_time":2044000000000,"state":"active","ping":87},{"user_id":225,"name":"SPREAD CHRISTMAS CHEER AND JOY","steam_id":76561198800386026,"connected_time":3445000000000,"state":"active","ping":91},{"user_id":267,"name":"Hobbes","steam_id":76561198059652226,"connected_time":693000000000,"state":"active","ping":70},{"user_id":230,"name":"a pancake","steam_id":76561198005778292,"connected_time":3187000000000,"state":"active","ping":103},{"user_id":191,"name":"nnobi","steam_id":76561198878729277,"connected_time":5839000000000,"state":"active","ping":75}]},{"server_id":5,"name":"Uncletopia | Frankfurt | 1 | All Maps","name_short":"frk-1","host":"frk-1.de.uncletopia.com","port":27015,"enabled":true,"region":"eu","cc":"de","latitude":50.110924,"longitude":8.682127,"reserved":0,"last_update":"0001-01-01T00:00:00Z","name_a2s":"Uncletopia | Frankfurt | 1 | All Maps","protocol":17,"map":"pl_pier","folder":"tf","game":"Team Fortress","app_id":440,"player_count":0,"max_players":24,"Bots":0,"server_type":"Dedicated","server_os":"Linux","password":true,"vac":true,"version":"7757534","steam_id":85568392924469989,"keywords":["nocrits","nodmgspread","payload","uncletopia"],"game_id":440,"stv_port":27016,"stv_name":"Uncletopia | Frankfurt | 1 | All Maps | STV","players":null},{"server_id":110,"name":"Uncletopia | Frankfurt | 2 | All Maps","name_short":"frk-2","host":"frk-1.de.uncletopia.com","port":27025,"enabled":true,"region":"eu","cc":"de","latitude":50.110924,"longitude":8.682127,"reserved":0,"last_update":"0001-01-01T00:00:00Z","name_a2s":"Uncletopia | Frankfurt | 2 | All Maps","protocol":17,"map":"cp_altitude","folder":"tf","game":"Team Fortress","app_id":440,"player_count":0,"max_players":24,"Bots":0,"server_type":"Dedicated","server_os":"Linux","password":true,"vac":true,"version":"7757534","steam_id":85568392924469990,"keywords":["cp","nocrits","nodmgspread","uncletopia"],"game_id":440,"stv_port":27026,"stv_name":"Uncletopia | Frankfurt | 2 | All Maps | STV","players":null},{"server_id":308,"name":"Uncletopia | Frankfurt | 3 | All Maps","name_short":"frk-3","host":"frk-1.de.uncletopia.com","port":27035,"enabled":true,"region":"eu","cc":"de","latitude":50.110924,"longitude":8.682127,"reserved":0,"last_update":"0001-01-01T00:00:00Z","name_a2s":"Uncletopia | Frankfurt | 3 | All Maps","protocol":17,"map":"cp_mountainlab","folder":"tf","game":"Team Fortress","app_id":440,"player_count":0,"max_players":24,"Bots":0,"server_type":"Dedicated","server_os":"Linux","password":true,"vac":true,"version":"7757534","steam_id":85568392924504274,"keywords":["cp","nocrits","nodmgspread","uncletopia"],"game_id":440,"stv_port":27036,"stv_name":"Uncletopia | Frankfurt | 3 | All Maps | STV","players":null},{"server_id":309,"name":"Uncletopia | Frankfurt | 4 | All Maps","name_short":"frk-4","host":"frk-1.de.uncletopia.com","port":27045,"enabled":true,"region":"eu","cc":"de","latitude":50.110924,"longitude":8.682127,"reserved":0,"last_update":"0001-01-01T00:00:00Z","name_a2s":"Uncletopia | Frankfurt | 4 | All Maps","protocol":17,"map":"pl_snowycoast","folder":"tf","game":"Team Fortress","app_id":440,"player_count":0,"max_players":24,"Bots":0,"server_type":"Dedicated","server_os":"Linux","password":true,"vac":true,"version":"7757534","steam_id":85568392924504275,"keywords":["nocrits","nodmgspread","payload","uncletopia"],"game_id":440,"stv_port":27046,"stv_name":"Uncletopia | Frankfurt | 4 | All Maps | STV","players":null},{"server_id":310,"name":"Uncletopia | Frankfurt | 5 | All Maps","name_short":"frk-5","host":"frk-1.de.uncletopia.com","port":27055,"enabled":true,"region":"eu","cc":"de","latitude":50.110924,"longitude":8.682127,"reserved":0,"last_update":"0001-01-01T00:00:00Z","name_a2s":"Uncletopia | Frankfurt | 5 | All Maps","protocol":17,"map":"cp_altitude","folder":"tf","game":"Team Fortress","app_id":440,"player_count":0,"max_players":24,"Bots":0,"server_type":"Dedicated","server_os":"Linux","password":true,"vac":true,"version":"7757534","steam_id":85568392924504277,"keywords":["cp","nocrits","nodmgspread","uncletopia"],"game_id":440,"stv_port":27056,"stv_name":"Uncletopia | Frankfurt | 5 | All Maps | STV","players":null},{"server_id":311,"name":"Uncletopia | Frankfurt | 6 | All Maps","name_short":"frk-6","host":"frk-1.de.uncletopia.com","port":27065,"enabled":true,"region":"eu","cc":"de","latitude":50.110924,"longitude":8.682127,"reserved":0,"last_update":"0001-01-01T00:00:00Z","name_a2s":"Uncletopia | Frankfurt | 6 | All Maps","protocol":17,"map":"koth_highpass","folder":"tf","game":"Team Fortress","app_id":440,"player_count":0,"max_players":24,"Bots":0,"server_type":"Dedicated","server_os":"Linux","password":true,"vac":true,"version":"7757534","steam_id":85568392924504278,"keywords":["cp","nocrits","nodmgspread","uncletopia"],"game_id":440,"stv_port":27066,"stv_name":"Uncletopia | Frankfurt | 6 | All Maps | STV","players":null},{"server_id":23,"name":"Uncletopia | Frankfurt | 7 | Stopwatch Beta","name_short":"frk-7","host":"frk-1.de.uncletopia.com","port":27075,"enabled":true,"region":"eu","cc":"de","latitude":50.110924,"longitude":8.682127,"reserved":0,"last_update":"0001-01-01T00:00:00Z","name_a2s":"Uncletopia | Frankfurt | 7 | Stopwatch Beta","protocol":17,"map":"pl_borneo","folder":"tf","game":"Team Fortress","app_id":440,"player_count":0,"max_players":24,"Bots":0,"server_type":"Dedicated","server_os":"Linux","password":true,"vac":true,"version":"7757534","steam_id":85568392924742827,"keywords":["nocrits","nodmgspread","payload","uncletopia"],"game_id":440,"stv_port":27076,"stv_name":"Uncletopia | Frankfurt | 7 | Stopwatch Beta | STV","players":null},{"server_id":24,"name":"Uncletopia | Frankfurt | 8 | Community","name_short":"frk-8","host":"frk-1.de.uncletopia.com","port":27085,"enabled":true,"region":"eu","cc":"de","latitude":50.110924,"longitude":8.682127,"reserved":0,"last_update":"0001-01-01T00:00:00Z","name_a2s":"Uncletopia | Frankfurt | 8 | Community","protocol":17,"map":"koth_cascade","folder":"tf","game":"Team Fortress","app_id":440,"player_count":0,"max_players":24,"Bots":0,"server_type":"Dedicated","server_os":"Linux","password":true,"vac":true,"version":"7757534","steam_id":85568392924742828,"keywords":["cp","nocrits","nodmgspread","uncletopia"],"game_id":440,"stv_port":27086,"stv_name":"Uncletopia | Frankfurt | 8 | Community | STV","players":null},{"server_id":202,"name":"Uncletopia | Hong Kong | 1 | All Maps","name_short":"hgk-1","host":"hgk-1.hk.uncletopia.com","port":27015,"enabled":true,"region":"asia","cc":"hk","latitude":22.302711,"longitude":114.177216,"reserved":0,"last_update":"0001-01-01T00:00:00Z","name_a2s":"Uncletopia | Hong Kong | 1 | All Maps","protocol":17,"map":"pl_barnblitz","folder":"tf","game":"Team Fortress","app_id":440,"player_count":0,"max_players":24,"Bots":0,"server_type":"Dedicated","server_os":"Linux","password":true,"vac":true,"version":"7757534","steam_id":85568392924494504,"keywords":["nocrits","nodmgspread","payload","uncletopia"],"game_id":440,"stv_port":27016,"stv_name":"Uncletopia | Hong Kong | 1 | All Maps | STV","players":null},{"server_id":1,"name":"Uncletopia | Los Angeles | 1 | All Maps","name_short":"lax-1","host":"lax-1.us.uncletopia.com","port":27015,"enabled":true,"region":"us-west","cc":"us","latitude":33.94279,"longitude":-118.41004,"reserved":0,"last_update":"0001-01-01T00:00:00Z","name_a2s":"Uncletopia | Los Angeles | 1 | All Maps","protocol":17,"map":"koth_cascade","folder":"tf","game":"Team Fortress","app_id":440,"player_count":2,"max_players":24,"Bots":0,"server_type":"Dedicated","server_os":"Linux","password":true,"vac":true,"version":"7757534","steam_id":85568392924469991,"keywords":["cp","nocrits","nodmgspread","uncletopia"],"game_id":440,"stv_port":27016,"stv_name":"Uncletopia | Los Angeles | 1 | All Maps | STV","players":[{"user_id":25,"name":"Spillburg","steam_id":76561199086225585,"connected_time":683000000000,"state":"active","ping":44},{"user_id":26,"name":"lvl 1 sentry","steam_id":76561198268638706,"connected_time":444000000000,"state":"active","ping":56}]},{"server_id":112,"name":"Uncletopia | Los Angeles | 2 | All Maps","name_short":"lax-2","host":"lax-1.us.uncletopia.com","port":27025,"enabled":true,"region":"us-west","cc":"us","latitude":33.94279,"longitude":-118.41004,"reserved":0,"last_update":"0001-01-01T00:00:00Z","name_a2s":"Uncletopia | Los Angeles | 2 | All Maps","protocol":17,"map":"pl_wutville_event","folder":"tf","game":"Team Fortress","app_id":440,"player_count":24,"max_players":24,"Bots":0,"server_type":"Dedicated","server_os":"Linux","password":true,"vac":true,"version":"7757534","steam_id":85568392924469992,"keywords":["nocrits","nodmgspread","payload","uncletopia"],"game_id":440,"stv_port":27026,"stv_name":"Uncletopia | Los Angeles | 2 | All Maps | STV","players":[{"user_id":200,"name":"huh","steam_id":76561198272057200,"connected_time":1991000000000,"state":"active","ping":61},{"user_id":189,"name":"J U K I E","steam_id":76561197962841151,"connected_time":3490000000000,"state":"active","ping":73},{"user_id":123,"name":"Tom Skirrett","steam_id":76561198014600788,"connected_time":8491000000000,"state":"active","ping":95},{"user_id":194,"name":"üê∫-Iwky-ü¶ä","steam_id":76561198185616311,"connected_time":3179000000000,"state":"active","ping":61},{"user_id":201,"name":"A Aron","steam_id":76561198044701629,"connected_time":1987000000000,"state":"active","ping":45},{"user_id":69,"name":"Mothma","steam_id":76561198353789504,"connected_time":11217000000000,"state":"active","ping":57},{"user_id":122,"name":"TROY","steam_id":76561197983852176,"connected_time":8538000000000,"state":"active","ping":55},{"user_id":155,"name":"fortzei","steam_id":76561198210920541,"connected_time":5830000000000,"state":"active","ping":58},{"user_id":78,"name":"teh mummy","steam_id":76561198044123636,"connected_time":10944000000000,"state":"active","ping":33},{"user_id":212,"name":"Noob-a-tron","steam_id":76561197970555113,"connected_time":863000000000,"state":"active","ping":43},{"user_id":58,"name":"Can You Feel It Mr.Krabs","steam_id":76561198128302414,"connected_time":12830000000000,"state":"active","ping":46},{"user_id":209,"name":"Reacher","steam_id":76561198010917844,"connected_time":1380000000000,"state":"active","ping":52},{"user_id":203,"name":"Grungus","steam_id":76561198047700230,"connected_time":1913000000000,"state":"active","ping":47},{"user_id":163,"name":"IntravenusDeMilo","steam_id":76561197970629020,"connected_time":5104000000000,"state":"active","ping":69},{"user_id":185,"name":"HeartAttack","steam_id":76561198135833968,"connected_time":4061000000000,"state":"active","ping":44},{"user_id":181,"name":"TOOL fan","steam_id":76561198272021214,"connected_time":4167000000000,"state":"active","ping":49},{"user_id":199,"name":"Capt.Swag","steam_id":76561198088340994,"connected_time":2127000000000,"state":"active","ping":120},{"user_id":204,"name":"Jacck916","steam_id":76561198176874157,"connected_time":1867000000000,"state":"active","ping":111},{"user_id":210,"name":"would you touch poo for $100","steam_id":76561198354415686,"connected_time":1288000000000,"state":"active","ping":61},{"user_id":205,"name":"LazyRat","steam_id":76561198014066794,"connected_time":1844000000000,"state":"active","ping":61},{"user_id":188,"name":"Walter","steam_id":76561198176428878,"connected_time":3805000000000,"state":"active","ping":63},{"user_id":196,"name":"TheBrocklobster","steam_id":76561198039682984,"connected_time":2145000000000,"state":"active","ping":59},{"user_id":211,"name":"Rise for the National Spamton","steam_id":76561198138468982,"connected_time":1257000000000,"state":"active","ping":93},{"user_id":207,"name":"Rusty","steam_id":76561198055585129,"connected_time":1734000000000,"state":"active","ping":74}]},{"server_id":324,"name":"Uncletopia | Los Angeles | 3 | All Maps","name_short":"lax-3","host":"lax-1.us.uncletopia.com","port":27035,"enabled":true,"region":"us-west","cc":"us","latitude":33.94279,"longitude":-118.41004,"reserved":0,"last_update":"0001-01-01T00:00:00Z","name_a2s":"Uncletopia | Los Angeles | 3 | All Maps","protocol":17,"map":"pl_borneo","folder":"tf","game":"Team Fortress","app_id":440,"player_count":24,"max_players":24,"Bots":0,"server_type":"Dedicated","server_os":"Linux","password":true,"vac":true,"version":"7757534","steam_id":85568392924510198,"keywords":["nocrits","nodmgspread","payload","uncletopia"],"game_id":440,"stv_port":27036,"stv_name":"Uncletopia | Los Angeles | 3 | All Maps | STV","players":[{"user_id":282,"name":"Cine Hamal","steam_id":76561198079619374,"connected_time":330000000000,"state":"active","ping":101},{"user_id":275,"name":"Korn Dawg","steam_id":76561198026941076,"connected_time":1021000000000,"state":"active","ping":49},{"user_id":262,"name":"Rabid","steam_id":76561198287476517,"connected_time":1948000000000,"state":"active","ping":45},{"user_id":280,"name":"The Flavor Savior","steam_id":76561198430508592,"connected_time":355000000000,"state":"active","ping":116},{"user_id":247,"name":"social distance warrior","steam_id":76561198128992994,"connected_time":3239000000000,"state":"active","ping":72},{"user_id":266,"name":" Ä.Íï§ÔΩ°.","steam_id":76561198029580420,"connected_time":1187000000000,"state":"active","ping":152},{"user_id":267,"name":"Robyn Goodfellowe","steam_id":76561198074719241,"connected_time":1175000000000,"state":"active","ping":106},{"user_id":279,"name":"bad spy player","steam_id":76561198873699671,"connected_time":760000000000,"state":"active","ping":81},{"user_id":253,"name":"level 7 firemancer","steam_id":76561198209571677,"connected_time":2782000000000,"state":"active","ping":96},{"user_id":271,"name":".webp","steam_id":76561199158847498,"connected_time":1124000000000,"state":"active","ping":68},{"user_id":254,"name":"skye","steam_id":76561198111497254,"connected_time":2771000000000,"state":"active","ping":47},{"user_id":265,"name":"playdough eater","steam_id":76561199045901994,"connected_time":1278000000000,"state":"active","ping":60},{"user_id":274,"name":"Super crak 202 9","steam_id":76561199176207530,"connected_time":1090000000000,"state":"active","ping":65},{"user_id":231,"name":"Bryce Gobo","steam_id":76561199411560141,"connected_time":4700000000000,"state":"active","ping":72},{"user_id":212,"name":"Nuggies","steam_id":76561198272432592,"connected_time":5877000000000,"state":"active","ping":60},{"user_id":273,"name":"big ol' buford","steam_id":76561198290675957,"connected_time":1104000000000,"state":"active","ping":73},{"user_id":283,"name":"Michael Scott","steam_id":76561198843066406,"connected_time":256000000000,"state":"active","ping":62},{"user_id":242,"name":"gerg","steam_id":76561197997127387,"connected_time":3737000000000,"state":"active","ping":57},{"user_id":284,"name":"ChickenManPhil","steam_id":76561199139508332,"connected_time":229000000000,"state":"active","ping":146},{"user_id":243,"name":"Chiaki Nanami","steam_id":76561198164782653,"connected_time":3735000000000,"state":"active","ping":118},{"user_id":230,"name":"Obersteuermann","steam_id":76561198044468707,"connected_time":4835000000000,"state":"active","ping":72},{"user_id":260,"name":"Killer Fish from San Diego","steam_id":76561199037594575,"connected_time":2228000000000,"state":"active","ping":92},{"user_id":210,"name":"Leo","steam_id":76561198309760791,"connected_time":5935000000000,"state":"active","ping":111},{"user_id":281,"name":"Gardangle","steam_id":76561198394173831,"connected_time":355000000000,"state":"active","ping":65}]},{"server_id":25,"name":"Uncletopia | Los Angeles | 4 | Stopwatch Beta","name_short":"lax-4","host":"lax-1.us.uncletopia.com","port":27045,"enabled":true,"region":"us-west","cc":"us","latitude":33.94279,"longitude":-118.41004,"reserved":0,"last_update":"0001-01-01T00:00:00Z","name_a2s":"Uncletopia | Los Angeles | 4 | Stopwatch Beta","protocol":17,"map":"koth_viaduct","folder":"tf","game":"Team Fortress","app_id":440,"player_count":0,"max_players":24,"Bots":0,"server_type":"Dedicated","server_os":"Linux","password":true,"vac":true,"version":"7757534","steam_id":85568392924510199,"keywords":["cp","nocrits","nodmgspread","uncletopia"],"game_id":440,"stv_port":27046,"stv_name":"Uncletopia | Los Angeles | 4 | Stopwatch Beta | STV","players":null},{"server_id":11,"name":"Uncletopia | London | 1 | All Maps","name_short":"lon-1","host":"lon-1.uk.uncletopia.com","port":27015,"enabled":true,"region":"eu","cc":"gb","latitude":51.509865,"longitude":-0.118092,"reserved":0,"last_update":"0001-01-01T00:00:00Z","name_a2s":"Uncletopia | London | 1 | All Maps","protocol":17,"map":"pl_pier","folder":"tf","game":"Team Fortress","app_id":440,"player_count":16,"max_players":24,"Bots":0,"server_type":"Dedicated","server_os":"Linux","password":true,"vac":true,"version":"7757534","steam_id":85568392924367362,"keywords":["nocrits","nodmgspread","payload","uncletopia"],"game_id":440,"stv_port":27016,"stv_name":"Uncletopia | London | 1 | All Maps | STV","players":[{"user_id":29,"name":"Melon","steam_id":76561198150893860,"connected_time":126000000000,"state":"active","ping":88},{"user_id":6,"name":"It's a me Malario","steam_id":76561198176546013,"connected_time":1020000000000,"state":"active","ping":43},{"user_id":7,"name":"–∏–≤–∞–Ω","steam_id":76561198072730591,"connected_time":1020000000000,"state":"active","ping":60},{"user_id":8,"name":"Ser.Herpiman","steam_id":76561198314165728,"connected_time":1019000000000,"state":"active","ping":75},{"user_id":9,"name":"Funni duck","steam_id":76561198358450003,"connected_time":1019000000000,"state":"active","ping":116},{"user_id":18,"name":"oarschbuerste","steam_id":76561198200383310,"connected_time":777000000000,"state":"active","ping":47},{"user_id":26,"name":"kowack","steam_id":76561198256838417,"connected_time":389000000000,"state":"active","ping":89},{"user_id":30,"name":"oarschwuerste","steam_id":76561198196536933,"connected_time":119000000000,"state":"active","ping":50},{"user_id":13,"name":"BrainLacking","steam_id":76561198965574196,"connected_time":1009000000000,"state":"active","ping":57},{"user_id":16,"name":"father thomas +","steam_id":76561198355097756,"connected_time":920000000000,"state":"active","ping":78},{"user_id":24,"name":"dorak","steam_id":76561198818037965,"connected_time":478000000000,"state":"active","ping":119},{"user_id":19,"name":"knyazF","steam_id":76561198163278585,"connected_time":636000000000,"state":"active","ping":75},{"user_id":27,"name":"Gekko [HUN]","steam_id":76561198869884227,"connected_time":337000000000,"state":"spawning","ping":77},{"user_id":28,"name":"Rambi","steam_id":76561199058078505,"connected_time":278000000000,"state":"active","ping":160},{"user_id":31,"name":"catboy trickster","steam_id":76561198075665211,"connected_time":93000000000,"state":"active","ping":48},{"user_id":32,"name":"vert2spooky","steam_id":76561198914976373,"connected_time":44000000000,"state":"active","ping":39}]},{"server_id":114,"name":"Uncletopia | London | 2 | All Maps","name_short":"lon-2","host":"lon-1.uk.uncletopia.com","port":27025,"enabled":true,"region":"eu","cc":"gb","latitude":51.509865,"longitude":-0.118092,"reserved":0,"last_update":"0001-01-01T00:00:00Z","name_a2s":"Uncletopia | London | 2 | All Maps","protocol":17,"map":"pl_borneo","folder":"tf","game":"Team Fortress","app_id":440,"player_count":0,"max_players":24,"Bots":0,"server_type":"Dedicated","server_os":"Linux","password":true,"vac":true,"version":"7757534","steam_id":85568392924470941,"keywords":["nocrits","nodmgspread","payload","uncletopia"],"game_id":440,"stv_port":27026,"stv_name":"Uncletopia | London | 2 | All Maps | STV","players":null},{"server_id":320,"name":"Uncletopia | London | 3 | All Maps","name_short":"lon-3","host":"lon-1.uk.uncletopia.com","port":27035,"enabled":true,"region":"eu","cc":"gb","latitude":51.509865,"longitude":-0.118092,"reserved":0,"last_update":"0001-01-01T00:00:00Z","name_a2s":"Uncletopia | London | 3 | All Maps","protocol":17,"map":"pl_badwater","folder":"tf","game":"Team Fortress","app_id":440,"player_count":0,"max_players":24,"Bots":0,"server_type":"Dedicated","server_os":"Linux","password":true,"vac":true,"version":"7757534","steam_id":85568392924510192,"keywords":["nocrits","nodmgspread","payload","uncletopia"],"game_id":440,"stv_port":27036,"stv_name":"Uncletopia | London | 3 | All Maps | STV","players":null},{"server_id":321,"name":"Uncletopia | London | 4 | All Maps","name_short":"lon-4","host":"lon-1.uk.uncletopia.com","port":27045,"enabled":true,"region":"eu","cc":"gb","latitude":51.509865,"longitude":-0.118092,"reserved":0,"last_update":"0001-01-01T00:00:00Z","name_a2s":"Uncletopia | London | 4 | All Maps","protocol":17,"map":"cp_snakewater_final1","folder":"tf","game":"Team Fortress","app_id":440,"player_count":0,"max_players":24,"Bots":0,"server_type":"Dedicated","server_os":"Linux","password":true,"vac":true,"version":"7757534","steam_id":85568392924510193,"keywords":["cp","nocrits","nodmgspread","uncletopia"],"game_id":440,"stv_port":27046,"stv_name":"Uncletopia | London | 4 | All Maps | STV","players":null},{"server_id":21,"name":"Uncletopia | London | 5 | All Maps","name_short":"lon-5","host":"lon-1.uk.uncletopia.com","port":27055,"enabled":true,"region":"eu","cc":"gb","latitude":51.509865,"longitude":-0.118092,"reserved":0,"last_update":"0001-01-01T00:00:00Z","name_a2s":"Uncletopia | London | 5 | All Maps","protocol":17,"map":"pl_snowycoast","folder":"tf","game":"Team Fortress","app_id":440,"player_count":0,"max_players":24,"Bots":0,"server_type":"Dedicated","server_os":"Linux","password":true,"vac":true,"version":"7757534","steam_id":85568392924742829,"keywords":["nocrits","nodmgspread","payload","uncletopia"],"game_id":440,"stv_port":27056,"stv_name":"Uncletopia | London | 5 | All Maps | STV","players":null},{"server_id":22,"name":"Uncletopia | London | 6 | All Maps","name_short":"lon-6","host":"lon-1.uk.uncletopia.com","port":27065,"enabled":true,"region":"eu","cc":"gb","latitude":51.509865,"longitude":-0.118092,"reserved":0,"last_update":"0001-01-01T00:00:00Z","name_a2s":"Uncletopia | London | 6 | All Maps","protocol":17,"map":"cp_process_final","folder":"tf","game":"Team Fortress","app_id":440,"player_count":5,"max_players":24,"Bots":0,"server_type":"Dedicated","server_os":"Linux","password":true,"vac":true,"version":"7757534","steam_id":85568392924742830,"keywords":["cp","nocrits","nodmgspread","uncletopia"],"game_id":440,"stv_port":27066,"stv_name":"Uncletopia | London | 6 | All Maps | STV","players":[{"user_id":6,"name":"dismissy","steam_id":76561198073904781,"connected_time":1005000000000,"state":"active","ping":72},{"user_id":4,"name":"k","steam_id":76561198818452217,"connected_time":1030000000000,"state":"active","ping":75},{"user_id":5,"name":"Chad","steam_id":76561197997158068,"connected_time":1027000000000,"state":"active","ping":84},{"user_id":7,"name":"smalllratt","steam_id":76561199226364870,"connected_time":998000000000,"state":"active","ping":238},{"user_id":11,"name":"marsel","steam_id":76561198116168271,"connected_time":367000000000,"state":"active","ping":86}]},{"server_id":40,"name":"Uncletopia | London | 7 | No Payload","name_short":"lon-7","host":"lon-1.uk.uncletopia.com","port":27075,"enabled":true,"region":"eu","cc":"gb","latitude":51.509865,"longitude":-0.118092,"reserved":0,"last_update":"0001-01-01T00:00:00Z","name_a2s":"Uncletopia | London | 7 | No Payload","protocol":17,"map":"pl_upward","folder":"tf","game":"Team Fortress","app_id":440,"player_count":0,"max_players":24,"Bots":0,"server_type":"Dedicated","server_os":"Linux","password":true,"vac":true,"version":"7757534","steam_id":85568392924964314,"keywords":["nocrits","nodmgspread","payload","uncletopia"],"game_id":440,"stv_port":27076,"stv_name":"Uncletopia | London | 7 | No Payload | STV","players":null},{"server_id":41,"name":"Uncletopia | London | 8 | Community","name_short":"lon-8","host":"lon-1.uk.uncletopia.com","port":27085,"enabled":true,"region":"eu","cc":"gb","latitude":51.509865,"longitude":-0.118092,"reserved":0,"last_update":"0001-01-01T00:00:00Z","name_a2s":"Uncletopia | London | 8 | Community","protocol":17,"map":"cp_snakewater_final1","folder":"tf","game":"Team Fortress","app_id":440,"player_count":0,"max_players":24,"Bots":0,"server_type":"Dedicated","server_os":"Linux","password":true,"vac":true,"version":"7757534","steam_id":85568392924964315,"keywords":["cp","nocrits","nodmgspread","uncletopia"],"game_id":440,"stv_port":27086,"stv_name":"Uncletopia | London | 8 | Community | STV","players":null},{"server_id":300,"name":"Uncletopia | Montr√©al | 1 | All Maps","name_short":"mtl-1","host":"mtl-1.ca.uncletopia.com","port":27015,"enabled":true,"region":"us-east","cc":"ca","latitude":45.50889,"longitude":-73.56167,"reserved":0,"last_update":"0001-01-01T00:00:00Z","name_a2s":"Uncletopia | Montr√©al | 1 | All Maps","protocol":17,"map":"koth_lakeside_final","folder":"tf","game":"Team Fortress","app_id":440,"player_count":0,"max_players":24,"Bots":0,"server_type":"Dedicated","server_os":"Linux","password":true,"vac":true,"version":"7757534","steam_id":85568392924500087,"keywords":["cp","nocrits","nodmgspread","uncletopia"],"game_id":440,"stv_port":27016,"stv_name":"Uncletopia | Montr√©al | 1 | All Maps | STV","players":null},{"server_id":301,"name":"Uncletopia | Montr√©al | 2 | All Maps","name_short":"mtl-2","host":"mtl-1.ca.uncletopia.com","port":27025,"enabled":true,"region":"us-east","cc":"ca","latitude":45.50889,"longitude":-73.56167,"reserved":0,"last_update":"0001-01-01T00:00:00Z","name_a2s":"Uncletopia | Montr√©al | 2 | All Maps","protocol":17,"map":"pl_borneo","folder":"tf","game":"Team Fortress","app_id":440,"player_count":0,"max_players":24,"Bots":0,"server_type":"Dedicated","server_os":"Linux","password":true,"vac":true,"version":"7757534","steam_id":85568392924500088,"keywords":["nocrits","nodmgspread","payload","uncletopia"],"game_id":440,"stv_port":27026,"stv_name":"Uncletopia | Montr√©al | 2 | All Maps | STV","players":null},{"server_id":302,"name":"Uncletopia | Montr√©al | 3 | All Maps","name_short":"mtl-3","host":"mtl-1.ca.uncletopia.com","port":27035,"enabled":true,"region":"us-east","cc":"ca","latitude":45.50889,"longitude":-73.56167,"reserved":0,"last_update":"0001-01-01T00:00:00Z","name_a2s":"Uncletopia | Montr√©al | 3 | All Maps","protocol":17,"map":"cp_sunshine","folder":"tf","game":"Team Fortress","app_id":440,"player_count":0,"max_players":24,"Bots":0,"server_type":"Dedicated","server_os":"Linux","password":true,"vac":true,"version":"7757534","steam_id":85568392924500089,"keywords":["cp","nocrits","nodmgspread","uncletopia"],"game_id":440,"stv_port":27036,"stv_name":"Uncletopia | Montr√©al | 3 | All Maps | STV","players":null},{"server_id":303,"name":"Uncletopia | Montr√©al | 4 | No Payload","name_short":"mtl-4","host":"mtl-1.ca.uncletopia.com","port":27045,"enabled":true,"region":"us-east","cc":"ca","latitude":45.50889,"longitude":-73.56167,"reserved":0,"last_update":"0001-01-01T00:00:00Z","name_a2s":"Uncletopia | Montr√©al | 4 | No Payload","protocol":17,"map":"koth_lakeside_final","folder":"tf","game":"Team Fortress","app_id":440,"player_count":0,"max_players":24,"Bots":0,"server_type":"Dedicated","server_os":"Linux","password":true,"vac":true,"version":"7757534","steam_id":85568392924500090,"keywords":["cp","nocrits","nodmgspread","uncletopia"],"game_id":440,"stv_port":27046,"stv_name":"Uncletopia | Montr√©al | 4 | No Payload | STV","players":null},{"server_id":13,"name":"Uncletopia | New York City | 1 | All Maps","name_short":"nyc-1","host":"nyc-1.us.uncletopia.com","port":27015,"enabled":true,"region":"us-east","cc":"us","latitude":40.73061,"longitude":-73.93524,"reserved":0,"last_update":"0001-01-01T00:00:00Z","name_a2s":"Uncletopia | New York City | 1 | All Maps","protocol":17,"map":"pl_borneo","folder":"tf","game":"Team Fortress","app_id":440,"player_count":20,"max_players":24,"Bots":0,"server_type":"Dedicated","server_os":"Linux","password":true,"vac":true,"version":"7757534","steam_id":85568392924469993,"keywords":["nocrits","nodmgspread","payload","uncletopia"],"game_id":440,"stv_port":27016,"stv_name":"Uncletopia | New York City | 1 | All Maps | STV","players":[{"user_id":249,"name":"VanderSalad","steam_id":76561198027370031,"connected_time":1563000000000,"state":"active","ping":74},{"user_id":258,"name":"BigOrca54","steam_id":76561198181360271,"connected_time":1356000000000,"state":"active","ping":76},{"user_id":268,"name":"lker","steam_id":76561197976975075,"connected_time":743000000000,"state":"active","ping":57},{"user_id":229,"name":"Eldigan","steam_id":76561198271449992,"connected_time":3378000000000,"state":"active","ping":54},{"user_id":272,"name":"flipflopsock7453","steam_id":76561198808768254,"connected_time":204000000000,"state":"active","ping":72},{"user_id":273,"name":"Psychosis","steam_id":76561198078659070,"connected_time":192000000000,"state":"active","ping":64},{"user_id":270,"name":"i'll have what you're having","steam_id":76561198035337657,"connected_time":374000000000,"state":"active","ping":63},{"user_id":275,"name":"Volkan, Pervert Extraordinaire","steam_id":76561198004569575,"connected_time":92000000000,"state":"active","ping":56},{"user_id":260,"name":"Mythius","steam_id":76561198401392472,"connected_time":1275000000000,"state":"active","ping":60},{"user_id":196,"name":"layabout","steam_id":76561198130892117,"connected_time":5251000000000,"state":"active","ping":52},{"user_id":208,"name":"glitchy","steam_id":76561199009135766,"connected_time":4790000000000,"state":"active","ping":56},{"user_id":223,"name":"Infinity","steam_id":76561199134919099,"connected_time":3819000000000,"state":"active","ping":49},{"user_id":219,"name":"Antifa Alligator","steam_id":76561197988170816,"connected_time":3988000000000,"state":"active","ping":80},{"user_id":255,"name":"xFactr","steam_id":76561198129007422,"connected_time":1419000000000,"state":"active","ping":40},{"user_id":236,"name":"Samsiel","steam_id":76561198094134951,"connected_time":2656000000000,"state":"active","ping":94},{"user_id":261,"name":"Clorthax","steam_id":76561198800676106,"connected_time":1274000000000,"state":"active","ping":81},{"user_id":244,"name":"Devoid","steam_id":76561198254039012,"connected_time":2381000000000,"state":"active","ping":55},{"user_id":263,"name":"ayr","steam_id":76561198083640961,"connected_time":1080000000000,"state":"active","ping":63},{"user_id":235,"name":"ivy","steam_id":76561198131876013,"connected_time":3126000000000,"state":"active","ping":50},{"user_id":243,"name":"[Metal Fingers - Myrtle Leaf]","steam_id":76561198294013916,"connected_time":2407000000000,"state":"active","ping":44}]},{"server_id":14,"name":"Uncletopia | New York City | 2 | All Maps","name_short":"nyc-2","host":"nyc-1.us.uncletopia.com","port":27025,"enabled":true,"region":"us-east","cc":"us","latitude":40.73061,"longitude":-73.93524,"reserved":0,"last_update":"0001-01-01T00:00:00Z","name_a2s":"Uncletopia | New York City | 2 | All Maps","protocol":17,"map":"pl_badwater","folder":"tf","game":"Team Fortress","app_id":440,"player_count":0,"max_players":24,"Bots":0,"server_type":"Dedicated","server_os":"Linux","password":true,"vac":true,"version":"7757534","steam_id":85568392924469994,"keywords":["nocrits","nodmgspread","payload","uncletopia"],"game_id":440,"stv_port":27026,"stv_name":"Uncletopia | New York City | 2 | All Maps | STV","players":null},{"server_id":15,"name":"Uncletopia | New York City | 3 | Stopwatch Beta","name_short":"nyc-3","host":"nyc-1.us.uncletopia.com","port":27035,"enabled":true,"region":"us-east","cc":"us","latitude":40.73061,"longitude":-73.93524,"reserved":0,"last_update":"0001-01-01T00:00:00Z","name_a2s":"Uncletopia | New York City | 3 | Stopwatch Beta","protocol":17,"map":"pl_upward","folder":"tf","game":"Team Fortress","app_id":440,"player_count":0,"max_players":24,"Bots":0,"server_type":"Dedicated","server_os":"Linux","password":true,"vac":true,"version":"7757534","steam_id":85568392924742820,"keywords":["nocrits","nodmgspread","payload","uncletopia"],"game_id":440,"stv_port":27036,"stv_name":"Uncletopia | New York City | 3 | Stopwatch Beta | STV","players":null},{"server_id":16,"name":"Uncletopia | New York City | 4 | Community","name_short":"nyc-4","host":"nyc-1.us.uncletopia.com","port":27045,"enabled":true,"region":"us-east","cc":"us","latitude":40.73061,"longitude":-73.93524,"reserved":0,"last_update":"0001-01-01T00:00:00Z","name_a2s":"Uncletopia | New York City | 4 | Community","protocol":17,"map":"workshop/pl_cactuscanyon_redux_rc4b.ugc2579644293","folder":"tf","game":"Team Fortress","app_id":440,"player_count":0,"max_players":24,"Bots":0,"server_type":"Dedicated","server_os":"Linux","password":true,"vac":true,"version":"7757534","steam_id":85568392924742821,"keywords":["nocrits","nodmgspread","payload","uncletopia"],"game_id":440,"stv_port":27046,"stv_name":"Uncletopia | New York City | 4 | Community | STV","players":null},{"server_id":142,"name":"Uncletopia | S√£o Paulo | 1 | All Maps","name_short":"sao-1","host":"sao-1.br.uncletopia.com","port":27015,"enabled":true,"region":"sa","cc":"br","latitude":-23.533773,"longitude":-46.62529,"reserved":0,"last_update":"0001-01-01T00:00:00Z","name_a2s":"Uncletopia | S√£o Paulo | 1 | All Maps","protocol":17,"map":"pl_upward","folder":"tf","game":"Team Fortress","app_id":440,"player_count":0,"max_players":24,"Bots":0,"server_type":"Dedicated","server_os":"Linux","password":true,"vac":true,"version":"7757534","steam_id":85568392924469996,"keywords":["nocrits","nodmgspread","payload","uncletopia"],"game_id":440,"stv_port":27016,"stv_name":"Uncletopia | S√£o Paulo | 1 | All Maps | STV","players":null},{"server_id":143,"name":"Uncletopia | S√£o Paulo | 2 | All Maps","name_short":"sao-2","host":"sao-2.br.uncletopia.com","port":27015,"enabled":true,"region":"sa","cc":"br","latitude":-23.533773,"longitude":-46.62529,"reserved":0,"last_update":"0001-01-01T00:00:00Z","name_a2s":"Uncletopia | S√£o Paulo | 2 | All Maps","protocol":17,"map":"koth_viaduct","folder":"tf","game":"Team Fortress","app_id":440,"player_count":0,"max_players":24,"Bots":0,"server_type":"Dedicated","server_os":"Linux","password":true,"vac":true,"version":"7757534","steam_id":85568392924485349,"keywords":["cp","nocrits","nodmgspread","uncletopia"],"game_id":440,"stv_port":27016,"stv_name":"Uncletopia | S√£o Paulo | 2 | All Maps | STV","players":null},{"server_id":7,"name":"Uncletopia | Seattle | 1 | All Maps","name_short":"sea-1","host":"sea-1.us.uncletopia.com","port":27015,"enabled":true,"region":"us-west","cc":"us","latitude":47.608013,"longitude":-122.33517,"reserved":0,"last_update":"0001-01-01T00:00:00Z","name_a2s":"Uncletopia | Seattle | 1 | All Maps","protocol":17,"map":"pl_borneo","folder":"tf","game":"Team Fortress","app_id":440,"player_count":24,"max_players":24,"Bots":0,"server_type":"Dedicated","server_os":"Linux","password":true,"vac":true,"version":"7757534","steam_id":85568392924469997,"keywords":["nocrits","nodmgspread","payload","uncletopia"],"game_id":440,"stv_port":27016,"stv_name":"Uncletopia | Seattle | 1 | All Maps | STV","players":[{"user_id":311,"name":"VIRGINIA!!","steam_id":76561198036066855,"connected_time":1251000000000,"state":"active","ping":59},{"user_id":333,"name":"Gary, 40, soul sucking 9-5","steam_id":76561198073812888,"connected_time":168000000000,"state":"active","ping":35},{"user_id":334,"name":"Diesel","steam_id":76561198060177579,"connected_time":59000000000,"state":"active","ping":81},{"user_id":185,"name":"Mignyanne :3","steam_id":76561198048754056,"connected_time":11885000000000,"state":"active","ping":68},{"user_id":317,"name":"„Éç„Éº„Éà","steam_id":76561198212969373,"connected_time":1005000000000,"state":"active","ping":64},{"user_id":322,"name":"Bub","steam_id":76561198059791574,"connected_time":730000000000,"state":"active","ping":118},{"user_id":313,"name":"LeTonzy","steam_id":76561198005806699,"connected_time":1185000000000,"state":"active","ping":91},{"user_id":315,"name":"PunishedCrab","steam_id":76561198079650017,"connected_time":1116000000000,"state":"active","ping":89},{"user_id":330,"name":"Blank_Sicon","steam_id":76561198887041407,"connected_time":190000000000,"state":"active","ping":87},{"user_id":327,"name":"Cpt. Dingle","steam_id":76561198025720199,"connected_time":488000000000,"state":"active","ping":70},{"user_id":335,"name":"squid game","steam_id":76561199248960166,"connected_time":58000000000,"state":"active","ping":46},{"user_id":319,"name":"Lilac Lulamoon","steam_id":76561198111402757,"connected_time":923000000000,"state":"active","ping":120},{"user_id":321,"name":"viciousbeatmaker","steam_id":76561198086876652,"connected_time":793000000000,"state":"active","ping":79},{"user_id":295,"name":"jungus","steam_id":76561198129862008,"connected_time":3717000000000,"state":"active","ping":79},{"user_id":299,"name":"Elias","steam_id":76561198031295139,"connected_time":2580000000000,"state":"active","ping":47},{"user_id":324,"name":"Large Man","steam_id":76561198880396651,"connected_time":673000000000,"state":"active","ping":140},{"user_id":331,"name":"stoned jester","steam_id":76561198079609974,"connected_time":184000000000,"state":"active","ping":93},{"user_id":265,"name":"lavender","steam_id":76561199069518286,"connected_time":6939000000000,"state":"active","ping":75},{"user_id":325,"name":"My Name A Borat","steam_id":76561198077713291,"connected_time":634000000000,"state":"active","ping":72},{"user_id":326,"name":"elfy","steam_id":76561198061637177,"connected_time":632000000000,"state":"active","ping":83},{"user_id":287,"name":"Sweets","steam_id":76561198998446307,"connected_time":4450000000000,"state":"active","ping":69},{"user_id":300,"name":"profile name","steam_id":76561198032625036,"connected_time":2577000000000,"state":"active","ping":61},{"user_id":332,"name":"doomshroom","steam_id":76561198092827250,"connected_time":183000000000,"state":"active","ping":59},{"user_id":276,"name":"Ayayahuasca","steam_id":76561199002906056,"connected_time":5757000000000,"state":"active","ping":50}]},{"server_id":119,"name":"Uncletopia | Seattle | 2 | All Maps","name_short":"sea-2","host":"sea-1.us.uncletopia.com","port":27025,"enabled":true,"region":"us-west","cc":"us","latitude":47.608013,"longitude":-122.33517,"reserved":0,"last_update":"0001-01-01T00:00:00Z","name_a2s":"Uncletopia | Seattle | 2 | All Maps","protocol":17,"map":"pl_upward","folder":"tf","game":"Team Fortress","app_id":440,"player_count":24,"max_players":24,"Bots":0,"server_type":"Dedicated","server_os":"Linux","password":true,"vac":true,"version":"7757534","steam_id":85568392924469998,"keywords":["nocrits","nodmgspread","payload","uncletopia"],"game_id":440,"stv_port":27026,"stv_name":"Uncletopia | Seattle | 2 | All Maps | STV","players":[{"user_id":255,"name":"mmmBoyo","steam_id":76561198821360261,"connected_time":2041000000000,"state":"active","ping":53},{"user_id":270,"name":"Julien","steam_id":76561199389584938,"connected_time":644000000000,"state":"active","ping":39},{"user_id":243,"name":"Roberto‚Ñ¢","steam_id":76561198856969918,"connected_time":2928000000000,"state":"active","ping":92},{"user_id":261,"name":"sly1","steam_id":76561198049014977,"connected_time":1553000000000,"state":"active","ping":58},{"user_id":211,"name":"Professor Cuthbert Calculus","steam_id":76561198003257461,"connected_time":5209000000000,"state":"active","ping":61},{"user_id":242,"name":"The Pepsi¬Æ Superbowl¬Æ!","steam_id":76561198080828981,"connected_time":3093000000000,"state":"active","ping":80},{"user_id":265,"name":"SheepWithPants","steam_id":76561198169158454,"connected_time":995000000000,"state":"active","ping":70},{"user_id":267,"name":"Fresh","steam_id":76561198068565728,"connected_time":912000000000,"state":"active","ping":51},{"user_id":239,"name":"Anderswo","steam_id":76561198253224241,"connected_time":3420000000000,"state":"active","ping":59},{"user_id":247,"name":"KingTinkerer","steam_id":76561198226856548,"connected_time":2515000000000,"state":"active","ping":76},{"user_id":230,"name":"JJP","steam_id":76561198032914094,"connected_time":3839000000000,"state":"active","ping":73},{"user_id":262,"name":"Jezzus","steam_id":76561199289676387,"connected_time":1475000000000,"state":"active","ping":115},{"user_id":161,"name":"MCman","steam_id":76561198412110305,"connected_time":9146000000000,"state":"active","ping":78},{"user_id":185,"name":"Gwoted Wiwf Da Swaws","steam_id":76561197992559225,"connected_time":7964000000000,"state":"active","ping":55},{"user_id":258,"name":"Keth (No i)","steam_id":76561198155903648,"connected_time":2014000000000,"state":"active","ping":59},{"user_id":260,"name":"Wender","steam_id":76561198995247917,"connected_time":1831000000000,"state":"active","ping":97},{"user_id":237,"name":"TimTam Tom","steam_id":76561198045988062,"connected_time":3581000000000,"state":"active","ping":99},{"user_id":256,"name":"SvicidalBug","steam_id":76561198221390504,"connected_time":2035000000000,"state":"active","ping":68},{"user_id":241,"name":"General Fisticuffs","steam_id":76561198255721392,"connected_time":3344000000000,"state":"active","ping":112},{"user_id":275,"name":"johnman gooberguy","steam_id":76561199014859764,"connected_time":50000000000,"state":"active","ping":80},{"user_id":273,"name":"QwikSand","steam_id":76561198082468030,"connected_time":227000000000,"state":"active","ping":71},{"user_id":249,"name":"Alset","steam_id":76561197993820174,"connected_time":2468000000000,"state":"active","ping":147},{"user_id":263,"name":"Noobot9k","steam_id":76561198067338651,"connected_time":1002000000000,"state":"active","ping":69},{"user_id":187,"name":"Adalbern","steam_id":76561197991785034,"connected_time":7337000000000,"state":"active","ping":46}]},{"server_id":406,"name":"Uncletopia | Seattle | 3 | Stopwatch Beta","name_short":"sea-3","host":"sea-1.us.uncletopia.com","port":27035,"enabled":true,"region":"us-west","cc":"us","latitude":47.608013,"longitude":-122.33517,"reserved":0,"last_update":"0001-01-01T00:00:00Z","name_a2s":"Uncletopia | Seattle | 3 | Stopwatch Beta","protocol":17,"map":"workshop/koth_clearcut_b15.ugc2107050255","folder":"tf","game":"Team Fortress","app_id":440,"player_count":0,"max_players":24,"Bots":0,"server_type":"Dedicated","server_os":"Linux","password":true,"vac":true,"version":"7757534","steam_id":85568392924515217,"keywords":["cp","nocrits","nodmgspread","uncletopia"],"game_id":440,"stv_port":27036,"stv_name":"Uncletopia | Seattle | 3 | Stopwatch Beta | STV","players":null},{"server_id":17,"name":"Uncletopia | San Francisco | 1 | All Maps","name_short":"sfo-1","host":"sfo-1.us.uncletopia.com","port":27015,"enabled":true,"region":"us-west","cc":"us","latitude":37.77397,"longitude":-122.4313,"reserved":0,"last_update":"0001-01-01T00:00:00Z","name_a2s":"Uncletopia | San Francisco | 1 | All Maps","protocol":17,"map":"pl_pier","folder":"tf","game":"Team Fortress","app_id":440,"player_count":24,"max_players":24,"Bots":0,"server_type":"Dedicated","server_os":"Linux","password":true,"vac":true,"version":"7757534","steam_id":85568392924469999,"keywords":["nocrits","nodmgspread","payload","uncletopia"],"game_id":440,"stv_port":27016,"stv_name":"Uncletopia | San Francisco | 1 | All Maps | STV","players":[{"user_id":143,"name":"HUIEI","steam_id":76561198073763735,"connected_time":4284000000000,"state":"active","ping":54},{"user_id":186,"name":"Jax O'Gaytor","steam_id":76561198288922168,"connected_time":258000000000,"state":"active","ping":78},{"user_id":184,"name":"UwU","steam_id":76561198076935150,"connected_time":335000000000,"state":"active","ping":53},{"user_id":185,"name":"two metre tall miku","steam_id":76561198337705174,"connected_time":333000000000,"state":"active","ping":75},{"user_id":146,"name":"SirJameston","steam_id":76561198035674306,"connected_time":4040000000000,"state":"active","ping":108},{"user_id":189,"name":"a homeless cat","steam_id":76561198058388903,"connected_time":220000000000,"state":"active","ping":69},{"user_id":155,"name":"Samantha","steam_id":76561198127578307,"connected_time":2945000000000,"state":"active","ping":75},{"user_id":162,"name":"Flyingcat9000","steam_id":76561198179561797,"connected_time":2532000000000,"state":"active","ping":32},{"user_id":179,"name":"Orthodox Rabbi Bill Clinton","steam_id":76561198051000442,"connected_time":385000000000,"state":"active","ping":50},{"user_id":180,"name":"gamer","steam_id":76561198334059206,"connected_time":365000000000,"state":"active","ping":57},{"user_id":175,"name":"trackpad gaming | f2p","steam_id":76561198840414371,"connected_time":1235000000000,"state":"active","ping":135},{"user_id":141,"name":"Stboxnard","steam_id":76561198089888887,"connected_time":4577000000000,"state":"active","ping":82},{"user_id":163,"name":"The Assistant Regional Manager","steam_id":76561199221484936,"connected_time":2525000000000,"state":"active","ping":71},{"user_id":174,"name":"loco503","steam_id":76561198827495121,"connected_time":1365000000000,"state":"active","ping":72},{"user_id":158,"name":"Mr. Call You Back","steam_id":76561198025172811,"connected_time":2920000000000,"state":"active","ping":50},{"user_id":188,"name":"DoctorHa","steam_id":76561198044026008,"connected_time":257000000000,"state":"active","ping":68},{"user_id":177,"name":"Duppy","steam_id":76561198200293463,"connected_time":853000000000,"state":"active","ping":81},{"user_id":161,"name":"brutal","steam_id":76561199122497648,"connected_time":2800000000000,"state":"active","ping":73},{"user_id":171,"name":"Battery_Included","steam_id":76561198067164431,"connected_time":1869000000000,"state":"active","ping":54},{"user_id":133,"name":"Some Dood on the Internet","steam_id":76561198054657687,"connected_time":4784000000000,"state":"active","ping":81},{"user_id":160,"name":"Lily Thorn","steam_id":76561198305488625,"connected_time":2841000000000,"state":"active","ping":85},{"user_id":182,"name":"AKKAWI","steam_id":76561198203159952,"connected_time":357000000000,"state":"active","ping":59},{"user_id":140,"name":"Agent86","steam_id":76561198046794593,"connected_time":4611000000000,"state":"active","ping":133},{"user_id":183,"name":"Aunty Frazzle","steam_id":76561198145596626,"connected_time":356000000000,"state":"active","ping":55}]},{"server_id":18,"name":"Uncletopia | San Francisco | 2 | All Maps","name_short":"sfo-2","host":"sfo-1.us.uncletopia.com","port":27025,"enabled":true,"region":"us-west","cc":"us","latitude":37.77397,"longitude":-122.4313,"reserved":0,"last_update":"0001-01-01T00:00:00Z","name_a2s":"Uncletopia | San Francisco | 2 | All Maps","protocol":17,"map":"pl_pier","folder":"tf","game":"Team Fortress","app_id":440,"player_count":0,"max_players":24,"Bots":0,"server_type":"Dedicated","server_os":"Linux","password":true,"vac":true,"version":"7757534","steam_id":85568392924470000,"keywords":["nocrits","nodmgspread","payload","uncletopia"],"game_id":440,"stv_port":27026,"stv_name":"Uncletopia | San Francisco | 2 | All Maps | STV","players":null},{"server_id":19,"name":"Uncletopia | San Francisco | 3 | Stopwatch Beta","name_short":"sfo-3","host":"sfo-1.us.uncletopia.com","port":27035,"enabled":true,"region":"us-west","cc":"us","latitude":37.77397,"longitude":-122.4313,"reserved":0,"last_update":"0001-01-01T00:00:00Z","name_a2s":"Uncletopia | San Francisco | 3 | Stopwatch Beta","protocol":17,"map":"koth_viaduct","folder":"tf","game":"Team Fortress","app_id":440,"player_count":0,"max_players":24,"Bots":0,"server_type":"Dedicated","server_os":"Linux","password":true,"vac":true,"version":"7757534","steam_id":85568392924742824,"keywords":["cp","nocrits","nodmgspread","uncletopia"],"game_id":440,"stv_port":27036,"stv_name":"Uncletopia | San Francisco | 3 | Stopwatch Beta | STV","players":null},{"server_id":20,"name":"Uncletopia | San Francisco | 4 | Community","name_short":"sfo-4","host":"sfo-1.us.uncletopia.com","port":27045,"enabled":true,"region":"us-west","cc":"us","latitude":37.77397,"longitude":-122.4313,"reserved":0,"last_update":"0001-01-01T00:00:00Z","name_a2s":"Uncletopia | San Francisco | 4 | Community","protocol":17,"map":"workshop/koth_bagel_rc5.ugc2514036946","folder":"tf","game":"Team Fortress","app_id":440,"player_count":0,"max_players":24,"Bots":0,"server_type":"Dedicated","server_os":"Linux","password":true,"vac":true,"version":"7757534","steam_id":85568392924742826,"keywords":["cp","nocrits","nodmgspread","uncletopia"],"game_id":440,"stv_port":27046,"stv_name":"Uncletopia | San Francisco | 4 | Community | STV","players":null},{"server_id":141,"name":"Uncletopia | Sydney | 1 | All Maps","name_short":"syd-1","host":"syd-1.au.uncletopia.com","port":27015,"enabled":true,"region":"au","cc":"au","latitude":-33.865143,"longitude":151.2099,"reserved":0,"last_update":"0001-01-01T00:00:00Z","name_a2s":"Uncletopia | Sydney | 1 | All Maps","protocol":17,"map":"koth_harvest_final","folder":"tf","game":"Team Fortress","app_id":440,"player_count":21,"max_players":24,"Bots":0,"server_type":"Dedicated","server_os":"Linux","password":true,"vac":true,"version":"7757534","steam_id":85568392924470001,"keywords":["cp","nocrits","nodmgspread","uncletopia"],"game_id":440,"stv_port":27016,"stv_name":"Uncletopia | Sydney | 1 | All Maps | STV","players":[{"user_id":235,"name":"wombraider","steam_id":76561199375834537,"connected_time":651000000000,"state":"active","ping":128},{"user_id":207,"name":"Kiwipisiki","steam_id":76561198063134372,"connected_time":2893000000000,"state":"active","ping":56},{"user_id":228,"name":"var","steam_id":76561198164892406,"connected_time":874000000000,"state":"active","ping":59},{"user_id":220,"name":"Pop_corny","steam_id":76561198400595110,"connected_time":1473000000000,"state":"active","ping":36},{"user_id":225,"name":"ten thousand bees","steam_id":76561199099744527,"connected_time":1042000000000,"state":"active","ping":50},{"user_id":244,"name":"Detergent Burger","steam_id":76561198362462506,"connected_time":162000000000,"state":"active","ping":49},{"user_id":226,"name":"Yeehaw","steam_id":76561198039684922,"connected_time":1001000000000,"state":"active","ping":47},{"user_id":222,"name":"CheeseFlag126","steam_id":76561199262769917,"connected_time":1352000000000,"state":"active","ping":65},{"user_id":229,"name":"SpacePan","steam_id":76561199164052617,"connected_time":865000000000,"state":"active","ping":61},{"user_id":230,"name":"hobo","steam_id":76561199046481213,"connected_time":732000000000,"state":"active","ping":66},{"user_id":246,"name":"Sparky","steam_id":76561198117687688,"connected_time":65000000000,"state":"active","ping":60},{"user_id":232,"name":"canned tuna","steam_id":76561198420727269,"connected_time":703000000000,"state":"active","ping":50},{"user_id":239,"name":"Cal","steam_id":76561198069132107,"connected_time":413000000000,"state":"active","ping":59},{"user_id":243,"name":"Nyda","steam_id":76561198152311904,"connected_time":186000000000,"state":"active","ping":64},{"user_id":236,"name":"beth.cubitt","steam_id":76561198454733447,"connected_time":607000000000,"state":"active","ping":90},{"user_id":238,"name":"Borgooskulleater","steam_id":76561198347646513,"connected_time":483000000000,"state":"active","ping":56},{"user_id":209,"name":"Piklz","steam_id":76561198043384139,"connected_time":2749000000000,"state":"active","ping":52},{"user_id":219,"name":"maximind123","steam_id":76561199237473824,"connected_time":1534000000000,"state":"active","ping":55},{"user_id":241,"name":"lofty","steam_id":76561198380588357,"connected_time":214000000000,"state":"active","ping":60},{"user_id":245,"name":"le0","steam_id":76561197965566926,"connected_time":103000000000,"state":"active","ping":44},{"user_id":150,"name":"Cup","steam_id":76561198038485845,"connected_time":8425000000000,"state":"active","ping":42}]},{"server_id":123,"name":"Uncletopia | Sydney | 2 | All Maps","name_short":"syd-2","host":"syd-1.au.uncletopia.com","port":27025,"enabled":true,"region":"au","cc":"au","latitude":-33.865143,"longitude":151.2099,"reserved":0,"last_update":"0001-01-01T00:00:00Z","name_a2s":"Uncletopia | Sydney | 2 | All Maps","protocol":17,"map":"cp_dustbowl","folder":"tf","game":"Team Fortress","app_id":440,"player_count":2,"max_players":24,"Bots":0,"server_type":"Dedicated","server_os":"Linux","password":true,"vac":true,"version":"7757534","steam_id":85568392924470002,"keywords":["cp","nocrits","nodmgspread","uncletopia"],"game_id":440,"stv_port":27026,"stv_name":"Uncletopia | Sydney | 2 | All Maps | STV","players":[{"user_id":36,"name":"chimney","steam_id":76561198808724546,"connected_time":1509000000000,"state":"active","ping":61},{"user_id":34,"name":"gun spy TF2","steam_id":76561199446773766,"connected_time":1687000000000,"state":"active","ping":128}]},{"server_id":395,"name":"Uncletopia | Sydney | 3 | All Maps","name_short":"syd-3","host":"syd-1.au.uncletopia.com","port":27035,"enabled":true,"region":"au","cc":"au","latitude":-33.865143,"longitude":151.2099,"reserved":0,"last_update":"0001-01-01T00:00:00Z","name_a2s":"Uncletopia | Sydney | 3 | All Maps","protocol":17,"map":"pl_frontier_final","folder":"tf","game":"Team Fortress","app_id":440,"player_count":0,"max_players":24,"Bots":0,"server_type":"Dedicated","server_os":"Linux","password":true,"vac":true,"version":"7757534","steam_id":85568392925194467,"keywords":["nocrits","nodmgspread","payload","uncletopia"],"game_id":440,"stv_port":27036,"stv_name":"Uncletopia | Sydney | 3 | All Maps | STV","players":null},{"server_id":396,"name":"Uncletopia | Sydney | 4 | All Maps","name_short":"syd-4","host":"syd-1.au.uncletopia.com","port":27045,"enabled":true,"region":"au","cc":"au","latitude":-33.865143,"longitude":151.2099,"reserved":0,"last_update":"0001-01-01T00:00:00Z","name_a2s":"Uncletopia | Sydney | 4 | All Maps","protocol":17,"map":"koth_viaduct","folder":"tf","game":"Team Fortress","app_id":440,"player_count":0,"max_players":24,"Bots":0,"server_type":"Dedicated","server_os":"Linux","password":true,"vac":true,"version":"7757534","steam_id":85568392925397958,"keywords":["cp","nocrits","nodmgspread","uncletopia"],"game_id":440,"stv_port":27046,"stv_name":"Uncletopia | Sydney | 4 | All Maps | STV","players":null},{"server_id":58,"name":"Uncletopia | Sydney | 5 | Stopwatch Beta","name_short":"syd-5","host":"syd-1.au.uncletopia.com","port":27055,"enabled":true,"region":"au","cc":"au","latitude":-33.865143,"longitude":151.2099,"reserved":0,"last_update":"0001-01-01T00:00:00Z","name_a2s":"Uncletopia | Sydney | 5 | Stopwatch Beta","protocol":17,"map":"pl_barnblitz","folder":"tf","game":"Team Fortress","app_id":440,"player_count":0,"max_players":24,"Bots":0,"server_type":"Dedicated","server_os":"Linux","password":true,"vac":true,"version":"7757534","steam_id":85568392925397959,"keywords":["nocrits","nodmgspread","payload","uncletopia"],"game_id":440,"stv_port":27056,"stv_name":"Uncletopia | Sydney | 5 | Stopwatch Beta | STV","players":null},{"server_id":59,"name":"Uncletopia | Sydney | 6 | Community","name_short":"syd-6","host":"syd-1.au.uncletopia.com","port":27065,"enabled":true,"region":"au","cc":"au","latitude":-33.865143,"longitude":151.2099,"reserved":0,"last_update":"0001-01-01T00:00:00Z","name_a2s":"Uncletopia | Sydney | 6 | Community","protocol":17,"map":"workshop/koth_synthetic_rc6a.ugc1549817316","folder":"tf","game":"Team Fortress","app_id":440,"player_count":0,"max_players":24,"Bots":0,"server_type":"Dedicated","server_os":"Linux","password":true,"vac":true,"version":"7757534","steam_id":85568392925397960,"keywords":["cp","nocrits","nodmgspread","uncletopia"],"game_id":440,"stv_port":27066,"stv_name":"Uncletopia | Sydney | 6 | Community | STV","players":null},{"server_id":49,"name":"Uncletopia | Warsaw | 1 | All Maps","name_short":"waw-1","host":"waw-1.pl.uncletopia.com","port":27015,"enabled":true,"region":"eu","cc":"pl","latitude":52.2297,"longitude":21.017532,"reserved":0,"last_update":"0001-01-01T00:00:00Z","name_a2s":"","protocol":0,"map":"","folder":"","game":"","app_id":0,"player_count":0,"max_players":0,"Bots":0,"server_type":"","server_os":"","password":false,"vac":false,"version":"","steam_id":0,"keywords":null,"game_id":0,"stv_port":0,"stv_name":"","players":null},{"server_id":50,"name":"Uncletopia | Warsaw | 2 | All Maps","name_short":"waw-2","host":"waw-1.pl.uncletopia.com","port":27025,"enabled":true,"region":"eu","cc":"pl","latitude":52.2297,"longitude":21.017532,"reserved":0,"last_update":"0001-01-01T00:00:00Z","name_a2s":"Uncletopia | Warsaw | 2 | All Maps","protocol":17,"map":"cp_snakewater_final1","folder":"tf","game":"Team Fortress","app_id":440,"player_count":0,"max_players":24,"Bots":0,"server_type":"Dedicated","server_os":"Linux","password":true,"vac":true,"version":"7757534","steam_id":85568392925397851,"keywords":["cp","nocrits","nodmgspread","uncletopia"],"game_id":440,"stv_port":27026,"stv_name":"Uncletopia | Warsaw | 2 | All Maps | STV","players":null},{"server_id":51,"name":"Uncletopia | Warsaw | 3 | All Maps","name_short":"waw-3","host":"waw-1.pl.uncletopia.com","port":27035,"enabled":true,"region":"eu","cc":"pl","latitude":52.2297,"longitude":21.017532,"reserved":0,"last_update":"0001-01-01T00:00:00Z","name_a2s":"Uncletopia | Warsaw | 3 | All Maps","protocol":17,"map":"cp_sunshine","folder":"tf","game":"Team Fortress","app_id":440,"player_count":0,"max_players":24,"Bots":0,"server_type":"Dedicated","server_os":"Linux","password":true,"vac":true,"version":"7757534","steam_id":85568392925397852,"keywords":["cp","nocrits","nodmgspread","uncletopia"],"game_id":440,"stv_port":27036,"stv_name":"Uncletopia | Warsaw | 3 | All Maps | STV","players":null},{"server_id":52,"name":"Uncletopia | Warsaw | 4 | All Maps","name_short":"waw-4","host":"waw-1.pl.uncletopia.com","port":27045,"enabled":true,"region":"eu","cc":"pl","latitude":52.2297,"longitude":21.017532,"reserved":0,"last_update":"0001-01-01T00:00:00Z","name_a2s":"Uncletopia | Warsaw | 4 | All Maps","protocol":17,"map":"pl_borneo","folder":"tf","game":"Team Fortress","app_id":440,"player_count":0,"max_players":24,"Bots":0,"server_type":"Dedicated","server_os":"Linux","password":true,"vac":true,"version":"7757534","steam_id":85568392925397853,"keywords":["nocrits","nodmgspread","payload","uncletopia"],"game_id":440,"stv_port":27046,"stv_name":"Uncletopia | Warsaw | 4 | All Maps | STV","players":null},{"server_id":53,"name":"Uncletopia | Warsaw | 5 | Stopwatch Beta","name_short":"waw-5","host":"waw-1.pl.uncletopia.com","port":27055,"enabled":true,"region":"eu","cc":"pl","latitude":52.2297,"longitude":21.017532,"reserved":0,"last_update":"0001-01-01T00:00:00Z","name_a2s":"Uncletopia | Warsaw | 5 | Stopwatch Beta","protocol":17,"map":"pl_upward","folder":"tf","game":"Team Fortress","app_id":440,"player_count":0,"max_players":24,"Bots":0,"server_type":"Dedicated","server_os":"Linux","password":true,"vac":true,"version":"7757534","steam_id":85568392925397854,"keywords":["nocrits","nodmgspread","payload","uncletopia"],"game_id":440,"stv_port":27056,"stv_name":"Uncletopia | Warsaw | 5 | Stopwatch Beta | STV","players":null},{"server_id":54,"name":"Uncletopia | Warsaw | 6 | Community","name_short":"waw-6","host":"waw-1.pl.uncletopia.com","port":27065,"enabled":true,"region":"eu","cc":"pl","latitude":52.2297,"longitude":21.017532,"reserved":0,"last_update":"0001-01-01T00:00:00Z","name_a2s":"Uncletopia | Warsaw | 6 | Community","protocol":17,"map":"pl_barnblitz","folder":"tf","game":"Team Fortress","app_id":440,"player_count":0,"max_players":24,"Bots":0,"server_type":"Dedicated","server_os":"Linux","password":true,"vac":true,"version":"7757534","steam_id":85568392925397856,"keywords":["nocrits","nodmgspread","payload","uncletopia"],"game_id":440,"stv_port":27066,"stv_name":"Uncletopia | Warsaw | 6 | Community | STV","players":null}]}