{"status":true,"message":"","result":[{"server_id":9,"name":"Uncletopia | Atlanta | 1 | All Maps","name_short":"atl-1","host":"atl-1.us.uncletopia.com","port":27015,"enabled":true,"region":"us-east","cc":"us","latitude":33.753746,"longitude":-84.38633,"reserved":0,"last_update":"0001-01-01T00:00:00Z","name_a2s":"Uncletopia | Atlanta | 1 | All Maps","protocol":17,"map":"pl_swiftwater_final1","folder":"tf","game":"Team Fortress","app_id":440,"player_count":24,"max_players":24,"Bots":0,"server_type":"Dedicated","server_os":"Linux","password":true,"vac":true,"version":"7961495","steam_id":85568392924469982,"keywords":["nocrits","nodmgspread","payload","uncletopia"],"game_id":440,"stv_port":27016,"stv_name":"Uncletopia | Atlanta | 1 | All Maps | STV","players":[{"user_id":189,"name":"coolkid","steam_id":76561198072600034,"connected_time":577000000000,"state":"active","ping":96},{"user_id":161,"name":"Toonice","steam_id":76561198402994885,"connected_time":3744000000000,"state":"active","ping":84},{"user_id":156,"name":"eish","steam_id":76561198089463603,"connected_time":5535000000000,"state":"active","ping":118},{"user_id":164,"name":"Jingles the Box Elf","steam_id":76561198022302843,"connected_time":3710000000000,"state":"active","ping":63},{"user_id":150,"name":"FIJI","steam_id":76561198126087725,"connected_time":5860000000000,"state":"active","ping":68},{"user_id":198,"name":"HiRoboxFun","steam_id":76561198894338330,"connected_time":123000000000,"state":"active","ping":65},{"user_id":160,"name":"Motorolª","steam_id":76561198358119669,"connected_time":4166000000000,"state":"active","ping":120},{"user_id":179,"name":"BLOW UP NEW JERSEY","steam_id":76561198364439575,"connected_time":1739000000000,"state":"active","ping":74},{"user_id":169,"name":"Am Da Best","steam_id":76561198163825955,"connected_time":3267000000000,"state":"active","ping":106},{"user_id":126,"name":"William Wallace","steam_id":76561199343316814,"connected_time":8667000000000,"state":"active","ping":59},{"user_id":174,"name":"Dr.Inkmix(femboy medic!)","steam_id":76561198854070384,"connected_time":1981000000000,"state":"active","ping":120},{"user_id":175,"name":"ATL1 | cola","steam_id":76561198374390458,"connected_time":1977000000000,"state":"active","ping":61},{"user_id":183,"name":"twinblock","steam_id":76561198157414556,"connected_time":1341000000000,"state":"active","ping":75},{"user_id":192,"name":"Andrestor","steam_id":76561198005934930,"connected_time":471000000000,"state":"active","ping":118},{"user_id":196,"name":"CrustyTheMoist","steam_id":76561198072904466,"connected_time":253000000000,"state":"active","ping":78},{"user_id":182,"name":"The Notorious RBG","steam_id":76561198014275148,"connected_time":1561000000000,"state":"active","ping":85},{"user_id":195,"name":"freyja","steam_id":76561198249206656,"connected_time":325000000000,"state":"active","ping":90},{"user_id":137,"name":"Notsocreative","steam_id":76561198236372202,"connected_time":7341000000000,"state":"active","ping":94},{"user_id":197,"name":"Koala Bear","steam_id":76561198118025990,"connected_time":241000000000,"state":"active","ping":105},{"user_id":186,"name":"Shame","steam_id":76561198100490994,"connected_time":1280000000000,"state":"active","ping":61},{"user_id":167,"name":"Sophie","steam_id":76561198170408057,"connected_time":3522000000000,"state":"active","ping":57},{"user_id":185,"name":"substance","steam_id":76561198050103868,"connected_time":1340000000000,"state":"active","ping":116},{"user_id":178,"name":"Dox","steam_id":76561198120368589,"connected_time":1803000000000,"state":"active","ping":65},{"user_id":173,"name":"Dreszerg","steam_id":76561198838757422,"connected_time":1994000000000,"state":"active","ping":99}]},{"server_id":104,"name":"Uncletopia | Atlanta | 2 | All Maps","name_short":"atl-2","host":"atl-1.us.uncletopia.com","port":27025,"enabled":true,"region":"us-east","cc":"us","latitude":33.753746,"longitude":-84.38633,"reserved":0,"last_update":"0001-01-01T00:00:00Z","name_a2s":"Uncletopia | Atlanta | 2 | All Maps","protocol":17,"map":"koth_cascade","folder":"tf","game":"Team Fortress","app_id":440,"player_count":0,"max_players":24,"Bots":0,"server_type":"Dedicated","server_os":"Linux","password":true,"vac":true,"version":"7961495","steam_id":85568392924469983,"keywords":["cp","nocrits","nodmgspread","uncletopia"],"game_id":440,"stv_port":27026,"stv_name":"Uncletopia | Atlanta | 2 | All Maps | STV","players":null},{"server_id":400,"name":"Uncletopia | Atlanta | 3 | Stopwatch","name_short":"atl-3","host":"atl-1.us.uncletopia.com","port":27035,"enabled":true,"region":"us-east","cc":"us","latitude":33.753746,"longitude":-84.38633,"reserved":0,"last_update":"0001-01-01T00:00:00Z","name_a2s":"Uncletopia | Atlanta | 3 | Stopwatch","protocol":17,"map":"pl_upward","folder":"tf","game":"Team Fortress","app_id":440,"player_count":0,"max_players":24,"Bots":0,"server_type":"Dedicated","server_os":"Linux","password":true,"vac":true,"version":"7961495","steam_id":85568392924515187,"keywords":["nocrits","nodmgspread","payload","uncletopia"],"game_id":440,"stv_port":27036,"stv_name":"Uncletopia | Atlanta | 3 | Stopwatch | STV","players":null},{"server_id":401,"name":"Uncletopia | Atlanta | 4 | Community","name_short":"atl-4","host":"atl-1.us.uncletopia.com","port":27045,"enabled":true,"region":"us-east","cc":"us","latitude":33.753746,"longitude":-84.38633,"reserved":0,"last_update":"0001-01-01T00:00:00Z","name_a2s":"Uncletopia | Atlanta | 4 | Community","protocol":17,"map":"workshop/cp_fulgur_rc2a.ugc2068252300","folder":"tf","game":"Team Fortress","app_id":440,"player_count":24,"max_players":24,"Bots":0,"server_type":"Dedicated","server_os":"Linux","password":true,"vac":true,"version":"7961495","steam_id":85568392924515188,"keywords":["cp","nocrits","nodmgspread","uncletopia"],"game_id":440,"stv_port":27046,"stv_name":"Uncletopia | Atlanta | 4 | Community | STV","players":[{"user_id":56,"name":"Saxon","steam_id":76561198886764052,"connected_time":464000000000,"state":"active","ping":90},{"user_id":52,"name":"DistantJragon","steam_id":76561198117563641,"connected_time":550000000000,"state":"active","ping":58},{"user_id":57,"name":"DonnieEladioVuente","steam_id":76561198273905858,"connected_time":350000000000,"state":"active","ping":176},{"user_id":24,"name":"BroBoss64","steam_id":76561198995865904,"connected_time":1436000000000,"state":"active","ping":76},{"user_id":46,"name":"hittign dabong","steam_id":76561198097588802,"connected_time":862000000000,"state":"active","ping":62},{"user_id":54,"name":"UNIT 220","steam_id":76561198042243497,"connected_time":514000000000,"state":"active","ping":79},{"user_id":58,"name":"F2P","steam_id":76561199501469347,"connected_time":282000000000,"state":"active","ping":73},{"user_id":47,"name":"b etween d","steam_id":76561198802099686,"connected_time":856000000000,"state":"active","ping":136},{"user_id":17,"name":"Ask Nicely For Heals","steam_id":76561198138478907,"connected_time":1733000000000,"state":"active","ping":85},{"user_id":18,"name":"cajun thotsauce","steam_id":76561198101636066,"connected_time":1666000000000,"state":"active","ping":100},{"user_id":19,"name":"Squirrel with a Wrench","steam_id":76561198334035413,"connected_time":1600000000000,"state":"active","ping":116},{"user_id":20,"name":"Piloto190Demente","steam_id":76561199210752440,"connected_time":1574000000000,"state":"active","ping":81},{"user_id":59,"name":"Frost Paraselene","steam_id":76561198007332517,"connected_time":266000000000,"state":"active","ping":91},{"user_id":26,"name":"hazypoz","steam_id":76561198075647830,"connected_time":1419000000000,"state":"active","ping":89},{"user_id":27,"name":"Absurdly Obese Cat","steam_id":76561198073202543,"connected_time":1405000000000,"state":"active","ping":75},{"user_id":60,"name":"\u003c blank \u003e","steam_id":76561199383789041,"connected_time":241000000000,"state":"active","ping":184},{"user_id":29,"name":"Itz_markerplier","steam_id":76561198379429216,"connected_time":1353000000000,"state":"active","ping":170},{"user_id":30,"name":"Mingbuscus","steam_id":76561198067893257,"connected_time":1343000000000,"state":"active","ping":107},{"user_id":61,"name":"Fish_man_Jon","steam_id":76561198068158264,"connected_time":236000000000,"state":"active","ping":60},{"user_id":32,"name":"[F2P] I reset my tf2 achivement","steam_id":76561199257316028,"connected_time":1324000000000,"state":"active","ping":59},{"user_id":63,"name":"Gwendolyn","steam_id":76561198170458145,"connected_time":184000000000,"state":"active","ping":113},{"user_id":34,"name":"itz_gugly","steam_id":76561198157935461,"connected_time":1285000000000,"state":"active","ping":108},{"user_id":49,"name":"bumrusherz","steam_id":76561198440658195,"connected_time":806000000000,"state":"active","ping":94},{"user_id":62,"name":"messenger zidgeon","steam_id":76561198098770013,"connected_time":226000000000,"state":"active","ping":101}]},{"server_id":2,"name":"Uncletopia | Chicago | 1 | All Maps","name_short":"chi-1","host":"chi-1.us.uncletopia.com","port":27015,"enabled":true,"region":"us-central","cc":"us","latitude":41.881832,"longitude":-87.62318,"reserved":0,"last_update":"0001-01-01T00:00:00Z","name_a2s":"Uncletopia | Chicago | 1 | All Maps","protocol":17,"map":"pl_upward","folder":"tf","game":"Team Fortress","app_id":440,"player_count":24,"max_players":24,"Bots":0,"server_type":"Dedicated","server_os":"Linux","password":true,"vac":true,"version":"7961495","steam_id":85568392924469984,"keywords":["nocrits","nodmgspread","payload","uncletopia"],"game_id":440,"stv_port":27016,"stv_name":"Uncletopia | Chicago | 1 | All Maps | STV","players":[{"user_id":413,"name":"debin","steam_id":76561198070711217,"connected_time":22000000000,"state":"active","ping":44},{"user_id":367,"name":"Ras","steam_id":76561198123546775,"connected_time":4080000000000,"state":"active","ping":85},{"user_id":407,"name":"Speedboat","steam_id":76561198094841559,"connected_time":457000000000,"state":"active","ping":46},{"user_id":405,"name":"cotton candy ghooost","steam_id":76561198058998371,"connected_time":482000000000,"state":"active","ping":62},{"user_id":373,"name":"Hylic","steam_id":76561199051314589,"connected_time":3155000000000,"state":"active","ping":60},{"user_id":403,"name":"NOLSEY","steam_id":76561198108959504,"connected_time":658000000000,"state":"active","ping":47},{"user_id":327,"name":"Cooler Ye","steam_id":76561198068830312,"connected_time":6680000000000,"state":"active","ping":42},{"user_id":406,"name":"Milkmur","steam_id":76561198210043821,"connected_time":472000000000,"state":"active","ping":65},{"user_id":404,"name":"crispylego_","steam_id":76561199453679719,"connected_time":655000000000,"state":"active","ping":128},{"user_id":383,"name":"corned beef","steam_id":76561199366782761,"connected_time":2852000000000,"state":"active","ping":153},{"user_id":366,"name":"dunk","steam_id":76561198132476501,"connected_time":4110000000000,"state":"active","ping":49},{"user_id":402,"name":"skaska4","steam_id":76561198080606141,"connected_time":724000000000,"state":"active","ping":80},{"user_id":385,"name":"Minin","steam_id":76561198018819047,"connected_time":2376000000000,"state":"active","ping":88},{"user_id":304,"name":"Amari","steam_id":76561198272446730,"connected_time":8534000000000,"state":"active","ping":57},{"user_id":400,"name":"Berb","steam_id":76561198193911899,"connected_time":1035000000000,"state":"active","ping":103},{"user_id":393,"name":"joseph stalin","steam_id":76561199230441293,"connected_time":1792000000000,"state":"active","ping":69},{"user_id":395,"name":"Blasterus","steam_id":76561198859486814,"connected_time":1561000000000,"state":"active","ping":76},{"user_id":412,"name":"yate","steam_id":76561198311004039,"connected_time":68000000000,"state":"active","ping":90},{"user_id":387,"name":"Eins Shinigami","steam_id":76561199030343810,"connected_time":2321000000000,"state":"active","ping":64},{"user_id":391,"name":"bird enthusiast","steam_id":76561198087661713,"connected_time":2079000000000,"state":"active","ping":62},{"user_id":411,"name":"Mystikkal","steam_id":76561198003949147,"connected_time":307000000000,"state":"active","ping":115},{"user_id":392,"name":"Goose","steam_id":76561198328998533,"connected_time":1907000000000,"state":"active","ping":50},{"user_id":408,"name":"HOMIE","steam_id":76561198057325155,"connected_time":457000000000,"state":"active","ping":62},{"user_id":328,"name":"LerN","steam_id":76561198083463877,"connected_time":6679000000000,"state":"active","ping":53}]},{"server_id":106,"name":"Uncletopia | Chicago | 2 | All Maps","name_short":"chi-2","host":"chi-1.us.uncletopia.com","port":27025,"enabled":true,"region":"us-central","cc":"us","latitude":41.881832,"longitude":-87.62318,"reserved":0,"last_update":"0001-01-01T00:00:00Z","name_a2s":"Uncletopia | Chicago | 2 | All Maps","protocol":17,"map":"pl_upward","folder":"tf","game":"Team Fortress","app_id":440,"player_count":23,"max_players":24,"Bots":0,"server_type":"Dedicated","server_os":"Linux","password":true,"vac":true,"version":"7961495","steam_id":85568392924469985,"keywords":["nocrits","nodmgspread","payload","uncletopia"],"game_id":440,"stv_port":27026,"stv_name":"Uncletopia | Chicago | 2 | All Maps | STV","players":[{"user_id":58,"name":"Hertz","steam_id":76561198310927351,"connected_time":1658000000000,"state":"active","ping":143},{"user_id":13,"name":"medd","steam_id":76561198078238722,"connected_time":3702000000000,"state":"active","ping":84},{"user_id":82,"name":"GimliLOTR","steam_id":76561198163746000,"connected_time":555000000000,"state":"active","ping":73},{"user_id":54,"name":"Salt","steam_id":76561198418001135,"connected_time":1682000000000,"state":"active","ping":59},{"user_id":74,"name":"wheat","steam_id":76561197971158435,"connected_time":819000000000,"state":"active","ping":51},{"user_id":75,"name":"Breakaway","steam_id":76561198089308523,"connected_time":797000000000,"state":"active","ping":84},{"user_id":17,"name":"Ice","steam_id":76561198045076794,"connected_time":3506000000000,"state":"active","ping":50},{"user_id":83,"name":"Magik","steam_id":76561198115443354,"connected_time":388000000000,"state":"active","ping":45},{"user_id":70,"name":"Yayifications","steam_id":76561198066227208,"connected_time":1065000000000,"state":"active","ping":61},{"user_id":86,"name":"Goon","steam_id":76561198400952853,"connected_time":0,"state":"spawning","ping":32},{"user_id":78,"name":"Chechens Spotted","steam_id":76561199028910893,"connected_time":749000000000,"state":"active","ping":84},{"user_id":55,"name":"Joculatrix","steam_id":76561198012795457,"connected_time":1682000000000,"state":"active","ping":68},{"user_id":85,"name":"۩ Kid Oldman ۩","steam_id":76561197986913111,"connected_time":1000000000,"state":"spawning","ping":73},{"user_id":56,"name":"CoconutRice","steam_id":76561198114909164,"connected_time":1681000000000,"state":"active","ping":46},{"user_id":29,"name":"Frontier Psychiatrist","steam_id":76561198038689088,"connected_time":3236000000000,"state":"active","ping":83},{"user_id":71,"name":"CF-TF2","steam_id":76561198145893044,"connected_time":1022000000000,"state":"active","ping":82},{"user_id":77,"name":"sillylokisparkles","steam_id":76561198872251615,"connected_time":781000000000,"state":"active","ping":82},{"user_id":84,"name":"ExtraChromosome 47","steam_id":76561198287822675,"connected_time":319000000000,"state":"active","ping":86},{"user_id":79,"name":"Quora","steam_id":76561199065197323,"connected_time":732000000000,"state":"active","ping":78},{"user_id":81,"name":"Jonah Hill from 21 Jump Street","steam_id":76561198811130843,"connected_time":636000000000,"state":"active","ping":82},{"user_id":36,"name":"Rappy \u003c3","steam_id":76561198105613110,"connected_time":3220000000000,"state":"active","ping":47},{"user_id":47,"name":"Mad Rex512","steam_id":76561198193533117,"connected_time":2591000000000,"state":"active","ping":48},{"user_id":39,"name":"big_poopman2011","steam_id":76561198373996593,"connected_time":3196000000000,"state":"active","ping":63}]},{"server_id":402,"name":"Uncletopia | Chicago | 3 | All Maps","name_short":"chi-3","host":"chi-1.us.uncletopia.com","port":27035,"enabled":true,"region":"us-central","cc":"us","latitude":41.881832,"longitude":-87.62318,"reserved":0,"last_update":"0001-01-01T00:00:00Z","name_a2s":"Uncletopia | Chicago | 3 | All Maps","protocol":17,"map":"pl_borneo","folder":"tf","game":"Team Fortress","app_id":440,"player_count":23,"max_players":24,"Bots":0,"server_type":"Dedicated","server_os":"Linux","password":true,"vac":true,"version":"7961495","steam_id":85568392924515191,"keywords":["nocrits","nodmgspread","payload","uncletopia"],"game_id":440,"stv_port":27036,"stv_name":"Uncletopia | Chicago | 3 | All Maps | STV","players":[{"user_id":295,"name":"MCMXC","steam_id":76561199017754044,"connected_time":701000000000,"state":"active","ping":73},{"user_id":240,"name":"Headshotsnake","steam_id":76561198067130248,"connected_time":4878000000000,"state":"active","ping":57},{"user_id":301,"name":"NUt","steam_id":76561198031007966,"connected_time":160000000000,"state":"active","ping":60},{"user_id":274,"name":"dave","steam_id":76561198135961731,"connected_time":2795000000000,"state":"active","ping":83},{"user_id":294,"name":"TODAYIWILLEATTWOCORNDOGS","steam_id":76561198799184149,"connected_time":853000000000,"state":"active","ping":53},{"user_id":299,"name":"King","steam_id":76561198123927752,"connected_time":176000000000,"state":"active","ping":53},{"user_id":288,"name":"otw way to mars off the bars","steam_id":76561199085974120,"connected_time":1111000000000,"state":"active","ping":73},{"user_id":302,"name":"Weasel","steam_id":76561198142461397,"connected_time":149000000000,"state":"active","ping":88},{"user_id":253,"name":"Overduecat","steam_id":76561198092452824,"connected_time":3914000000000,"state":"active","ping":70},{"user_id":296,"name":"lover","steam_id":76561198089852954,"connected_time":693000000000,"state":"active","ping":89},{"user_id":298,"name":"rat 2","steam_id":76561198197297414,"connected_time":251000000000,"state":"active","ping":39},{"user_id":255,"name":"shnowshner","steam_id":76561198066450438,"connected_time":3719000000000,"state":"active","ping":73},{"user_id":303,"name":"donut","steam_id":76561199220953702,"connected_time":139000000000,"state":"active","ping":72},{"user_id":297,"name":"d u n k","steam_id":76561198066114874,"connected_time":625000000000,"state":"active","ping":109},{"user_id":291,"name":"atlas","steam_id":76561198398383076,"connected_time":1017000000000,"state":"active","ping":83},{"user_id":289,"name":"A Puppy","steam_id":76561198828184456,"connected_time":1046000000000,"state":"active","ping":59},{"user_id":304,"name":"Fecal Feaster","steam_id":76561198386649656,"connected_time":138000000000,"state":"active","ping":73},{"user_id":279,"name":"Hey","steam_id":76561198447517893,"connected_time":2433000000000,"state":"active","ping":80},{"user_id":287,"name":"AkimboAoki","steam_id":76561198158323058,"connected_time":1182000000000,"state":"active","ping":93},{"user_id":285,"name":"vv","steam_id":76561198134813102,"connected_time":1434000000000,"state":"active","ping":73},{"user_id":269,"name":"cbv eagwsewdaefsd","steam_id":76561198304661367,"connected_time":2883000000000,"state":"active","ping":67},{"user_id":270,"name":"Decapitation Station","steam_id":76561198201796098,"connected_time":2880000000000,"state":"active","ping":89},{"user_id":305,"name":"com lag","steam_id":76561198019019392,"connected_time":123000000000,"state":"active","ping":46}]},{"server_id":403,"name":"Uncletopia | Chicago | 4 | All Maps","name_short":"chi-4","host":"chi-1.us.uncletopia.com","port":27045,"enabled":true,"region":"us-central","cc":"us","latitude":41.881832,"longitude":-87.62318,"reserved":0,"last_update":"0001-01-01T00:00:00Z","name_a2s":"Uncletopia | Chicago | 4 | All Maps","protocol":17,"map":"pl_pier","folder":"tf","game":"Team Fortress","app_id":440,"player_count":24,"max_players":24,"Bots":0,"server_type":"Dedicated","server_os":"Linux","password":true,"vac":true,"version":"7961495","steam_id":85568392924515193,"keywords":["nocrits","nodmgspread","payload","uncletopia"],"game_id":440,"stv_port":27046,"stv_name":"Uncletopia | Chicago | 4 | All Maps | STV","players":[{"user_id":188,"name":"calward","steam_id":76561198089672669,"connected_time":156000000000,"state":"active","ping":61},{"user_id":166,"name":"Firedust19","steam_id":76561198153238631,"connected_time":1884000000000,"state":"active","ping":115},{"user_id":124,"name":"Weerk","steam_id":76561199209543551,"connected_time":4107000000000,"state":"active","ping":76},{"user_id":181,"name":"consumer of bonk","steam_id":76561199041402389,"connected_time":723000000000,"state":"active","ping":71},{"user_id":182,"name":"Worst Scenario","steam_id":76561199052130229,"connected_time":693000000000,"state":"active","ping":58},{"user_id":189,"name":"Oogle","steam_id":76561198041815877,"connected_time":116000000000,"state":"active","ping":58},{"user_id":149,"name":"ThatGamingKiwi","steam_id":76561199170522237,"connected_time":2395000000000,"state":"active","ping":75},{"user_id":169,"name":"D(b) Hell","steam_id":76561198067869016,"connected_time":1762000000000,"state":"active","ping":40},{"user_id":156,"name":"Try Gardening","steam_id":76561198120311340,"connected_time":2208000000000,"state":"active","ping":39},{"user_id":180,"name":"Buttons :)","steam_id":76561198139478534,"connected_time":778000000000,"state":"active","ping":117},{"user_id":159,"name":"Schizoid Despot","steam_id":76561198141902905,"connected_time":2158000000000,"state":"active","ping":58},{"user_id":190,"name":"Candy Sparkles","steam_id":76561198126871264,"connected_time":103000000000,"state":"active","ping":83},{"user_id":171,"name":"Chicanery","steam_id":76561199132214008,"connected_time":1302000000000,"state":"active","ping":93},{"user_id":168,"name":"dree says relax!","steam_id":76561198079178866,"connected_time":1774000000000,"state":"active","ping":74},{"user_id":191,"name":"BLØRG","steam_id":76561198036126673,"connected_time":65000000000,"state":"active","ping":78},{"user_id":192,"name":"mariopasta6","steam_id":76561199073184183,"connected_time":62000000000,"state":"active","ping":69},{"user_id":130,"name":"ⒸⓆⒷ","steam_id":76561199068623664,"connected_time":3831000000000,"state":"active","ping":98},{"user_id":145,"name":"doro","steam_id":76561198099041747,"connected_time":3036000000000,"state":"active","ping":102},{"user_id":193,"name":"∰","steam_id":76561198064424202,"connected_time":55000000000,"state":"spawning","ping":140},{"user_id":178,"name":"Quantum level failure","steam_id":76561199037497493,"connected_time":809000000000,"state":"active","ping":54},{"user_id":113,"name":"bouncypear","steam_id":76561198199800094,"connected_time":4679000000000,"state":"active","ping":55},{"user_id":172,"name":"robe","steam_id":76561198238166694,"connected_time":1163000000000,"state":"active","ping":55},{"user_id":164,"name":"Garfield","steam_id":76561198147300599,"connected_time":2072000000000,"state":"active","ping":68},{"user_id":185,"name":"snowcap","steam_id":76561198344164944,"connected_time":640000000000,"state":"active","ping":106}]},{"server_id":36,"name":"Uncletopia | Chicago | 5 | All Maps","name_short":"chi-5","host":"chi-2.us.uncletopia.com","port":27015,"enabled":true,"region":"us-central","cc":"us","latitude":41.881832,"longitude":-87.62318,"reserved":0,"last_update":"0001-01-01T00:00:00Z","name_a2s":"Uncletopia | Chicago | 5 | All Maps","protocol":17,"map":"koth_viaduct","folder":"tf","game":"Team Fortress","app_id":440,"player_count":0,"max_players":24,"Bots":0,"server_type":"Dedicated","server_os":"Linux","password":true,"vac":true,"version":"7961495","steam_id":85568392924866362,"keywords":["cp","nocrits","nodmgspread","uncletopia"],"game_id":440,"stv_port":27016,"stv_name":"Uncletopia | Chicago | 5 | All Maps | STV","players":null},{"server_id":37,"name":"Uncletopia | Chicago | 6 | All Maps","name_short":"chi-6","host":"chi-2.us.uncletopia.com","port":27025,"enabled":true,"region":"us-central","cc":"us","latitude":41.881832,"longitude":-87.62318,"reserved":0,"last_update":"0001-01-01T00:00:00Z","name_a2s":"Uncletopia | Chicago | 6 | All Maps","protocol":17,"map":"pl_pier","folder":"tf","game":"Team Fortress","app_id":440,"player_count":0,"max_players":24,"Bots":0,"server_type":"Dedicated","server_os":"Linux","password":true,"vac":true,"version":"7961495","steam_id":85568392924866363,"keywords":["nocrits","nodmgspread","payload","uncletopia"],"game_id":440,"stv_port":27026,"stv_name":"Uncletopia | Chicago | 6 | All Maps | STV","players":null},{"server_id":38,"name":"Uncletopia | Chicago | 7 | Stopwatch","name_short":"chi-7","host":"chi-2.us.uncletopia.com","port":27035,"enabled":true,"region":"us-central","cc":"us","latitude":41.881832,"longitude":-87.62318,"reserved":0,"last_update":"0001-01-01T00:00:00Z","name_a2s":"Uncletopia | Chicago | 7 | Stopwatch","protocol":17,"map":"cp_metalworks","folder":"tf","game":"Team Fortress","app_id":440,"player_count":0,"max_players":24,"Bots":0,"server_type":"Dedicated","server_os":"Linux","password":true,"vac":true,"version":"7961495","steam_id":85568392924866364,"keywords":["cp","nocrits","nodmgspread","uncletopia"],"game_id":440,"stv_port":27036,"stv_name":"Uncletopia | Chicago | 7 | Stopwatch | STV","players":null},{"server_id":39,"name":"Uncletopia | Chicago | 8 | Community","name_short":"chi-8","host":"chi-2.us.uncletopia.com","port":27045,"enabled":true,"region":"us-central","cc":"us","latitude":41.881832,"longitude":-87.62318,"reserved":0,"last_update":"0001-01-01T00:00:00Z","name_a2s":"Uncletopia | Chicago | 8 | Community","protocol":17,"map":"workshop/cp_indulge.ugc528106646","folder":"tf","game":"Team Fortress","app_id":440,"player_count":0,"max_players":24,"Bots":0,"server_type":"Dedicated","server_os":"Linux","password":true,"vac":true,"version":"7961495","steam_id":85568392924866365,"keywords":["cp","nocrits","nodmgspread","uncletopia"],"game_id":440,"stv_port":27046,"stv_name":"Uncletopia | Chicago | 8 | Community | STV","players":null},{"server_id":8,"name":"Uncletopia | Dallas | 1 | All Maps","name_short":"dal-1","host":"dal-1.us.uncletopia.com","port":27015,"enabled":true,"region":"us-central","cc":"us","latitude":32.779167,"longitude":-96.80889,"reserved":0,"last_update":"0001-01-01T00:00:00Z","name_a2s":"Uncletopia | Dallas | 1 | All Maps","protocol":17,"map":"cp_mountainlab","folder":"tf","game":"Team Fortress","app_id":440,"player_count":23,"max_players":24,"Bots":0,"server_type":"Dedicated","server_os":"Linux","password":true,"vac":true,"version":"7961495","steam_id":85568392924469986,"keywords":["cp","nocrits","nodmgspread","uncletopia"],"game_id":440,"stv_port":27016,"stv_name":"Uncletopia | Dallas | 1 | All Maps | STV","players":[{"user_id":89,"name":"Raptorloch","steam_id":76561198834567806,"connected_time":458000000000,"state":"active","ping":55},{"user_id":20,"name":"Lyricalnoot","steam_id":76561199164905065,"connected_time":6324000000000,"state":"active","ping":58},{"user_id":87,"name":"Homocide","steam_id":76561199500265332,"connected_time":493000000000,"state":"active","ping":45},{"user_id":95,"name":"mkl","steam_id":76561197986401685,"connected_time":276000000000,"state":"active","ping":54},{"user_id":60,"name":"adapt","steam_id":76561198156181017,"connected_time":3272000000000,"state":"active","ping":86},{"user_id":90,"name":"87987974","steam_id":76561198046948758,"connected_time":455000000000,"state":"active","ping":67},{"user_id":28,"name":"Mr.Pan","steam_id":76561198069030613,"connected_time":5143000000000,"state":"active","ping":62},{"user_id":91,"name":"ultralisk52","steam_id":76561198051666604,"connected_time":433000000000,"state":"active","ping":76},{"user_id":33,"name":"deep fried water","steam_id":76561198077272494,"connected_time":4991000000000,"state":"active","ping":70},{"user_id":88,"name":"El Güey","steam_id":76561197970450546,"connected_time":485000000000,"state":"active","ping":111},{"user_id":78,"name":"hubida","steam_id":76561198084582998,"connected_time":1566000000000,"state":"active","ping":58},{"user_id":96,"name":"lazy catboy","steam_id":76561198359994674,"connected_time":225000000000,"state":"active","ping":132},{"user_id":93,"name":"Harlow's Revolver","steam_id":76561198893285805,"connected_time":410000000000,"state":"active","ping":85},{"user_id":41,"name":"mintsmatchamocha","steam_id":76561198420094402,"connected_time":4818000000000,"state":"active","ping":77},{"user_id":94,"name":"chill","steam_id":76561198313364985,"connected_time":380000000000,"state":"active","ping":90},{"user_id":82,"name":"7/11","steam_id":76561198032529704,"connected_time":1090000000000,"state":"active","ping":48},{"user_id":97,"name":"Jest","steam_id":76561198170173062,"connected_time":191000000000,"state":"active","ping":91},{"user_id":99,"name":"reatardhole","steam_id":76561198141217941,"connected_time":44000000000,"state":"spawning","ping":83},{"user_id":100,"name":"phone","steam_id":76561198026916603,"connected_time":9000000000,"state":"spawning","ping":94},{"user_id":49,"name":"Lovedaddy","steam_id":76561198006569710,"connected_time":4537000000000,"state":"active","ping":103},{"user_id":86,"name":"LIFTOFF","steam_id":76561198121922413,"connected_time":521000000000,"state":"active","ping":72},{"user_id":81,"name":"Addy \u003c3","steam_id":76561198045819723,"connected_time":1168000000000,"state":"active","ping":94},{"user_id":54,"name":"Workwaffle","steam_id":76561198088775748,"connected_time":4473000000000,"state":"active","ping":106}]},{"server_id":108,"name":"Uncletopia | Dallas | 2 | All Maps","name_short":"dal-2","host":"dal-1.us.uncletopia.com","port":27025,"enabled":true,"region":"us-central","cc":"us","latitude":32.779167,"longitude":-96.80889,"reserved":0,"last_update":"0001-01-01T00:00:00Z","name_a2s":"Uncletopia | Dallas | 2 | All Maps","protocol":17,"map":"pl_pier","folder":"tf","game":"Team Fortress","app_id":440,"player_count":24,"max_players":24,"Bots":0,"server_type":"Dedicated","server_os":"Linux","password":true,"vac":true,"version":"7961495","steam_id":85568392924469988,"keywords":["nocrits","nodmgspread","payload","uncletopia"],"game_id":440,"stv_port":27026,"stv_name":"Uncletopia | Dallas | 2 | All Maps | STV","players":[{"user_id":96,"name":"Toasterduds","steam_id":76561198163477584,"connected_time":2206000000000,"state":"active","ping":87},{"user_id":14,"name":"Beantama","steam_id":76561198986811476,"connected_time":8905000000000,"state":"active","ping":57},{"user_id":69,"name":"floofy","steam_id":76561198389769098,"connected_time":5070000000000,"state":"active","ping":81},{"user_id":110,"name":"professional camper","steam_id":76561198323380643,"connected_time":785000000000,"state":"active","ping":90},{"user_id":106,"name":"for the king","steam_id":76561197973488858,"connected_time":953000000000,"state":"active","ping":75},{"user_id":105,"name":"himbo destroyer","steam_id":76561198268006443,"connected_time":1032000000000,"state":"active","ping":75},{"user_id":91,"name":"TechnoBear2099","steam_id":76561198238863596,"connected_time":2918000000000,"state":"active","ping":49},{"user_id":109,"name":"ВꙮЛК","steam_id":76561198198717582,"connected_time":857000000000,"state":"active","ping":81},{"user_id":99,"name":"Scuba Steve","steam_id":76561198313018251,"connected_time":1657000000000,"state":"active","ping":83},{"user_id":68,"name":"Giselle","steam_id":76561198162593640,"connected_time":5097000000000,"state":"active","ping":108},{"user_id":115,"name":"Johnny Lawrence #JohnnyMaxxing","steam_id":76561199367141671,"connected_time":207000000000,"state":"active","ping":90},{"user_id":116,"name":"Red Physical","steam_id":76561198151864382,"connected_time":205000000000,"state":"active","ping":81},{"user_id":107,"name":"Martene","steam_id":76561198241282174,"connected_time":876000000000,"state":"active","ping":91},{"user_id":33,"name":"SuperColie","steam_id":76561198438503152,"connected_time":6920000000000,"state":"active","ping":70},{"user_id":34,"name":"707_","steam_id":76561199113534229,"connected_time":6909000000000,"state":"active","ping":167},{"user_id":100,"name":"King Cotton","steam_id":76561198292444376,"connected_time":1113000000000,"state":"active","ping":66},{"user_id":36,"name":"TheGFG","steam_id":76561198166150556,"connected_time":6705000000000,"state":"active","ping":70},{"user_id":111,"name":"Carol Olston","steam_id":76561198080257273,"connected_time":625000000000,"state":"active","ping":156},{"user_id":73,"name":"B1ight","steam_id":76561198025419686,"connected_time":4709000000000,"state":"active","ping":91},{"user_id":113,"name":"i need to see your balls","steam_id":76561198168492250,"connected_time":406000000000,"state":"active","ping":84},{"user_id":41,"name":"Arthur SSJ2","steam_id":76561198043678479,"connected_time":6576000000000,"state":"active","ping":56},{"user_id":77,"name":"Can You Feel It Mr.Krabs","steam_id":76561198128302414,"connected_time":4414000000000,"state":"active","ping":76},{"user_id":102,"name":"Mr.Rogers","steam_id":76561198043878683,"connected_time":1093000000000,"state":"active","ping":82},{"user_id":84,"name":"triph","steam_id":76561198067196509,"connected_time":3730000000000,"state":"active","ping":63}]},{"server_id":404,"name":"Uncletopia | Dallas | 3 | All Maps","name_short":"dal-3","host":"dal-1.us.uncletopia.com","port":27035,"enabled":true,"region":"us-central","cc":"us","latitude":32.779167,"longitude":-96.80889,"reserved":0,"last_update":"0001-01-01T00:00:00Z","name_a2s":"Uncletopia | Dallas | 3 | All Maps","protocol":17,"map":"cp_dustbowl","folder":"tf","game":"Team Fortress","app_id":440,"player_count":22,"max_players":24,"Bots":0,"server_type":"Dedicated","server_os":"Linux","password":true,"vac":true,"version":"7961495","steam_id":85568392924515219,"keywords":["cp","nocrits","nodmgspread","uncletopia"],"game_id":440,"stv_port":27036,"stv_name":"Uncletopia | Dallas | 3 | All Maps | STV","players":[{"user_id":193,"name":"Antonpirulero10","steam_id":76561198253036781,"connected_time":4395000000000,"state":"active","ping":105},{"user_id":226,"name":"Lefty [Gentlemen of Leisure]","steam_id":76561197980825914,"connected_time":1320000000000,"state":"active","ping":64},{"user_id":200,"name":"GH578","steam_id":76561199493262585,"connected_time":4283000000000,"state":"active","ping":91},{"user_id":249,"name":"Dr. Richard Pounder M.D.","steam_id":76561198124733688,"connected_time":121000000000,"state":"active","ping":140},{"user_id":227,"name":"Wahooka","steam_id":76561197962240925,"connected_time":1298000000000,"state":"active","ping":69},{"user_id":222,"name":"Think","steam_id":76561198176906631,"connected_time":1945000000000,"state":"active","ping":69},{"user_id":250,"name":"Pol","steam_id":76561198232094892,"connected_time":115000000000,"state":"active","ping":73},{"user_id":224,"name":"Business man","steam_id":76561199037536878,"connected_time":1338000000000,"state":"active","ping":90},{"user_id":251,"name":"GuyGoom","steam_id":76561198254522178,"connected_time":114000000000,"state":"active","ping":65},{"user_id":255,"name":"ButterNutz","steam_id":76561198122404516,"connected_time":48000000000,"state":"active","ping":75},{"user_id":230,"name":"Zolo","steam_id":76561198088444038,"connected_time":1253000000000,"state":"active","ping":64},{"user_id":245,"name":"Sir Spinach","steam_id":76561199164337878,"connected_time":334000000000,"state":"active","ping":128},{"user_id":253,"name":"171","steam_id":76561199001918194,"connected_time":96000000000,"state":"active","ping":88},{"user_id":215,"name":"American Dad","steam_id":76561198059711448,"connected_time":3005000000000,"state":"active","ping":92},{"user_id":254,"name":"Zaid","steam_id":76561199142840666,"connected_time":81000000000,"state":"active","ping":153},{"user_id":210,"name":"fruitlogic","steam_id":76561198071251588,"connected_time":3732000000000,"state":"active","ping":92},{"user_id":233,"name":"radicalPolio","steam_id":76561197961561855,"connected_time":1211000000000,"state":"active","ping":46},{"user_id":246,"name":"Ren Amamiya","steam_id":76561198151927057,"connected_time":281000000000,"state":"active","ping":104},{"user_id":241,"name":"Squid's","steam_id":76561198826820952,"connected_time":885000000000,"state":"active","ping":92},{"user_id":247,"name":"Artincendies","steam_id":76561198242373456,"connected_time":258000000000,"state":"active","ping":61},{"user_id":248,"name":"Tim Williams","steam_id":76561198177327059,"connected_time":207000000000,"state":"active","ping":95},{"user_id":163,"name":"small meth pouch","steam_id":76561198130412963,"connected_time":7462000000000,"state":"active","ping":68}]},{"server_id":405,"name":"Uncletopia | Dallas | 4 | Community","name_short":"dal-4","host":"dal-1.us.uncletopia.com","port":27045,"enabled":true,"region":"us-central","cc":"us","latitude":32.779167,"longitude":-96.80889,"reserved":0,"last_update":"0001-01-01T00:00:00Z","name_a2s":"Uncletopia | Dallas | 4 | Community","protocol":17,"map":"pl_pier","folder":"tf","game":"Team Fortress","app_id":440,"player_count":4,"max_players":24,"Bots":0,"server_type":"Dedicated","server_os":"Linux","password":true,"vac":true,"version":"7961495","steam_id":85568392924515220,"keywords":["nocrits","nodmgspread","payload","uncletopia"],"game_id":440,"stv_port":27046,"stv_name":"Uncletopia | Dallas | 4 | Community | STV","players":[{"user_id":7,"name":"portal","steam_id":76561198142432749,"connected_time":710000000000,"state":"active","ping":66},{"user_id":8,"name":"Miami \"The Cunnysseur\" Zeal","steam_id":76561198124558226,"connected_time":690000000000,"state":"active","ping":99},{"user_id":9,"name":"スキム","steam_id":76561198085317389,"connected_time":672000000000,"state":"active","ping":184},{"user_id":10,"name":"prune","steam_id":76561198246597590,"connected_time":669000000000,"state":"active","ping":74}]},{"server_id":5,"name":"Uncletopia | Frankfurt | 1 | All Maps","name_short":"frk-1","host":"frk-1.de.uncletopia.com","port":27015,"enabled":true,"region":"eu","cc":"de","latitude":50.110924,"longitude":8.682127,"reserved":0,"last_update":"0001-01-01T00:00:00Z","name_a2s":"Uncletopia | Frankfurt | 1 | All Maps","protocol":17,"map":"pl_pier","folder":"tf","game":"Team Fortress","app_id":440,"player_count":24,"max_players":24,"Bots":0,"server_type":"Dedicated","server_os":"Linux","password":true,"vac":true,"version":"7961495","steam_id":85568392924469989,"keywords":["nocrits","nodmgspread","payload","uncletopia"],"game_id":440,"stv_port":27016,"stv_name":"Uncletopia | Frankfurt | 1 | All Maps | STV","players":[{"user_id":828,"name":"Com","steam_id":76561198344874661,"connected_time":1687000000000,"state":"active","ping":97},{"user_id":834,"name":"r0la","steam_id":76561198128315340,"connected_time":1468000000000,"state":"active","ping":85},{"user_id":778,"name":"Nonok","steam_id":76561199480685498,"connected_time":5551000000000,"state":"active","ping":63},{"user_id":829,"name":"jello_hey","steam_id":76561199176327650,"connected_time":1685000000000,"state":"active","ping":155},{"user_id":830,"name":"Goblin (Real)","steam_id":76561199160926985,"connected_time":1681000000000,"state":"active","ping":162},{"user_id":864,"name":"Kumquat","steam_id":76561198200490386,"connected_time":398000000000,"state":"active","ping":86},{"user_id":854,"name":"Keira","steam_id":76561198330870400,"connected_time":723000000000,"state":"active","ping":51},{"user_id":833,"name":"kinimon","steam_id":76561198178453270,"connected_time":1497000000000,"state":"active","ping":55},{"user_id":865,"name":"OceanMan","steam_id":76561198391833371,"connected_time":133000000000,"state":"active","ping":60},{"user_id":856,"name":"TrashBoat","steam_id":76561199089671432,"connected_time":541000000000,"state":"active","ping":162},{"user_id":859,"name":"Arc","steam_id":76561198805049375,"connected_time":474000000000,"state":"active","ping":56},{"user_id":866,"name":"alien","steam_id":76561197968892194,"connected_time":96000000000,"state":"active","ping":46},{"user_id":847,"name":"BaggyCookie","steam_id":76561199172862472,"connected_time":1002000000000,"state":"active","ping":173},{"user_id":842,"name":"Rez","steam_id":76561198410598772,"connected_time":1285000000000,"state":"active","ping":51},{"user_id":867,"name":"flr","steam_id":76561198249327786,"connected_time":50000000000,"state":"active","ping":60},{"user_id":839,"name":"Guthlaf","steam_id":76561198153564078,"connected_time":1353000000000,"state":"active","ping":93},{"user_id":822,"name":"sokige","steam_id":76561198167112371,"connected_time":2536000000000,"state":"active","ping":95},{"user_id":840,"name":"Laryssa","steam_id":76561198271084076,"connected_time":1338000000000,"state":"active","ping":71},{"user_id":857,"name":"Rojapokemona","steam_id":76561198179925894,"connected_time":524000000000,"state":"active","ping":64},{"user_id":868,"name":"BoneHead","steam_id":76561198032755387,"connected_time":39000000000,"state":"spawning","ping":84},{"user_id":849,"name":"Economic crisis","steam_id":76561198063562843,"connected_time":929000000000,"state":"active","ping":59},{"user_id":850,"name":"birth giver","steam_id":76561198383564900,"connected_time":911000000000,"state":"active","ping":88},{"user_id":869,"name":"void monad","steam_id":76561198117012334,"connected_time":25000000000,"state":"active","ping":89},{"user_id":853,"name":"Syll","steam_id":76561198040736202,"connected_time":855000000000,"state":"active","ping":86}]},{"server_id":110,"name":"Uncletopia | Frankfurt | 2 | All Maps","name_short":"frk-2","host":"frk-1.de.uncletopia.com","port":27025,"enabled":true,"region":"eu","cc":"de","latitude":50.110924,"longitude":8.682127,"reserved":0,"last_update":"0001-01-01T00:00:00Z","name_a2s":"Uncletopia | Frankfurt | 2 | All Maps","protocol":17,"map":"pl_pier","folder":"tf","game":"Team Fortress","app_id":440,"player_count":23,"max_players":24,"Bots":0,"server_type":"Dedicated","server_os":"Linux","password":true,"vac":true,"version":"7961495","steam_id":85568392924469990,"keywords":["nocrits","nodmgspread","payload","uncletopia"],"game_id":440,"stv_port":27026,"stv_name":"Uncletopia | Frankfurt | 2 | All Maps | STV","players":[{"user_id":562,"name":"confusion","steam_id":76561199199499453,"connected_time":819000000000,"state":"active","ping":74},{"user_id":563,"name":"tm`","steam_id":76561197993580412,"connected_time":751000000000,"state":"active","ping":59},{"user_id":546,"name":"Yeetr","steam_id":76561198322726257,"connected_time":2087000000000,"state":"active","ping":69},{"user_id":547,"name":"Matbanan","steam_id":76561198228537672,"connected_time":1971000000000,"state":"active","ping":82},{"user_id":571,"name":"hellish","steam_id":76561199221381256,"connected_time":384000000000,"state":"active","ping":87},{"user_id":576,"name":"rai","steam_id":76561199408923294,"connected_time":173000000000,"state":"active","ping":431},{"user_id":556,"name":"Dobsoj","steam_id":76561198047775276,"connected_time":1414000000000,"state":"active","ping":58},{"user_id":557,"name":"alpha","steam_id":76561198250491640,"connected_time":1348000000000,"state":"active","ping":61},{"user_id":561,"name":"XiaBit","steam_id":76561199204102465,"connected_time":990000000000,"state":"active","ping":81},{"user_id":552,"name":"Gioni","steam_id":76561198395912581,"connected_time":1598000000000,"state":"active","ping":105},{"user_id":538,"name":"Jessen2002","steam_id":76561198119503211,"connected_time":2754000000000,"state":"active","ping":62},{"user_id":545,"name":"qualiTY","steam_id":76561198011909737,"connected_time":2451000000000,"state":"active","ping":56},{"user_id":564,"name":"mo","steam_id":76561198109591939,"connected_time":729000000000,"state":"active","ping":45},{"user_id":541,"name":"manure merchant","steam_id":76561198010109316,"connected_time":2624000000000,"state":"active","ping":57},{"user_id":493,"name":"TheSpaceWizard","steam_id":76561198361055692,"connected_time":5038000000000,"state":"active","ping":69},{"user_id":555,"name":"pisser","steam_id":76561198878081592,"connected_time":1442000000000,"state":"active","ping":64},{"user_id":573,"name":"kbbq","steam_id":76561198346638308,"connected_time":328000000000,"state":"active","ping":69},{"user_id":575,"name":"lavim1242","steam_id":76561198137830646,"connected_time":238000000000,"state":"active","ping":116},{"user_id":501,"name":"VolcanicArts","steam_id":76561198063453246,"connected_time":4266000000000,"state":"active","ping":67},{"user_id":566,"name":"\"med u suck\" - my tf2c team","steam_id":76561198051852765,"connected_time":590000000000,"state":"active","ping":60},{"user_id":498,"name":"Necator","steam_id":76561198094006970,"connected_time":4474000000000,"state":"active","ping":61},{"user_id":560,"name":"golfmastr","steam_id":76561198993144124,"connected_time":1189000000000,"state":"active","ping":74},{"user_id":572,"name":"Pats (Gifted items Collector)","steam_id":76561198418538887,"connected_time":336000000000,"state":"active","ping":92}]},{"server_id":308,"name":"Uncletopia | Frankfurt | 3 | All Maps","name_short":"frk-3","host":"frk-1.de.uncletopia.com","port":27035,"enabled":true,"region":"eu","cc":"de","latitude":50.110924,"longitude":8.682127,"reserved":0,"last_update":"0001-01-01T00:00:00Z","name_a2s":"Uncletopia | Frankfurt | 3 | All Maps","protocol":17,"map":"pl_borneo","folder":"tf","game":"Team Fortress","app_id":440,"player_count":22,"max_players":24,"Bots":0,"server_type":"Dedicated","server_os":"Linux","password":true,"vac":true,"version":"7961495","steam_id":85568392924504274,"keywords":["nocrits","nodmgspread","payload","uncletopia"],"game_id":440,"stv_port":27036,"stv_name":"Uncletopia | Frankfurt | 3 | All Maps | STV","players":[{"user_id":477,"name":"da accident","steam_id":76561198169798649,"connected_time":836000000000,"state":"active","ping":94},{"user_id":472,"name":"tralalaOuiOui","steam_id":76561197963471507,"connected_time":1972000000000,"state":"active","ping":53},{"user_id":414,"name":"Biggest Homie","steam_id":76561198373107677,"connected_time":5922000000000,"state":"active","ping":73},{"user_id":445,"name":"Archive","steam_id":76561198071255385,"connected_time":4164000000000,"state":"active","ping":90},{"user_id":487,"name":"Noob_with_source","steam_id":76561198870362103,"connected_time":83000000000,"state":"active","ping":63},{"user_id":484,"name":"Zeppy","steam_id":76561198189492043,"connected_time":210000000000,"state":"active","ping":57},{"user_id":433,"name":"Miś Polarny","steam_id":76561198083655097,"connected_time":5188000000000,"state":"active","ping":77},{"user_id":454,"name":"Nittugai","steam_id":76561198067366462,"connected_time":3525000000000,"state":"active","ping":63},{"user_id":469,"name":"speedy-heavy","steam_id":76561198124991468,"connected_time":2260000000000,"state":"active","ping":60},{"user_id":446,"name":"Lucky Number 13","steam_id":76561198043951279,"connected_time":4159000000000,"state":"active","ping":119},{"user_id":415,"name":"kittylover55","steam_id":76561198136297981,"connected_time":5918000000000,"state":"active","ping":67},{"user_id":478,"name":"❤Spyti❤","steam_id":76561198015313604,"connected_time":768000000000,"state":"active","ping":94},{"user_id":474,"name":"MR BUBBLES","steam_id":76561198019005259,"connected_time":1122000000000,"state":"active","ping":104},{"user_id":485,"name":"OmeZ","steam_id":76561198335701744,"connected_time":146000000000,"state":"active","ping":55},{"user_id":486,"name":"rudolph","steam_id":76561198057399765,"connected_time":126000000000,"state":"active","ping":48},{"user_id":488,"name":"taked","steam_id":76561198028309397,"connected_time":64000000000,"state":"active","ping":84},{"user_id":459,"name":"Haschgott 2.0","steam_id":76561198049820307,"connected_time":3234000000000,"state":"active","ping":59},{"user_id":479,"name":"knyazF","steam_id":76561198163278585,"connected_time":768000000000,"state":"active","ping":70},{"user_id":466,"name":"anders McFlanders","steam_id":76561198022811995,"connected_time":2615000000000,"state":"active","ping":64},{"user_id":464,"name":"kurage","steam_id":76561198021221288,"connected_time":2670000000000,"state":"active","ping":62},{"user_id":489,"name":"REN","steam_id":76561198000596385,"connected_time":30000000000,"state":"active","ping":67},{"user_id":475,"name":"TidB","steam_id":76561198055342304,"connected_time":1070000000000,"state":"active","ping":52}]},{"server_id":309,"name":"Uncletopia | Frankfurt | 4 | All Maps","name_short":"frk-4","host":"frk-1.de.uncletopia.com","port":27045,"enabled":true,"region":"eu","cc":"de","latitude":50.110924,"longitude":8.682127,"reserved":0,"last_update":"0001-01-01T00:00:00Z","name_a2s":"Uncletopia | Frankfurt | 4 | All Maps","protocol":17,"map":"cp_metalworks","folder":"tf","game":"Team Fortress","app_id":440,"player_count":25,"max_players":24,"Bots":0,"server_type":"Dedicated","server_os":"Linux","password":true,"vac":true,"version":"7961495","steam_id":85568392924504275,"keywords":["cp","nocrits","nodmgspread","uncletopia"],"game_id":440,"stv_port":27046,"stv_name":"Uncletopia | Frankfurt | 4 | All Maps | STV","players":[{"user_id":354,"name":"la pistola","steam_id":76561198190073005,"connected_time":6697000000000,"state":"active","ping":59},{"user_id":389,"name":"2006 Mitsubishi Lancer","steam_id":76561198036632498,"connected_time":4302000000000,"state":"active","ping":47},{"user_id":372,"name":"dia","steam_id":76561198033281405,"connected_time":5481000000000,"state":"active","ping":71},{"user_id":431,"name":"Cursehat","steam_id":76561198071867237,"connected_time":840000000000,"state":"active","ping":91},{"user_id":432,"name":"the one who grips","steam_id":76561198381106289,"connected_time":725000000000,"state":"active","ping":75},{"user_id":434,"name":"la revolvla","steam_id":76561197987616937,"connected_time":593000000000,"state":"active","ping":60},{"user_id":387,"name":"nezolif","steam_id":76561198102030382,"connected_time":4558000000000,"state":"active","ping":69},{"user_id":416,"name":"Pan Prezydent","steam_id":76561198354738139,"connected_time":1898000000000,"state":"active","ping":75},{"user_id":414,"name":"Segersgia","steam_id":76561198055181132,"connected_time":2035000000000,"state":"active","ping":78},{"user_id":368,"name":"Vershal Smershal","steam_id":76561198116223995,"connected_time":5825000000000,"state":"active","ping":59},{"user_id":420,"name":"WildesTier","steam_id":76561198132133702,"connected_time":1587000000000,"state":"active","ping":44},{"user_id":435,"name":"tiia (fool)","steam_id":76561198046196005,"connected_time":583000000000,"state":"active","ping":45},{"user_id":442,"name":"dochris.2","steam_id":76561198026478625,"connected_time":279000000000,"state":"active","ping":44},{"user_id":441,"name":"fl1p","steam_id":76561198148565659,"connected_time":414000000000,"state":"active","ping":84},{"user_id":363,"name":"boywife","steam_id":76561198160047415,"connected_time":6541000000000,"state":"active","ping":82},{"user_id":426,"name":"Theleomaster","steam_id":76561198342580499,"connected_time":1115000000000,"state":"active","ping":73},{"user_id":384,"name":"Bobirulez","steam_id":76561198009125458,"connected_time":4731000000000,"state":"active","ping":83},{"user_id":397,"name":"Udinese Dion","steam_id":76561198067931573,"connected_time":3761000000000,"state":"active","ping":55},{"user_id":421,"name":"mr. swag B.","steam_id":76561198315371425,"connected_time":1417000000000,"state":"active","ping":58},{"user_id":427,"name":"you","steam_id":76561199149378965,"connected_time":1110000000000,"state":"active","ping":66},{"user_id":433,"name":"Chipsy","steam_id":76561198271813588,"connected_time":707000000000,"state":"active","ping":69},{"user_id":415,"name":"wes","steam_id":76561198067000117,"connected_time":1925000000000,"state":"active","ping":59},{"user_id":419,"name":"Cranjis McBasketball","steam_id":76561198051290193,"connected_time":1703000000000,"state":"active","ping":48},{"user_id":436,"name":"CalzoneCarl456","steam_id":76561198846982793,"connected_time":574000000000,"state":"active","ping":55},{"user_id":444,"name":"sareena","steam_id":76561198810194062,"connected_time":264000000000,"state":"active","ping":84}]},{"server_id":310,"name":"Uncletopia | Frankfurt | 5 | All Maps","name_short":"frk-5","host":"frk-1.de.uncletopia.com","port":27055,"enabled":true,"region":"eu","cc":"de","latitude":50.110924,"longitude":8.682127,"reserved":0,"last_update":"0001-01-01T00:00:00Z","name_a2s":"Uncletopia | Frankfurt | 5 | All Maps","protocol":17,"map":"pl_barnblitz","folder":"tf","game":"Team Fortress","app_id":440,"player_count":23,"max_players":24,"Bots":0,"server_type":"Dedicated","server_os":"Linux","password":true,"vac":true,"version":"7961495","steam_id":85568392924504277,"keywords":["nocrits","nodmgspread","payload","uncletopia"],"game_id":440,"stv_port":27056,"stv_name":"Uncletopia | Frankfurt | 5 | All Maps | STV","players":[{"user_id":629,"name":"Relic","steam_id":76561199499093258,"connected_time":2468000000000,"state":"active","ping":59},{"user_id":616,"name":"Damin","steam_id":76561198288156612,"connected_time":3436000000000,"state":"active","ping":44},{"user_id":647,"name":"hud_saytext_time 0","steam_id":76561198010327228,"connected_time":549000000000,"state":"active","ping":54},{"user_id":560,"name":"dumbai","steam_id":76561199098418729,"connected_time":7272000000000,"state":"active","ping":105},{"user_id":659,"name":"Renolox","steam_id":76561198036590182,"connected_time":132000000000,"state":"active","ping":71},{"user_id":662,"name":"mgeDawidek2008","steam_id":76561199137466824,"connected_time":50000000000,"state":"active","ping":78},{"user_id":631,"name":"bruh","steam_id":76561197993922244,"connected_time":2421000000000,"state":"active","ping":57},{"user_id":649,"name":"Lord of Birds","steam_id":76561198268952995,"connected_time":399000000000,"state":"active","ping":72},{"user_id":650,"name":"Zaanx","steam_id":76561199125603907,"connected_time":387000000000,"state":"active","ping":105},{"user_id":663,"name":"WalkingBomber","steam_id":76561199085155976,"connected_time":25000000000,"state":"active","ping":180},{"user_id":582,"name":"endlesshills","steam_id":76561198081908373,"connected_time":5505000000000,"state":"active","ping":56},{"user_id":617,"name":"M1","steam_id":76561198392997232,"connected_time":3418000000000,"state":"active","ping":92},{"user_id":646,"name":"moseley519","steam_id":76561198045485374,"connected_time":923000000000,"state":"active","ping":59},{"user_id":568,"name":"Ketich","steam_id":76561198021772703,"connected_time":6478000000000,"state":"active","ping":74},{"user_id":628,"name":"finjar","steam_id":76561198350473059,"connected_time":2478000000000,"state":"active","ping":75},{"user_id":653,"name":"WHOLE LOTTA RED","steam_id":76561198870286073,"connected_time":304000000000,"state":"active","ping":61},{"user_id":660,"name":"Joo ♦","steam_id":76561197987609203,"connected_time":116000000000,"state":"active","ping":75},{"user_id":642,"name":"humble genius","steam_id":76561198243808680,"connected_time":1750000000000,"state":"active","ping":58},{"user_id":654,"name":"Ender_DragonYT... GGDROP.COM","steam_id":76561198946735113,"connected_time":278000000000,"state":"active","ping":77},{"user_id":551,"name":"else1","steam_id":76561197996558319,"connected_time":8128000000000,"state":"active","ping":76},{"user_id":661,"name":"MeleeMeta","steam_id":76561198237963558,"connected_time":112000000000,"state":"active","ping":69},{"user_id":637,"name":"guru{Hari}","steam_id":76561197997001681,"connected_time":2333000000000,"state":"active","ping":65},{"user_id":640,"name":"leo","steam_id":76561198090848620,"connected_time":2150000000000,"state":"active","ping":87}]},{"server_id":311,"name":"Uncletopia | Frankfurt | 6 | All Maps","name_short":"frk-6","host":"frk-1.de.uncletopia.com","port":27065,"enabled":true,"region":"eu","cc":"de","latitude":50.110924,"longitude":8.682127,"reserved":0,"last_update":"0001-01-01T00:00:00Z","name_a2s":"Uncletopia | Frankfurt | 6 | All Maps","protocol":17,"map":"pl_borneo","folder":"tf","game":"Team Fortress","app_id":440,"player_count":24,"max_players":24,"Bots":0,"server_type":"Dedicated","server_os":"Linux","password":true,"vac":true,"version":"7961495","steam_id":85568392924504278,"keywords":["nocrits","nodmgspread","payload","uncletopia"],"game_id":440,"stv_port":27066,"stv_name":"Uncletopia | Frankfurt | 6 | All Maps | STV","players":[{"user_id":719,"name":"o_o","steam_id":76561198113045011,"connected_time":880000000000,"state":"active","ping":91},{"user_id":729,"name":"Special Agent Big Smoke","steam_id":76561198154468827,"connected_time":598000000000,"state":"active","ping":84},{"user_id":707,"name":"☸Koala99☸","steam_id":76561198375591154,"connected_time":1900000000000,"state":"active","ping":55},{"user_id":732,"name":"Raivop","steam_id":76561197980854307,"connected_time":475000000000,"state":"active","ping":100},{"user_id":726,"name":"rob","steam_id":76561198122211848,"connected_time":712000000000,"state":"active","ping":88},{"user_id":708,"name":"burritoeater","steam_id":76561199124197813,"connected_time":1896000000000,"state":"active","ping":78},{"user_id":709,"name":"caixabank879","steam_id":76561198836442412,"connected_time":1884000000000,"state":"active","ping":103},{"user_id":614,"name":"Eric Catman","steam_id":76561198802117294,"connected_time":7454000000000,"state":"active","ping":84},{"user_id":692,"name":"full paranoia","steam_id":76561198070450646,"connected_time":2346000000000,"state":"active","ping":94},{"user_id":713,"name":"The Lady","steam_id":76561198029895809,"connected_time":1098000000000,"state":"active","ping":75},{"user_id":737,"name":"Absolute in doubt","steam_id":76561199488752503,"connected_time":112000000000,"state":"active","ping":60},{"user_id":720,"name":"大きなボール Nerv","steam_id":76561198094365138,"connected_time":825000000000,"state":"active","ping":65},{"user_id":721,"name":"MadeInLibreOffice.exe","steam_id":76561198138542192,"connected_time":798000000000,"state":"active","ping":53},{"user_id":671,"name":"zazuza","steam_id":76561198049820905,"connected_time":3867000000000,"state":"active","ping":74},{"user_id":735,"name":"j","steam_id":76561198299474630,"connected_time":373000000000,"state":"active","ping":47},{"user_id":736,"name":"Dr. Doofenshmirtz","steam_id":76561198056815239,"connected_time":255000000000,"state":"active","ping":72},{"user_id":653,"name":"s a i","steam_id":76561197970379754,"connected_time":4912000000000,"state":"active","ping":51},{"user_id":711,"name":"Simeongr","steam_id":76561198167528347,"connected_time":1541000000000,"state":"active","ping":61},{"user_id":704,"name":"My left foot itches","steam_id":76561198078411001,"connected_time":1993000000000,"state":"active","ping":77},{"user_id":725,"name":"highest noon","steam_id":76561199103959197,"connected_time":734000000000,"state":"active","ping":94},{"user_id":731,"name":"Catgirl","steam_id":76561199384764129,"connected_time":562000000000,"state":"active","ping":72},{"user_id":728,"name":"☁ Lou1smeister ☁","steam_id":76561198004032968,"connected_time":622000000000,"state":"active","ping":90},{"user_id":688,"name":"Nozzo","steam_id":76561198012367783,"connected_time":2584000000000,"state":"active","ping":77},{"user_id":672,"name":"Vonacht","steam_id":76561198016033944,"connected_time":3862000000000,"state":"active","ping":67}]},{"server_id":23,"name":"Uncletopia | Frankfurt | 7 | Stopwatch","name_short":"frk-7","host":"frk-1.de.uncletopia.com","port":27075,"enabled":true,"region":"eu","cc":"de","latitude":50.110924,"longitude":8.682127,"reserved":0,"last_update":"0001-01-01T00:00:00Z","name_a2s":"Uncletopia | Frankfurt | 7 | Stopwatch","protocol":17,"map":"workshop/pl_vigil_rc10.ugc1266210012","folder":"tf","game":"Team Fortress","app_id":440,"player_count":0,"max_players":24,"Bots":0,"server_type":"Dedicated","server_os":"Linux","password":true,"vac":true,"version":"7961495","steam_id":85568392924742827,"keywords":["nocrits","nodmgspread","payload","uncletopia"],"game_id":440,"stv_port":27076,"stv_name":"Uncletopia | Frankfurt | 7 | Stopwatch | STV","players":null},{"server_id":24,"name":"Uncletopia | Frankfurt | 8 | Community","name_short":"frk-8","host":"frk-1.de.uncletopia.com","port":27085,"enabled":true,"region":"eu","cc":"de","latitude":50.110924,"longitude":8.682127,"reserved":0,"last_update":"0001-01-01T00:00:00Z","name_a2s":"Uncletopia | Frankfurt | 8 | Community","protocol":17,"map":"workshop/cp_sulfur_rc2.ugc619869471","folder":"tf","game":"Team Fortress","app_id":440,"player_count":19,"max_players":24,"Bots":0,"server_type":"Dedicated","server_os":"Linux","password":true,"vac":true,"version":"7961495","steam_id":85568392924742828,"keywords":["cp","nocrits","nodmgspread","uncletopia"],"game_id":440,"stv_port":27086,"stv_name":"Uncletopia | Frankfurt | 8 | Community | STV","players":[{"user_id":275,"name":"Crimson","steam_id":76561197987552332,"connected_time":1312000000000,"state":"active","ping":36},{"user_id":277,"name":"CheesyNacho","steam_id":76561198350445456,"connected_time":1183000000000,"state":"active","ping":145},{"user_id":285,"name":"randompixel","steam_id":76561198003941207,"connected_time":876000000000,"state":"active","ping":67},{"user_id":296,"name":"Thundercracker__","steam_id":76561199163505476,"connected_time":175000000000,"state":"active","ping":71},{"user_id":297,"name":"you are a BABY","steam_id":76561198079524152,"connected_time":125000000000,"state":"active","ping":61},{"user_id":286,"name":"KFC Watermelonn","steam_id":76561198127593818,"connected_time":870000000000,"state":"active","ping":88},{"user_id":269,"name":"The Rekonion","steam_id":76561198133153755,"connected_time":2433000000000,"state":"active","ping":69},{"user_id":243,"name":"Skatnaset","steam_id":76561198298457353,"connected_time":3394000000000,"state":"active","ping":83},{"user_id":280,"name":"SoapDictator","steam_id":76561198010540358,"connected_time":1082000000000,"state":"active","ping":84},{"user_id":263,"name":"Vischan but worse","steam_id":76561199371650805,"connected_time":2807000000000,"state":"active","ping":98},{"user_id":255,"name":"Baron","steam_id":76561198021901783,"connected_time":3020000000000,"state":"active","ping":68},{"user_id":233,"name":"cl","steam_id":76561199436640904,"connected_time":3781000000000,"state":"active","ping":72},{"user_id":282,"name":"niko","steam_id":76561198195617573,"connected_time":1057000000000,"state":"active","ping":58},{"user_id":257,"name":"Teecho","steam_id":76561197995269610,"connected_time":2989000000000,"state":"active","ping":68},{"user_id":270,"name":"Lord_saitam","steam_id":76561198081415496,"connected_time":2423000000000,"state":"active","ping":76},{"user_id":289,"name":"Lyncurion","steam_id":76561199260022725,"connected_time":690000000000,"state":"active","ping":79},{"user_id":284,"name":"Bolotniy Doctor","steam_id":76561198020808879,"connected_time":988000000000,"state":"active","ping":83},{"user_id":265,"name":"Amandus","steam_id":76561198036281079,"connected_time":2798000000000,"state":"active","ping":57},{"user_id":290,"name":"DoNjOnIn","steam_id":76561198350417645,"connected_time":574000000000,"state":"active","ping":85}]},{"server_id":202,"name":"Uncletopia | Hong Kong | 1 | All Maps","name_short":"hgk-1","host":"hgk-1.hk.uncletopia.com","port":27015,"enabled":true,"region":"asia","cc":"hk","latitude":22.302711,"longitude":114.177216,"reserved":0,"last_update":"0001-01-01T00:00:00Z","name_a2s":"Uncletopia | Hong Kong | 1 | All Maps","protocol":17,"map":"koth_lakeside_final","folder":"tf","game":"Team Fortress","app_id":440,"player_count":0,"max_players":24,"Bots":0,"server_type":"Dedicated","server_os":"Linux","password":true,"vac":true,"version":"7961495","steam_id":85568392924494504,"keywords":["cp","nocrits","nodmgspread","uncletopia"],"game_id":440,"stv_port":27016,"stv_name":"Uncletopia | Hong Kong | 1 | All Maps | STV","players":null},{"server_id":1,"name":"Uncletopia | Los Angeles | 1 | All Maps","name_short":"lax-1","host":"lax-1.us.uncletopia.com","port":27015,"enabled":true,"region":"us-west","cc":"us","latitude":33.94279,"longitude":-118.41004,"reserved":0,"last_update":"0001-01-01T00:00:00Z","name_a2s":"Uncletopia | Los Angeles | 1 | All Maps","protocol":17,"map":"cp_process_final","folder":"tf","game":"Team Fortress","app_id":440,"player_count":1,"max_players":24,"Bots":0,"server_type":"Dedicated","server_os":"Linux","password":true,"vac":true,"version":"7961495","steam_id":85568392924469991,"keywords":["cp","nocrits","nodmgspread","uncletopia"],"game_id":440,"stv_port":27016,"stv_name":"Uncletopia | Los Angeles | 1 | All Maps | STV","players":[{"user_id":13,"name":"DefinitelyATurtle","steam_id":76561199023218568,"connected_time":73000000000,"state":"active","ping":55}]},{"server_id":112,"name":"Uncletopia | Los Angeles | 2 | All Maps","name_short":"lax-2","host":"lax-1.us.uncletopia.com","port":27025,"enabled":true,"region":"us-west","cc":"us","latitude":33.94279,"longitude":-118.41004,"reserved":0,"last_update":"0001-01-01T00:00:00Z","name_a2s":"Uncletopia | Los Angeles | 2 | All Maps","protocol":17,"map":"koth_cascade","folder":"tf","game":"Team Fortress","app_id":440,"player_count":0,"max_players":24,"Bots":0,"server_type":"Dedicated","server_os":"Linux","password":true,"vac":true,"version":"7961495","steam_id":85568392924469992,"keywords":["cp","nocrits","nodmgspread","uncletopia"],"game_id":440,"stv_port":27026,"stv_name":"Uncletopia | Los Angeles | 2 | All Maps | STV","players":null},{"server_id":324,"name":"Uncletopia | Los Angeles | 3 | All Maps","name_short":"lax-3","host":"lax-1.us.uncletopia.com","port":27035,"enabled":true,"region":"us-west","cc":"us","latitude":33.94279,"longitude":-118.41004,"reserved":0,"last_update":"0001-01-01T00:00:00Z","name_a2s":"Uncletopia | Los Angeles | 3 | All Maps","protocol":17,"map":"pl_frontier_final","folder":"tf","game":"Team Fortress","app_id":440,"player_count":0,"max_players":24,"Bots":0,"server_type":"Dedicated","server_os":"Linux","password":true,"vac":true,"version":"7961495","steam_id":85568392924510198,"keywords":["nocrits","nodmgspread","payload","uncletopia"],"game_id":440,"stv_port":27036,"stv_name":"Uncletopia | Los Angeles | 3 | All Maps | STV","players":null},{"server_id":25,"name":"Uncletopia | Los Angeles | 4 | Stopwatch","name_short":"lax-4","host":"lax-1.us.uncletopia.com","port":27045,"enabled":true,"region":"us-west","cc":"us","latitude":33.94279,"longitude":-118.41004,"reserved":0,"last_update":"0001-01-01T00:00:00Z","name_a2s":"Uncletopia | Los Angeles | 4 | Stopwatch","protocol":17,"map":"pl_barnblitz","folder":"tf","game":"Team Fortress","app_id":440,"player_count":0,"max_players":24,"Bots":0,"server_type":"Dedicated","server_os":"Linux","password":true,"vac":true,"version":"7961495","steam_id":85568392924510199,"keywords":["nocrits","nodmgspread","payload","uncletopia"],"game_id":440,"stv_port":27046,"stv_name":"Uncletopia | Los Angeles | 4 | Stopwatch | STV","players":null},{"server_id":11,"name":"Uncletopia | London | 1 | All Maps","name_short":"lon-1","host":"lon-1.uk.uncletopia.com","port":27015,"enabled":true,"region":"eu","cc":"gb","latitude":51.509865,"longitude":-0.118092,"reserved":0,"last_update":"0001-01-01T00:00:00Z","name_a2s":"Uncletopia | London | 1 | All Maps","protocol":17,"map":"cp_steel","folder":"tf","game":"Team Fortress","app_id":440,"player_count":23,"max_players":24,"Bots":0,"server_type":"Dedicated","server_os":"Linux","password":true,"vac":true,"version":"7961495","steam_id":85568392924367362,"keywords":["cp","nocrits","nodmgspread","uncletopia"],"game_id":440,"stv_port":27016,"stv_name":"Uncletopia | London | 1 | All Maps | STV","players":[{"user_id":622,"name":"im jelqing","steam_id":76561198236015392,"connected_time":1633000000000,"state":"active","ping":120},{"user_id":601,"name":"GLUEEATER hedon","steam_id":76561198249832770,"connected_time":4375000000000,"state":"active","ping":46},{"user_id":599,"name":"hmscole09","steam_id":76561198811362788,"connected_time":4585000000000,"state":"active","ping":51},{"user_id":604,"name":"SuperBob103","steam_id":76561199175360012,"connected_time":3921000000000,"state":"active","ping":58},{"user_id":635,"name":"robyn","steam_id":76561199388526903,"connected_time":7000000000,"state":"spawning","ping":44},{"user_id":623,"name":"milk tea enjoyer","steam_id":76561198355249966,"connected_time":1049000000000,"state":"active","ping":76},{"user_id":605,"name":"Aaron","steam_id":76561197990046953,"connected_time":3918000000000,"state":"active","ping":58},{"user_id":611,"name":"Explosive Poptart","steam_id":76561198023918830,"connected_time":2763000000000,"state":"active","ping":40},{"user_id":612,"name":"jermany (not jerma)","steam_id":76561198126599355,"connected_time":2760000000000,"state":"active","ping":51},{"user_id":634,"name":"Sparks@cool_skin.net","steam_id":76561198423827206,"connected_time":163000000000,"state":"active","ping":57},{"user_id":619,"name":"torn","steam_id":76561198223003236,"connected_time":2043000000000,"state":"active","ping":31},{"user_id":632,"name":"Finkaksu :3","steam_id":76561198201389163,"connected_time":337000000000,"state":"active","ping":74},{"user_id":600,"name":"SOPHIIAA","steam_id":76561198443798981,"connected_time":4512000000000,"state":"active","ping":80},{"user_id":614,"name":"Jyghc","steam_id":76561198405980575,"connected_time":2553000000000,"state":"active","ping":66},{"user_id":569,"name":"panda","steam_id":76561198215136941,"connected_time":5722000000000,"state":"active","ping":119},{"user_id":572,"name":"map","steam_id":76561198370196400,"connected_time":5643000000000,"state":"active","ping":88},{"user_id":630,"name":"MaypulSoyrup","steam_id":76561199213966821,"connected_time":474000000000,"state":"active","ping":89},{"user_id":621,"name":"Deadbeef","steam_id":76561198061532124,"connected_time":2016000000000,"state":"active","ping":31},{"user_id":628,"name":"sushii","steam_id":76561198297987372,"connected_time":735000000000,"state":"active","ping":56},{"user_id":585,"name":"Sandshee","steam_id":76561198088574666,"connected_time":5119000000000,"state":"active","ping":47},{"user_id":603,"name":"Minimi","steam_id":76561198873850443,"connected_time":4354000000000,"state":"active","ping":43},{"user_id":608,"name":"Son Goku","steam_id":76561199383437138,"connected_time":3027000000000,"state":"active","ping":117},{"user_id":631,"name":"precisely 348279402472cm alice","steam_id":76561198180361759,"connected_time":352000000000,"state":"active","ping":30}]},{"server_id":114,"name":"Uncletopia | London | 2 | All Maps","name_short":"lon-2","host":"lon-1.uk.uncletopia.com","port":27025,"enabled":true,"region":"eu","cc":"gb","latitude":51.509865,"longitude":-0.118092,"reserved":0,"last_update":"0001-01-01T00:00:00Z","name_a2s":"Uncletopia | London | 2 | All Maps","protocol":17,"map":"pl_upward","folder":"tf","game":"Team Fortress","app_id":440,"player_count":24,"max_players":24,"Bots":0,"server_type":"Dedicated","server_os":"Linux","password":true,"vac":true,"version":"7961495","steam_id":85568392924470941,"keywords":["nocrits","nodmgspread","payload","uncletopia"],"game_id":440,"stv_port":27026,"stv_name":"Uncletopia | London | 2 | All Maps | STV","players":[{"user_id":844,"name":"Gety0","steam_id":76561198044387185,"connected_time":61000000000,"state":"active","ping":96},{"user_id":787,"name":"lillunya ♡","steam_id":76561198330418866,"connected_time":3561000000000,"state":"active","ping":68},{"user_id":827,"name":"Milk","steam_id":76561198125876588,"connected_time":1224000000000,"state":"active","ping":36},{"user_id":772,"name":"FoOzTV","steam_id":76561197998636728,"connected_time":4742000000000,"state":"active","ping":66},{"user_id":833,"name":"Dr Bondus Bolongus Dongus","steam_id":76561198378657692,"connected_time":1031000000000,"state":"active","ping":46},{"user_id":843,"name":"Praledon","steam_id":76561198061736338,"connected_time":76000000000,"state":"active","ping":47},{"user_id":779,"name":"I sell exotic parrots","steam_id":76561199192434258,"connected_time":4390000000000,"state":"active","ping":95},{"user_id":840,"name":"_420_StopItDudeCmon","steam_id":76561197997146481,"connected_time":310000000000,"state":"active","ping":49},{"user_id":842,"name":"Pyrolander","steam_id":76561198050785450,"connected_time":211000000000,"state":"active","ping":51},{"user_id":801,"name":"Hugh","steam_id":76561198976348754,"connected_time":2709000000000,"state":"active","ping":58},{"user_id":788,"name":"Yuval","steam_id":76561198241802390,"connected_time":3523000000000,"state":"active","ping":115},{"user_id":818,"name":"yardy","steam_id":76561198079410772,"connected_time":2300000000000,"state":"active","ping":74},{"user_id":829,"name":"jj","steam_id":76561198079200985,"connected_time":1115000000000,"state":"active","ping":59},{"user_id":838,"name":"Maximilian1359","steam_id":76561198152439608,"connected_time":378000000000,"state":"active","ping":67},{"user_id":830,"name":"Ziltoid","steam_id":76561198020753675,"connected_time":1088000000000,"state":"active","ping":75},{"user_id":807,"name":"Swayer","steam_id":76561198056192460,"connected_time":2644000000000,"state":"active","ping":63},{"user_id":813,"name":"Aspartus","steam_id":76561198101385763,"connected_time":2422000000000,"state":"active","ping":43},{"user_id":793,"name":"Darim","steam_id":76561198097062529,"connected_time":3335000000000,"state":"active","ping":126},{"user_id":836,"name":"Gregorio","steam_id":76561198179463343,"connected_time":480000000000,"state":"active","ping":44},{"user_id":831,"name":"Hooty","steam_id":76561198365932023,"connected_time":1074000000000,"state":"active","ping":51},{"user_id":832,"name":"Chris Hansen, Kell of Kells","steam_id":76561198986775156,"connected_time":1074000000000,"state":"active","ping":142},{"user_id":837,"name":"grassesmode.exe","steam_id":76561198090167960,"connected_time":457000000000,"state":"active","ping":96},{"user_id":834,"name":"Niyaah","steam_id":76561198110209191,"connected_time":944000000000,"state":"active","ping":62},{"user_id":797,"name":"wazaaap","steam_id":76561198080648647,"connected_time":2757000000000,"state":"active","ping":60}]},{"server_id":320,"name":"Uncletopia | London | 3 | All Maps","name_short":"lon-3","host":"lon-1.uk.uncletopia.com","port":27035,"enabled":true,"region":"eu","cc":"gb","latitude":51.509865,"longitude":-0.118092,"reserved":0,"last_update":"0001-01-01T00:00:00Z","name_a2s":"Uncletopia | London | 3 | All Maps","protocol":17,"map":"cp_snakewater_final1","folder":"tf","game":"Team Fortress","app_id":440,"player_count":24,"max_players":24,"Bots":0,"server_type":"Dedicated","server_os":"Linux","password":true,"vac":true,"version":"7961495","steam_id":85568392924510192,"keywords":["cp","nocrits","nodmgspread","uncletopia"],"game_id":440,"stv_port":27036,"stv_name":"Uncletopia | London | 3 | All Maps | STV","players":[{"user_id":623,"name":"padillacampos","steam_id":76561198161923970,"connected_time":1803000000000,"state":"active","ping":85},{"user_id":622,"name":"I have","steam_id":76561199184873889,"connected_time":1826000000000,"state":"active","ping":68},{"user_id":624,"name":"Ceiling fan enthusiast","steam_id":76561197989214268,"connected_time":1792000000000,"state":"active","ping":58},{"user_id":645,"name":"BenteBent","steam_id":76561198297920637,"connected_time":551000000000,"state":"active","ping":44},{"user_id":646,"name":"Joker","steam_id":76561198104342208,"connected_time":520000000000,"state":"active","ping":109},{"user_id":647,"name":"omnibombulator","steam_id":76561198025858897,"connected_time":478000000000,"state":"active","ping":46},{"user_id":648,"name":"Dewotter","steam_id":76561198007653168,"connected_time":474000000000,"state":"active","ping":60},{"user_id":649,"name":"MacAndCheese69","steam_id":76561199013464592,"connected_time":474000000000,"state":"active","ping":129},{"user_id":572,"name":"Lemmy","steam_id":76561199038870751,"connected_time":5745000000000,"state":"active","ping":66},{"user_id":625,"name":"Snowmotion","steam_id":76561198075022454,"connected_time":1781000000000,"state":"active","ping":69},{"user_id":587,"name":"srobb","steam_id":76561197985615971,"connected_time":5237000000000,"state":"active","ping":66},{"user_id":637,"name":"TOP G","steam_id":76561198138928548,"connected_time":1237000000000,"state":"active","ping":59},{"user_id":650,"name":"Domberry","steam_id":76561199346712175,"connected_time":442000000000,"state":"active","ping":55},{"user_id":651,"name":"Hexakosioihexekontahexaphobia","steam_id":76561198070805240,"connected_time":424000000000,"state":"active","ping":103},{"user_id":659,"name":"Smiley","steam_id":76561198056430811,"connected_time":235000000000,"state":"active","ping":139},{"user_id":660,"name":"MinWanWan","steam_id":76561198326901750,"connected_time":217000000000,"state":"active","ping":70},{"user_id":653,"name":"\u003e\u003c\u003e","steam_id":76561198152392309,"connected_time":377000000000,"state":"active","ping":45},{"user_id":606,"name":"POOTIS #saveTF2","steam_id":76561198384735957,"connected_time":3384000000000,"state":"active","ping":69},{"user_id":654,"name":"Raymus","steam_id":76561198021330407,"connected_time":369000000000,"state":"active","ping":59},{"user_id":655,"name":"Kaibz","steam_id":76561197975012611,"connected_time":347000000000,"state":"active","ping":38},{"user_id":656,"name":"Superiumentarius","steam_id":76561198081642249,"connected_time":319000000000,"state":"active","ping":59},{"user_id":621,"name":"Darth Falcon","steam_id":76561199033727636,"connected_time":2046000000000,"state":"active","ping":189},{"user_id":657,"name":"ADVANCED_CHIWAWA_96","steam_id":76561199121426406,"connected_time":305000000000,"state":"active","ping":67},{"user_id":661,"name":"A Wild Ferrothorn","steam_id":76561198042261828,"connected_time":202000000000,"state":"active","ping":64}]},{"server_id":321,"name":"Uncletopia | London | 4 | All Maps","name_short":"lon-4","host":"lon-1.uk.uncletopia.com","port":27045,"enabled":true,"region":"eu","cc":"gb","latitude":51.509865,"longitude":-0.118092,"reserved":0,"last_update":"0001-01-01T00:00:00Z","name_a2s":"Uncletopia | London | 4 | All Maps","protocol":17,"map":"pl_upward","folder":"tf","game":"Team Fortress","app_id":440,"player_count":22,"max_players":24,"Bots":0,"server_type":"Dedicated","server_os":"Linux","password":true,"vac":true,"version":"7961495","steam_id":85568392924510193,"keywords":["nocrits","nodmgspread","payload","uncletopia"],"game_id":440,"stv_port":27046,"stv_name":"Uncletopia | London | 4 | All Maps | STV","players":[{"user_id":294,"name":"oozaru","steam_id":76561198236803694,"connected_time":2398000000000,"state":"active","ping":48},{"user_id":247,"name":"The Subway Scientist","steam_id":76561198193757646,"connected_time":5079000000000,"state":"active","ping":45},{"user_id":306,"name":"Izzie","steam_id":76561198090287325,"connected_time":965000000000,"state":"active","ping":57},{"user_id":259,"name":"noot","steam_id":76561198148074472,"connected_time":4610000000000,"state":"active","ping":45},{"user_id":314,"name":"xiiski","steam_id":76561198152387747,"connected_time":633000000000,"state":"active","ping":96},{"user_id":289,"name":"snail","steam_id":76561198147277460,"connected_time":2689000000000,"state":"active","ping":61},{"user_id":279,"name":"Tavish","steam_id":76561197971486686,"connected_time":3459000000000,"state":"active","ping":48},{"user_id":277,"name":"The Duke","steam_id":76561198063644325,"connected_time":3990000000000,"state":"active","ping":58},{"user_id":238,"name":"Ｌｕｎｄｅｒｓ儚","steam_id":76561198001599722,"connected_time":5631000000000,"state":"active","ping":85},{"user_id":182,"name":"LordTrap.exe","steam_id":76561198318089716,"connected_time":8638000000000,"state":"active","ping":67},{"user_id":284,"name":"Chris","steam_id":76561198179791702,"connected_time":3217000000000,"state":"active","ping":172},{"user_id":285,"name":"Mastenbier","steam_id":76561199067658590,"connected_time":3203000000000,"state":"active","ping":127},{"user_id":286,"name":"ты что дурак","steam_id":76561198163244605,"connected_time":2734000000000,"state":"active","ping":78},{"user_id":290,"name":"Xenometan","steam_id":76561198208408392,"connected_time":2651000000000,"state":"active","ping":115},{"user_id":295,"name":"0rdinal","steam_id":76561198109034326,"connected_time":2377000000000,"state":"active","ping":32},{"user_id":300,"name":"cuddles","steam_id":76561198805181599,"connected_time":1519000000000,"state":"active","ping":46},{"user_id":310,"name":"😈 COCKDESTROYER 😈","steam_id":76561198042846999,"connected_time":814000000000,"state":"active","ping":74},{"user_id":311,"name":"bart simpson weed","steam_id":76561198014858762,"connected_time":802000000000,"state":"active","ping":57},{"user_id":272,"name":"Cpt_frost","steam_id":76561198218034817,"connected_time":4317000000000,"state":"active","ping":31},{"user_id":302,"name":"Swip3r","steam_id":76561198039789772,"connected_time":1304000000000,"state":"active","ping":43},{"user_id":312,"name":"Saucisse","steam_id":76561198119955969,"connected_time":784000000000,"state":"active","ping":61}]},{"server_id":21,"name":"Uncletopia | London | 5 | All Maps","name_short":"lon-5","host":"lon-1.uk.uncletopia.com","port":27055,"enabled":true,"region":"eu","cc":"gb","latitude":51.509865,"longitude":-0.118092,"reserved":0,"last_update":"0001-01-01T00:00:00Z","name_a2s":"Uncletopia | London | 5 | All Maps","protocol":17,"map":"pl_frontier_final","folder":"tf","game":"Team Fortress","app_id":440,"player_count":12,"max_players":24,"Bots":0,"server_type":"Dedicated","server_os":"Linux","password":true,"vac":true,"version":"7961495","steam_id":85568392924742829,"keywords":["nocrits","nodmgspread","payload","uncletopia"],"game_id":440,"stv_port":27056,"stv_name":"Uncletopia | London | 5 | All Maps | STV","players":[{"user_id":477,"name":"AlphaBravo-","steam_id":76561198142240639,"connected_time":776000000000,"state":"active","ping":65},{"user_id":483,"name":"Cataleptic","steam_id":76561197997966949,"connected_time":218000000000,"state":"active","ping":55},{"user_id":478,"name":"Zoraxs","steam_id":76561198294742814,"connected_time":696000000000,"state":"active","ping":65},{"user_id":384,"name":"yuno appreciator","steam_id":76561198083286511,"connected_time":8911000000000,"state":"active","ping":43},{"user_id":484,"name":"Mboigaming","steam_id":76561199014253297,"connected_time":212000000000,"state":"active","ping":54},{"user_id":459,"name":"erenom09","steam_id":76561199017383513,"connected_time":2358000000000,"state":"active","ping":99},{"user_id":479,"name":"Jenga404","steam_id":76561198195372169,"connected_time":667000000000,"state":"active","ping":74},{"user_id":480,"name":"NoctilucentDavid","steam_id":76561199248746732,"connected_time":629000000000,"state":"active","ping":85},{"user_id":460,"name":"KarlRanzeier","steam_id":76561198066281337,"connected_time":2325000000000,"state":"active","ping":60},{"user_id":476,"name":"Xiqui","steam_id":76561198818386611,"connected_time":1077000000000,"state":"active","ping":78},{"user_id":470,"name":"branco jardento csgo500.com","steam_id":76561198166605966,"connected_time":2005000000000,"state":"active","ping":88},{"user_id":449,"name":"ExtraFlames","steam_id":76561199136146246,"connected_time":3651000000000,"state":"active","ping":57}]},{"server_id":22,"name":"Uncletopia | London | 6 | All Maps","name_short":"lon-6","host":"lon-1.uk.uncletopia.com","port":27065,"enabled":true,"region":"eu","cc":"gb","latitude":51.509865,"longitude":-0.118092,"reserved":0,"last_update":"0001-01-01T00:00:00Z","name_a2s":"Uncletopia | London | 6 | All Maps","protocol":17,"map":"koth_lakeside_final","folder":"tf","game":"Team Fortress","app_id":440,"player_count":23,"max_players":24,"Bots":0,"server_type":"Dedicated","server_os":"Linux","password":true,"vac":true,"version":"7961495","steam_id":85568392924742830,"keywords":["cp","nocrits","nodmgspread","uncletopia"],"game_id":440,"stv_port":27066,"stv_name":"Uncletopia | London | 6 | All Maps | STV","players":[{"user_id":519,"name":"XxBenShapiro420xX","steam_id":76561199229373972,"connected_time":90000000000,"state":"active","ping":63},{"user_id":503,"name":"Muzzlehatch","steam_id":76561198012753407,"connected_time":913000000000,"state":"active","ping":47},{"user_id":504,"name":"raebbitos","steam_id":76561198167580006,"connected_time":893000000000,"state":"active","ping":48},{"user_id":479,"name":"Dr. Funkenstein","steam_id":76561197977816210,"connected_time":3964000000000,"state":"active","ping":50},{"user_id":520,"name":"Drift7114","steam_id":76561199044419505,"connected_time":51000000000,"state":"active","ping":70},{"user_id":521,"name":"jin.88","steam_id":76561198045099492,"connected_time":41000000000,"state":"active","ping":106},{"user_id":506,"name":"ROX","steam_id":76561198272289320,"connected_time":732000000000,"state":"active","ping":64},{"user_id":505,"name":"M2rtRa","steam_id":76561198111036466,"connected_time":856000000000,"state":"active","ping":75},{"user_id":518,"name":"Sunshine Moon","steam_id":76561198022604491,"connected_time":174000000000,"state":"active","ping":47},{"user_id":456,"name":"race car driver jerry","steam_id":76561198054047446,"connected_time":5359000000000,"state":"active","ping":67},{"user_id":509,"name":"OutOfDucks","steam_id":76561198166376227,"connected_time":685000000000,"state":"active","ping":70},{"user_id":510,"name":"Lukero","steam_id":76561198301594341,"connected_time":685000000000,"state":"active","ping":74},{"user_id":522,"name":"SenitorD","steam_id":76561198088916978,"connected_time":40000000000,"state":"active","ping":52},{"user_id":523,"name":"Ze Kobold","steam_id":76561198090161992,"connected_time":9000000000,"state":"spawning","ping":56},{"user_id":516,"name":"JosepXXL","steam_id":76561198407124695,"connected_time":519000000000,"state":"active","ping":90},{"user_id":517,"name":"that fat croc from donkey kong","steam_id":76561198159172495,"connected_time":340000000000,"state":"active","ping":73},{"user_id":512,"name":"Oblivion","steam_id":76561198352683491,"connected_time":674000000000,"state":"active","ping":41},{"user_id":481,"name":"NitPig","steam_id":76561198212991935,"connected_time":3902000000000,"state":"active","ping":94},{"user_id":514,"name":"KENZO","steam_id":76561197993520279,"connected_time":635000000000,"state":"active","ping":41},{"user_id":469,"name":"Skarpy","steam_id":76561198034398376,"connected_time":4699000000000,"state":"active","ping":60},{"user_id":492,"name":"ЮФ","steam_id":76561198044519039,"connected_time":2495000000000,"state":"active","ping":84},{"user_id":515,"name":"mage","steam_id":76561198049639319,"connected_time":606000000000,"state":"active","ping":66},{"user_id":478,"name":"Fu Manchu","steam_id":76561197995224539,"connected_time":4219000000000,"state":"active","ping":67}]},{"server_id":40,"name":"Uncletopia | London | 7 | Stopwatch","name_short":"lon-7","host":"lon-1.uk.uncletopia.com","port":27075,"enabled":true,"region":"eu","cc":"gb","latitude":51.509865,"longitude":-0.118092,"reserved":0,"last_update":"0001-01-01T00:00:00Z","name_a2s":"Uncletopia | London | 7 | Stopwatch","protocol":17,"map":"koth_highpass","folder":"tf","game":"Team Fortress","app_id":440,"player_count":0,"max_players":24,"Bots":0,"server_type":"Dedicated","server_os":"Linux","password":true,"vac":true,"version":"7961495","steam_id":85568392924964314,"keywords":["cp","nocrits","nodmgspread","uncletopia"],"game_id":440,"stv_port":27076,"stv_name":"Uncletopia | London | 7 | Stopwatch | STV","players":null},{"server_id":41,"name":"Uncletopia | London | 8 | Community","name_short":"lon-8","host":"lon-1.uk.uncletopia.com","port":27085,"enabled":true,"region":"eu","cc":"gb","latitude":51.509865,"longitude":-0.118092,"reserved":0,"last_update":"0001-01-01T00:00:00Z","name_a2s":"Uncletopia | London | 8 | Community","protocol":17,"map":"workshop/pl_highwood_b13.ugc1769496557","folder":"tf","game":"Team Fortress","app_id":440,"player_count":0,"max_players":24,"Bots":0,"server_type":"Dedicated","server_os":"Linux","password":true,"vac":true,"version":"7961495","steam_id":85568392924964315,"keywords":["nocrits","nodmgspread","payload","uncletopia"],"game_id":440,"stv_port":27086,"stv_name":"Uncletopia | London | 8 | Community | STV","players":null},{"server_id":300,"name":"Uncletopia | Montréal | 1 | One Thousand Uncles","name_short":"mtl-1","host":"mtl-1.ca.uncletopia.com","port":27015,"enabled":true,"region":"us-east","cc":"ca","latitude":45.50889,"longitude":-73.56167,"reserved":0,"last_update":"0001-01-01T00:00:00Z","name_a2s":"","protocol":0,"map":"","folder":"","game":"","app_id":0,"player_count":8,"max_players":0,"Bots":0,"server_type":"","server_os":"","password":false,"vac":false,"version":"","steam_id":0,"keywords":null,"game_id":0,"stv_port":0,"stv_name":"","players":[{"user_id":294,"name":"spades gameing","steam_id":76561198045079627,"connected_time":1350000000000,"state":"active","ping":41},{"user_id":299,"name":"BreadStick","steam_id":76561198871305344,"connected_time":1126000000000,"state":"active","ping":45},{"user_id":293,"name":"princess fern \u003c3333","steam_id":76561198881792140,"connected_time":1405000000000,"state":"active","ping":58},{"user_id":202,"name":"Nova Astral","steam_id":76561198068127098,"connected_time":8949000000000,"state":"active","ping":62},{"user_id":257,"name":"Jared","steam_id":76561198020432651,"connected_time":3663000000000,"state":"active","ping":49},{"user_id":260,"name":"Kenny Gaming","steam_id":76561199382783363,"connected_time":3118000000000,"state":"active","ping":85},{"user_id":193,"name":"Snoopy","steam_id":76561198273735974,"connected_time":11794000000000,"state":"active","ping":99},{"user_id":273,"name":"LǘcКγ کŦriкξ","steam_id":76561198057723275,"connected_time":1869000000000,"state":"active","ping":134}]},{"server_id":301,"name":"Uncletopia | Montréal | 2 | One Thousand Uncles","name_short":"mtl-2","host":"mtl-1.ca.uncletopia.com","port":27025,"enabled":true,"region":"us-east","cc":"ca","latitude":45.50889,"longitude":-73.56167,"reserved":0,"last_update":"0001-01-01T00:00:00Z","name_a2s":"","protocol":0,"map":"","folder":"","game":"","app_id":0,"player_count":0,"max_players":0,"Bots":0,"server_type":"","server_os":"","password":false,"vac":false,"version":"","steam_id":0,"keywords":null,"game_id":0,"stv_port":0,"stv_name":"","players":null},{"server_id":302,"name":"Uncletopia | Montréal | 3 | One Thousand Uncles","name_short":"mtl-3","host":"mtl-1.ca.uncletopia.com","port":27035,"enabled":true,"region":"us-east","cc":"ca","latitude":45.50889,"longitude":-73.56167,"reserved":0,"last_update":"0001-01-01T00:00:00Z","name_a2s":"","protocol":0,"map":"","folder":"","game":"","app_id":0,"player_count":0,"max_players":0,"Bots":0,"server_type":"","server_os":"","password":false,"vac":false,"version":"","steam_id":0,"keywords":null,"game_id":0,"stv_port":0,"stv_name":"","players":null},{"server_id":13,"name":"Uncletopia | New York City | 1 | All Maps","name_short":"nyc-1","host":"nyc-1.us.uncletopia.com","port":27015,"enabled":true,"region":"us-east","cc":"us","latitude":40.73061,"longitude":-73.93524,"reserved":0,"last_update":"0001-01-01T00:00:00Z","name_a2s":"Uncletopia | New York City | 1 | All Maps","protocol":17,"map":"cp_mountainlab","folder":"tf","game":"Team Fortress","app_id":440,"player_count":24,"max_players":24,"Bots":0,"server_type":"Dedicated","server_os":"Linux","password":true,"vac":true,"version":"7961495","steam_id":85568392924469993,"keywords":["cp","nocrits","nodmgspread","uncletopia"],"game_id":440,"stv_port":27016,"stv_name":"Uncletopia | New York City | 1 | All Maps | STV","players":[{"user_id":109,"name":"Glennithy","steam_id":76561198339332079,"connected_time":3080000000000,"state":"active","ping":69},{"user_id":106,"name":"WibbyOne","steam_id":76561198052843846,"connected_time":3435000000000,"state":"active","ping":37},{"user_id":96,"name":"CornDog","steam_id":76561198249446918,"connected_time":4161000000000,"state":"active","ping":35},{"user_id":64,"name":"High School Nudical","steam_id":76561198172120615,"connected_time":6727000000000,"state":"active","ping":39},{"user_id":129,"name":"Alexthegreat","steam_id":76561197996796222,"connected_time":899000000000,"state":"active","ping":44},{"user_id":130,"name":"Minkarou","steam_id":76561198870077864,"connected_time":875000000000,"state":"active","ping":59},{"user_id":128,"name":"[FSE] UncleDane2003Gaming","steam_id":76561198310874055,"connected_time":925000000000,"state":"active","ping":124},{"user_id":111,"name":"Post nut clarity","steam_id":76561198060246831,"connected_time":2249000000000,"state":"active","ping":75},{"user_id":137,"name":"Juggernaut","steam_id":76561198306730124,"connected_time":413000000000,"state":"active","ping":59},{"user_id":120,"name":"Carpet enthusiast","steam_id":76561198024040142,"connected_time":1400000000000,"state":"active","ping":91},{"user_id":127,"name":"ndvr","steam_id":76561199379200102,"connected_time":999000000000,"state":"active","ping":48},{"user_id":92,"name":"wool","steam_id":76561198869689933,"connected_time":4585000000000,"state":"active","ping":51},{"user_id":89,"name":"skid","steam_id":76561198057536994,"connected_time":4942000000000,"state":"active","ping":64},{"user_id":133,"name":"Birby #banditcamp.com","steam_id":76561198884009768,"connected_time":846000000000,"state":"active","ping":129},{"user_id":139,"name":"Huebirds of Happiness","steam_id":76561198281693747,"connected_time":205000000000,"state":"active","ping":48},{"user_id":104,"name":"Explodingmayo","steam_id":76561198361728591,"connected_time":3461000000000,"state":"active","ping":86},{"user_id":126,"name":"8 Ball","steam_id":76561197960988736,"connected_time":1279000000000,"state":"active","ping":135},{"user_id":140,"name":"Sicko Mode (Chris Pratt Cover)","steam_id":76561198315786174,"connected_time":204000000000,"state":"active","ping":57},{"user_id":100,"name":"UnlivingSkunk","steam_id":76561198324517387,"connected_time":3494000000000,"state":"active","ping":46},{"user_id":134,"name":"Birf","steam_id":76561198040860058,"connected_time":835000000000,"state":"active","ping":85},{"user_id":141,"name":"dox","steam_id":76561198838245430,"connected_time":167000000000,"state":"active","ping":79},{"user_id":122,"name":"LemonZest","steam_id":76561199196369249,"connected_time":1374000000000,"state":"active","ping":58},{"user_id":123,"name":"majorbobfunction","steam_id":76561198042464632,"connected_time":1349000000000,"state":"active","ping":74},{"user_id":115,"name":"SpaceSanctum","steam_id":76561198805242305,"connected_time":1845000000000,"state":"active","ping":46}]},{"server_id":14,"name":"Uncletopia | New York City | 2 | All Maps","name_short":"nyc-2","host":"nyc-1.us.uncletopia.com","port":27025,"enabled":true,"region":"us-east","cc":"us","latitude":40.73061,"longitude":-73.93524,"reserved":0,"last_update":"0001-01-01T00:00:00Z","name_a2s":"Uncletopia | New York City | 2 | All Maps","protocol":17,"map":"pl_barnblitz","folder":"tf","game":"Team Fortress","app_id":440,"player_count":24,"max_players":24,"Bots":0,"server_type":"Dedicated","server_os":"Linux","password":true,"vac":true,"version":"7961495","steam_id":85568392924469994,"keywords":["nocrits","nodmgspread","payload","uncletopia"],"game_id":440,"stv_port":27026,"stv_name":"Uncletopia | New York City | 2 | All Maps | STV","players":[{"user_id":83,"name":"DamerDoozle","steam_id":76561199121686201,"connected_time":1289000000000,"state":"active","ping":75},{"user_id":84,"name":"Gibs Degrossi","steam_id":76561198066152609,"connected_time":1286000000000,"state":"active","ping":61},{"user_id":96,"name":"breakcore enjoyer","steam_id":76561198031400151,"connected_time":334000000000,"state":"active","ping":54},{"user_id":95,"name":"ol' musty","steam_id":76561198081075865,"connected_time":558000000000,"state":"active","ping":70},{"user_id":43,"name":"Anstorner","steam_id":76561198274026015,"connected_time":2812000000000,"state":"active","ping":107},{"user_id":77,"name":"Mr. Hankey","steam_id":76561198872852200,"connected_time":1467000000000,"state":"active","ping":130},{"user_id":90,"name":"RazDaz","steam_id":76561198280695081,"connected_time":976000000000,"state":"active","ping":69},{"user_id":85,"name":"uzr","steam_id":76561198799343084,"connected_time":1011000000000,"state":"active","ping":117},{"user_id":66,"name":"It's FoolMoon","steam_id":76561198153344375,"connected_time":1992000000000,"state":"active","ping":45},{"user_id":47,"name":"NoobsSlayer","steam_id":76561199102765122,"connected_time":2543000000000,"state":"active","ping":143},{"user_id":79,"name":"Deltaco","steam_id":76561198094572694,"connected_time":1439000000000,"state":"active","ping":113},{"user_id":88,"name":"SuperSeven","steam_id":76561198216410953,"connected_time":986000000000,"state":"active","ping":136},{"user_id":89,"name":"carrot cake","steam_id":76561198055174915,"connected_time":982000000000,"state":"active","ping":75},{"user_id":97,"name":"Child Obesity","steam_id":76561198099263425,"connected_time":273000000000,"state":"active","ping":51},{"user_id":53,"name":"The_Swan101","steam_id":76561198255629546,"connected_time":2394000000000,"state":"active","ping":57},{"user_id":82,"name":"pound town (taking you there)","steam_id":76561198320331540,"connected_time":1325000000000,"state":"active","ping":47},{"user_id":56,"name":"wearing my sunday pants","steam_id":76561198834106533,"connected_time":2335000000000,"state":"active","ping":57},{"user_id":99,"name":"deez","steam_id":76561198831476915,"connected_time":171000000000,"state":"active","ping":135},{"user_id":86,"name":"phroliax","steam_id":76561198207075529,"connected_time":1009000000000,"state":"active","ping":101},{"user_id":94,"name":"sumo dumplings","steam_id":76561198115553314,"connected_time":675000000000,"state":"active","ping":88},{"user_id":74,"name":"Gaming","steam_id":76561198107080532,"connected_time":1579000000000,"state":"active","ping":70},{"user_id":76,"name":"willow","steam_id":76561198276866938,"connected_time":1495000000000,"state":"active","ping":55},{"user_id":98,"name":"aureli","steam_id":76561199031411031,"connected_time":216000000000,"state":"active","ping":63},{"user_id":93,"name":"JustADuck","steam_id":76561198311260943,"connected_time":748000000000,"state":"active","ping":75}]},{"server_id":15,"name":"Uncletopia | New York City | 3 | Stopwatch","name_short":"nyc-3","host":"nyc-1.us.uncletopia.com","port":27035,"enabled":true,"region":"us-east","cc":"us","latitude":40.73061,"longitude":-73.93524,"reserved":0,"last_update":"0001-01-01T00:00:00Z","name_a2s":"Uncletopia | New York City | 3 | Stopwatch","protocol":17,"map":"pl_borneo","folder":"tf","game":"Team Fortress","app_id":440,"player_count":0,"max_players":24,"Bots":0,"server_type":"Dedicated","server_os":"Linux","password":true,"vac":true,"version":"7961495","steam_id":85568392924742820,"keywords":["nocrits","nodmgspread","payload","uncletopia"],"game_id":440,"stv_port":27036,"stv_name":"Uncletopia | New York City | 3 | Stopwatch | STV","players":null},{"server_id":16,"name":"Uncletopia | New York City | 4 | Community","name_short":"nyc-4","host":"nyc-1.us.uncletopia.com","port":27045,"enabled":true,"region":"us-east","cc":"us","latitude":40.73061,"longitude":-73.93524,"reserved":0,"last_update":"0001-01-01T00:00:00Z","name_a2s":"Uncletopia | New York City | 4 | Community","protocol":17,"map":"workshop/koth_ramjam_rc1.ugc459778887","folder":"tf","game":"Team Fortress","app_id":440,"player_count":0,"max_players":24,"Bots":0,"server_type":"Dedicated","server_os":"Linux","password":true,"vac":true,"version":"7961495","steam_id":85568392924742821,"keywords":["cp","nocrits","nodmgspread","uncletopia"],"game_id":440,"stv_port":27046,"stv_name":"Uncletopia | New York City | 4 | Community | STV","players":null},{"server_id":142,"name":"Uncletopia | São Paulo | 1 | All Maps","name_short":"sao-1","host":"sao-1.br.uncletopia.com","port":27015,"enabled":true,"region":"sa","cc":"br","latitude":-23.533773,"longitude":-46.62529,"reserved":0,"last_update":"0001-01-01T00:00:00Z","name_a2s":"Uncletopia | São Paulo | 1 | All Maps","protocol":17,"map":"pl_borneo","folder":"tf","game":"Team Fortress","app_id":440,"player_count":0,"max_players":24,"Bots":0,"server_type":"Dedicated","server_os":"Linux","password":true,"vac":true,"version":"7961495","steam_id":85568392924469996,"keywords":["nocrits","nodmgspread","payload","uncletopia"],"game_id":440,"stv_port":27016,"stv_name":"Uncletopia | São Paulo | 1 | All Maps | STV","players":null},{"server_id":143,"name":"Uncletopia | São Paulo | 2 | Community","name_short":"sao-2","host":"sao-2.br.uncletopia.com","port":27015,"enabled":true,"region":"sa","cc":"br","latitude":-23.533773,"longitude":-46.62529,"reserved":0,"last_update":"0001-01-01T00:00:00Z","name_a2s":"Uncletopia | São Paulo | 2 | Community","protocol":17,"map":"workshop/pl_vigil_rc10.ugc1266210012","folder":"tf","game":"Team Fortress","app_id":440,"player_count":0,"max_players":24,"Bots":0,"server_type":"Dedicated","server_os":"Linux","password":true,"vac":true,"version":"7961495","steam_id":85568392924485349,"keywords":["nocrits","nodmgspread","payload","uncletopia"],"game_id":440,"stv_port":27016,"stv_name":"Uncletopia | São Paulo | 2 | Community | STV","players":null},{"server_id":7,"name":"Uncletopia | Seattle | 1 | All Maps","name_short":"sea-1","host":"sea-1.us.uncletopia.com","port":27015,"enabled":true,"region":"us-west","cc":"us","latitude":47.608013,"longitude":-122.33517,"reserved":0,"last_update":"0001-01-01T00:00:00Z","name_a2s":"Uncletopia | Seattle | 1 | All Maps","protocol":17,"map":"pl_frontier_final","folder":"tf","game":"Team Fortress","app_id":440,"player_count":24,"max_players":24,"Bots":0,"server_type":"Dedicated","server_os":"Linux","password":true,"vac":true,"version":"7961495","steam_id":85568392924469997,"keywords":["nocrits","nodmgspread","payload","uncletopia"],"game_id":440,"stv_port":27016,"stv_name":"Uncletopia | Seattle | 1 | All Maps | STV","players":[{"user_id":173,"name":"Mr8bittripper","steam_id":76561198133894229,"connected_time":3709000000000,"state":"active","ping":44},{"user_id":77,"name":"Snale","steam_id":76561198039517965,"connected_time":12387000000000,"state":"active","ping":60},{"user_id":190,"name":"Walmus","steam_id":76561198111416393,"connected_time":1371000000000,"state":"active","ping":80},{"user_id":162,"name":"TommyBoi","steam_id":76561198025528637,"connected_time":4707000000000,"state":"active","ping":43},{"user_id":192,"name":"Shark Sandwich","steam_id":76561198025007938,"connected_time":862000000000,"state":"active","ping":45},{"user_id":128,"name":"my monitor is off","steam_id":76561198074499537,"connected_time":7712000000000,"state":"active","ping":72},{"user_id":186,"name":"ShiningForce","steam_id":76561198026039048,"connected_time":1557000000000,"state":"active","ping":114},{"user_id":154,"name":"mach5","steam_id":76561198014094290,"connected_time":5190000000000,"state":"active","ping":98},{"user_id":156,"name":"Theodore John Kaczynski","steam_id":76561199127590316,"connected_time":5139000000000,"state":"active","ping":74},{"user_id":165,"name":"Buswolley","steam_id":76561197995205571,"connected_time":4548000000000,"state":"active","ping":58},{"user_id":191,"name":"Sly Marbo","steam_id":76561198135271741,"connected_time":894000000000,"state":"active","ping":61},{"user_id":176,"name":"lukamine","steam_id":76561198166827208,"connected_time":3175000000000,"state":"active","ping":45},{"user_id":194,"name":"Onion Zest","steam_id":76561198438947865,"connected_time":704000000000,"state":"active","ping":89},{"user_id":198,"name":"Jazpy","steam_id":76561198036872545,"connected_time":450000000000,"state":"active","ping":107},{"user_id":179,"name":"Tenzin Gyatso","steam_id":76561198258980884,"connected_time":2875000000000,"state":"active","ping":54},{"user_id":184,"name":"Juuichi11","steam_id":76561198141955085,"connected_time":1664000000000,"state":"active","ping":45},{"user_id":196,"name":"O.G. C.E.O","steam_id":76561198063928325,"connected_time":615000000000,"state":"active","ping":81},{"user_id":161,"name":"roach","steam_id":76561198354811369,"connected_time":4821000000000,"state":"active","ping":76},{"user_id":193,"name":"LinOS","steam_id":76561198039792904,"connected_time":756000000000,"state":"active","ping":46},{"user_id":203,"name":"Data_on_Acid","steam_id":76561198017657660,"connected_time":168000000000,"state":"active","ping":81},{"user_id":181,"name":"woodpigeon","steam_id":76561199488457138,"connected_time":1806000000000,"state":"active","ping":59},{"user_id":152,"name":"rilby","steam_id":76561198132755619,"connected_time":5221000000000,"state":"active","ping":71},{"user_id":145,"name":"Nibotshooter","steam_id":76561199284825579,"connected_time":6127000000000,"state":"active","ping":70},{"user_id":153,"name":"Daz","steam_id":76561198041431938,"connected_time":5218000000000,"state":"active","ping":52}]},{"server_id":119,"name":"Uncletopia | Seattle | 2 | All Maps","name_short":"sea-2","host":"sea-1.us.uncletopia.com","port":27025,"enabled":true,"region":"us-west","cc":"us","latitude":47.608013,"longitude":-122.33517,"reserved":0,"last_update":"0001-01-01T00:00:00Z","name_a2s":"Uncletopia | Seattle | 2 | All Maps","protocol":17,"map":"koth_cascade","folder":"tf","game":"Team Fortress","app_id":440,"player_count":0,"max_players":24,"Bots":0,"server_type":"Dedicated","server_os":"Linux","password":true,"vac":true,"version":"7961495","steam_id":85568392924469998,"keywords":["cp","nocrits","nodmgspread","uncletopia"],"game_id":440,"stv_port":27026,"stv_name":"Uncletopia | Seattle | 2 | All Maps | STV","players":null},{"server_id":406,"name":"Uncletopia | Seattle | 3 | Stopwatch","name_short":"sea-3","host":"sea-1.us.uncletopia.com","port":27035,"enabled":true,"region":"us-west","cc":"us","latitude":47.608013,"longitude":-122.33517,"reserved":0,"last_update":"0001-01-01T00:00:00Z","name_a2s":"Uncletopia | Seattle | 3 | Stopwatch","protocol":17,"map":"cp_process_final","folder":"tf","game":"Team Fortress","app_id":440,"player_count":0,"max_players":24,"Bots":0,"server_type":"Dedicated","server_os":"Linux","password":true,"vac":true,"version":"7961495","steam_id":85568392924515217,"keywords":["cp","nocrits","nodmgspread","uncletopia"],"game_id":440,"stv_port":27036,"stv_name":"Uncletopia | Seattle | 3 | Stopwatch | STV","players":null},{"server_id":17,"name":"Uncletopia | San Francisco | 1 | All Maps","name_short":"sfo-1","host":"sfo-1.us.uncletopia.com","port":27015,"enabled":true,"region":"us-west","cc":"us","latitude":37.77397,"longitude":-122.4313,"reserved":0,"last_update":"0001-01-01T00:00:00Z","name_a2s":"Uncletopia | San Francisco | 1 | All Maps","protocol":17,"map":"koth_cascade","folder":"tf","game":"Team Fortress","app_id":440,"player_count":0,"max_players":24,"Bots":0,"server_type":"Dedicated","server_os":"Linux","password":true,"vac":true,"version":"7961495","steam_id":85568392924469999,"keywords":["cp","nocrits","nodmgspread","uncletopia"],"game_id":440,"stv_port":27016,"stv_name":"Uncletopia | San Francisco | 1 | All Maps | STV","players":null},{"server_id":18,"name":"Uncletopia | San Francisco | 2 | All Maps","name_short":"sfo-2","host":"sfo-1.us.uncletopia.com","port":27025,"enabled":true,"region":"us-west","cc":"us","latitude":37.77397,"longitude":-122.4313,"reserved":0,"last_update":"0001-01-01T00:00:00Z","name_a2s":"Uncletopia | San Francisco | 2 | All Maps","protocol":17,"map":"cp_snakewater_final1","folder":"tf","game":"Team Fortress","app_id":440,"player_count":0,"max_players":24,"Bots":0,"server_type":"Dedicated","server_os":"Linux","password":true,"vac":true,"version":"7961495","steam_id":85568392924470000,"keywords":["cp","nocrits","nodmgspread","uncletopia"],"game_id":440,"stv_port":27026,"stv_name":"Uncletopia | San Francisco | 2 | All Maps | STV","players":null},{"server_id":19,"name":"Uncletopia | San Francisco | 3 | Stopwatch","name_short":"sfo-3","host":"sfo-1.us.uncletopia.com","port":27035,"enabled":true,"region":"us-west","cc":"us","latitude":37.77397,"longitude":-122.4313,"reserved":0,"last_update":"0001-01-01T00:00:00Z","name_a2s":"Uncletopia | San Francisco | 3 | Stopwatch","protocol":17,"map":"pl_pier","folder":"tf","game":"Team Fortress","app_id":440,"player_count":0,"max_players":24,"Bots":0,"server_type":"Dedicated","server_os":"Linux","password":true,"vac":true,"version":"7961495","steam_id":85568392924742824,"keywords":["nocrits","nodmgspread","payload","uncletopia"],"game_id":440,"stv_port":27036,"stv_name":"Uncletopia | San Francisco | 3 | Stopwatch | STV","players":null},{"server_id":20,"name":"Uncletopia | San Francisco | 4 | Community","name_short":"sfo-4","host":"sfo-1.us.uncletopia.com","port":27045,"enabled":true,"region":"us-west","cc":"us","latitude":37.77397,"longitude":-122.4313,"reserved":0,"last_update":"0001-01-01T00:00:00Z","name_a2s":"Uncletopia | San Francisco | 4 | Community","protocol":17,"map":"pl_pier","folder":"tf","game":"Team Fortress","app_id":440,"player_count":0,"max_players":24,"Bots":0,"server_type":"Dedicated","server_os":"Linux","password":true,"vac":true,"version":"7961495","steam_id":85568392924742826,"keywords":["nocrits","nodmgspread","payload","uncletopia"],"game_id":440,"stv_port":27046,"stv_name":"Uncletopia | San Francisco | 4 | Community | STV","players":null},{"server_id":141,"name":"Uncletopia | Sydney | 1 | All Maps","name_short":"syd-1","host":"syd-1.au.uncletopia.com","port":27015,"enabled":true,"region":"au","cc":"au","latitude":-33.865143,"longitude":151.2099,"reserved":0,"last_update":"0001-01-01T00:00:00Z","name_a2s":"Uncletopia | Sydney | 1 | All Maps","protocol":17,"map":"koth_viaduct","folder":"tf","game":"Team Fortress","app_id":440,"player_count":0,"max_players":24,"Bots":0,"server_type":"Dedicated","server_os":"Linux","password":true,"vac":true,"version":"7961495","steam_id":85568392924470001,"keywords":["cp","nocrits","nodmgspread","uncletopia"],"game_id":440,"stv_port":27016,"stv_name":"Uncletopia | Sydney | 1 | All Maps | STV","players":null},{"server_id":123,"name":"Uncletopia | Sydney | 2 | All Maps","name_short":"syd-2","host":"syd-1.au.uncletopia.com","port":27025,"enabled":true,"region":"au","cc":"au","latitude":-33.865143,"longitude":151.2099,"reserved":0,"last_update":"0001-01-01T00:00:00Z","name_a2s":"Uncletopia | Sydney | 2 | All Maps","protocol":17,"map":"koth_lakeside_final","folder":"tf","game":"Team Fortress","app_id":440,"player_count":0,"max_players":24,"Bots":0,"server_type":"Dedicated","server_os":"Linux","password":true,"vac":true,"version":"7961495","steam_id":85568392924470002,"keywords":["cp","nocrits","nodmgspread","uncletopia"],"game_id":440,"stv_port":27026,"stv_name":"Uncletopia | Sydney | 2 | All Maps | STV","players":null},{"server_id":395,"name":"Uncletopia | Sydney | 3 | All Maps","name_short":"syd-3","host":"syd-1.au.uncletopia.com","port":27035,"enabled":true,"region":"au","cc":"au","latitude":-33.865143,"longitude":151.2099,"reserved":0,"last_update":"0001-01-01T00:00:00Z","name_a2s":"Uncletopia | Sydney | 3 | All Maps","protocol":17,"map":"cp_altitude","folder":"tf","game":"Team Fortress","app_id":440,"player_count":2,"max_players":24,"Bots":0,"server_type":"Dedicated","server_os":"Linux","password":true,"vac":true,"version":"7961495","steam_id":85568392925194467,"keywords":["cp","nocrits","nodmgspread","uncletopia"],"game_id":440,"stv_port":27036,"stv_name":"Uncletopia | Sydney | 3 | All Maps | STV","players":[{"user_id":3,"name":"NotKomori","steam_id":76561198845165975,"connected_time":700000000000,"state":"active","ping":345},{"user_id":4,"name":"TheInfiniteK","steam_id":76561198353173330,"connected_time":693000000000,"state":"active","ping":84}]},{"server_id":396,"name":"Uncletopia | Sydney | 4 | All Maps","name_short":"syd-4","host":"syd-1.au.uncletopia.com","port":27045,"enabled":true,"region":"au","cc":"au","latitude":-33.865143,"longitude":151.2099,"reserved":0,"last_update":"0001-01-01T00:00:00Z","name_a2s":"Uncletopia | Sydney | 4 | All Maps","protocol":17,"map":"cp_process_final","folder":"tf","game":"Team Fortress","app_id":440,"player_count":0,"max_players":24,"Bots":0,"server_type":"Dedicated","server_os":"Linux","password":true,"vac":true,"version":"7961495","steam_id":85568392925397958,"keywords":["cp","nocrits","nodmgspread","uncletopia"],"game_id":440,"stv_port":27046,"stv_name":"Uncletopia | Sydney | 4 | All Maps | STV","players":null},{"server_id":58,"name":"Uncletopia | Sydney | 5 | Stopwatch","name_short":"syd-5","host":"syd-1.au.uncletopia.com","port":27055,"enabled":true,"region":"au","cc":"au","latitude":-33.865143,"longitude":151.2099,"reserved":0,"last_update":"0001-01-01T00:00:00Z","name_a2s":"Uncletopia | Sydney | 5 | Stopwatch","protocol":17,"map":"pl_frontier_final","folder":"tf","game":"Team Fortress","app_id":440,"player_count":0,"max_players":24,"Bots":0,"server_type":"Dedicated","server_os":"Linux","password":true,"vac":true,"version":"7961495","steam_id":85568392925397959,"keywords":["nocrits","nodmgspread","payload","uncletopia"],"game_id":440,"stv_port":27056,"stv_name":"Uncletopia | Sydney | 5 | Stopwatch | STV","players":null},{"server_id":59,"name":"Uncletopia | Sydney | 6 | Community","name_short":"syd-6","host":"syd-1.au.uncletopia.com","port":27065,"enabled":true,"region":"au","cc":"au","latitude":-33.865143,"longitude":151.2099,"reserved":0,"last_update":"0001-01-01T00:00:00Z","name_a2s":"Uncletopia | Sydney | 6 | Community","protocol":17,"map":"cp_sunshine","folder":"tf","game":"Team Fortress","app_id":440,"player_count":0,"max_players":24,"Bots":0,"server_type":"Dedicated","server_os":"Linux","password":true,"vac":true,"version":"7961495","steam_id":85568392925397960,"keywords":["cp","nocrits","nodmgspread","uncletopia"],"game_id":440,"stv_port":27066,"stv_name":"Uncletopia | Sydney | 6 | Community | STV","players":null},{"server_id":49,"name":"Uncletopia | Warsaw | 1 | One Thousand Uncles","name_short":"waw-1","host":"waw-1.pl.uncletopia.com","port":27015,"enabled":true,"region":"eu","cc":"pl","latitude":52.2297,"longitude":21.017532,"reserved":0,"last_update":"0001-01-01T00:00:00Z","name_a2s":"Uncletopia | Warsaw | 1 | One Thousand Uncles","protocol":17,"map":"pl_badwater","folder":"tf","game":"Team Fortress","app_id":440,"player_count":25,"max_players":32,"Bots":16,"server_type":"Dedicated","server_os":"Linux","password":true,"vac":true,"version":"7961495","steam_id":85568392925397850,"keywords":["alltalk","bots","danepve","increased_maxplayers","nocrits","norespawntime","payload","uncletopia"],"game_id":440,"stv_port":0,"stv_name":"","players":[{"user_id":668,"name":"Riky95","steam_id":76561198095289436,"connected_time":2140000000000,"state":"active","ping":65},{"user_id":664,"name":"Pepefuckurmom","steam_id":76561199467404806,"connected_time":3045000000000,"state":"active","ping":68},{"user_id":708,"name":"Georgino","steam_id":76561198124719463,"connected_time":170000000000,"state":"active","ping":65},{"user_id":707,"name":"Voks_","steam_id":76561198159687785,"connected_time":333000000000,"state":"active","ping":67},{"user_id":666,"name":"Hapy","steam_id":76561199157398169,"connected_time":2838000000000,"state":"active","ping":188},{"user_id":652,"name":"Kaia Brodbecker","steam_id":76561198294109951,"connected_time":4085000000000,"state":"active","ping":103},{"user_id":661,"name":"Callawe","steam_id":76561198129785792,"connected_time":3496000000000,"state":"active","ping":73},{"user_id":657,"name":"Sindik","steam_id":76561198973176041,"connected_time":3795000000000,"state":"active","ping":103},{"user_id":699,"name":"SKARV","steam_id":76561199210057109,"connected_time":1039000000000,"state":"active","ping":73}]},{"server_id":50,"name":"Uncletopia | Warsaw | 2 | One Thousand Uncles","name_short":"waw-2","host":"waw-1.pl.uncletopia.com","port":27025,"enabled":true,"region":"eu","cc":"pl","latitude":52.2297,"longitude":21.017532,"reserved":0,"last_update":"0001-01-01T00:00:00Z","name_a2s":"Uncletopia | Warsaw | 2 | One Thousand Uncles","protocol":17,"map":"pl_badwater","folder":"tf","game":"Team Fortress","app_id":440,"player_count":21,"max_players":32,"Bots":16,"server_type":"Dedicated","server_os":"Linux","password":true,"vac":true,"version":"7961495","steam_id":85568392925397851,"keywords":["alltalk","bots","danepve","increased_maxplayers","nocrits","norespawntime","payload","uncletopia"],"game_id":440,"stv_port":0,"stv_name":"","players":[{"user_id":408,"name":"joachym","steam_id":76561198428579761,"connected_time":1427000000000,"state":"active","ping":70},{"user_id":411,"name":"Radlup","steam_id":76561198812309304,"connected_time":995000000000,"state":"active","ping":33},{"user_id":329,"name":"I.C. Wiener","steam_id":76561197999912254,"connected_time":7456000000000,"state":"active","ping":53},{"user_id":413,"name":"WiLD","steam_id":76561198345622161,"connected_time":739000000000,"state":"active","ping":77},{"user_id":322,"name":"Max Power","steam_id":76561198019269089,"connected_time":8221000000000,"state":"active","ping":60}]},{"server_id":51,"name":"Uncletopia | Warsaw | 3 | All Maps","name_short":"waw-3","host":"waw-1.pl.uncletopia.com","port":27035,"enabled":true,"region":"eu","cc":"pl","latitude":52.2297,"longitude":21.017532,"reserved":0,"last_update":"0001-01-01T00:00:00Z","name_a2s":"Uncletopia | Warsaw | 3 | All Maps","protocol":17,"map":"koth_highpass","folder":"tf","game":"Team Fortress","app_id":440,"player_count":0,"max_players":24,"Bots":0,"server_type":"Dedicated","server_os":"Linux","password":true,"vac":true,"version":"7961495","steam_id":85568392925397852,"keywords":["cp","nocrits","nodmgspread","uncletopia"],"game_id":440,"stv_port":27036,"stv_name":"Uncletopia | Warsaw | 3 | All Maps | STV","players":null},{"server_id":52,"name":"Uncletopia | Warsaw | 4 | All Maps","name_short":"waw-4","host":"waw-1.pl.uncletopia.com","port":27045,"enabled":true,"region":"eu","cc":"pl","latitude":52.2297,"longitude":21.017532,"reserved":0,"last_update":"0001-01-01T00:00:00Z","name_a2s":"Uncletopia | Warsaw | 4 | All Maps","protocol":17,"map":"koth_lakeside_final","folder":"tf","game":"Team Fortress","app_id":440,"player_count":0,"max_players":24,"Bots":0,"server_type":"Dedicated","server_os":"Linux","password":true,"vac":true,"version":"7961495","steam_id":85568392925397853,"keywords":["cp","nocrits","nodmgspread","uncletopia"],"game_id":440,"stv_port":27046,"stv_name":"Uncletopia | Warsaw | 4 | All Maps | STV","players":null},{"server_id":53,"name":"Uncletopia | Warsaw | 5 | Stopwatch","name_short":"waw-5","host":"waw-1.pl.uncletopia.com","port":27055,"enabled":true,"region":"eu","cc":"pl","latitude":52.2297,"longitude":21.017532,"reserved":0,"last_update":"0001-01-01T00:00:00Z","name_a2s":"Uncletopia | Warsaw | 5 | Stopwatch","protocol":17,"map":"koth_lakeside_final","folder":"tf","game":"Team Fortress","app_id":440,"player_count":0,"max_players":24,"Bots":0,"server_type":"Dedicated","server_os":"Linux","password":true,"vac":true,"version":"7961495","steam_id":85568392925397854,"keywords":["cp","nocrits","nodmgspread","uncletopia"],"game_id":440,"stv_port":27056,"stv_name":"Uncletopia | Warsaw | 5 | Stopwatch | STV","players":null},{"server_id":54,"name":"Uncletopia | Warsaw | 6 | Community","name_short":"waw-6","host":"waw-1.pl.uncletopia.com","port":27065,"enabled":true,"region":"eu","cc":"pl","latitude":52.2297,"longitude":21.017532,"reserved":0,"last_update":"0001-01-01T00:00:00Z","name_a2s":"Uncletopia | Warsaw | 6 | Community","protocol":17,"map":"workshop/cp_indulge.ugc528106646","folder":"tf","game":"Team Fortress","app_id":440,"player_count":0,"max_players":24,"Bots":0,"server_type":"Dedicated","server_os":"Linux","password":true,"vac":true,"version":"7961495","steam_id":85568392925397856,"keywords":["cp","nocrits","nodmgspread","uncletopia"],"game_id":440,"stv_port":27066,"stv_name":"Uncletopia | Warsaw | 6 | Community | STV","players":null}]}