{"status":true,"message":"","result":[{"server_id":9,"name":"Uncletopia | Atlanta | 1 | All Maps","name_short":"atl-1","host":"atl-1.us.uncletopia.com","port":27015,"enabled":true,"region":"us-east","cc":"us","latitude":33.753746,"longitude":-84.38633,"reserved":0,"last_update":"0001-01-01T00:00:00Z","name_a2s":"Uncletopia | Atlanta | 1 | All Maps","protocol":17,"map":"pl_badwater","folder":"tf","game":"Team Fortress","app_id":440,"player_count":24,"max_players":24,"Bots":0,"server_type":"Dedicated","server_os":"Linux","password":true,"vac":true,"version":"7961495","steam_id":85568392924469982,"keywords":["nocrits","nodmgspread","payload","uncletopia"],"game_id":440,"stv_port":27016,"stv_name":"Uncletopia | Atlanta | 1 | All Maps | STV","players":[{"user_id":239,"name":"Snitzman","steam_id":76561198068303272,"connected_time":3063000000000,"state":"active","ping":86},{"user_id":247,"name":"sansa musa","steam_id":76561198163723555,"connected_time":2794000000000,"state":"active","ping":74},{"user_id":253,"name":"yourlocalforecast","steam_id":76561198042243083,"connected_time":2266000000000,"state":"active","ping":60},{"user_id":270,"name":"Heathcliff","steam_id":76561198044288534,"connected_time":272000000000,"state":"active","ping":62},{"user_id":273,"name":"Electroid","steam_id":76561199092263960,"connected_time":257000000000,"state":"active","ping":45},{"user_id":258,"name":"castro","steam_id":76561198834358497,"connected_time":1547000000000,"state":"active","ping":60},{"user_id":224,"name":"Obelisk","steam_id":76561198049416866,"connected_time":4015000000000,"state":"active","ping":168},{"user_id":204,"name":"Xavibite","steam_id":76561198209380493,"connected_time":5372000000000,"state":"active","ping":61},{"user_id":220,"name":"Atlas","steam_id":76561198127975050,"connected_time":4075000000000,"state":"active","ping":41},{"user_id":259,"name":"Flint","steam_id":76561198066547582,"connected_time":1329000000000,"state":"active","ping":99},{"user_id":221,"name":"Ostrich","steam_id":76561198068553779,"connected_time":4064000000000,"state":"active","ping":49},{"user_id":232,"name":"Joe","steam_id":76561199246334910,"connected_time":3291000000000,"state":"active","ping":60},{"user_id":257,"name":"Singular Rooster","steam_id":76561197983872657,"connected_time":1681000000000,"state":"active","ping":45},{"user_id":260,"name":"ATL1 | on my hunting trip","steam_id":76561198315341646,"connected_time":1305000000000,"state":"active","ping":69},{"user_id":254,"name":"DeezNoodlez","steam_id":76561198246700372,"connected_time":2054000000000,"state":"active","ping":60},{"user_id":272,"name":"trianamarco780","steam_id":76561199084319677,"connected_time":268000000000,"state":"active","ping":120},{"user_id":271,"name":"Brown_Dream","steam_id":76561198975766145,"connected_time":272000000000,"state":"active","ping":69},{"user_id":265,"name":"Youngboy WNBA","steam_id":76561198171695729,"connected_time":1091000000000,"state":"active","ping":73},{"user_id":249,"name":"Frost ‚ô•","steam_id":76561198168870617,"connected_time":2706000000000,"state":"active","ping":76},{"user_id":266,"name":"Willly the WHALE","steam_id":76561198927517471,"connected_time":1006000000000,"state":"active","ping":45},{"user_id":267,"name":"lurid","steam_id":76561199134999203,"connected_time":778000000000,"state":"active","ping":60},{"user_id":269,"name":"Luci‚òÖFer","steam_id":76561199030343810,"connected_time":763000000000,"state":"active","ping":52},{"user_id":251,"name":"Le4n!!!","steam_id":76561198045522596,"connected_time":2462000000000,"state":"active","ping":74},{"user_id":256,"name":"Bunt","steam_id":76561198124477567,"connected_time":1857000000000,"state":"active","ping":43}]},{"server_id":104,"name":"Uncletopia | Atlanta | 2 | All Maps","name_short":"atl-2","host":"atl-1.us.uncletopia.com","port":27025,"enabled":true,"region":"us-east","cc":"us","latitude":33.753746,"longitude":-84.38633,"reserved":0,"last_update":"0001-01-01T00:00:00Z","name_a2s":"Uncletopia | Atlanta | 2 | All Maps","protocol":17,"map":"koth_cascade","folder":"tf","game":"Team Fortress","app_id":440,"player_count":0,"max_players":24,"Bots":0,"server_type":"Dedicated","server_os":"Linux","password":true,"vac":true,"version":"7961495","steam_id":85568392924469983,"keywords":["cp","nocrits","nodmgspread","uncletopia"],"game_id":440,"stv_port":27026,"stv_name":"Uncletopia | Atlanta | 2 | All Maps | STV","players":null},{"server_id":400,"name":"Uncletopia | Atlanta | 3 | Stopwatch","name_short":"atl-3","host":"atl-1.us.uncletopia.com","port":27035,"enabled":true,"region":"us-east","cc":"us","latitude":33.753746,"longitude":-84.38633,"reserved":0,"last_update":"0001-01-01T00:00:00Z","name_a2s":"Uncletopia | Atlanta | 3 | Stopwatch","protocol":17,"map":"cp_metalworks","folder":"tf","game":"Team Fortress","app_id":440,"player_count":0,"max_players":24,"Bots":0,"server_type":"Dedicated","server_os":"Linux","password":true,"vac":true,"version":"7961495","steam_id":85568392924515187,"keywords":["cp","nocrits","nodmgspread","uncletopia"],"game_id":440,"stv_port":27036,"stv_name":"Uncletopia | Atlanta | 3 | Stopwatch | STV","players":null},{"server_id":401,"name":"Uncletopia | Atlanta | 4 | Community","name_short":"atl-4","host":"atl-1.us.uncletopia.com","port":27045,"enabled":true,"region":"us-east","cc":"us","latitude":33.753746,"longitude":-84.38633,"reserved":0,"last_update":"0001-01-01T00:00:00Z","name_a2s":"Uncletopia | Atlanta | 4 | Community","protocol":17,"map":"workshop/koth_slaughter_rc1.ugc1712845210","folder":"tf","game":"Team Fortress","app_id":440,"player_count":24,"max_players":24,"Bots":0,"server_type":"Dedicated","server_os":"Linux","password":true,"vac":true,"version":"7961495","steam_id":85568392924515188,"keywords":["cp","nocrits","nodmgspread","uncletopia"],"game_id":440,"stv_port":27046,"stv_name":"Uncletopia | Atlanta | 4 | Community | STV","players":[{"user_id":228,"name":"ewitsn8","steam_id":76561198253042466,"connected_time":38000000000,"state":"spawning","ping":245},{"user_id":140,"name":"TerracottaP","steam_id":76561199402983168,"connected_time":6085000000000,"state":"spawning","ping":730},{"user_id":229,"name":"AMistake","steam_id":76561199379196708,"connected_time":24000000000,"state":"spawning","ping":94},{"user_id":187,"name":"MEATBALL","steam_id":76561198028499312,"connected_time":2846000000000,"state":"active","ping":47},{"user_id":230,"name":"BumpofNight","steam_id":76561198011581312,"connected_time":8000000000,"state":"spawning","ping":85},{"user_id":227,"name":"phone","steam_id":76561198029268743,"connected_time":61000000000,"state":"spawning","ping":177},{"user_id":179,"name":"Momo","steam_id":76561198815067088,"connected_time":3509000000000,"state":"spawning","ping":208},{"user_id":207,"name":"D UCK","steam_id":76561198075844142,"connected_time":1391000000000,"state":"active","ping":37},{"user_id":218,"name":"draining to stay happy","steam_id":76561198797823116,"connected_time":520000000000,"state":"active","ping":60},{"user_id":213,"name":"Grandpa¬¥s Last Drop of Cum","steam_id":76561198079516696,"connected_time":920000000000,"state":"active","ping":94},{"user_id":191,"name":"Hard Soap","steam_id":76561198267905614,"connected_time":2737000000000,"state":"active","ping":66},{"user_id":231,"name":"Condensed Milk","steam_id":76561199209016136,"connected_time":8000000000,"state":"spawning","ping":117},{"user_id":199,"name":"The Potato Romancer","steam_id":76561198204197648,"connected_time":2195000000000,"state":"active","ping":92},{"user_id":221,"name":"Sniff32","steam_id":76561198046707764,"connected_time":393000000000,"state":"active","ping":60},{"user_id":215,"name":"BubbyBoy27","steam_id":76561199102009679,"connected_time":905000000000,"state":"active","ping":67},{"user_id":200,"name":"BriLLz","steam_id":76561198142440806,"connected_time":2163000000000,"state":"active","ping":148},{"user_id":222,"name":"TravistyPCP","steam_id":76561198116360403,"connected_time":384000000000,"state":"spawning","ping":255},{"user_id":170,"name":"chikin.sauce","steam_id":76561198042464635,"connected_time":4032000000000,"state":"active","ping":85},{"user_id":201,"name":"A Random Guy","steam_id":76561198282519457,"connected_time":2159000000000,"state":"active","ping":115},{"user_id":208,"name":"kimchy101","steam_id":76561198202721584,"connected_time":1352000000000,"state":"active","ping":47},{"user_id":212,"name":"Sappho of Lesbos","steam_id":76561198115931381,"connected_time":954000000000,"state":"active","ping":45},{"user_id":211,"name":"Chuina","steam_id":76561198056871257,"connected_time":966000000000,"state":"active","ping":63},{"user_id":226,"name":"joachym","steam_id":76561198428579761,"connected_time":189000000000,"state":"active","ping":150},{"user_id":232,"name":"MrPeanutBetter","steam_id":76561199149697526,"connected_time":7000000000,"state":"spawning","ping":145}]},{"server_id":2,"name":"Uncletopia | Chicago | 1 | All Maps","name_short":"chi-1","host":"chi-1.us.uncletopia.com","port":27015,"enabled":true,"region":"us-central","cc":"us","latitude":41.881832,"longitude":-87.62318,"reserved":0,"last_update":"0001-01-01T00:00:00Z","name_a2s":"Uncletopia | Chicago | 1 | All Maps","protocol":17,"map":"pl_barnblitz","folder":"tf","game":"Team Fortress","app_id":440,"player_count":24,"max_players":24,"Bots":0,"server_type":"Dedicated","server_os":"Linux","password":true,"vac":true,"version":"7961495","steam_id":85568392924469984,"keywords":["nocrits","nodmgspread","payload","uncletopia"],"game_id":440,"stv_port":27016,"stv_name":"Uncletopia | Chicago | 1 | All Maps | STV","players":[{"user_id":354,"name":"Young-OG","steam_id":76561198058800479,"connected_time":3495000000000,"state":"active","ping":75},{"user_id":363,"name":"PickleHater13","steam_id":76561198259380127,"connected_time":2942000000000,"state":"active","ping":59},{"user_id":303,"name":"Lord_Manship","steam_id":76561198045168765,"connected_time":7562000000000,"state":"active","ping":68},{"user_id":395,"name":"‡∏∏","steam_id":76561198170624701,"connected_time":586000000000,"state":"active","ping":76},{"user_id":352,"name":"Ratlympics Gold Medalist","steam_id":76561198064981004,"connected_time":3930000000000,"state":"active","ping":55},{"user_id":344,"name":"Black Rose Oncore","steam_id":76561198040489960,"connected_time":4656000000000,"state":"active","ping":74},{"user_id":392,"name":"Siz","steam_id":76561198072962154,"connected_time":1378000000000,"state":"active","ping":61},{"user_id":394,"name":"xxxsinpadres","steam_id":76561198366873419,"connected_time":1028000000000,"state":"active","ping":63},{"user_id":383,"name":"jan kili","steam_id":76561198289894834,"connected_time":1879000000000,"state":"active","ping":69},{"user_id":387,"name":"iUseDvorak","steam_id":76561198064439037,"connected_time":1773000000000,"state":"active","ping":70},{"user_id":358,"name":"Dwanor","steam_id":76561198039571887,"connected_time":3255000000000,"state":"active","ping":74},{"user_id":377,"name":"Le Meilleur","steam_id":76561198054581325,"connected_time":2309000000000,"state":"active","ping":45},{"user_id":375,"name":"Dr.StrangeGlove","steam_id":76561198286114229,"connected_time":2341000000000,"state":"active","ping":63},{"user_id":353,"name":"Steak-Pocketer","steam_id":76561198277651410,"connected_time":3908000000000,"state":"active","ping":60},{"user_id":390,"name":"Supox","steam_id":76561198067468571,"connected_time":1733000000000,"state":"active","ping":68},{"user_id":378,"name":"SandHanitizer","steam_id":76561198234676500,"connected_time":2292000000000,"state":"active","ping":60},{"user_id":381,"name":"m.a.d.","steam_id":76561198040553982,"connected_time":2154000000000,"state":"active","ping":60},{"user_id":391,"name":"Bookmark","steam_id":76561198210918443,"connected_time":1725000000000,"state":"active","ping":101},{"user_id":357,"name":"poopybutt420","steam_id":76561199000805315,"connected_time":3348000000000,"state":"active","ping":102},{"user_id":389,"name":"Pikminseed","steam_id":76561198113502795,"connected_time":1763000000000,"state":"active","ping":73},{"user_id":355,"name":"Jango","steam_id":76561198084589742,"connected_time":3486000000000,"state":"active","ping":79},{"user_id":396,"name":"lobster","steam_id":76561198147417707,"connected_time":576000000000,"state":"active","ping":77},{"user_id":370,"name":"Aztea","steam_id":76561198982089893,"connected_time":2598000000000,"state":"active","ping":82},{"user_id":385,"name":"B.","steam_id":76561198040445907,"connected_time":1847000000000,"state":"active","ping":75}]},{"server_id":106,"name":"Uncletopia | Chicago | 2 | All Maps","name_short":"chi-2","host":"chi-1.us.uncletopia.com","port":27025,"enabled":true,"region":"us-central","cc":"us","latitude":41.881832,"longitude":-87.62318,"reserved":0,"last_update":"0001-01-01T00:00:00Z","name_a2s":"Uncletopia | Chicago | 2 | All Maps","protocol":17,"map":"cp_gullywash_final1","folder":"tf","game":"Team Fortress","app_id":440,"player_count":24,"max_players":24,"Bots":0,"server_type":"Dedicated","server_os":"Linux","password":true,"vac":true,"version":"7961495","steam_id":85568392924469985,"keywords":["cp","nocrits","nodmgspread","uncletopia"],"game_id":440,"stv_port":27026,"stv_name":"Uncletopia | Chicago | 2 | All Maps | STV","players":[{"user_id":502,"name":"80proof","steam_id":76561198076695816,"connected_time":380000000000,"state":"active","ping":59},{"user_id":489,"name":"a bellhop","steam_id":76561198046797995,"connected_time":999000000000,"state":"active","ping":48},{"user_id":483,"name":"beans","steam_id":76561199082781884,"connected_time":1502000000000,"state":"active","ping":29},{"user_id":490,"name":"Sergeant Snowflake","steam_id":76561198041474489,"connected_time":989000000000,"state":"active","ping":46},{"user_id":501,"name":"ThatOneKnight","steam_id":76561198388583650,"connected_time":501000000000,"state":"active","ping":56},{"user_id":468,"name":"beep","steam_id":76561199096448766,"connected_time":2545000000000,"state":"active","ping":69},{"user_id":449,"name":"Lex","steam_id":76561198069948353,"connected_time":3699000000000,"state":"active","ping":86},{"user_id":491,"name":"cc.BaconBlitz","steam_id":76561198079461770,"connected_time":987000000000,"state":"active","ping":73},{"user_id":503,"name":"√∂¬ør√∂  √π œÄ (NG√Ø‚óã√° x 21","steam_id":76561198069589278,"connected_time":211000000000,"state":"active","ping":151},{"user_id":471,"name":"Amari","steam_id":76561198272446730,"connected_time":2515000000000,"state":"active","ping":59},{"user_id":474,"name":"‡∂û.BAT","steam_id":76561198049800120,"connected_time":2449000000000,"state":"active","ping":110},{"user_id":467,"name":"Karrot","steam_id":76561198058970903,"connected_time":2607000000000,"state":"active","ping":63},{"user_id":453,"name":"Lennu","steam_id":76561198060730154,"connected_time":3524000000000,"state":"active","ping":70},{"user_id":504,"name":"soup time","steam_id":76561197961488590,"connected_time":131000000000,"state":"active","ping":60},{"user_id":493,"name":"Golden Path Enjoyer","steam_id":76561198167214734,"connected_time":945000000000,"state":"active","ping":51},{"user_id":452,"name":"AkimboAoki","steam_id":76561198158323058,"connected_time":3580000000000,"state":"active","ping":92},{"user_id":495,"name":"STICKYTRAPPEDMYUNCLE#RIPPAUL","steam_id":76561198179888142,"connected_time":890000000000,"state":"active","ping":57},{"user_id":494,"name":"Enigma balls","steam_id":76561198968058652,"connected_time":940000000000,"state":"active","ping":98},{"user_id":498,"name":"Lemonüçã","steam_id":76561198119362095,"connected_time":864000000000,"state":"active","ping":60},{"user_id":429,"name":"Shrebbie","steam_id":76561198875230824,"connected_time":4666000000000,"state":"active","ping":62},{"user_id":486,"name":"Salt","steam_id":76561198418001135,"connected_time":1454000000000,"state":"active","ping":64},{"user_id":497,"name":"ÂèñÂêçÂè´ÂÅöÂøç","steam_id":76561198278282836,"connected_time":869000000000,"state":"active","ping":56},{"user_id":488,"name":"Some Octopus Wizard","steam_id":76561198005470354,"connected_time":1346000000000,"state":"active","ping":75},{"user_id":465,"name":"QweX_","steam_id":76561198051250642,"connected_time":2688000000000,"state":"active","ping":80}]},{"server_id":402,"name":"Uncletopia | Chicago | 3 | All Maps","name_short":"chi-3","host":"chi-1.us.uncletopia.com","port":27035,"enabled":true,"region":"us-central","cc":"us","latitude":41.881832,"longitude":-87.62318,"reserved":0,"last_update":"0001-01-01T00:00:00Z","name_a2s":"Uncletopia | Chicago | 3 | All Maps","protocol":17,"map":"koth_harvest_final","folder":"tf","game":"Team Fortress","app_id":440,"player_count":24,"max_players":24,"Bots":0,"server_type":"Dedicated","server_os":"Linux","password":true,"vac":true,"version":"7961495","steam_id":85568392924515191,"keywords":["cp","nocrits","nodmgspread","uncletopia"],"game_id":440,"stv_port":27036,"stv_name":"Uncletopia | Chicago | 3 | All Maps | STV","players":[{"user_id":361,"name":"Noobert McGlitchington the 3st","steam_id":76561198073176682,"connected_time":503000000000,"state":"active","ping":59},{"user_id":251,"name":"El Bondin","steam_id":76561198820792434,"connected_time":7499000000000,"state":"active","ping":102},{"user_id":377,"name":"Dingusflingus","steam_id":76561198830981952,"connected_time":152000000000,"state":"active","ping":121},{"user_id":305,"name":"Bones0010","steam_id":76561198096186958,"connected_time":3582000000000,"state":"active","ping":75},{"user_id":346,"name":"Macro","steam_id":76561199442846226,"connected_time":1706000000000,"state":"active","ping":78},{"user_id":372,"name":"Sigiferd","steam_id":76561198148788110,"connected_time":322000000000,"state":"active","ping":129},{"user_id":365,"name":"sloped wall (fake) [not real]","steam_id":76561198203952392,"connected_time":432000000000,"state":"active","ping":73},{"user_id":362,"name":" è·¥ú·¥ä…™","steam_id":76561198401572620,"connected_time":498000000000,"state":"active","ping":60},{"user_id":339,"name":"Neotron","steam_id":76561198135271566,"connected_time":1828000000000,"state":"active","ping":54},{"user_id":354,"name":"Coup de Grass","steam_id":76561198011643226,"connected_time":1126000000000,"state":"active","ping":68},{"user_id":358,"name":"The Grim Heaper","steam_id":76561197987759101,"connected_time":553000000000,"state":"active","ping":98},{"user_id":374,"name":"Moris","steam_id":76561198280461456,"connected_time":295000000000,"state":"active","ping":97},{"user_id":356,"name":"JohnFMX","steam_id":76561198175608097,"connected_time":749000000000,"state":"active","ping":67},{"user_id":343,"name":"Dj the egg","steam_id":76561198845135568,"connected_time":1733000000000,"state":"active","ping":129},{"user_id":353,"name":"Ignalis","steam_id":76561198025662927,"connected_time":1181000000000,"state":"active","ping":56},{"user_id":334,"name":"Aleagen","steam_id":76561199427597036,"connected_time":1907000000000,"state":"active","ping":101},{"user_id":375,"name":"Robertred","steam_id":76561199062495086,"connected_time":286000000000,"state":"active","ping":130},{"user_id":352,"name":"Sir.TopHats","steam_id":76561198267326839,"connected_time":1417000000000,"state":"active","ping":75},{"user_id":376,"name":"Kritzburgh","steam_id":76561198149466938,"connected_time":281000000000,"state":"active","ping":64},{"user_id":367,"name":"slasher4713","steam_id":76561199033532858,"connected_time":420000000000,"state":"active","ping":56},{"user_id":368,"name":"Ninjago! Hami","steam_id":76561198091666474,"connected_time":416000000000,"state":"active","ping":75},{"user_id":357,"name":"Captain Underbelly","steam_id":76561198811270935,"connected_time":592000000000,"state":"active","ping":78},{"user_id":369,"name":"Dick to ball ratio","steam_id":76561198072205512,"connected_time":401000000000,"state":"active","ping":73},{"user_id":323,"name":"Valuez_THS","steam_id":76561199055291822,"connected_time":2700000000000,"state":"active","ping":99}]},{"server_id":403,"name":"Uncletopia | Chicago | 4 | All Maps","name_short":"chi-4","host":"chi-1.us.uncletopia.com","port":27045,"enabled":true,"region":"us-central","cc":"us","latitude":41.881832,"longitude":-87.62318,"reserved":0,"last_update":"0001-01-01T00:00:00Z","name_a2s":"Uncletopia | Chicago | 4 | All Maps","protocol":17,"map":"pl_frontier_final","folder":"tf","game":"Team Fortress","app_id":440,"player_count":24,"max_players":24,"Bots":0,"server_type":"Dedicated","server_os":"Linux","password":true,"vac":true,"version":"7961495","steam_id":85568392924515193,"keywords":["nocrits","nodmgspread","payload","uncletopia"],"game_id":440,"stv_port":27046,"stv_name":"Uncletopia | Chicago | 4 | All Maps | STV","players":[{"user_id":124,"name":"Wounded","steam_id":76561199440954924,"connected_time":941000000000,"state":"active","ping":128},{"user_id":94,"name":"Pierre Bourne","steam_id":76561199500265332,"connected_time":1992000000000,"state":"active","ping":68},{"user_id":109,"name":"Temujin","steam_id":76561198030936583,"connected_time":1553000000000,"state":"active","ping":45},{"user_id":96,"name":"Shark Sandwich","steam_id":76561198025007938,"connected_time":1866000000000,"state":"active","ping":83},{"user_id":127,"name":"bunnytwink","steam_id":76561198342449098,"connected_time":458000000000,"state":"active","ping":66},{"user_id":131,"name":"chefteryaki","steam_id":76561198170103934,"connected_time":112000000000,"state":"active","ping":67},{"user_id":58,"name":"Just a BLU Toon","steam_id":76561198273199771,"connected_time":4250000000000,"state":"active","ping":75},{"user_id":128,"name":"Captain Malarkey","steam_id":76561198869924281,"connected_time":228000000000,"state":"active","ping":69},{"user_id":67,"name":"Pussy Slambasket","steam_id":76561198093694322,"connected_time":3003000000000,"state":"active","ping":58},{"user_id":129,"name":"PGT diceroller521","steam_id":76561198100048412,"connected_time":226000000000,"state":"active","ping":49},{"user_id":130,"name":"Sharkwark","steam_id":76561199218566982,"connected_time":217000000000,"state":"active","ping":66},{"user_id":87,"name":"corntent","steam_id":76561198824847948,"connected_time":2158000000000,"state":"active","ping":63},{"user_id":111,"name":"EpitapH","steam_id":76561198211642559,"connected_time":1547000000000,"state":"active","ping":56},{"user_id":118,"name":"veemo","steam_id":76561198321393225,"connected_time":1252000000000,"state":"active","ping":114},{"user_id":81,"name":"thecal","steam_id":76561198307893384,"connected_time":2378000000000,"state":"active","ping":52},{"user_id":132,"name":"Reiner","steam_id":76561199201762178,"connected_time":106000000000,"state":"active","ping":65},{"user_id":126,"name":"thrompo","steam_id":76561197996845059,"connected_time":771000000000,"state":"active","ping":61},{"user_id":133,"name":"Lovedaddy","steam_id":76561198006569710,"connected_time":67000000000,"state":"active","ping":75},{"user_id":68,"name":"fuzzymanboob12321","steam_id":76561199043933182,"connected_time":2919000000000,"state":"active","ping":63},{"user_id":113,"name":"Stofmaster Flex","steam_id":76561198040014546,"connected_time":1514000000000,"state":"active","ping":134},{"user_id":92,"name":"biden cart 15 dollars","steam_id":76561198253731826,"connected_time":2036000000000,"state":"active","ping":62},{"user_id":121,"name":"Big McThankies From McSpankies","steam_id":76561198020516880,"connected_time":1040000000000,"state":"active","ping":85},{"user_id":125,"name":"Aureolin","steam_id":76561198210274835,"connected_time":861000000000,"state":"active","ping":75},{"user_id":42,"name":"the keebler","steam_id":76561199486326945,"connected_time":5148000000000,"state":"active","ping":78}]},{"server_id":36,"name":"Uncletopia | Chicago | 5 | All Maps","name_short":"chi-5","host":"chi-2.us.uncletopia.com","port":27015,"enabled":true,"region":"us-central","cc":"us","latitude":41.881832,"longitude":-87.62318,"reserved":0,"last_update":"0001-01-01T00:00:00Z","name_a2s":"Uncletopia | Chicago | 5 | All Maps","protocol":17,"map":"pl_badwater","folder":"tf","game":"Team Fortress","app_id":440,"player_count":0,"max_players":24,"Bots":0,"server_type":"Dedicated","server_os":"Linux","password":true,"vac":true,"version":"7961495","steam_id":85568392924866362,"keywords":["nocrits","nodmgspread","payload","uncletopia"],"game_id":440,"stv_port":27016,"stv_name":"Uncletopia | Chicago | 5 | All Maps | STV","players":null},{"server_id":37,"name":"Uncletopia | Chicago | 6 | All Maps","name_short":"chi-6","host":"chi-2.us.uncletopia.com","port":27025,"enabled":true,"region":"us-central","cc":"us","latitude":41.881832,"longitude":-87.62318,"reserved":0,"last_update":"0001-01-01T00:00:00Z","name_a2s":"Uncletopia | Chicago | 6 | All Maps","protocol":17,"map":"koth_highpass","folder":"tf","game":"Team Fortress","app_id":440,"player_count":0,"max_players":24,"Bots":0,"server_type":"Dedicated","server_os":"Linux","password":true,"vac":true,"version":"7961495","steam_id":85568392924866363,"keywords":["cp","nocrits","nodmgspread","uncletopia"],"game_id":440,"stv_port":27026,"stv_name":"Uncletopia | Chicago | 6 | All Maps | STV","players":null},{"server_id":38,"name":"Uncletopia | Chicago | 7 | Stopwatch","name_short":"chi-7","host":"chi-2.us.uncletopia.com","port":27035,"enabled":true,"region":"us-central","cc":"us","latitude":41.881832,"longitude":-87.62318,"reserved":0,"last_update":"0001-01-01T00:00:00Z","name_a2s":"Uncletopia | Chicago | 7 | Stopwatch","protocol":17,"map":"pl_borneo","folder":"tf","game":"Team Fortress","app_id":440,"player_count":0,"max_players":24,"Bots":0,"server_type":"Dedicated","server_os":"Linux","password":true,"vac":true,"version":"7961495","steam_id":85568392924866364,"keywords":["nocrits","nodmgspread","payload","uncletopia"],"game_id":440,"stv_port":27036,"stv_name":"Uncletopia | Chicago | 7 | Stopwatch | STV","players":null},{"server_id":39,"name":"Uncletopia | Chicago | 8 | Community","name_short":"chi-8","host":"chi-2.us.uncletopia.com","port":27045,"enabled":true,"region":"us-central","cc":"us","latitude":41.881832,"longitude":-87.62318,"reserved":0,"last_update":"0001-01-01T00:00:00Z","name_a2s":"Uncletopia | Chicago | 8 | Community","protocol":17,"map":"workshop/koth_slaughter_rc1.ugc1712845210","folder":"tf","game":"Team Fortress","app_id":440,"player_count":0,"max_players":24,"Bots":0,"server_type":"Dedicated","server_os":"Linux","password":true,"vac":true,"version":"7961495","steam_id":85568392924866365,"keywords":["cp","nocrits","nodmgspread","uncletopia"],"game_id":440,"stv_port":27046,"stv_name":"Uncletopia | Chicago | 8 | Community | STV","players":null},{"server_id":8,"name":"Uncletopia | Dallas | 1 | All Maps","name_short":"dal-1","host":"dal-1.us.uncletopia.com","port":27015,"enabled":true,"region":"us-central","cc":"us","latitude":32.779167,"longitude":-96.80889,"reserved":0,"last_update":"0001-01-01T00:00:00Z","name_a2s":"Uncletopia | Dallas | 1 | All Maps","protocol":17,"map":"cp_process_final","folder":"tf","game":"Team Fortress","app_id":440,"player_count":24,"max_players":24,"Bots":0,"server_type":"Dedicated","server_os":"Linux","password":true,"vac":true,"version":"7961495","steam_id":85568392924469986,"keywords":["cp","nocrits","nodmgspread","uncletopia"],"game_id":440,"stv_port":27016,"stv_name":"Uncletopia | Dallas | 1 | All Maps | STV","players":[{"user_id":263,"name":"Gibby","steam_id":76561199044322783,"connected_time":2070000000000,"state":"active","ping":100},{"user_id":297,"name":"Ice Teea","steam_id":76561198195673201,"connected_time":345000000000,"state":"active","ping":74},{"user_id":293,"name":"they/them pussy","steam_id":76561198261007627,"connected_time":424000000000,"state":"active","ping":98},{"user_id":247,"name":"THE DARKNESS","steam_id":76561198311004039,"connected_time":2548000000000,"state":"active","ping":91},{"user_id":287,"name":"RaixaR","steam_id":76561198025289430,"connected_time":736000000000,"state":"active","ping":53},{"user_id":222,"name":"MeMyBongusAndTheGreatOutdoors","steam_id":76561198097708978,"connected_time":4287000000000,"state":"active","ping":51},{"user_id":303,"name":"uegue","steam_id":76561198254639173,"connected_time":189000000000,"state":"active","ping":107},{"user_id":300,"name":"dddumb510","steam_id":76561198030793492,"connected_time":283000000000,"state":"active","ping":95},{"user_id":298,"name":"al.vasiglev","steam_id":76561198307359545,"connected_time":286000000000,"state":"active","ping":90},{"user_id":288,"name":"MenInHatz","steam_id":76561198825094263,"connected_time":701000000000,"state":"active","ping":85},{"user_id":216,"name":"ihave80hp","steam_id":76561199251621911,"connected_time":4787000000000,"state":"active","ping":58},{"user_id":290,"name":"Kk","steam_id":76561198197211135,"connected_time":525000000000,"state":"active","ping":49},{"user_id":299,"name":"drevott74","steam_id":76561199262592779,"connected_time":285000000000,"state":"active","ping":93},{"user_id":277,"name":"toolbox","steam_id":76561198446151354,"connected_time":1175000000000,"state":"active","ping":104},{"user_id":301,"name":"garf","steam_id":76561198451939128,"connected_time":207000000000,"state":"active","ping":76},{"user_id":244,"name":"freesia","steam_id":76561198127525888,"connected_time":2786000000000,"state":"active","ping":49},{"user_id":304,"name":"what a fukkin","steam_id":76561198298442983,"connected_time":172000000000,"state":"active","ping":91},{"user_id":305,"name":"coolmothgames.com","steam_id":76561198143132686,"connected_time":152000000000,"state":"active","ping":75},{"user_id":307,"name":"PENIS","steam_id":76561198151531499,"connected_time":119000000000,"state":"active","ping":60},{"user_id":289,"name":"bladees realest, saddest verse","steam_id":76561198098099826,"connected_time":673000000000,"state":"active","ping":58},{"user_id":233,"name":"breakfast kitty","steam_id":76561199001918194,"connected_time":4023000000000,"state":"active","ping":81},{"user_id":272,"name":"Mediocre Gaming","steam_id":76561199230467980,"connected_time":1684000000000,"state":"active","ping":76},{"user_id":308,"name":"Sewer_Trash","steam_id":76561198331200299,"connected_time":71000000000,"state":"active","ping":65},{"user_id":243,"name":"SAGE(‡§∏‡§ó‡•á*)","steam_id":76561198811114074,"connected_time":3170000000000,"state":"active","ping":59}]},{"server_id":108,"name":"Uncletopia | Dallas | 2 | All Maps","name_short":"dal-2","host":"dal-1.us.uncletopia.com","port":27025,"enabled":true,"region":"us-central","cc":"us","latitude":32.779167,"longitude":-96.80889,"reserved":0,"last_update":"0001-01-01T00:00:00Z","name_a2s":"Uncletopia | Dallas | 2 | All Maps","protocol":17,"map":"ctf_2fort","folder":"tf","game":"Team Fortress","app_id":440,"player_count":22,"max_players":24,"Bots":0,"server_type":"Dedicated","server_os":"Linux","password":true,"vac":true,"version":"7961495","steam_id":85568392924469988,"keywords":["ctf","nocrits","nodmgspread","uncletopia"],"game_id":440,"stv_port":27026,"stv_name":"Uncletopia | Dallas | 2 | All Maps | STV","players":[{"user_id":18,"name":"cris patt (real)","steam_id":76561199362872879,"connected_time":1606000000000,"state":"active","ping":55},{"user_id":54,"name":"Zana","steam_id":76561198075908156,"connected_time":381000000000,"state":"active","ping":91},{"user_id":51,"name":"Stolas ‚ô•","steam_id":76561198835430280,"connected_time":402000000000,"state":"active","ping":55},{"user_id":20,"name":"i poop my pants","steam_id":76561199488347875,"connected_time":1252000000000,"state":"active","ping":60},{"user_id":35,"name":"Bogey","steam_id":76561198096227944,"connected_time":670000000000,"state":"active","ping":52},{"user_id":22,"name":"schmuck","steam_id":76561198143789773,"connected_time":1099000000000,"state":"active","ping":53},{"user_id":23,"name":"hoOmIN","steam_id":76561198334947079,"connected_time":1096000000000,"state":"active","ping":62},{"user_id":65,"name":"VAPORO","steam_id":76561198044186051,"connected_time":100000000000,"state":"active","ping":77},{"user_id":29,"name":"jacksquare211","steam_id":76561198800027348,"connected_time":920000000000,"state":"active","ping":62},{"user_id":31,"name":"JavaFan223","steam_id":76561199508061876,"connected_time":888000000000,"state":"active","ping":63},{"user_id":55,"name":"TickTock|Mink","steam_id":76561198069809794,"connected_time":374000000000,"state":"active","ping":61},{"user_id":38,"name":"Salt Baron","steam_id":76561198073417386,"connected_time":587000000000,"state":"active","ping":90},{"user_id":37,"name":"Miles Edgeworth","steam_id":76561199010980597,"connected_time":594000000000,"state":"active","ping":92},{"user_id":56,"name":"5-MeO-DMT","steam_id":76561198089527768,"connected_time":368000000000,"state":"active","ping":57},{"user_id":40,"name":"proud_asian","steam_id":76561198977973083,"connected_time":563000000000,"state":"active","ping":78},{"user_id":42,"name":"Scrux","steam_id":76561198129763115,"connected_time":561000000000,"state":"active","ping":71},{"user_id":43,"name":"jamassExD","steam_id":76561198454033607,"connected_time":560000000000,"state":"active","ping":64},{"user_id":50,"name":"spot","steam_id":76561198151135298,"connected_time":459000000000,"state":"active","ping":61},{"user_id":59,"name":"Low Tier All Class Unusual","steam_id":76561198378587138,"connected_time":339000000000,"state":"active","ping":66},{"user_id":46,"name":"opossum","steam_id":76561198148905570,"connected_time":540000000000,"state":"active","ping":73},{"user_id":60,"name":"SuperNovaFox","steam_id":76561198052172564,"connected_time":324000000000,"state":"active","ping":77},{"user_id":64,"name":"Walmart Employee","steam_id":76561198840373909,"connected_time":201000000000,"state":"active","ping":79}]},{"server_id":404,"name":"Uncletopia | Dallas | 3 | All Maps","name_short":"dal-3","host":"dal-1.us.uncletopia.com","port":27035,"enabled":true,"region":"us-central","cc":"us","latitude":32.779167,"longitude":-96.80889,"reserved":0,"last_update":"0001-01-01T00:00:00Z","name_a2s":"Uncletopia | Dallas | 3 | All Maps","protocol":17,"map":"cp_mountainlab","folder":"tf","game":"Team Fortress","app_id":440,"player_count":24,"max_players":24,"Bots":0,"server_type":"Dedicated","server_os":"Linux","password":true,"vac":true,"version":"7961495","steam_id":85568392924515219,"keywords":["cp","nocrits","nodmgspread","uncletopia"],"game_id":440,"stv_port":27036,"stv_name":"Uncletopia | Dallas | 3 | All Maps | STV","players":[{"user_id":320,"name":"Decuplets","steam_id":76561198080661586,"connected_time":388000000000,"state":"active","ping":101},{"user_id":236,"name":"astrobob911","steam_id":76561199099110654,"connected_time":6064000000000,"state":"active","ping":91},{"user_id":302,"name":"StudioMania (#SAVETF2)","steam_id":76561198211315795,"connected_time":1709000000000,"state":"active","ping":65},{"user_id":305,"name":"what a hoot","steam_id":76561198220931980,"connected_time":1560000000000,"state":"active","ping":61},{"user_id":312,"name":"First of all i am vegeta","steam_id":76561198817815525,"connected_time":1230000000000,"state":"active","ping":83},{"user_id":321,"name":"Little Nipples","steam_id":76561198060502578,"connected_time":298000000000,"state":"active","ping":81},{"user_id":265,"name":"ItsAChadKing","steam_id":76561199499464350,"connected_time":3814000000000,"state":"active","ping":71},{"user_id":306,"name":"Wholesale Socks","steam_id":76561198169911945,"connected_time":1485000000000,"state":"active","ping":114},{"user_id":322,"name":"Junko","steam_id":76561198146089003,"connected_time":281000000000,"state":"active","ping":75},{"user_id":315,"name":"Your dead Granmas yardloot","steam_id":76561198011675372,"connected_time":888000000000,"state":"active","ping":97},{"user_id":323,"name":"raymond","steam_id":76561198046689829,"connected_time":257000000000,"state":"active","ping":60},{"user_id":324,"name":"ark","steam_id":76561198041066271,"connected_time":245000000000,"state":"active","ping":71},{"user_id":316,"name":"Thug shaker","steam_id":76561198840484105,"connected_time":647000000000,"state":"active","ping":61},{"user_id":326,"name":"liaaammm","steam_id":76561198124069244,"connected_time":111000000000,"state":"active","ping":91},{"user_id":271,"name":"LLLFarm2012","steam_id":76561199199786915,"connected_time":3444000000000,"state":"active","ping":84},{"user_id":239,"name":"SanitysEdge","steam_id":76561198130732813,"connected_time":6034000000000,"state":"active","ping":77},{"user_id":309,"name":"DragonKnight343","steam_id":76561199235854406,"connected_time":1332000000000,"state":"active","ping":89},{"user_id":325,"name":"Licensed to Chill","steam_id":76561198008863433,"connected_time":244000000000,"state":"active","ping":79},{"user_id":276,"name":"del","steam_id":76561199497603020,"connected_time":3349000000000,"state":"active","ping":77},{"user_id":319,"name":"Taco+Taco=Burrito","steam_id":76561198063128663,"connected_time":418000000000,"state":"active","ping":74},{"user_id":311,"name":"Seskova","steam_id":76561198090207032,"connected_time":1302000000000,"state":"active","ping":102},{"user_id":310,"name":"TacoMan4Life","steam_id":76561198832562728,"connected_time":1321000000000,"state":"active","ping":77},{"user_id":256,"name":"Shyki","steam_id":76561199146984256,"connected_time":4301000000000,"state":"active","ping":83},{"user_id":317,"name":"my mom","steam_id":76561199225201569,"connected_time":573000000000,"state":"active","ping":83}]},{"server_id":405,"name":"Uncletopia | Dallas | 4 | Community","name_short":"dal-4","host":"dal-1.us.uncletopia.com","port":27045,"enabled":true,"region":"us-central","cc":"us","latitude":32.779167,"longitude":-96.80889,"reserved":0,"last_update":"0001-01-01T00:00:00Z","name_a2s":"Uncletopia | Dallas | 4 | Community","protocol":17,"map":"workshop/koth_synthetic_rc6a.ugc1549817316","folder":"tf","game":"Team Fortress","app_id":440,"player_count":0,"max_players":24,"Bots":0,"server_type":"Dedicated","server_os":"Linux","password":true,"vac":true,"version":"7961495","steam_id":85568392924515220,"keywords":["cp","nocrits","nodmgspread","uncletopia"],"game_id":440,"stv_port":27046,"stv_name":"Uncletopia | Dallas | 4 | Community | STV","players":null},{"server_id":5,"name":"Uncletopia | Frankfurt | 1 | All Maps","name_short":"frk-1","host":"frk-1.de.uncletopia.com","port":27015,"enabled":true,"region":"eu","cc":"de","latitude":50.110924,"longitude":8.682127,"reserved":0,"last_update":"0001-01-01T00:00:00Z","name_a2s":"Uncletopia | Frankfurt | 1 | All Maps","protocol":17,"map":"cp_steel","folder":"tf","game":"Team Fortress","app_id":440,"player_count":24,"max_players":24,"Bots":0,"server_type":"Dedicated","server_os":"Linux","password":true,"vac":true,"version":"7961495","steam_id":85568392924469989,"keywords":["cp","nocrits","nodmgspread","uncletopia"],"game_id":440,"stv_port":27016,"stv_name":"Uncletopia | Frankfurt | 1 | All Maps | STV","players":[{"user_id":977,"name":"Groose","steam_id":76561198261094295,"connected_time":2187000000000,"state":"active","ping":60},{"user_id":978,"name":"MaximusTheFish-H21","steam_id":76561199025652089,"connected_time":2165000000000,"state":"active","ping":52},{"user_id":1000,"name":"MGE King","steam_id":76561198099259340,"connected_time":597000000000,"state":"active","ping":77},{"user_id":998,"name":"–ê—Ä—Ö—ñ–≤–∞—Ä—ñ—É—Å","steam_id":76561198878875789,"connected_time":826000000000,"state":"active","ping":65},{"user_id":961,"name":"Gen","steam_id":76561198021775885,"connected_time":3672000000000,"state":"active","ping":49},{"user_id":993,"name":"BELADIT","steam_id":76561198011911501,"connected_time":943000000000,"state":"active","ping":74},{"user_id":1021,"name":"999eng","steam_id":76561198062856371,"connected_time":11000000000,"state":"active","ping":101},{"user_id":956,"name":"Arizona Ranger","steam_id":76561198982674420,"connected_time":3782000000000,"state":"active","ping":53},{"user_id":997,"name":"mumbler","steam_id":76561197970641239,"connected_time":866000000000,"state":"active","ping":49},{"user_id":1019,"name":"Sup","steam_id":76561198959835348,"connected_time":36000000000,"state":"active","ping":65},{"user_id":987,"name":"=OKB= P4NTH3R","steam_id":76561197999204603,"connected_time":1699000000000,"state":"active","ping":54},{"user_id":1013,"name":"J0seph","steam_id":76561198190920651,"connected_time":409000000000,"state":"active","ping":53},{"user_id":965,"name":"xavier (Bobby Approved)","steam_id":76561198076494034,"connected_time":3530000000000,"state":"active","ping":57},{"user_id":1002,"name":"H_Bakheet","steam_id":76561198058735601,"connected_time":561000000000,"state":"active","ping":90},{"user_id":1003,"name":"emti","steam_id":76561198836233001,"connected_time":537000000000,"state":"active","ping":70},{"user_id":1016,"name":"rts","steam_id":76561199090876980,"connected_time":238000000000,"state":"active","ping":60},{"user_id":1018,"name":"Skillet","steam_id":76561197979185972,"connected_time":89000000000,"state":"active","ping":46},{"user_id":1017,"name":"Clydios","steam_id":76561198332311225,"connected_time":132000000000,"state":"active","ping":90},{"user_id":1011,"name":"Kolodziej","steam_id":76561198088672385,"connected_time":456000000000,"state":"active","ping":66},{"user_id":1006,"name":"goblin","steam_id":76561198170334258,"connected_time":518000000000,"state":"active","ping":75},{"user_id":1007,"name":"Spanns","steam_id":76561197998349793,"connected_time":513000000000,"state":"active","ping":75},{"user_id":1009,"name":"biohazard.pt","steam_id":76561198088367808,"connected_time":505000000000,"state":"active","ping":74},{"user_id":990,"name":"–°–µ–º—å","steam_id":76561199072741842,"connected_time":1286000000000,"state":"active","ping":71},{"user_id":1020,"name":"I'm past the point of insanity","steam_id":76561198800954471,"connected_time":18000000000,"state":"spawning","ping":93}]},{"server_id":110,"name":"Uncletopia | Frankfurt | 2 | All Maps","name_short":"frk-2","host":"frk-1.de.uncletopia.com","port":27025,"enabled":true,"region":"eu","cc":"de","latitude":50.110924,"longitude":8.682127,"reserved":0,"last_update":"0001-01-01T00:00:00Z","name_a2s":"Uncletopia | Frankfurt | 2 | All Maps","protocol":17,"map":"pl_barnblitz","folder":"tf","game":"Team Fortress","app_id":440,"player_count":24,"max_players":24,"Bots":0,"server_type":"Dedicated","server_os":"Linux","password":true,"vac":true,"version":"7961495","steam_id":85568392924469990,"keywords":["nocrits","nodmgspread","payload","uncletopia"],"game_id":440,"stv_port":27026,"stv_name":"Uncletopia | Frankfurt | 2 | All Maps | STV","players":[{"user_id":657,"name":"d≈ºej d≈ºej d≈ºoker","steam_id":76561198111853135,"connected_time":671000000000,"state":"active","ping":47},{"user_id":628,"name":"pingwinski","steam_id":76561199156218796,"connected_time":3266000000000,"state":"active","ping":71},{"user_id":620,"name":"Paci√πg remover","steam_id":76561198035928111,"connected_time":3421000000000,"state":"active","ping":65},{"user_id":609,"name":"lulu","steam_id":76561199147764133,"connected_time":4089000000000,"state":"active","ping":76},{"user_id":662,"name":"Cencut","steam_id":76561198989449047,"connected_time":426000000000,"state":"active","ping":119},{"user_id":641,"name":"Bing Bop Boop","steam_id":76561198344190563,"connected_time":1859000000000,"state":"active","ping":48},{"user_id":644,"name":"KarlRanzeier","steam_id":76561198066281337,"connected_time":1778000000000,"state":"active","ping":60},{"user_id":576,"name":"Monkey","steam_id":76561198048385029,"connected_time":6254000000000,"state":"active","ping":55},{"user_id":663,"name":"Neco-arc Astolfo","steam_id":76561198989682540,"connected_time":386000000000,"state":"active","ping":52},{"user_id":643,"name":"totis","steam_id":76561198968410569,"connected_time":1797000000000,"state":"active","ping":93},{"user_id":652,"name":"msankot","steam_id":76561199391162125,"connected_time":1101000000000,"state":"active","ping":49},{"user_id":583,"name":"_Shkoot","steam_id":76561198318170398,"connected_time":5967000000000,"state":"active","ping":53},{"user_id":658,"name":"CptAlex","steam_id":76561198059722457,"connected_time":618000000000,"state":"active","ping":45},{"user_id":664,"name":"Redsy","steam_id":76561198360088412,"connected_time":368000000000,"state":"active","ping":145},{"user_id":631,"name":"OPEL","steam_id":76561199191390558,"connected_time":3100000000000,"state":"active","ping":83},{"user_id":647,"name":"jonas","steam_id":76561198250132954,"connected_time":1181000000000,"state":"active","ping":52},{"user_id":618,"name":"Steve Jobs","steam_id":76561198119489795,"connected_time":3485000000000,"state":"active","ping":60},{"user_id":633,"name":"Skepingawich","steam_id":76561198038736553,"connected_time":3034000000000,"state":"active","ping":61},{"user_id":659,"name":"Googlemaps","steam_id":76561198098135409,"connected_time":573000000000,"state":"active","ping":49},{"user_id":653,"name":"bottomest g","steam_id":76561198138928548,"connected_time":1093000000000,"state":"active","ping":59},{"user_id":655,"name":"dgz","steam_id":76561197979345019,"connected_time":981000000000,"state":"active","ping":76},{"user_id":661,"name":"The Lady","steam_id":76561198029895809,"connected_time":466000000000,"state":"active","ping":75},{"user_id":626,"name":"Pelvis Elsey","steam_id":76561198134378108,"connected_time":3348000000000,"state":"active","ping":75}]},{"server_id":308,"name":"Uncletopia | Frankfurt | 3 | All Maps","name_short":"frk-3","host":"frk-1.de.uncletopia.com","port":27035,"enabled":true,"region":"eu","cc":"de","latitude":50.110924,"longitude":8.682127,"reserved":0,"last_update":"0001-01-01T00:00:00Z","name_a2s":"Uncletopia | Frankfurt | 3 | All Maps","protocol":17,"map":"koth_brazil","folder":"tf","game":"Team Fortress","app_id":440,"player_count":0,"max_players":24,"Bots":0,"server_type":"Dedicated","server_os":"Linux","password":true,"vac":true,"version":"7961495","steam_id":85568392924504274,"keywords":["cp","nocrits","nodmgspread","uncletopia"],"game_id":440,"stv_port":27036,"stv_name":"Uncletopia | Frankfurt | 3 | All Maps | STV","players":null},{"server_id":309,"name":"Uncletopia | Frankfurt | 4 | All Maps","name_short":"frk-4","host":"frk-1.de.uncletopia.com","port":27045,"enabled":true,"region":"eu","cc":"de","latitude":50.110924,"longitude":8.682127,"reserved":0,"last_update":"0001-01-01T00:00:00Z","name_a2s":"Uncletopia | Frankfurt | 4 | All Maps","protocol":17,"map":"cp_process_final","folder":"tf","game":"Team Fortress","app_id":440,"player_count":0,"max_players":24,"Bots":0,"server_type":"Dedicated","server_os":"Linux","password":true,"vac":true,"version":"7961495","steam_id":85568392924504275,"keywords":["cp","nocrits","nodmgspread","uncletopia"],"game_id":440,"stv_port":27046,"stv_name":"Uncletopia | Frankfurt | 4 | All Maps | STV","players":null},{"server_id":310,"name":"Uncletopia | Frankfurt | 5 | All Maps","name_short":"frk-5","host":"frk-1.de.uncletopia.com","port":27055,"enabled":true,"region":"eu","cc":"de","latitude":50.110924,"longitude":8.682127,"reserved":0,"last_update":"0001-01-01T00:00:00Z","name_a2s":"Uncletopia | Frankfurt | 5 | All Maps","protocol":17,"map":"pl_barnblitz","folder":"tf","game":"Team Fortress","app_id":440,"player_count":24,"max_players":24,"Bots":0,"server_type":"Dedicated","server_os":"Linux","password":true,"vac":true,"version":"7961495","steam_id":85568392924504277,"keywords":["nocrits","nodmgspread","payload","uncletopia"],"game_id":440,"stv_port":27056,"stv_name":"Uncletopia | Frankfurt | 5 | All Maps | STV","players":[{"user_id":552,"name":"Chucky.","steam_id":76561197969361063,"connected_time":3515000000000,"state":"active","ping":90},{"user_id":553,"name":"Eric Catman","steam_id":76561198802117294,"connected_time":3497000000000,"state":"active","ping":68},{"user_id":591,"name":"smk","steam_id":76561198068027379,"connected_time":869000000000,"state":"active","ping":75},{"user_id":558,"name":"Bobirulez","steam_id":76561198009125458,"connected_time":3266000000000,"state":"active","ping":72},{"user_id":588,"name":"MatesThePlayer","steam_id":76561198066156449,"connected_time":968000000000,"state":"active","ping":47},{"user_id":572,"name":"Umbro","steam_id":76561198087930438,"connected_time":1814000000000,"state":"active","ping":76},{"user_id":593,"name":"dirty deeds done dirt cheap","steam_id":76561199000468538,"connected_time":659000000000,"state":"active","ping":55},{"user_id":563,"name":"Loby","steam_id":76561198168361056,"connected_time":3051000000000,"state":"active","ping":86},{"user_id":590,"name":"CONAH","steam_id":76561198227685876,"connected_time":894000000000,"state":"active","ping":61},{"user_id":594,"name":"DEATH-ETANOL","steam_id":76561198010184206,"connected_time":619000000000,"state":"active","ping":73},{"user_id":508,"name":"igvanhoute","steam_id":76561199509386378,"connected_time":6596000000000,"state":"active","ping":59},{"user_id":601,"name":"Il y a","steam_id":76561198100943482,"connected_time":267000000000,"state":"active","ping":75},{"user_id":564,"name":"sussy baka","steam_id":76561198368758532,"connected_time":2996000000000,"state":"active","ping":83},{"user_id":575,"name":"Hamst123","steam_id":76561198957312452,"connected_time":1616000000000,"state":"active","ping":39},{"user_id":530,"name":"MISTER SIUUU","steam_id":76561198018330092,"connected_time":5001000000000,"state":"active","ping":62},{"user_id":587,"name":"konstt","steam_id":76561198168270939,"connected_time":999000000000,"state":"active","ping":75},{"user_id":597,"name":"Dusteny","steam_id":76561198288403530,"connected_time":433000000000,"state":"active","ping":56},{"user_id":545,"name":"Mr.Shpee","steam_id":76561198158701474,"connected_time":4195000000000,"state":"active","ping":79},{"user_id":582,"name":"Bobo","steam_id":76561198052308399,"connected_time":1421000000000,"state":"active","ping":46},{"user_id":589,"name":"khamba","steam_id":76561198054783240,"connected_time":953000000000,"state":"active","ping":122},{"user_id":571,"name":"mespe","steam_id":76561198121530649,"connected_time":2495000000000,"state":"active","ping":62},{"user_id":535,"name":"Udinese Dion","steam_id":76561198067931573,"connected_time":4831000000000,"state":"active","ping":63},{"user_id":583,"name":"glunker","steam_id":76561197982523508,"connected_time":1376000000000,"state":"active","ping":90},{"user_id":598,"name":"Fikus","steam_id":76561198351444483,"connected_time":431000000000,"state":"active","ping":66}]},{"server_id":311,"name":"Uncletopia | Frankfurt | 6 | All Maps","name_short":"frk-6","host":"frk-1.de.uncletopia.com","port":27065,"enabled":true,"region":"eu","cc":"de","latitude":50.110924,"longitude":8.682127,"reserved":0,"last_update":"0001-01-01T00:00:00Z","name_a2s":"Uncletopia | Frankfurt | 6 | All Maps","protocol":17,"map":"pl_thundermountain","folder":"tf","game":"Team Fortress","app_id":440,"player_count":4,"max_players":24,"Bots":0,"server_type":"Dedicated","server_os":"Linux","password":true,"vac":true,"version":"7961495","steam_id":85568392924504278,"keywords":["nocrits","nodmgspread","payload","uncletopia"],"game_id":440,"stv_port":27066,"stv_name":"Uncletopia | Frankfurt | 6 | All Maps | STV","players":[{"user_id":426,"name":"DEFENDOR62","steam_id":76561199386703896,"connected_time":4324000000000,"state":"active","ping":56},{"user_id":475,"name":"gio123wgio","steam_id":76561199114382953,"connected_time":539000000000,"state":"active","ping":98},{"user_id":447,"name":"Hann√º","steam_id":76561197969886128,"connected_time":2862000000000,"state":"active","ping":53},{"user_id":419,"name":"randem_","steam_id":76561198338793755,"connected_time":5900000000000,"state":"active","ping":54}]},{"server_id":23,"name":"Uncletopia | Frankfurt | 7 | Stopwatch","name_short":"frk-7","host":"frk-1.de.uncletopia.com","port":27075,"enabled":true,"region":"eu","cc":"de","latitude":50.110924,"longitude":8.682127,"reserved":0,"last_update":"0001-01-01T00:00:00Z","name_a2s":"Uncletopia | Frankfurt | 7 | Stopwatch","protocol":17,"map":"workshop/koth_product_final.ugc454272353","folder":"tf","game":"Team Fortress","app_id":440,"player_count":0,"max_players":24,"Bots":0,"server_type":"Dedicated","server_os":"Linux","password":true,"vac":true,"version":"7961495","steam_id":85568392924742827,"keywords":["cp","nocrits","nodmgspread","uncletopia"],"game_id":440,"stv_port":27076,"stv_name":"Uncletopia | Frankfurt | 7 | Stopwatch | STV","players":null},{"server_id":24,"name":"Uncletopia | Frankfurt | 8 | Community","name_short":"frk-8","host":"frk-1.de.uncletopia.com","port":27085,"enabled":true,"region":"eu","cc":"de","latitude":50.110924,"longitude":8.682127,"reserved":0,"last_update":"0001-01-01T00:00:00Z","name_a2s":"Uncletopia | Frankfurt | 8 | Community","protocol":17,"map":"workshop/rd_asteroid_redux_b1.ugc2154902912","folder":"tf","game":"Team Fortress","app_id":440,"player_count":0,"max_players":24,"Bots":0,"server_type":"Dedicated","server_os":"Linux","password":true,"vac":true,"version":"7961495","steam_id":85568392924742828,"keywords":["beta","nocrits","nodmgspread","rd","uncletopia"],"game_id":440,"stv_port":27086,"stv_name":"Uncletopia | Frankfurt | 8 | Community | STV","players":null},{"server_id":202,"name":"Uncletopia | Hong Kong | 1 | All Maps","name_short":"hgk-1","host":"hgk-1.hk.uncletopia.com","port":27015,"enabled":true,"region":"asia","cc":"hk","latitude":22.302711,"longitude":114.177216,"reserved":0,"last_update":"0001-01-01T00:00:00Z","name_a2s":"Uncletopia | Hong Kong | 1 | All Maps","protocol":17,"map":"koth_cascade","folder":"tf","game":"Team Fortress","app_id":440,"player_count":0,"max_players":24,"Bots":0,"server_type":"Dedicated","server_os":"Linux","password":true,"vac":true,"version":"7961495","steam_id":85568392924494504,"keywords":["cp","nocrits","nodmgspread","uncletopia"],"game_id":440,"stv_port":27016,"stv_name":"Uncletopia | Hong Kong | 1 | All Maps | STV","players":null},{"server_id":1,"name":"Uncletopia | Los Angeles | 1 | All Maps","name_short":"lax-1","host":"lax-1.us.uncletopia.com","port":27015,"enabled":true,"region":"us-west","cc":"us","latitude":33.94279,"longitude":-118.41004,"reserved":0,"last_update":"0001-01-01T00:00:00Z","name_a2s":"Uncletopia | Los Angeles | 1 | All Maps","protocol":17,"map":"pl_upward","folder":"tf","game":"Team Fortress","app_id":440,"player_count":0,"max_players":24,"Bots":0,"server_type":"Dedicated","server_os":"Linux","password":true,"vac":true,"version":"7961495","steam_id":85568392924469991,"keywords":["nocrits","nodmgspread","payload","uncletopia"],"game_id":440,"stv_port":27016,"stv_name":"Uncletopia | Los Angeles | 1 | All Maps | STV","players":null},{"server_id":112,"name":"Uncletopia | Los Angeles | 2 | All Maps","name_short":"lax-2","host":"lax-1.us.uncletopia.com","port":27025,"enabled":true,"region":"us-west","cc":"us","latitude":33.94279,"longitude":-118.41004,"reserved":0,"last_update":"0001-01-01T00:00:00Z","name_a2s":"Uncletopia | Los Angeles | 2 | All Maps","protocol":17,"map":"pl_barnblitz","folder":"tf","game":"Team Fortress","app_id":440,"player_count":24,"max_players":24,"Bots":0,"server_type":"Dedicated","server_os":"Linux","password":true,"vac":true,"version":"7961495","steam_id":85568392924469992,"keywords":["nocrits","nodmgspread","payload","uncletopia"],"game_id":440,"stv_port":27026,"stv_name":"Uncletopia | Los Angeles | 2 | All Maps | STV","players":[{"user_id":139,"name":"Scorpianswag","steam_id":76561198260651036,"connected_time":103000000000,"state":"active","ping":32},{"user_id":140,"name":"0cho","steam_id":76561198014092640,"connected_time":95000000000,"state":"active","ping":71},{"user_id":141,"name":"GreenApples","steam_id":76561198120559543,"connected_time":93000000000,"state":"active","ping":57},{"user_id":77,"name":"Goofball","steam_id":76561198443776706,"connected_time":3708000000000,"state":"active","ping":62},{"user_id":132,"name":"The Demoman from Team Fortress ","steam_id":76561199031241776,"connected_time":812000000000,"state":"active","ping":86},{"user_id":115,"name":"Clagger","steam_id":76561198066701092,"connected_time":1997000000000,"state":"active","ping":60},{"user_id":101,"name":"Nate","steam_id":76561198045186954,"connected_time":2786000000000,"state":"active","ping":55},{"user_id":128,"name":"A UsedNom","steam_id":76561198402832756,"connected_time":955000000000,"state":"active","ping":43},{"user_id":123,"name":"Brigadier Brownie","steam_id":76561198040852898,"connected_time":1262000000000,"state":"active","ping":43},{"user_id":118,"name":"orbisg","steam_id":76561198004133638,"connected_time":1654000000000,"state":"active","ping":35},{"user_id":107,"name":"werg","steam_id":76561198335242836,"connected_time":2362000000000,"state":"active","ping":77},{"user_id":130,"name":"Ichibanprofen","steam_id":76561199192132061,"connected_time":882000000000,"state":"active","ping":65},{"user_id":131,"name":"Genius Meme","steam_id":76561198162911254,"connected_time":840000000000,"state":"active","ping":59},{"user_id":133,"name":"ATHEIST TIL I REALIZED I AM GOD","steam_id":76561199190800520,"connected_time":806000000000,"state":"active","ping":63},{"user_id":138,"name":"deeeefers","steam_id":76561198082592496,"connected_time":212000000000,"state":"active","ping":78},{"user_id":135,"name":"NGsterson","steam_id":76561198162108154,"connected_time":787000000000,"state":"active","ping":73},{"user_id":83,"name":"orangePulp","steam_id":76561198038373636,"connected_time":3484000000000,"state":"active","ping":52},{"user_id":84,"name":"Canned Lobster","steam_id":76561198110847328,"connected_time":3474000000000,"state":"active","ping":53},{"user_id":95,"name":"Insomniac","steam_id":76561199180653046,"connected_time":3086000000000,"state":"active","ping":167},{"user_id":136,"name":"Brisket Cali","steam_id":76561198025549450,"connected_time":784000000000,"state":"active","ping":94},{"user_id":88,"name":"Silverman_Cam","steam_id":76561198936168937,"connected_time":3396000000000,"state":"active","ping":51},{"user_id":89,"name":"Noire","steam_id":76561198149370109,"connected_time":3385000000000,"state":"active","ping":53},{"user_id":90,"name":"the pizza he-man","steam_id":76561199166474769,"connected_time":3375000000000,"state":"active","ping":62},{"user_id":125,"name":"times table","steam_id":76561198341452558,"connected_time":1036000000000,"state":"active","ping":79}]},{"server_id":324,"name":"Uncletopia | Los Angeles | 3 | All Maps","name_short":"lax-3","host":"lax-1.us.uncletopia.com","port":27035,"enabled":true,"region":"us-west","cc":"us","latitude":33.94279,"longitude":-118.41004,"reserved":0,"last_update":"0001-01-01T00:00:00Z","name_a2s":"Uncletopia | Los Angeles | 3 | All Maps","protocol":17,"map":"pl_hoodoo_final","folder":"tf","game":"Team Fortress","app_id":440,"player_count":0,"max_players":24,"Bots":0,"server_type":"Dedicated","server_os":"Linux","password":true,"vac":true,"version":"7961495","steam_id":85568392924510198,"keywords":["nocrits","nodmgspread","payload","uncletopia"],"game_id":440,"stv_port":27036,"stv_name":"Uncletopia | Los Angeles | 3 | All Maps | STV","players":null},{"server_id":25,"name":"Uncletopia | Los Angeles | 4 | Stopwatch","name_short":"lax-4","host":"lax-1.us.uncletopia.com","port":27045,"enabled":true,"region":"us-west","cc":"us","latitude":33.94279,"longitude":-118.41004,"reserved":0,"last_update":"0001-01-01T00:00:00Z","name_a2s":"Uncletopia | Los Angeles | 4 | Stopwatch","protocol":17,"map":"pl_upward","folder":"tf","game":"Team Fortress","app_id":440,"player_count":0,"max_players":24,"Bots":0,"server_type":"Dedicated","server_os":"Linux","password":true,"vac":true,"version":"7961495","steam_id":85568392924510199,"keywords":["nocrits","nodmgspread","payload","uncletopia"],"game_id":440,"stv_port":27046,"stv_name":"Uncletopia | Los Angeles | 4 | Stopwatch | STV","players":null},{"server_id":11,"name":"Uncletopia | London | 1 | All Maps","name_short":"lon-1","host":"lon-1.uk.uncletopia.com","port":27015,"enabled":true,"region":"eu","cc":"gb","latitude":51.509865,"longitude":-0.118092,"reserved":0,"last_update":"0001-01-01T00:00:00Z","name_a2s":"Uncletopia | London | 1 | All Maps","protocol":17,"map":"cp_foundry","folder":"tf","game":"Team Fortress","app_id":440,"player_count":24,"max_players":24,"Bots":0,"server_type":"Dedicated","server_os":"Linux","password":true,"vac":true,"version":"7961495","steam_id":85568392924367362,"keywords":["cp","nocrits","nodmgspread","uncletopia"],"game_id":440,"stv_port":27016,"stv_name":"Uncletopia | London | 1 | All Maps | STV","players":[{"user_id":701,"name":"ber.","steam_id":76561197993892057,"connected_time":4244000000000,"state":"active","ping":91},{"user_id":776,"name":"Laru","steam_id":76561197998838438,"connected_time":342000000000,"state":"active","ping":76},{"user_id":726,"name":"anaphylaxis","steam_id":76561198097396447,"connected_time":1980000000000,"state":"active","ping":59},{"user_id":760,"name":"Lark","steam_id":76561198066937447,"connected_time":1168000000000,"state":"active","ping":91},{"user_id":711,"name":"Speed-Dial","steam_id":76561198012428315,"connected_time":3275000000000,"state":"active","ping":41},{"user_id":737,"name":"sora","steam_id":76561198096547662,"connected_time":1560000000000,"state":"active","ping":48},{"user_id":769,"name":"Bonedrip","steam_id":76561198082502910,"connected_time":622000000000,"state":"active","ping":58},{"user_id":602,"name":"whimsy.","steam_id":76561198878171763,"connected_time":9171000000000,"state":"active","ping":49},{"user_id":637,"name":"‚∏∏aura‚∏∏","steam_id":76561198066258544,"connected_time":8027000000000,"state":"active","ping":61},{"user_id":778,"name":"SPONGE","steam_id":76561198040933472,"connected_time":297000000000,"state":"active","ping":62},{"user_id":772,"name":"jikkelsnikkel","steam_id":76561198086682821,"connected_time":546000000000,"state":"active","ping":44},{"user_id":730,"name":"Cal","steam_id":76561198094515936,"connected_time":1807000000000,"state":"active","ping":54},{"user_id":713,"name":"Spike","steam_id":76561197994537515,"connected_time":2963000000000,"state":"active","ping":59},{"user_id":773,"name":"Joo ‚ô¶","steam_id":76561197987609203,"connected_time":523000000000,"state":"active","ping":70},{"user_id":727,"name":"Czechmated","steam_id":76561198075648001,"connected_time":1950000000000,"state":"active","ping":56},{"user_id":780,"name":"Pinkchup","steam_id":76561198106802803,"connected_time":186000000000,"state":"active","ping":83},{"user_id":774,"name":"Minimi","steam_id":76561198873850443,"connected_time":521000000000,"state":"active","ping":62},{"user_id":695,"name":"Kahvi","steam_id":76561198723244199,"connected_time":4929000000000,"state":"active","ping":89},{"user_id":725,"name":"impossible whopper eater","steam_id":76561198058641805,"connected_time":2008000000000,"state":"active","ping":47},{"user_id":775,"name":"im going mad","steam_id":76561199139537338,"connected_time":518000000000,"state":"active","ping":108},{"user_id":719,"name":"Christmas Ham","steam_id":76561198119601623,"connected_time":2614000000000,"state":"active","ping":48},{"user_id":728,"name":"New York Rat","steam_id":76561198436817109,"connected_time":1928000000000,"state":"active","ping":46},{"user_id":763,"name":"A Wild Ferrothorn","steam_id":76561198042261828,"connected_time":1116000000000,"state":"active","ping":54},{"user_id":771,"name":"REN","steam_id":76561198000596385,"connected_time":588000000000,"state":"active","ping":92}]},{"server_id":114,"name":"Uncletopia | London | 2 | All Maps","name_short":"lon-2","host":"lon-1.uk.uncletopia.com","port":27025,"enabled":true,"region":"eu","cc":"gb","latitude":51.509865,"longitude":-0.118092,"reserved":0,"last_update":"0001-01-01T00:00:00Z","name_a2s":"Uncletopia | London | 2 | All Maps","protocol":17,"map":"pl_snowycoast","folder":"tf","game":"Team Fortress","app_id":440,"player_count":24,"max_players":24,"Bots":0,"server_type":"Dedicated","server_os":"Linux","password":true,"vac":true,"version":"7961495","steam_id":85568392924470941,"keywords":["nocrits","nodmgspread","payload","uncletopia"],"game_id":440,"stv_port":27026,"stv_name":"Uncletopia | London | 2 | All Maps | STV","players":[{"user_id":230,"name":"hoe","steam_id":76561198078902326,"connected_time":2172000000000,"state":"active","ping":46},{"user_id":225,"name":"Mouseyy","steam_id":76561198206840840,"connected_time":2636000000000,"state":"active","ping":58},{"user_id":256,"name":"Valkry","steam_id":76561198083425408,"connected_time":456000000000,"state":"active","ping":44},{"user_id":254,"name":"FoOzTV","steam_id":76561197998636728,"connected_time":542000000000,"state":"active","ping":56},{"user_id":248,"name":"Step back","steam_id":76561198063855616,"connected_time":1236000000000,"state":"active","ping":75},{"user_id":261,"name":"Bonca","steam_id":76561198137503531,"connected_time":295000000000,"state":"active","ping":70},{"user_id":171,"name":"choob303","steam_id":76561198206375860,"connected_time":4786000000000,"state":"active","ping":53},{"user_id":247,"name":"Mongoose88","steam_id":76561197961442445,"connected_time":1254000000000,"state":"active","ping":145},{"user_id":172,"name":"888888888","steam_id":76561198163081194,"connected_time":4763000000000,"state":"active","ping":49},{"user_id":217,"name":"begging for frags","steam_id":76561198044210844,"connected_time":2873000000000,"state":"active","ping":74},{"user_id":167,"name":"flamingosaurus","steam_id":76561198051455397,"connected_time":5009000000000,"state":"active","ping":45},{"user_id":257,"name":"Warlord428","steam_id":76561198377117895,"connected_time":445000000000,"state":"active","ping":58},{"user_id":249,"name":"DEM_","steam_id":76561198833392443,"connected_time":1227000000000,"state":"active","ping":86},{"user_id":250,"name":"talk2menice","steam_id":76561198010662796,"connected_time":1173000000000,"state":"active","ping":45},{"user_id":251,"name":"Silverbolt","steam_id":76561198153165763,"connected_time":1147000000000,"state":"active","ping":46},{"user_id":240,"name":"random_player691","steam_id":76561199209946306,"connected_time":1741000000000,"state":"active","ping":55},{"user_id":241,"name":":3","steam_id":76561198280507478,"connected_time":1739000000000,"state":"active","ping":52},{"user_id":229,"name":"zak","steam_id":76561197998895428,"connected_time":2243000000000,"state":"active","ping":63},{"user_id":242,"name":"SENSITIVITY OVERDRIVE!!!!","steam_id":76561198163615254,"connected_time":1735000000000,"state":"active","ping":70},{"user_id":210,"name":"Sang","steam_id":76561198008510868,"connected_time":3019000000000,"state":"active","ping":74},{"user_id":259,"name":"goku „Éî„ÉÉ„Éó„Éª„Éö„Çø„É´","steam_id":76561198147668373,"connected_time":439000000000,"state":"active","ping":70},{"user_id":244,"name":"post-nuke jerma","steam_id":76561198094268619,"connected_time":1718000000000,"state":"active","ping":76},{"user_id":260,"name":"Aftiks","steam_id":76561198875182686,"connected_time":436000000000,"state":"active","ping":96},{"user_id":199,"name":"wano","steam_id":76561198127657906,"connected_time":3247000000000,"state":"active","ping":70}]},{"server_id":320,"name":"Uncletopia | London | 3 | All Maps","name_short":"lon-3","host":"lon-1.uk.uncletopia.com","port":27035,"enabled":true,"region":"eu","cc":"gb","latitude":51.509865,"longitude":-0.118092,"reserved":0,"last_update":"0001-01-01T00:00:00Z","name_a2s":"Uncletopia | London | 3 | All Maps","protocol":17,"map":"pl_hoodoo_final","folder":"tf","game":"Team Fortress","app_id":440,"player_count":22,"max_players":24,"Bots":0,"server_type":"Dedicated","server_os":"Linux","password":true,"vac":true,"version":"7961495","steam_id":85568392924510192,"keywords":["nocrits","nodmgspread","payload","uncletopia"],"game_id":440,"stv_port":27036,"stv_name":"Uncletopia | London | 3 | All Maps | STV","players":[{"user_id":516,"name":"Fazbear","steam_id":76561198406606196,"connected_time":71000000000,"state":"active","ping":48},{"user_id":511,"name":"Say Goodbye to Your Kneecaps","steam_id":76561198840150558,"connected_time":217000000000,"state":"active","ping":78},{"user_id":420,"name":"DankDuck","steam_id":76561198160086418,"connected_time":5143000000000,"state":"active","ping":93},{"user_id":501,"name":"Gubbly Bubbins","steam_id":76561198101451654,"connected_time":399000000000,"state":"active","ping":48},{"user_id":469,"name":"√áanak yalayƒ±cƒ±","steam_id":76561198113677852,"connected_time":3006000000000,"state":"active","ping":89},{"user_id":514,"name":"Scotaborg","steam_id":76561198080764719,"connected_time":109000000000,"state":"active","ping":59},{"user_id":423,"name":"Henry","steam_id":76561198108018305,"connected_time":5117000000000,"state":"active","ping":80},{"user_id":464,"name":"Ryan Gosling (Literally me)","steam_id":76561198438150893,"connected_time":3137000000000,"state":"active","ping":109},{"user_id":517,"name":"Cypher8462","steam_id":76561198111885736,"connected_time":62000000000,"state":"active","ping":50},{"user_id":505,"name":"MeBandae","steam_id":76561198910770432,"connected_time":318000000000,"state":"active","ping":60},{"user_id":518,"name":"Franovsky","steam_id":76561197963427063,"connected_time":52000000000,"state":"active","ping":81},{"user_id":486,"name":"5UP3R TH30 B4G","steam_id":76561198852348375,"connected_time":1241000000000,"state":"active","ping":49},{"user_id":488,"name":"Darkmaen","steam_id":76561198060543390,"connected_time":1215000000000,"state":"active","ping":55},{"user_id":504,"name":"IHateElo","steam_id":76561198230883124,"connected_time":375000000000,"state":"active","ping":41},{"user_id":479,"name":"Pedro‚ú†","steam_id":76561198138531974,"connected_time":2089000000000,"state":"active","ping":91},{"user_id":508,"name":"Saucisse","steam_id":76561198119955969,"connected_time":268000000000,"state":"active","ping":45},{"user_id":509,"name":"IceWaltz","steam_id":76561198146498522,"connected_time":255000000000,"state":"active","ping":44},{"user_id":471,"name":"LiterallyRyanGosling","steam_id":76561199017856691,"connected_time":2771000000000,"state":"active","ping":50},{"user_id":498,"name":"K√§√§rij√§","steam_id":76561199121336976,"connected_time":607000000000,"state":"active","ping":91},{"user_id":455,"name":"gitlitwitit","steam_id":76561197980019054,"connected_time":3450000000000,"state":"active","ping":59},{"user_id":490,"name":"maxxysishere","steam_id":76561199010652710,"connected_time":1180000000000,"state":"active","ping":70},{"user_id":500,"name":"Hank J Wimbleton","steam_id":76561198408623293,"connected_time":562000000000,"state":"active","ping":50}]},{"server_id":321,"name":"Uncletopia | London | 4 | All Maps","name_short":"lon-4","host":"lon-1.uk.uncletopia.com","port":27045,"enabled":true,"region":"eu","cc":"gb","latitude":51.509865,"longitude":-0.118092,"reserved":0,"last_update":"0001-01-01T00:00:00Z","name_a2s":"Uncletopia | London | 4 | All Maps","protocol":17,"map":"pl_barnblitz","folder":"tf","game":"Team Fortress","app_id":440,"player_count":23,"max_players":24,"Bots":0,"server_type":"Dedicated","server_os":"Linux","password":true,"vac":true,"version":"7961495","steam_id":85568392924510193,"keywords":["nocrits","nodmgspread","payload","uncletopia"],"game_id":440,"stv_port":27046,"stv_name":"Uncletopia | London | 4 | All Maps | STV","players":[{"user_id":511,"name":"taffer","steam_id":76561199480942903,"connected_time":23000000000,"state":"active","ping":71},{"user_id":418,"name":"yush","steam_id":76561198121688934,"connected_time":5310000000000,"state":"active","ping":74},{"user_id":406,"name":"Random Bagel","steam_id":76561198047213821,"connected_time":6030000000000,"state":"active","ping":69},{"user_id":457,"name":"Skatnaset","steam_id":76561198298457353,"connected_time":2795000000000,"state":"active","ping":67},{"user_id":442,"name":"StormyRice","steam_id":76561198129971386,"connected_time":3110000000000,"state":"active","ping":45},{"user_id":501,"name":"perov","steam_id":76561198416029325,"connected_time":319000000000,"state":"active","ping":76},{"user_id":489,"name":"HazZe","steam_id":76561198129359787,"connected_time":1200000000000,"state":"active","ping":118},{"user_id":487,"name":"CrypticSymbiont","steam_id":76561198063096357,"connected_time":1240000000000,"state":"active","ping":61},{"user_id":502,"name":"–ø–∏–¥–æ—Ä–∞–ª—å–¥–æ","steam_id":76561199305595532,"connected_time":294000000000,"state":"active","ping":90},{"user_id":503,"name":"fewexxx","steam_id":76561198354123406,"connected_time":281000000000,"state":"active","ping":74},{"user_id":504,"name":"FVGS","steam_id":76561198314082047,"connected_time":256000000000,"state":"active","ping":123},{"user_id":469,"name":"louisblue2805","steam_id":76561199487364750,"connected_time":2583000000000,"state":"active","ping":51},{"user_id":505,"name":"KittyKate ‚ù§","steam_id":76561198116340817,"connected_time":232000000000,"state":"active","ping":60},{"user_id":461,"name":"Kiers","steam_id":76561198834266801,"connected_time":2759000000000,"state":"active","ping":96},{"user_id":506,"name":"LEPTON","steam_id":76561198160251713,"connected_time":231000000000,"state":"active","ping":79},{"user_id":476,"name":"FacinusChip","steam_id":76561198404703816,"connected_time":2187000000000,"state":"active","ping":104},{"user_id":485,"name":"Twickstwabbew","steam_id":76561198410598772,"connected_time":1527000000000,"state":"active","ping":44},{"user_id":512,"name":"Jeryx","steam_id":76561197995602803,"connected_time":0,"state":"spawning","ping":28},{"user_id":507,"name":"BuzzBees ‚ù§","steam_id":76561198101502273,"connected_time":218000000000,"state":"active","ping":45},{"user_id":439,"name":"GazerBazer","steam_id":76561198879107565,"connected_time":3622000000000,"state":"active","ping":51},{"user_id":494,"name":"GoldenLAG","steam_id":76561198104178847,"connected_time":1089000000000,"state":"active","ping":65},{"user_id":509,"name":"Zamorocian","steam_id":76561198076604017,"connected_time":198000000000,"state":"active","ping":44},{"user_id":510,"name":"Foreskin Gamer","steam_id":76561198283106341,"connected_time":115000000000,"state":"active","ping":59}]},{"server_id":21,"name":"Uncletopia | London | 5 | All Maps","name_short":"lon-5","host":"lon-1.uk.uncletopia.com","port":27055,"enabled":true,"region":"eu","cc":"gb","latitude":51.509865,"longitude":-0.118092,"reserved":0,"last_update":"0001-01-01T00:00:00Z","name_a2s":"Uncletopia | London | 5 | All Maps","protocol":17,"map":"cp_dustbowl","folder":"tf","game":"Team Fortress","app_id":440,"player_count":24,"max_players":24,"Bots":0,"server_type":"Dedicated","server_os":"Linux","password":true,"vac":true,"version":"7961495","steam_id":85568392924742829,"keywords":["cp","nocrits","nodmgspread","uncletopia"],"game_id":440,"stv_port":27056,"stv_name":"Uncletopia | London | 5 | All Maps | STV","players":[{"user_id":375,"name":"RisepticeyeYT","steam_id":76561198092063447,"connected_time":3172000000000,"state":"active","ping":39},{"user_id":376,"name":"BabyGhast4","steam_id":76561198990172561,"connected_time":3036000000000,"state":"active","ping":40},{"user_id":418,"name":"RflxCypher","steam_id":76561199015470141,"connected_time":714000000000,"state":"active","ping":38},{"user_id":386,"name":"Carrot","steam_id":76561198119340863,"connected_time":1996000000000,"state":"active","ping":38},{"user_id":382,"name":"Your honor Freebird was playing","steam_id":76561198017513012,"connected_time":2533000000000,"state":"active","ping":52},{"user_id":419,"name":"*Stare*","steam_id":76561199072209884,"connected_time":705000000000,"state":"active","ping":44},{"user_id":387,"name":"abipinch","steam_id":76561199104348040,"connected_time":1991000000000,"state":"active","ping":44},{"user_id":388,"name":"mh","steam_id":76561198442932674,"connected_time":1989000000000,"state":"active","ping":31},{"user_id":429,"name":"They call me Pap","steam_id":76561198314905760,"connected_time":404000000000,"state":"active","ping":38},{"user_id":390,"name":"lollyformolly","steam_id":76561199017868205,"connected_time":1984000000000,"state":"active","ping":37},{"user_id":420,"name":"Hegyi tah√≥ F2P","steam_id":76561199219150356,"connected_time":696000000000,"state":"active","ping":85},{"user_id":392,"name":"olsolsols12","steam_id":76561198089444052,"connected_time":1952000000000,"state":"active","ping":40},{"user_id":393,"name":"niallmrl","steam_id":76561198324221284,"connected_time":1927000000000,"state":"active","ping":41},{"user_id":416,"name":"furiousblueblade","steam_id":76561199225160126,"connected_time":1004000000000,"state":"active","ping":144},{"user_id":417,"name":"rekatama","steam_id":76561199096691729,"connected_time":982000000000,"state":"active","ping":114},{"user_id":428,"name":"Bmo","steam_id":76561198158818775,"connected_time":492000000000,"state":"active","ping":57},{"user_id":422,"name":"hawker127","steam_id":76561198259488237,"connected_time":665000000000,"state":"active","ping":40},{"user_id":423,"name":"bingo","steam_id":76561199244545846,"connected_time":641000000000,"state":"active","ping":50},{"user_id":403,"name":"Desruko","steam_id":76561198039538776,"connected_time":1480000000000,"state":"active","ping":44},{"user_id":424,"name":"Costarona","steam_id":76561197989455970,"connected_time":640000000000,"state":"active","ping":76},{"user_id":404,"name":"Zombieslayer","steam_id":76561198407877826,"connected_time":1423000000000,"state":"active","ping":148},{"user_id":425,"name":"BL√ÖHAJ","steam_id":76561197996473698,"connected_time":624000000000,"state":"active","ping":91},{"user_id":407,"name":"hwleo","steam_id":76561198090848620,"connected_time":1362000000000,"state":"active","ping":75},{"user_id":426,"name":"shr1mple","steam_id":76561198173537027,"connected_time":604000000000,"state":"active","ping":45}]},{"server_id":22,"name":"Uncletopia | London | 6 | All Maps","name_short":"lon-6","host":"lon-1.uk.uncletopia.com","port":27065,"enabled":true,"region":"eu","cc":"gb","latitude":51.509865,"longitude":-0.118092,"reserved":0,"last_update":"0001-01-01T00:00:00Z","name_a2s":"Uncletopia | London | 6 | All Maps","protocol":17,"map":"cp_mountainlab","folder":"tf","game":"Team Fortress","app_id":440,"player_count":24,"max_players":24,"Bots":0,"server_type":"Dedicated","server_os":"Linux","password":true,"vac":true,"version":"7961495","steam_id":85568392924742830,"keywords":["cp","nocrits","nodmgspread","uncletopia"],"game_id":440,"stv_port":27066,"stv_name":"Uncletopia | London | 6 | All Maps | STV","players":[{"user_id":223,"name":"Nurse=Leave","steam_id":76561198103323356,"connected_time":242000000000,"state":"active","ping":54},{"user_id":207,"name":"Roj Blake","steam_id":76561197960291725,"connected_time":987000000000,"state":"active","ping":55},{"user_id":208,"name":"bandana","steam_id":76561199098102289,"connected_time":952000000000,"state":"active","ping":163},{"user_id":209,"name":"Drillbit","steam_id":76561198011421635,"connected_time":940000000000,"state":"active","ping":56},{"user_id":210,"name":"A Table","steam_id":76561198056456470,"connected_time":879000000000,"state":"active","ping":70},{"user_id":146,"name":"medick","steam_id":76561199380849468,"connected_time":4975000000000,"state":"active","ping":67},{"user_id":199,"name":"tralalaOuiOui","steam_id":76561197963471507,"connected_time":2136000000000,"state":"active","ping":44},{"user_id":188,"name":"flave","steam_id":76561198056372101,"connected_time":2424000000000,"state":"active","ping":70},{"user_id":147,"name":"Spurt","steam_id":76561198078523852,"connected_time":4907000000000,"state":"active","ping":49},{"user_id":229,"name":"stonebum","steam_id":76561198057004606,"connected_time":3000000000,"state":"spawning","ping":56},{"user_id":185,"name":"angry russian man","steam_id":76561198386712795,"connected_time":2493000000000,"state":"active","ping":56},{"user_id":224,"name":"slnc","steam_id":76561198041151496,"connected_time":194000000000,"state":"active","ping":74},{"user_id":216,"name":"SaintBonkers","steam_id":76561198043219263,"connected_time":770000000000,"state":"active","ping":63},{"user_id":190,"name":"Goliac","steam_id":76561198165205268,"connected_time":2364000000000,"state":"active","ping":86},{"user_id":217,"name":"IS3BITEL","steam_id":76561199178060325,"connected_time":696000000000,"state":"active","ping":60},{"user_id":213,"name":"Thundergodstonelate","steam_id":76561198040893623,"connected_time":870000000000,"state":"active","ping":82},{"user_id":225,"name":"Not A Fake Uncletopia Server","steam_id":76561198152871288,"connected_time":179000000000,"state":"active","ping":67},{"user_id":214,"name":"Kevin Diamond","steam_id":76561198869898019,"connected_time":867000000000,"state":"active","ping":70},{"user_id":226,"name":"Homosapien","steam_id":76561197972035953,"connected_time":164000000000,"state":"active","ping":74},{"user_id":194,"name":"emer","steam_id":76561198001420975,"connected_time":2263000000000,"state":"active","ping":104},{"user_id":218,"name":"Portal2Player","steam_id":76561198062870114,"connected_time":671000000000,"state":"active","ping":125},{"user_id":195,"name":"ThatSiegeKid","steam_id":76561198368037656,"connected_time":2237000000000,"state":"active","ping":43},{"user_id":227,"name":"Snowmotion","steam_id":76561198075022454,"connected_time":154000000000,"state":"active","ping":59},{"user_id":228,"name":"teddy","steam_id":76561198007436837,"connected_time":147000000000,"state":"active","ping":34}]},{"server_id":40,"name":"Uncletopia | London | 7 | Stopwatch","name_short":"lon-7","host":"lon-1.uk.uncletopia.com","port":27075,"enabled":true,"region":"eu","cc":"gb","latitude":51.509865,"longitude":-0.118092,"reserved":0,"last_update":"0001-01-01T00:00:00Z","name_a2s":"Uncletopia | London | 7 | Stopwatch","protocol":17,"map":"koth_highpass","folder":"tf","game":"Team Fortress","app_id":440,"player_count":0,"max_players":24,"Bots":0,"server_type":"Dedicated","server_os":"Linux","password":true,"vac":true,"version":"7961495","steam_id":85568392924964314,"keywords":["cp","nocrits","nodmgspread","uncletopia"],"game_id":440,"stv_port":27076,"stv_name":"Uncletopia | London | 7 | Stopwatch | STV","players":null},{"server_id":41,"name":"Uncletopia | London | 8 | Community","name_short":"lon-8","host":"lon-1.uk.uncletopia.com","port":27085,"enabled":true,"region":"eu","cc":"gb","latitude":51.509865,"longitude":-0.118092,"reserved":0,"last_update":"0001-01-01T00:00:00Z","name_a2s":"Uncletopia | London | 8 | Community","protocol":17,"map":"workshop/pl_divulgence_b4b.ugc2884808746","folder":"tf","game":"Team Fortress","app_id":440,"player_count":0,"max_players":24,"Bots":0,"server_type":"Dedicated","server_os":"Linux","password":true,"vac":true,"version":"7961495","steam_id":85568392924964315,"keywords":["nocrits","nodmgspread","payload","uncletopia"],"game_id":440,"stv_port":27086,"stv_name":"Uncletopia | London | 8 | Community | STV","players":null},{"server_id":300,"name":"Uncletopia | Montr√©al | 1 | One Thousand Uncles","name_short":"mtl-1","host":"mtl-1.ca.uncletopia.com","port":27015,"enabled":true,"region":"us-east","cc":"ca","latitude":45.50889,"longitude":-73.56167,"reserved":0,"last_update":"0001-01-01T00:00:00Z","name_a2s":"Uncletopia | Montr√©al | 1 | One Thousand Uncles","protocol":17,"map":"pl_hoodoo_final","folder":"tf","game":"Team Fortress","app_id":440,"player_count":27,"max_players":32,"Bots":16,"server_type":"Dedicated","server_os":"Linux","password":true,"vac":true,"version":"7961495","steam_id":85568392924500087,"keywords":["alltalk","bots","danepve","increased_maxplayers","norespawntime","payload","uncletopia"],"game_id":440,"stv_port":0,"stv_name":"","players":[{"user_id":125,"name":"Go1deN","steam_id":76561198889933398,"connected_time":1645000000000,"state":"active","ping":89},{"user_id":128,"name":"tweliever","steam_id":76561199016438320,"connected_time":767000000000,"state":"active","ping":70},{"user_id":86,"name":"Monkey Mafia Thug 1","steam_id":76561199096241116,"connected_time":3969000000000,"state":"active","ping":74},{"user_id":87,"name":"Monkey Mafia Thug 4","steam_id":76561198376752965,"connected_time":3968000000000,"state":"active","ping":47},{"user_id":88,"name":"Monkey Mafia Thug 2","steam_id":76561199239446808,"connected_time":3942000000000,"state":"active","ping":90},{"user_id":129,"name":"poon","steam_id":76561198049740395,"connected_time":736000000000,"state":"active","ping":47},{"user_id":138,"name":"Chucklenuts (F2P) | trade.tf","steam_id":76561199180340440,"connected_time":30000000000,"state":"spawning","ping":296},{"user_id":104,"name":"Why not Zoidberg?","steam_id":76561197982207556,"connected_time":1991000000000,"state":"active","ping":75},{"user_id":135,"name":"Im Groot","steam_id":76561198294943420,"connected_time":122000000000,"state":"active","ping":89},{"user_id":132,"name":"Puro is adorable.","steam_id":76561198307309264,"connected_time":328000000000,"state":"active","ping":50},{"user_id":133,"name":"WaluCyan","steam_id":76561198430871842,"connected_time":328000000000,"state":"active","ping":39}]},{"server_id":301,"name":"Uncletopia | Montr√©al | 2 | One Thousand Uncles","name_short":"mtl-2","host":"mtl-1.ca.uncletopia.com","port":27025,"enabled":true,"region":"us-east","cc":"ca","latitude":45.50889,"longitude":-73.56167,"reserved":0,"last_update":"0001-01-01T00:00:00Z","name_a2s":"Uncletopia | Montr√©al | 2 | One Thousand Uncles","protocol":17,"map":"pl_chilly","folder":"tf","game":"Team Fortress","app_id":440,"player_count":0,"max_players":32,"Bots":0,"server_type":"Dedicated","server_os":"Linux","password":true,"vac":true,"version":"7961495","steam_id":85568392924500088,"keywords":["alltalk","danepve","increased_maxplayers","norespawntime","payload","uncletopia"],"game_id":440,"stv_port":0,"stv_name":"","players":null},{"server_id":302,"name":"Uncletopia | Montr√©al | 3 | One Thousand Uncles","name_short":"mtl-3","host":"mtl-1.ca.uncletopia.com","port":27035,"enabled":true,"region":"us-east","cc":"ca","latitude":45.50889,"longitude":-73.56167,"reserved":0,"last_update":"0001-01-01T00:00:00Z","name_a2s":"Uncletopia | Montr√©al | 3 | One Thousand Uncles","protocol":17,"map":"pl_hoodoo_final","folder":"tf","game":"Team Fortress","app_id":440,"player_count":17,"max_players":32,"Bots":16,"server_type":"Dedicated","server_os":"Linux","password":true,"vac":true,"version":"7961495","steam_id":85568392924500089,"keywords":["alltalk","bots","danepve","increased_maxplayers","norespawntime","payload","uncletopia"],"game_id":440,"stv_port":0,"stv_name":"","players":[{"user_id":62,"name":"StonrChic69","steam_id":76561199249824493,"connected_time":572000000000,"state":"active","ping":75}]},{"server_id":13,"name":"Uncletopia | New York City | 1 | All Maps","name_short":"nyc-1","host":"nyc-1.us.uncletopia.com","port":27015,"enabled":true,"region":"us-east","cc":"us","latitude":40.73061,"longitude":-73.93524,"reserved":0,"last_update":"0001-01-01T00:00:00Z","name_a2s":"Uncletopia | New York City | 1 | All Maps","protocol":17,"map":"pl_goldrush","folder":"tf","game":"Team Fortress","app_id":440,"player_count":24,"max_players":24,"Bots":0,"server_type":"Dedicated","server_os":"Linux","password":true,"vac":true,"version":"7961495","steam_id":85568392924469993,"keywords":["nocrits","nodmgspread","payload","uncletopia"],"game_id":440,"stv_port":27016,"stv_name":"Uncletopia | New York City | 1 | All Maps | STV","players":[{"user_id":111,"name":"monkey_Are_cool_509","steam_id":76561199472285443,"connected_time":2413000000000,"state":"active","ping":63},{"user_id":145,"name":"sock","steam_id":76561199117597830,"connected_time":78000000000,"state":"spawning","ping":59},{"user_id":130,"name":"EmiXX","steam_id":76561198428086758,"connected_time":1048000000000,"state":"active","ping":105},{"user_id":21,"name":"menonamed","steam_id":76561198199564382,"connected_time":9091000000000,"state":"active","ping":45},{"user_id":125,"name":"Fuzzele","steam_id":76561199199532696,"connected_time":1250000000000,"state":"active","ping":72},{"user_id":93,"name":"Chicken Nugget","steam_id":76561198082601232,"connected_time":4415000000000,"state":"active","ping":50},{"user_id":124,"name":"Dasheeb","steam_id":76561199057326558,"connected_time":1259000000000,"state":"active","ping":46},{"user_id":129,"name":"Mipsiek","steam_id":76561198164013471,"connected_time":1069000000000,"state":"active","ping":47},{"user_id":144,"name":"gamerfan539","steam_id":76561198803527852,"connected_time":159000000000,"state":"active","ping":45},{"user_id":127,"name":"Eviscerator","steam_id":76561197980073637,"connected_time":1214000000000,"state":"active","ping":75},{"user_id":95,"name":"BeefClapper420","steam_id":76561198080892634,"connected_time":4257000000000,"state":"active","ping":54},{"user_id":103,"name":"chen","steam_id":76561198064872330,"connected_time":3206000000000,"state":"active","ping":54},{"user_id":140,"name":"Cat on Your Porch","steam_id":76561197979078330,"connected_time":365000000000,"state":"active","ping":61},{"user_id":146,"name":"what","steam_id":76561198082336619,"connected_time":71000000000,"state":"active","ping":46},{"user_id":107,"name":"Godmode","steam_id":76561198076240365,"connected_time":2859000000000,"state":"active","ping":70},{"user_id":123,"name":"Ball Sniffer 23","steam_id":76561198272318229,"connected_time":1321000000000,"state":"active","ping":60},{"user_id":128,"name":"shooryukami","steam_id":76561199466594692,"connected_time":1208000000000,"state":"active","ping":168},{"user_id":147,"name":"cift","steam_id":76561198309763491,"connected_time":67000000000,"state":"active","ping":67},{"user_id":143,"name":"Kaber","steam_id":76561198106342449,"connected_time":323000000000,"state":"active","ping":58},{"user_id":151,"name":"jp","steam_id":76561198308103061,"connected_time":14000000000,"state":"spawning","ping":61},{"user_id":74,"name":"Jason","steam_id":76561198107058140,"connected_time":5655000000000,"state":"active","ping":47},{"user_id":149,"name":"Striyex","steam_id":76561199121972402,"connected_time":60000000000,"state":"active","ping":46},{"user_id":106,"name":"MillerWhite","steam_id":76561198076060357,"connected_time":2887000000000,"state":"active","ping":59},{"user_id":150,"name":"Top Frog","steam_id":76561198072793446,"connected_time":49000000000,"state":"active","ping":70}]},{"server_id":14,"name":"Uncletopia | New York City | 2 | All Maps","name_short":"nyc-2","host":"nyc-1.us.uncletopia.com","port":27025,"enabled":true,"region":"us-east","cc":"us","latitude":40.73061,"longitude":-73.93524,"reserved":0,"last_update":"0001-01-01T00:00:00Z","name_a2s":"Uncletopia | New York City | 2 | All Maps","protocol":17,"map":"pl_snowycoast","folder":"tf","game":"Team Fortress","app_id":440,"player_count":24,"max_players":24,"Bots":0,"server_type":"Dedicated","server_os":"Linux","password":true,"vac":true,"version":"7961495","steam_id":85568392924469994,"keywords":["nocrits","nodmgspread","payload","uncletopia"],"game_id":440,"stv_port":27026,"stv_name":"Uncletopia | New York City | 2 | All Maps | STV","players":[{"user_id":283,"name":"homsar","steam_id":76561199031742838,"connected_time":696000000000,"state":"active","ping":46},{"user_id":260,"name":"iiamiizzyy","steam_id":76561198355030751,"connected_time":2718000000000,"state":"active","ping":59},{"user_id":288,"name":"JonBoy","steam_id":76561198046895190,"connected_time":441000000000,"state":"active","ping":119},{"user_id":294,"name":"Tummy Ruffles","steam_id":76561198059799462,"connected_time":293000000000,"state":"active","ping":120},{"user_id":295,"name":"Beanz :)","steam_id":76561199434233117,"connected_time":263000000000,"state":"active","ping":76},{"user_id":291,"name":"Glanderson booper","steam_id":76561198021223747,"connected_time":429000000000,"state":"active","ping":116},{"user_id":299,"name":"IlikeChowMien","steam_id":76561199466131782,"connected_time":79000000000,"state":"active","ping":52},{"user_id":282,"name":"Bee","steam_id":76561198074681324,"connected_time":798000000000,"state":"active","ping":50},{"user_id":275,"name":"PK","steam_id":76561198368722500,"connected_time":1448000000000,"state":"active","ping":51},{"user_id":272,"name":"absurdly high number of gecs","steam_id":76561198022806102,"connected_time":1779000000000,"state":"active","ping":62},{"user_id":185,"name":"ndvr (femboy (REAL))","steam_id":76561199379200102,"connected_time":8554000000000,"state":"active","ping":45},{"user_id":265,"name":"celestia ludenberg","steam_id":76561199196437823,"connected_time":2061000000000,"state":"active","ping":124},{"user_id":251,"name":"Fishybros","steam_id":76561198182045699,"connected_time":3671000000000,"state":"active","ping":46},{"user_id":286,"name":"poluur","steam_id":76561198863009199,"connected_time":503000000000,"state":"active","ping":61},{"user_id":281,"name":"Gardangle","steam_id":76561198394173831,"connected_time":898000000000,"state":"active","ping":121},{"user_id":292,"name":"Guns Blazing","steam_id":76561198379461118,"connected_time":429000000000,"state":"active","ping":52},{"user_id":297,"name":"Arcelite","steam_id":76561198007089716,"connected_time":101000000000,"state":"active","ping":52},{"user_id":237,"name":"Just a Baby","steam_id":76561198018660838,"connected_time":4712000000000,"state":"active","ping":53},{"user_id":279,"name":"wrongthink","steam_id":76561198830293087,"connected_time":1100000000000,"state":"active","ping":60},{"user_id":271,"name":"Mr. Squirt","steam_id":76561198174755679,"connected_time":1802000000000,"state":"active","ping":45},{"user_id":222,"name":"Bother","steam_id":76561198336750909,"connected_time":5630000000000,"state":"active","ping":49},{"user_id":298,"name":"yum","steam_id":76561199103766971,"connected_time":101000000000,"state":"active","ping":74},{"user_id":270,"name":"breathingtrees","steam_id":76561198118931690,"connected_time":1979000000000,"state":"active","ping":60},{"user_id":293,"name":"godsu","steam_id":76561197992498834,"connected_time":425000000000,"state":"active","ping":48}]},{"server_id":15,"name":"Uncletopia | New York City | 3 | Stopwatch","name_short":"nyc-3","host":"nyc-1.us.uncletopia.com","port":27035,"enabled":true,"region":"us-east","cc":"us","latitude":40.73061,"longitude":-73.93524,"reserved":0,"last_update":"0001-01-01T00:00:00Z","name_a2s":"Uncletopia | New York City | 3 | Stopwatch","protocol":17,"map":"workshop/koth_ashville_final.ugc2130459942","folder":"tf","game":"Team Fortress","app_id":440,"player_count":0,"max_players":24,"Bots":0,"server_type":"Dedicated","server_os":"Linux","password":true,"vac":true,"version":"7961495","steam_id":85568392924742820,"keywords":["cp","nocrits","nodmgspread","uncletopia"],"game_id":440,"stv_port":27036,"stv_name":"Uncletopia | New York City | 3 | Stopwatch | STV","players":null},{"server_id":16,"name":"Uncletopia | New York City | 4 | Community","name_short":"nyc-4","host":"nyc-1.us.uncletopia.com","port":27045,"enabled":true,"region":"us-east","cc":"us","latitude":40.73061,"longitude":-73.93524,"reserved":0,"last_update":"0001-01-01T00:00:00Z","name_a2s":"Uncletopia | New York City | 4 | Community","protocol":17,"map":"workshop/cp_overgrown_rc8.ugc503939302","folder":"tf","game":"Team Fortress","app_id":440,"player_count":0,"max_players":24,"Bots":0,"server_type":"Dedicated","server_os":"Linux","password":true,"vac":true,"version":"7961495","steam_id":85568392924742821,"keywords":["cp","nocrits","nodmgspread","uncletopia"],"game_id":440,"stv_port":27046,"stv_name":"Uncletopia | New York City | 4 | Community | STV","players":null},{"server_id":142,"name":"Uncletopia | S√£o Paulo | 1 | All Maps","name_short":"sao-1","host":"sao-1.br.uncletopia.com","port":27015,"enabled":true,"region":"sa","cc":"br","latitude":-23.533773,"longitude":-46.62529,"reserved":0,"last_update":"0001-01-01T00:00:00Z","name_a2s":"Uncletopia | S√£o Paulo | 1 | All Maps","protocol":17,"map":"pl_borneo","folder":"tf","game":"Team Fortress","app_id":440,"player_count":0,"max_players":24,"Bots":0,"server_type":"Dedicated","server_os":"Linux","password":true,"vac":true,"version":"7961495","steam_id":85568392924469996,"keywords":["nocrits","nodmgspread","payload","uncletopia"],"game_id":440,"stv_port":27016,"stv_name":"Uncletopia | S√£o Paulo | 1 | All Maps | STV","players":null},{"server_id":143,"name":"Uncletopia | S√£o Paulo | 2 | Community","name_short":"sao-2","host":"sao-2.br.uncletopia.com","port":27015,"enabled":true,"region":"sa","cc":"br","latitude":-23.533773,"longitude":-46.62529,"reserved":0,"last_update":"0001-01-01T00:00:00Z","name_a2s":"Uncletopia | S√£o Paulo | 2 | Community","protocol":17,"map":"workshop/cp_croissant_final.ugc458840209","folder":"tf","game":"Team Fortress","app_id":440,"player_count":0,"max_players":24,"Bots":0,"server_type":"Dedicated","server_os":"Linux","password":true,"vac":true,"version":"7961495","steam_id":85568392924485349,"keywords":["cp","nocrits","nodmgspread","uncletopia"],"game_id":440,"stv_port":27016,"stv_name":"Uncletopia | S√£o Paulo | 2 | Community | STV","players":null},{"server_id":7,"name":"Uncletopia | Seattle | 1 | All Maps","name_short":"sea-1","host":"sea-1.us.uncletopia.com","port":27015,"enabled":true,"region":"us-west","cc":"us","latitude":47.608013,"longitude":-122.33517,"reserved":0,"last_update":"0001-01-01T00:00:00Z","name_a2s":"Uncletopia | Seattle | 1 | All Maps","protocol":17,"map":"pl_swiftwater_final1","folder":"tf","game":"Team Fortress","app_id":440,"player_count":24,"max_players":24,"Bots":0,"server_type":"Dedicated","server_os":"Linux","password":true,"vac":true,"version":"7961495","steam_id":85568392924469997,"keywords":["nocrits","nodmgspread","payload","uncletopia"],"game_id":440,"stv_port":27016,"stv_name":"Uncletopia | Seattle | 1 | All Maps | STV","players":[{"user_id":434,"name":"L√© Mon","steam_id":76561198078626283,"connected_time":2848000000000,"state":"active","ping":34},{"user_id":445,"name":"bind e explode","steam_id":76561198054914055,"connected_time":2045000000000,"state":"active","ping":102},{"user_id":467,"name":"Angela :3","steam_id":76561198991101353,"connected_time":126000000000,"state":"active","ping":47},{"user_id":462,"name":"klevmeister","steam_id":76561198799106535,"connected_time":244000000000,"state":"active","ping":88},{"user_id":464,"name":"gloobern","steam_id":76561198341190679,"connected_time":212000000000,"state":"active","ping":52},{"user_id":455,"name":"a","steam_id":76561198074209737,"connected_time":945000000000,"state":"active","ping":91},{"user_id":435,"name":"think before you believe","steam_id":76561198857358730,"connected_time":2772000000000,"state":"active","ping":89},{"user_id":454,"name":"Shazzy","steam_id":76561198145460523,"connected_time":963000000000,"state":"active","ping":46},{"user_id":451,"name":"Cr0wd3r","steam_id":76561198153612764,"connected_time":1258000000000,"state":"active","ping":101},{"user_id":439,"name":"trackpad gaming | f2p","steam_id":76561198840414371,"connected_time":2371000000000,"state":"active","ping":59},{"user_id":457,"name":"zlaggaming68","steam_id":76561199140665706,"connected_time":866000000000,"state":"active","ping":63},{"user_id":408,"name":"Lily Thorn","steam_id":76561198305488625,"connected_time":4488000000000,"state":"active","ping":56},{"user_id":409,"name":"DubiousDodo","steam_id":76561198828172686,"connected_time":3923000000000,"state":"active","ping":81},{"user_id":468,"name":"gatorbelt","steam_id":76561198145784505,"connected_time":50000000000,"state":"active","ping":75},{"user_id":400,"name":"William Lovett","steam_id":76561197991063996,"connected_time":4957000000000,"state":"active","ping":107},{"user_id":281,"name":"CheeseCake488","steam_id":76561199407617942,"connected_time":12087000000000,"state":"active","ping":98},{"user_id":465,"name":"Aardappel","steam_id":76561198030894676,"connected_time":203000000000,"state":"active","ping":62},{"user_id":461,"name":"imasheep","steam_id":76561198210322871,"connected_time":341000000000,"state":"active","ping":89},{"user_id":430,"name":"ZombieSlayer77","steam_id":76561199023974356,"connected_time":2893000000000,"state":"active","ping":125},{"user_id":428,"name":"Fred","steam_id":76561198114281255,"connected_time":3004000000000,"state":"active","ping":115},{"user_id":438,"name":":^1 Hekken","steam_id":76561198109933577,"connected_time":2649000000000,"state":"active","ping":46},{"user_id":452,"name":"2 Point Tom","steam_id":76561198087617008,"connected_time":1253000000000,"state":"active","ping":55},{"user_id":413,"name":"Dogg wader","steam_id":76561199090314340,"connected_time":3829000000000,"state":"active","ping":51},{"user_id":416,"name":"Mr8bittripper","steam_id":76561198133894229,"connected_time":3419000000000,"state":"active","ping":47}]},{"server_id":119,"name":"Uncletopia | Seattle | 2 | All Maps","name_short":"sea-2","host":"sea-1.us.uncletopia.com","port":27025,"enabled":true,"region":"us-west","cc":"us","latitude":47.608013,"longitude":-122.33517,"reserved":0,"last_update":"0001-01-01T00:00:00Z","name_a2s":"Uncletopia | Seattle | 2 | All Maps","protocol":17,"map":"koth_cascade","folder":"tf","game":"Team Fortress","app_id":440,"player_count":0,"max_players":24,"Bots":0,"server_type":"Dedicated","server_os":"Linux","password":true,"vac":true,"version":"7961495","steam_id":85568392924469998,"keywords":["cp","nocrits","nodmgspread","uncletopia"],"game_id":440,"stv_port":27026,"stv_name":"Uncletopia | Seattle | 2 | All Maps | STV","players":null},{"server_id":406,"name":"Uncletopia | Seattle | 3 | Stopwatch","name_short":"sea-3","host":"sea-1.us.uncletopia.com","port":27035,"enabled":true,"region":"us-west","cc":"us","latitude":47.608013,"longitude":-122.33517,"reserved":0,"last_update":"0001-01-01T00:00:00Z","name_a2s":"Uncletopia | Seattle | 3 | Stopwatch","protocol":17,"map":"koth_highpass","folder":"tf","game":"Team Fortress","app_id":440,"player_count":2,"max_players":24,"Bots":0,"server_type":"Dedicated","server_os":"Linux","password":true,"vac":true,"version":"7961495","steam_id":85568392924515217,"keywords":["cp","nocrits","nodmgspread","uncletopia"],"game_id":440,"stv_port":27036,"stv_name":"Uncletopia | Seattle | 3 | Stopwatch | STV","players":[{"user_id":4,"name":"x1Wolf101x","steam_id":76561198270956586,"connected_time":401000000000,"state":"active","ping":49},{"user_id":5,"name":"_copkilla.B1G$L1M‚Ç¨.zaddY_","steam_id":76561198283687382,"connected_time":286000000000,"state":"active","ping":105}]},{"server_id":17,"name":"Uncletopia | San Francisco | 1 | All Maps","name_short":"sfo-1","host":"sfo-1.us.uncletopia.com","port":27015,"enabled":true,"region":"us-west","cc":"us","latitude":37.77397,"longitude":-122.4313,"reserved":0,"last_update":"0001-01-01T00:00:00Z","name_a2s":"Uncletopia | San Francisco | 1 | All Maps","protocol":17,"map":"koth_highpass","folder":"tf","game":"Team Fortress","app_id":440,"player_count":0,"max_players":24,"Bots":0,"server_type":"Dedicated","server_os":"Linux","password":true,"vac":true,"version":"7961495","steam_id":85568392924469999,"keywords":["cp","nocrits","nodmgspread","uncletopia"],"game_id":440,"stv_port":27016,"stv_name":"Uncletopia | San Francisco | 1 | All Maps | STV","players":null},{"server_id":18,"name":"Uncletopia | San Francisco | 2 | All Maps","name_short":"sfo-2","host":"sfo-1.us.uncletopia.com","port":27025,"enabled":true,"region":"us-west","cc":"us","latitude":37.77397,"longitude":-122.4313,"reserved":0,"last_update":"0001-01-01T00:00:00Z","name_a2s":"Uncletopia | San Francisco | 2 | All Maps","protocol":17,"map":"koth_viaduct","folder":"tf","game":"Team Fortress","app_id":440,"player_count":0,"max_players":24,"Bots":0,"server_type":"Dedicated","server_os":"Linux","password":true,"vac":true,"version":"7961495","steam_id":85568392924470000,"keywords":["cp","nocrits","nodmgspread","uncletopia"],"game_id":440,"stv_port":27026,"stv_name":"Uncletopia | San Francisco | 2 | All Maps | STV","players":null},{"server_id":19,"name":"Uncletopia | San Francisco | 3 | Stopwatch","name_short":"sfo-3","host":"sfo-1.us.uncletopia.com","port":27035,"enabled":true,"region":"us-west","cc":"us","latitude":37.77397,"longitude":-122.4313,"reserved":0,"last_update":"0001-01-01T00:00:00Z","name_a2s":"Uncletopia | San Francisco | 3 | Stopwatch","protocol":17,"map":"workshop/koth_product_final.ugc454272353","folder":"tf","game":"Team Fortress","app_id":440,"player_count":0,"max_players":24,"Bots":0,"server_type":"Dedicated","server_os":"Linux","password":true,"vac":true,"version":"7961495","steam_id":85568392924742824,"keywords":["cp","nocrits","nodmgspread","uncletopia"],"game_id":440,"stv_port":27036,"stv_name":"Uncletopia | San Francisco | 3 | Stopwatch | STV","players":null},{"server_id":20,"name":"Uncletopia | San Francisco | 4 | Community","name_short":"sfo-4","host":"sfo-1.us.uncletopia.com","port":27045,"enabled":true,"region":"us-west","cc":"us","latitude":37.77397,"longitude":-122.4313,"reserved":0,"last_update":"0001-01-01T00:00:00Z","name_a2s":"Uncletopia | San Francisco | 4 | Community","protocol":17,"map":"workshop/pl_cactuscanyon_redux_final2.ugc2579644293","folder":"tf","game":"Team Fortress","app_id":440,"player_count":0,"max_players":24,"Bots":0,"server_type":"Dedicated","server_os":"Linux","password":true,"vac":true,"version":"7961495","steam_id":85568392924742826,"keywords":["nocrits","nodmgspread","payload","uncletopia"],"game_id":440,"stv_port":27046,"stv_name":"Uncletopia | San Francisco | 4 | Community | STV","players":null},{"server_id":141,"name":"Uncletopia | Sydney | 1 | All Maps","name_short":"syd-1","host":"syd-1.au.uncletopia.com","port":27015,"enabled":true,"region":"au","cc":"au","latitude":-33.865143,"longitude":151.2099,"reserved":0,"last_update":"0001-01-01T00:00:00Z","name_a2s":"Uncletopia | Sydney | 1 | All Maps","protocol":17,"map":"koth_nucleus","folder":"tf","game":"Team Fortress","app_id":440,"player_count":0,"max_players":24,"Bots":0,"server_type":"Dedicated","server_os":"Linux","password":true,"vac":true,"version":"7961495","steam_id":85568392924470001,"keywords":["cp","nocrits","nodmgspread","uncletopia"],"game_id":440,"stv_port":27016,"stv_name":"Uncletopia | Sydney | 1 | All Maps | STV","players":null},{"server_id":123,"name":"Uncletopia | Sydney | 2 | All Maps","name_short":"syd-2","host":"syd-1.au.uncletopia.com","port":27025,"enabled":true,"region":"au","cc":"au","latitude":-33.865143,"longitude":151.2099,"reserved":0,"last_update":"0001-01-01T00:00:00Z","name_a2s":"Uncletopia | Sydney | 2 | All Maps","protocol":17,"map":"cp_fastlane","folder":"tf","game":"Team Fortress","app_id":440,"player_count":0,"max_players":24,"Bots":0,"server_type":"Dedicated","server_os":"Linux","password":true,"vac":true,"version":"7961495","steam_id":85568392924470002,"keywords":["cp","nocrits","nodmgspread","uncletopia"],"game_id":440,"stv_port":27026,"stv_name":"Uncletopia | Sydney | 2 | All Maps | STV","players":null},{"server_id":395,"name":"Uncletopia | Sydney | 3 | All Maps","name_short":"syd-3","host":"syd-1.au.uncletopia.com","port":27035,"enabled":true,"region":"au","cc":"au","latitude":-33.865143,"longitude":151.2099,"reserved":0,"last_update":"0001-01-01T00:00:00Z","name_a2s":"Uncletopia | Sydney | 3 | All Maps","protocol":17,"map":"cp_metalworks","folder":"tf","game":"Team Fortress","app_id":440,"player_count":0,"max_players":24,"Bots":0,"server_type":"Dedicated","server_os":"Linux","password":true,"vac":true,"version":"7961495","steam_id":85568392925194467,"keywords":["cp","nocrits","nodmgspread","uncletopia"],"game_id":440,"stv_port":27036,"stv_name":"Uncletopia | Sydney | 3 | All Maps | STV","players":null},{"server_id":396,"name":"Uncletopia | Sydney | 4 | All Maps","name_short":"syd-4","host":"syd-1.au.uncletopia.com","port":27045,"enabled":true,"region":"au","cc":"au","latitude":-33.865143,"longitude":151.2099,"reserved":0,"last_update":"0001-01-01T00:00:00Z","name_a2s":"Uncletopia | Sydney | 4 | All Maps","protocol":17,"map":"koth_cascade","folder":"tf","game":"Team Fortress","app_id":440,"player_count":0,"max_players":24,"Bots":0,"server_type":"Dedicated","server_os":"Linux","password":true,"vac":true,"version":"7961495","steam_id":85568392925397958,"keywords":["cp","nocrits","nodmgspread","uncletopia"],"game_id":440,"stv_port":27046,"stv_name":"Uncletopia | Sydney | 4 | All Maps | STV","players":null},{"server_id":58,"name":"Uncletopia | Sydney | 5 | Stopwatch","name_short":"syd-5","host":"syd-1.au.uncletopia.com","port":27055,"enabled":true,"region":"au","cc":"au","latitude":-33.865143,"longitude":151.2099,"reserved":0,"last_update":"0001-01-01T00:00:00Z","name_a2s":"Uncletopia | Sydney | 5 | Stopwatch","protocol":17,"map":"workshop/koth_product_final.ugc454272353","folder":"tf","game":"Team Fortress","app_id":440,"player_count":0,"max_players":24,"Bots":0,"server_type":"Dedicated","server_os":"Linux","password":true,"vac":true,"version":"7961495","steam_id":85568392925397959,"keywords":["cp","nocrits","nodmgspread","uncletopia"],"game_id":440,"stv_port":27056,"stv_name":"Uncletopia | Sydney | 5 | Stopwatch | STV","players":null},{"server_id":59,"name":"Uncletopia | Sydney | 6 | Community","name_short":"syd-6","host":"syd-1.au.uncletopia.com","port":27065,"enabled":true,"region":"au","cc":"au","latitude":-33.865143,"longitude":151.2099,"reserved":0,"last_update":"0001-01-01T00:00:00Z","name_a2s":"Uncletopia | Sydney | 6 | Community","protocol":17,"map":"workshop/koth_trenchfoot_ab1.ugc731436616","folder":"tf","game":"Team Fortress","app_id":440,"player_count":0,"max_players":24,"Bots":0,"server_type":"Dedicated","server_os":"Linux","password":true,"vac":true,"version":"7961495","steam_id":85568392925397960,"keywords":["cp","nocrits","nodmgspread","uncletopia"],"game_id":440,"stv_port":27066,"stv_name":"Uncletopia | Sydney | 6 | Community | STV","players":null},{"server_id":49,"name":"Uncletopia | Warsaw | 1 | One Thousand Uncles","name_short":"waw-1","host":"waw-1.pl.uncletopia.com","port":27015,"enabled":true,"region":"eu","cc":"pl","latitude":52.2297,"longitude":21.017532,"reserved":0,"last_update":"0001-01-01T00:00:00Z","name_a2s":"Uncletopia | Warsaw | 1 | One Thousand Uncles","protocol":17,"map":"pl_pier","folder":"tf","game":"Team Fortress","app_id":440,"player_count":30,"max_players":32,"Bots":16,"server_type":"Dedicated","server_os":"Linux","password":true,"vac":true,"version":"7961495","steam_id":85568392925397850,"keywords":["alltalk","bots","danepve","increased_maxplayers","norespawntime","payload","uncletopia"],"game_id":440,"stv_port":0,"stv_name":"","players":[{"user_id":641,"name":"[HK]Êàë‰øÇÈ¶ôÊ∏Ø‰∫∫","steam_id":76561198165376815,"connected_time":4156000000000,"state":"active","ping":102},{"user_id":662,"name":"Voks_","steam_id":76561198159687785,"connected_time":3402000000000,"state":"active","ping":65},{"user_id":631,"name":"Junkie","steam_id":76561199435573349,"connected_time":5553000000000,"state":"active","ping":99},{"user_id":676,"name":"Tispy","steam_id":76561199207410049,"connected_time":167000000000,"state":"active","ping":120},{"user_id":665,"name":"Shezza","steam_id":76561198903969123,"connected_time":3037000000000,"state":"active","ping":46},{"user_id":640,"name":"weed master","steam_id":76561199485369397,"connected_time":4256000000000,"state":"active","ping":112},{"user_id":669,"name":"BOT Prymityw","steam_id":76561198130140556,"connected_time":1347000000000,"state":"active","ping":52},{"user_id":668,"name":"CurlyPaty - [YouTube]","steam_id":76561198125025171,"connected_time":1816000000000,"state":"active","ping":33},{"user_id":670,"name":"Kunio15","steam_id":76561199471332529,"connected_time":1282000000000,"state":"active","ping":45},{"user_id":672,"name":"Atlas","steam_id":76561197991491283,"connected_time":678000000000,"state":"active","ping":95},{"user_id":673,"name":"sawgg","steam_id":76561198257442172,"connected_time":633000000000,"state":"active","ping":61},{"user_id":674,"name":"Palc0vva","steam_id":76561199044887226,"connected_time":363000000000,"state":"active","ping":41},{"user_id":675,"name":"4lex_Teloh","steam_id":76561199033714224,"connected_time":318000000000,"state":"active","ping":52},{"user_id":677,"name":"D4RKERX","steam_id":76561198060537403,"connected_time":147000000000,"state":"active","ping":236}]},{"server_id":50,"name":"Uncletopia | Warsaw | 2 | One Thousand Uncles","name_short":"waw-2","host":"waw-1.pl.uncletopia.com","port":27025,"enabled":true,"region":"eu","cc":"pl","latitude":52.2297,"longitude":21.017532,"reserved":0,"last_update":"0001-01-01T00:00:00Z","name_a2s":"Uncletopia | Warsaw | 2 | One Thousand Uncles","protocol":17,"map":"cp_mossrock","folder":"tf","game":"Team Fortress","app_id":440,"player_count":0,"max_players":32,"Bots":0,"server_type":"Dedicated","server_os":"Linux","password":true,"vac":true,"version":"7961495","steam_id":85568392925397851,"keywords":["alltalk","cp","danepve","increased_maxplayers","norespawntime","uncletopia"],"game_id":440,"stv_port":0,"stv_name":"","players":null},{"server_id":51,"name":"Uncletopia | Warsaw | 3 | All Maps","name_short":"waw-3","host":"waw-1.pl.uncletopia.com","port":27035,"enabled":true,"region":"eu","cc":"pl","latitude":52.2297,"longitude":21.017532,"reserved":0,"last_update":"0001-01-01T00:00:00Z","name_a2s":"Uncletopia | Warsaw | 3 | All Maps","protocol":17,"map":"koth_lakeside_final","folder":"tf","game":"Team Fortress","app_id":440,"player_count":0,"max_players":24,"Bots":0,"server_type":"Dedicated","server_os":"Linux","password":true,"vac":true,"version":"7961495","steam_id":85568392925397852,"keywords":["cp","nocrits","nodmgspread","uncletopia"],"game_id":440,"stv_port":27036,"stv_name":"Uncletopia | Warsaw | 3 | All Maps | STV","players":null},{"server_id":52,"name":"Uncletopia | Warsaw | 4 | All Maps","name_short":"waw-4","host":"waw-1.pl.uncletopia.com","port":27045,"enabled":true,"region":"eu","cc":"pl","latitude":52.2297,"longitude":21.017532,"reserved":0,"last_update":"0001-01-01T00:00:00Z","name_a2s":"Uncletopia | Warsaw | 4 | All Maps","protocol":17,"map":"cp_snakewater_final1","folder":"tf","game":"Team Fortress","app_id":440,"player_count":0,"max_players":24,"Bots":0,"server_type":"Dedicated","server_os":"Linux","password":true,"vac":true,"version":"7961495","steam_id":85568392925397853,"keywords":["cp","nocrits","nodmgspread","uncletopia"],"game_id":440,"stv_port":27046,"stv_name":"Uncletopia | Warsaw | 4 | All Maps | STV","players":null},{"server_id":53,"name":"Uncletopia | Warsaw | 5 | Stopwatch","name_short":"waw-5","host":"waw-1.pl.uncletopia.com","port":27055,"enabled":true,"region":"eu","cc":"pl","latitude":52.2297,"longitude":21.017532,"reserved":0,"last_update":"0001-01-01T00:00:00Z","name_a2s":"Uncletopia | Warsaw | 5 | Stopwatch","protocol":17,"map":"workshop/koth_ashville_final.ugc2130459942","folder":"tf","game":"Team Fortress","app_id":440,"player_count":0,"max_players":24,"Bots":0,"server_type":"Dedicated","server_os":"Linux","password":true,"vac":true,"version":"7961495","steam_id":85568392925397854,"keywords":["cp","nocrits","nodmgspread","uncletopia"],"game_id":440,"stv_port":27056,"stv_name":"Uncletopia | Warsaw | 5 | Stopwatch | STV","players":null},{"server_id":54,"name":"Uncletopia | Warsaw | 6 | Community","name_short":"waw-6","host":"waw-1.pl.uncletopia.com","port":27065,"enabled":true,"region":"eu","cc":"pl","latitude":52.2297,"longitude":21.017532,"reserved":0,"last_update":"0001-01-01T00:00:00Z","name_a2s":"Uncletopia | Warsaw | 6 | Community","protocol":17,"map":"workshop/koth_jamram_rc1a.ugc2964065613","folder":"tf","game":"Team Fortress","app_id":440,"player_count":0,"max_players":24,"Bots":0,"server_type":"Dedicated","server_os":"Linux","password":true,"vac":true,"version":"7961495","steam_id":85568392925397856,"keywords":["cp","nocrits","nodmgspread","uncletopia"],"game_id":440,"stv_port":27066,"stv_name":"Uncletopia | Warsaw | 6 | Community | STV","players":null}]}