{"status":true,"message":"","result":[{"server_id":9,"name":"Uncletopia | Atlanta | 1 | All Maps","name_short":"atl-1","host":"atl-1.us.uncletopia.com","port":27015,"enabled":true,"region":"us-east","cc":"us","latitude":33.753746,"longitude":-84.38633,"reserved":0,"last_update":"0001-01-01T00:00:00Z","name_a2s":"Uncletopia | Atlanta | 1 | All Maps","protocol":17,"map":"pl_badwater","folder":"tf","game":"Team Fortress","app_id":440,"player_count":24,"max_players":24,"Bots":0,"server_type":"Dedicated","server_os":"Linux","password":true,"vac":true,"version":"7723704","steam_id":85568392924469982,"keywords":["nocrits","nodmgspread","payload","uncletopia"],"game_id":440,"stv_port":27016,"stv_name":"Uncletopia | Atlanta | 1 | All Maps | STV","players":[{"user_id":380,"name":"ATL1 | Sunny004","steam_id":76561198105397410,"connected_time":1021000000000,"state":"active","ping":60},{"user_id":394,"name":"hackersan","steam_id":76561199130583553,"connected_time":356000000000,"state":"active","ping":60},{"user_id":393,"name":"bradolf hilter","steam_id":76561198300928877,"connected_time":365000000000,"state":"active","ping":42},{"user_id":363,"name":"Johnny Lawrence #JohnnyMaxxing","steam_id":76561199367141671,"connected_time":1745000000000,"state":"active","ping":60},{"user_id":328,"name":"Diesel","steam_id":76561198448815852,"connected_time":4274000000000,"state":"active","ping":93},{"user_id":388,"name":"$$$","steam_id":76561198218897541,"connected_time":422000000000,"state":"active","ping":72},{"user_id":334,"name":"s4lt","steam_id":76561198151674993,"connected_time":3443000000000,"state":"active","ping":75},{"user_id":400,"name":"Rachi","steam_id":76561198083826053,"connected_time":54000000000,"state":"active","ping":80},{"user_id":384,"name":"Bee","steam_id":76561198074681324,"connected_time":506000000000,"state":"active","ping":61},{"user_id":360,"name":"ash","steam_id":76561198127890645,"connected_time":1848000000000,"state":"active","ping":64},{"user_id":389,"name":"Happy","steam_id":76561198987103524,"connected_time":419000000000,"state":"active","ping":61},{"user_id":399,"name":"november","steam_id":76561198368460175,"connected_time":75000000000,"state":"active","ping":94},{"user_id":369,"name":"gangstalker","steam_id":76561198363267009,"connected_time":1461000000000,"state":"active","ping":63},{"user_id":350,"name":"ly","steam_id":76561198062922146,"connected_time":2490000000000,"state":"active","ping":60},{"user_id":309,"name":"ATL1 | J O V A","steam_id":76561198090333536,"connected_time":5896000000000,"state":"active","ping":62},{"user_id":401,"name":"Squid's","steam_id":76561198826820952,"connected_time":47000000000,"state":"active","ping":80},{"user_id":386,"name":"Moz","steam_id":76561198027171160,"connected_time":496000000000,"state":"active","ping":62},{"user_id":375,"name":"yao","steam_id":76561199042145024,"connected_time":1267000000000,"state":"active","ping":47},{"user_id":398,"name":"minamesjef08","steam_id":76561199230627243,"connected_time":157000000000,"state":"active","ping":68},{"user_id":354,"name":"ed cook","steam_id":76561198043987486,"connected_time":2239000000000,"state":"active","ping":60},{"user_id":383,"name":"NEW AP NO TIMEX","steam_id":76561198904898274,"connected_time":574000000000,"state":"active","ping":69},{"user_id":382,"name":"Im High","steam_id":76561198049954886,"connected_time":623000000000,"state":"active","ping":70},{"user_id":356,"name":"ATL1 | a very merry ma0re","steam_id":76561199231971506,"connected_time":2185000000000,"state":"active","ping":66},{"user_id":387,"name":"Frajer","steam_id":76561198059129680,"connected_time":455000000000,"state":"active","ping":80}]},{"server_id":400,"name":"Uncletopia | Atlanta | 3 | All Maps","name_short":"atl-3","host":"atl-1.us.uncletopia.com","port":27035,"enabled":true,"region":"us-east","cc":"us","latitude":33.753746,"longitude":-84.38633,"reserved":0,"last_update":"0001-01-01T00:00:00Z","name_a2s":"Uncletopia | Atlanta | 3 | All Maps","protocol":17,"map":"pl_upward","folder":"tf","game":"Team Fortress","app_id":440,"player_count":24,"max_players":24,"Bots":0,"server_type":"Dedicated","server_os":"Linux","password":true,"vac":true,"version":"7723704","steam_id":85568392924515187,"keywords":["nocrits","nodmgspread","payload","uncletopia"],"game_id":440,"stv_port":27036,"stv_name":"Uncletopia | Atlanta | 3 | All Maps | STV","players":[{"user_id":49,"name":"chirp","steam_id":76561198109916563,"connected_time":1768000000000,"state":"active","ping":114},{"user_id":12,"name":"potty trained","steam_id":76561198141557766,"connected_time":4457000000000,"state":"active","ping":63},{"user_id":82,"name":"Pan","steam_id":76561199122755987,"connected_time":215000000000,"state":"active","ping":144},{"user_id":13,"name":"fuckterry","steam_id":76561198271957738,"connected_time":4279000000000,"state":"active","ping":51},{"user_id":16,"name":"Song_System","steam_id":76561199032245013,"connected_time":3915000000000,"state":"active","ping":71},{"user_id":86,"name":"Liquid Metal Slime from DQ9","steam_id":76561198061621275,"connected_time":173000000000,"state":"active","ping":59},{"user_id":87,"name":"CaptDongers","steam_id":76561198106341702,"connected_time":115000000000,"state":"active","ping":97},{"user_id":84,"name":"Grayo","steam_id":76561198059652623,"connected_time":196000000000,"state":"active","ping":76},{"user_id":88,"name":"Your childhood","steam_id":76561198799385466,"connected_time":109000000000,"state":"active","ping":97},{"user_id":59,"name":"Mr. Klauk","steam_id":76561199085666301,"connected_time":1119000000000,"state":"active","ping":71},{"user_id":89,"name":"i2ichardt","steam_id":76561197985812804,"connected_time":63000000000,"state":"spawning","ping":110},{"user_id":90,"name":"Asanez3","steam_id":76561198037381436,"connected_time":43000000000,"state":"active","ping":71},{"user_id":72,"name":"Sigiferd","steam_id":76561198148788110,"connected_time":761000000000,"state":"active","ping":128},{"user_id":45,"name":"PROFILE NAME","steam_id":76561199438851854,"connected_time":1846000000000,"state":"active","ping":118},{"user_id":29,"name":"surrender to the void","steam_id":76561198055494039,"connected_time":2218000000000,"state":"active","ping":78},{"user_id":60,"name":"jasiah","steam_id":76561199239168878,"connected_time":1105000000000,"state":"active","ping":93},{"user_id":76,"name":"Spy_Is_Pye","steam_id":76561199439622967,"connected_time":496000000000,"state":"active","ping":75},{"user_id":58,"name":"GoldenX","steam_id":76561199040724918,"connected_time":1141000000000,"state":"active","ping":82},{"user_id":80,"name":"Sheppy","steam_id":76561198295126940,"connected_time":249000000000,"state":"active","ping":81},{"user_id":64,"name":"Cwafflezz","steam_id":76561199116635411,"connected_time":936000000000,"state":"active","ping":107},{"user_id":75,"name":"Minion Bob","steam_id":76561198023938170,"connected_time":744000000000,"state":"active","ping":99},{"user_id":43,"name":"bistratus","steam_id":76561198210390385,"connected_time":1905000000000,"state":"active","ping":65},{"user_id":91,"name":"The Krinkler","steam_id":76561198020308956,"connected_time":29000000000,"state":"active","ping":49},{"user_id":50,"name":"CaioXDD5","steam_id":76561198323025785,"connected_time":1767000000000,"state":"active","ping":167}]},{"server_id":401,"name":"Uncletopia | Atlanta | 4 | No Payload","name_short":"atl-4","host":"atl-1.us.uncletopia.com","port":27045,"enabled":true,"region":"us-east","cc":"us","latitude":33.753746,"longitude":-84.38633,"reserved":0,"last_update":"0001-01-01T00:00:00Z","name_a2s":"Uncletopia | Atlanta | 4 | No Payload","protocol":17,"map":"cp_mercenarypark","folder":"tf","game":"Team Fortress","app_id":440,"player_count":0,"max_players":24,"Bots":0,"server_type":"Dedicated","server_os":"Linux","password":true,"vac":true,"version":"7723704","steam_id":85568392924515188,"keywords":["cp","nocrits","nodmgspread","uncletopia"],"game_id":440,"stv_port":27046,"stv_name":"Uncletopia | Atlanta | 4 | No Payload | STV","players":null},{"server_id":2,"name":"Uncletopia | Chicago | 1 | All Maps","name_short":"chi-1","host":"chi-1.us.uncletopia.com","port":27015,"enabled":true,"region":"us-central","cc":"us","latitude":41.881832,"longitude":-87.62318,"reserved":0,"last_update":"0001-01-01T00:00:00Z","name_a2s":"Uncletopia | Chicago | 1 | All Maps","protocol":17,"map":"pl_barnblitz","folder":"tf","game":"Team Fortress","app_id":440,"player_count":24,"max_players":24,"Bots":0,"server_type":"Dedicated","server_os":"Linux","password":true,"vac":true,"version":"7723704","steam_id":85568392924469984,"keywords":["nocrits","nodmgspread","payload","uncletopia"],"game_id":440,"stv_port":27016,"stv_name":"Uncletopia | Chicago | 1 | All Maps | STV","players":[{"user_id":430,"name":"The average raiden enjoyer","steam_id":76561198191001714,"connected_time":615000000000,"state":"active","ping":77},{"user_id":413,"name":"Terium","steam_id":76561198331234327,"connected_time":1926000000000,"state":"active","ping":51},{"user_id":423,"name":"peachy","steam_id":76561198026664629,"connected_time":1480000000000,"state":"active","ping":54},{"user_id":428,"name":"viagra addict","steam_id":76561198017705248,"connected_time":671000000000,"state":"active","ping":46},{"user_id":376,"name":"Catboy Potemkin","steam_id":76561198078474420,"connected_time":4414000000000,"state":"active","ping":64},{"user_id":437,"name":"randomperson88","steam_id":76561199228822173,"connected_time":72000000000,"state":"active","ping":57},{"user_id":424,"name":"TÖZI","steam_id":76561198045268695,"connected_time":1027000000000,"state":"active","ping":59},{"user_id":398,"name":"UMAKFA","steam_id":76561198283982668,"connected_time":2846000000000,"state":"active","ping":77},{"user_id":351,"name":"NoShen","steam_id":76561198147434663,"connected_time":6832000000000,"state":"active","ping":67},{"user_id":431,"name":"doofenshmirtz","steam_id":76561198447100051,"connected_time":602000000000,"state":"active","ping":59},{"user_id":434,"name":"phonkk","steam_id":76561198039019472,"connected_time":512000000000,"state":"active","ping":101},{"user_id":414,"name":"Depresso Amber","steam_id":76561198074209737,"connected_time":1763000000000,"state":"active","ping":61},{"user_id":420,"name":"Snom","steam_id":76561198333827920,"connected_time":1717000000000,"state":"active","ping":127},{"user_id":436,"name":"Cheese Graffiti","steam_id":76561198046575913,"connected_time":381000000000,"state":"active","ping":59},{"user_id":395,"name":"Ras","steam_id":76561198123546775,"connected_time":2915000000000,"state":"active","ping":67},{"user_id":427,"name":"bladeefan231","steam_id":76561198132873984,"connected_time":821000000000,"state":"active","ping":68},{"user_id":382,"name":"blob","steam_id":76561198122375328,"connected_time":3707000000000,"state":"active","ping":63},{"user_id":407,"name":"Lavender","steam_id":76561198142770666,"connected_time":2351000000000,"state":"active","ping":56},{"user_id":418,"name":"strawberry","steam_id":76561198101926397,"connected_time":1738000000000,"state":"active","ping":55},{"user_id":429,"name":"plutonium isotope","steam_id":76561198319442494,"connected_time":668000000000,"state":"active","ping":107},{"user_id":432,"name":"festive klevin","steam_id":76561198799106535,"connected_time":599000000000,"state":"active","ping":72},{"user_id":433,"name":"AliCat","steam_id":76561198308360862,"connected_time":589000000000,"state":"active","ping":137},{"user_id":338,"name":"Raniel Dicciardo","steam_id":76561198053859538,"connected_time":7725000000000,"state":"active","ping":71},{"user_id":368,"name":"motorized bar of soap","steam_id":76561198882404753,"connected_time":4945000000000,"state":"active","ping":84}]},{"server_id":106,"name":"Uncletopia | Chicago | 2 | All Maps","name_short":"chi-2","host":"chi-1.us.uncletopia.com","port":27025,"enabled":true,"region":"us-central","cc":"us","latitude":41.881832,"longitude":-87.62318,"reserved":0,"last_update":"0001-01-01T00:00:00Z","name_a2s":"Uncletopia | Chicago | 2 | All Maps","protocol":17,"map":"pl_borneo","folder":"tf","game":"Team Fortress","app_id":440,"player_count":25,"max_players":24,"Bots":0,"server_type":"Dedicated","server_os":"Linux","password":true,"vac":true,"version":"7723704","steam_id":85568392924469985,"keywords":["nocrits","nodmgspread","payload","uncletopia"],"game_id":440,"stv_port":27026,"stv_name":"Uncletopia | Chicago | 2 | All Maps | STV","players":[{"user_id":76,"name":"John Darksoul","steam_id":76561198999712284,"connected_time":250000000000,"state":"connecting","ping":0},{"user_id":73,"name":"PullPosition","steam_id":76561198833384713,"connected_time":605000000000,"state":"active","ping":44},{"user_id":77,"name":"XxX_Yung_XxX_Pr0d1gy_XxX","steam_id":76561198076367669,"connected_time":247000000000,"state":"active","ping":115},{"user_id":58,"name":"FatCuddlyBear","steam_id":76561198133613253,"connected_time":2122000000000,"state":"active","ping":65},{"user_id":29,"name":"finn (he/him)","steam_id":76561198257531708,"connected_time":3261000000000,"state":"active","ping":54},{"user_id":78,"name":"Random","steam_id":76561198318879454,"connected_time":243000000000,"state":"active","ping":67},{"user_id":79,"name":"Quansen","steam_id":76561198151594550,"connected_time":216000000000,"state":"active","ping":50},{"user_id":67,"name":"hippo mode","steam_id":76561198073455521,"connected_time":1292000000000,"state":"active","ping":57},{"user_id":75,"name":"albert_gamer","steam_id":76561198980666751,"connected_time":271000000000,"state":"active","ping":65},{"user_id":26,"name":"i should go","steam_id":76561198194614289,"connected_time":3428000000000,"state":"active","ping":76},{"user_id":30,"name":"No cost too great","steam_id":76561198892462283,"connected_time":3245000000000,"state":"active","ping":55},{"user_id":63,"name":"RaddahRaddah","steam_id":76561198194462829,"connected_time":1694000000000,"state":"active","ping":52},{"user_id":69,"name":"Tammy","steam_id":76561198204806792,"connected_time":1184000000000,"state":"active","ping":162},{"user_id":33,"name":"real life cartoon being","steam_id":76561198068958789,"connected_time":3176000000000,"state":"active","ping":63},{"user_id":68,"name":"TrashBird","steam_id":76561198112165352,"connected_time":1203000000000,"state":"active","ping":81},{"user_id":74,"name":"swan","steam_id":76561198012569200,"connected_time":578000000000,"state":"active","ping":81},{"user_id":36,"name":"wutville convicted slapper","steam_id":76561198255308126,"connected_time":3118000000000,"state":"active","ping":77},{"user_id":83,"name":"Errrmmett","steam_id":76561198041314051,"connected_time":158000000000,"state":"active","ping":60},{"user_id":84,"name":"GLURRIN","steam_id":76561198315690955,"connected_time":132000000000,"state":"active","ping":53},{"user_id":39,"name":"the wutville dumbass","steam_id":76561198956422685,"connected_time":3046000000000,"state":"active","ping":62},{"user_id":40,"name":"Rick Assley","steam_id":76561198365019199,"connected_time":3017000000000,"state":"active","ping":81},{"user_id":61,"name":"Imprecise","steam_id":76561198137529294,"connected_time":2065000000000,"state":"active","ping":60},{"user_id":45,"name":"sasharudzik","steam_id":76561199126617781,"connected_time":2918000000000,"state":"active","ping":68},{"user_id":80,"name":"Hylic","steam_id":76561199051314589,"connected_time":216000000000,"state":"active","ping":77},{"user_id":82,"name":"Pi_","steam_id":76561198995020287,"connected_time":189000000000,"state":"active","ping":81}]},{"server_id":402,"name":"Uncletopia | Chicago | 3 | All Maps","name_short":"chi-3","host":"chi-1.us.uncletopia.com","port":27035,"enabled":true,"region":"us-central","cc":"us","latitude":41.881832,"longitude":-87.62318,"reserved":0,"last_update":"0001-01-01T00:00:00Z","name_a2s":"Uncletopia | Chicago | 3 | All Maps","protocol":17,"map":"pl_swiftwater_final1","folder":"tf","game":"Team Fortress","app_id":440,"player_count":24,"max_players":24,"Bots":0,"server_type":"Dedicated","server_os":"Linux","password":true,"vac":true,"version":"7723704","steam_id":85568392924515191,"keywords":["nocrits","nodmgspread","payload","uncletopia"],"game_id":440,"stv_port":27036,"stv_name":"Uncletopia | Chicago | 3 | All Maps | STV","players":[{"user_id":292,"name":"Ahzain","steam_id":76561198035894333,"connected_time":366000000000,"state":"active","ping":135},{"user_id":286,"name":"delta eight is from god","steam_id":76561198045926594,"connected_time":963000000000,"state":"active","ping":100},{"user_id":293,"name":"Zubats |TAOZ|","steam_id":76561198041819445,"connected_time":244000000000,"state":"active","ping":57},{"user_id":276,"name":"H₂SeGamez","steam_id":76561198250471340,"connected_time":1631000000000,"state":"active","ping":59},{"user_id":283,"name":"demoknight tf2","steam_id":76561198070393998,"connected_time":984000000000,"state":"active","ping":63},{"user_id":261,"name":"177013","steam_id":76561198072303290,"connected_time":3131000000000,"state":"active","ping":62},{"user_id":290,"name":"Rugbmilk","steam_id":76561199389283507,"connected_time":704000000000,"state":"active","ping":65},{"user_id":185,"name":"reiidaya","steam_id":76561198325306660,"connected_time":8455000000000,"state":"active","ping":99},{"user_id":256,"name":"Hyoi LFT Inv/Adv","steam_id":76561198206306996,"connected_time":3541000000000,"state":"active","ping":70},{"user_id":257,"name":"¡ayudame!","steam_id":76561198071421094,"connected_time":3474000000000,"state":"active","ping":102},{"user_id":265,"name":"Steve Jobs' cousin Hand Jobs","steam_id":76561198282766831,"connected_time":2901000000000,"state":"active","ping":54},{"user_id":211,"name":"Owixan","steam_id":76561198074990070,"connected_time":6607000000000,"state":"active","ping":39},{"user_id":289,"name":"faxxy","steam_id":76561198079621240,"connected_time":716000000000,"state":"active","ping":65},{"user_id":281,"name":"Bread Baker","steam_id":76561198185335103,"connected_time":996000000000,"state":"active","ping":51},{"user_id":266,"name":"Oops","steam_id":76561198015032646,"connected_time":2850000000000,"state":"active","ping":105},{"user_id":285,"name":"Rat","steam_id":76561198128926034,"connected_time":970000000000,"state":"active","ping":73},{"user_id":184,"name":"rat gets the cheese","steam_id":76561198031234032,"connected_time":8642000000000,"state":"active","ping":56},{"user_id":287,"name":"skaska4","steam_id":76561198080606141,"connected_time":938000000000,"state":"active","ping":91},{"user_id":272,"name":"Young-OG","steam_id":76561198058800479,"connected_time":2243000000000,"state":"active","ping":87},{"user_id":277,"name":"The_Quiet_One","steam_id":76561198132476501,"connected_time":1446000000000,"state":"active","ping":66},{"user_id":288,"name":"dave strider","steam_id":76561198065112186,"connected_time":864000000000,"state":"active","ping":69},{"user_id":291,"name":"Freedom Staff","steam_id":76561199123218315,"connected_time":691000000000,"state":"active","ping":66},{"user_id":280,"name":"Marie","steam_id":76561198056104899,"connected_time":1052000000000,"state":"active","ping":85},{"user_id":246,"name":"monke12344","steam_id":76561199274757725,"connected_time":4167000000000,"state":"active","ping":51}]},{"server_id":403,"name":"Uncletopia | Chicago | 4 | All Maps","name_short":"chi-4","host":"chi-1.us.uncletopia.com","port":27045,"enabled":true,"region":"us-central","cc":"us","latitude":41.881832,"longitude":-87.62318,"reserved":0,"last_update":"0001-01-01T00:00:00Z","name_a2s":"Uncletopia | Chicago | 4 | All Maps","protocol":17,"map":"pl_wutville_event","folder":"tf","game":"Team Fortress","app_id":440,"player_count":0,"max_players":24,"Bots":0,"server_type":"Dedicated","server_os":"Linux","password":true,"vac":true,"version":"7723704","steam_id":85568392924515193,"keywords":["nocrits","nodmgspread","payload","uncletopia"],"game_id":440,"stv_port":27046,"stv_name":"Uncletopia | Chicago | 4 | All Maps | STV","players":null},{"server_id":36,"name":"Uncletopia | Chicago | 5 | All Maps","name_short":"chi-5","host":"chi-2.us.uncletopia.com","port":27015,"enabled":true,"region":"us-central","cc":"us","latitude":41.881832,"longitude":-87.62318,"reserved":0,"last_update":"0001-01-01T00:00:00Z","name_a2s":"Uncletopia | Chicago | 5 | All Maps","protocol":17,"map":"koth_highpass","folder":"tf","game":"Team Fortress","app_id":440,"player_count":0,"max_players":24,"Bots":0,"server_type":"Dedicated","server_os":"Linux","password":true,"vac":true,"version":"7723704","steam_id":85568392924866362,"keywords":["cp","nocrits","nodmgspread","uncletopia"],"game_id":440,"stv_port":27016,"stv_name":"Uncletopia | Chicago | 5 | All Maps | STV","players":null},{"server_id":37,"name":"Uncletopia | Chicago | 6 | All Maps","name_short":"chi-6","host":"chi-2.us.uncletopia.com","port":27025,"enabled":true,"region":"us-central","cc":"us","latitude":41.881832,"longitude":-87.62318,"reserved":0,"last_update":"0001-01-01T00:00:00Z","name_a2s":"Uncletopia | Chicago | 6 | All Maps","protocol":17,"map":"cp_altitude","folder":"tf","game":"Team Fortress","app_id":440,"player_count":0,"max_players":24,"Bots":0,"server_type":"Dedicated","server_os":"Linux","password":true,"vac":true,"version":"7723704","steam_id":85568392924866363,"keywords":["cp","nocrits","nodmgspread","uncletopia"],"game_id":440,"stv_port":27026,"stv_name":"Uncletopia | Chicago | 6 | All Maps | STV","players":null},{"server_id":38,"name":"Uncletopia | Chicago | 7 | Stopwatch (test)","name_short":"chi-7","host":"chi-2.us.uncletopia.com","port":27035,"enabled":true,"region":"us-central","cc":"us","latitude":41.881832,"longitude":-87.62318,"reserved":0,"last_update":"0001-01-01T00:00:00Z","name_a2s":"Uncletopia | Chicago | 7 | Stopwatch (test)","protocol":17,"map":"workshop/koth_clearcut_b15.ugc2107050255","folder":"tf","game":"Team Fortress","app_id":440,"player_count":1,"max_players":24,"Bots":0,"server_type":"Dedicated","server_os":"Linux","password":true,"vac":true,"version":"7723704","steam_id":85568392924866364,"keywords":["cp","nocrits","nodmgspread","uncletopia"],"game_id":440,"stv_port":27036,"stv_name":"Uncletopia | Chicago | 7 | Stopwatch (test) | STV","players":[{"user_id":13,"name":"eggo","steam_id":76561198105515914,"connected_time":38000000000,"state":"active","ping":47}]},{"server_id":39,"name":"Uncletopia | Chicago | 8 | Community","name_short":"chi-8","host":"chi-2.us.uncletopia.com","port":27045,"enabled":true,"region":"us-central","cc":"us","latitude":41.881832,"longitude":-87.62318,"reserved":0,"last_update":"0001-01-01T00:00:00Z","name_a2s":"Uncletopia | Chicago | 8 | Community","protocol":17,"map":"pl_frontier_final","folder":"tf","game":"Team Fortress","app_id":440,"player_count":0,"max_players":24,"Bots":0,"server_type":"Dedicated","server_os":"Linux","password":true,"vac":true,"version":"7723704","steam_id":85568392924866365,"keywords":["nocrits","nodmgspread","payload","uncletopia"],"game_id":440,"stv_port":27046,"stv_name":"Uncletopia | Chicago | 8 | Community | STV","players":null},{"server_id":8,"name":"Uncletopia | Dallas | 1 | All Maps","name_short":"dal-1","host":"dal-1.us.uncletopia.com","port":27015,"enabled":true,"region":"us-central","cc":"us","latitude":32.779167,"longitude":-96.80889,"reserved":0,"last_update":"0001-01-01T00:00:00Z","name_a2s":"Uncletopia | Dallas | 1 | All Maps","protocol":17,"map":"pl_pier","folder":"tf","game":"Team Fortress","app_id":440,"player_count":24,"max_players":24,"Bots":0,"server_type":"Dedicated","server_os":"Linux","password":true,"vac":true,"version":"7723704","steam_id":85568392924469986,"keywords":["nocrits","nodmgspread","payload","uncletopia"],"game_id":440,"stv_port":27016,"stv_name":"Uncletopia | Dallas | 1 | All Maps | STV","players":[{"user_id":500,"name":"Bubbles","steam_id":76561198812361950,"connected_time":5684000000000,"state":"active","ping":97},{"user_id":601,"name":"North Central Positronics Rep","steam_id":76561198133718360,"connected_time":193000000000,"state":"active","ping":87},{"user_id":600,"name":"Pennis the Menace","steam_id":76561198254878037,"connected_time":499000000000,"state":"active","ping":88},{"user_id":602,"name":"far1ne","steam_id":76561198418853168,"connected_time":168000000000,"state":"active","ping":93},{"user_id":578,"name":"Chrisscar","steam_id":76561198086298130,"connected_time":1073000000000,"state":"active","ping":75},{"user_id":605,"name":"dr. bob","steam_id":76561199033457376,"connected_time":72000000000,"state":"active","ping":126},{"user_id":502,"name":"Girthygert","steam_id":76561199342493943,"connected_time":5606000000000,"state":"active","ping":80},{"user_id":590,"name":"bitmappu","steam_id":76561199000786530,"connected_time":734000000000,"state":"active","ping":64},{"user_id":604,"name":"Shadraw","steam_id":76561198800879563,"connected_time":147000000000,"state":"active","ping":59},{"user_id":591,"name":"Shame","steam_id":76561198100490994,"connected_time":719000000000,"state":"active","ping":83},{"user_id":599,"name":"Batso","steam_id":76561198106589452,"connected_time":534000000000,"state":"active","ping":75},{"user_id":556,"name":"Hindmost","steam_id":76561199081837220,"connected_time":2198000000000,"state":"active","ping":121},{"user_id":597,"name":"CiderL0rd","steam_id":76561198020316366,"connected_time":614000000000,"state":"active","ping":86},{"user_id":548,"name":"Blankrq","steam_id":76561198261030763,"connected_time":2410000000000,"state":"active","ping":89},{"user_id":562,"name":"Hashmere","steam_id":76561198002797253,"connected_time":1998000000000,"state":"active","ping":91},{"user_id":583,"name":"cup","steam_id":76561198121245586,"connected_time":881000000000,"state":"active","ping":79},{"user_id":603,"name":"Talented","steam_id":76561198800259660,"connected_time":168000000000,"state":"active","ping":69},{"user_id":558,"name":"Sir_Cheddar","steam_id":76561198132354554,"connected_time":2157000000000,"state":"active","ping":76},{"user_id":593,"name":"spherewithahat","steam_id":76561199122192660,"connected_time":685000000000,"state":"active","ping":95},{"user_id":594,"name":"Zell Da Sheepy","steam_id":76561198978753666,"connected_time":658000000000,"state":"active","ping":64},{"user_id":579,"name":"sp00kydoge","steam_id":76561198097465954,"connected_time":1056000000000,"state":"active","ping":94},{"user_id":595,"name":"The Animated Gamer","steam_id":76561198120639995,"connected_time":655000000000,"state":"active","ping":84},{"user_id":584,"name":"TooShiy","steam_id":76561198152075888,"connected_time":869000000000,"state":"active","ping":89},{"user_id":598,"name":"Same","steam_id":76561198210182936,"connected_time":555000000000,"state":"active","ping":189}]},{"server_id":108,"name":"Uncletopia | Dallas | 2 | All Maps","name_short":"dal-2","host":"dal-1.us.uncletopia.com","port":27025,"enabled":true,"region":"us-central","cc":"us","latitude":32.779167,"longitude":-96.80889,"reserved":0,"last_update":"0001-01-01T00:00:00Z","name_a2s":"Uncletopia | Dallas | 2 | All Maps","protocol":17,"map":"pl_pier","folder":"tf","game":"Team Fortress","app_id":440,"player_count":23,"max_players":24,"Bots":0,"server_type":"Dedicated","server_os":"Linux","password":true,"vac":true,"version":"7723704","steam_id":85568392924469988,"keywords":["nocrits","nodmgspread","payload","uncletopia"],"game_id":440,"stv_port":27026,"stv_name":"Uncletopia | Dallas | 2 | All Maps | STV","players":[{"user_id":70,"name":"ויהי אור","steam_id":76561198212421513,"connected_time":1016000000000,"state":"active","ping":74},{"user_id":77,"name":"sniffy","steam_id":76561198184933255,"connected_time":574000000000,"state":"active","ping":77},{"user_id":62,"name":"Dr. Ludwig","steam_id":76561198110246392,"connected_time":1756000000000,"state":"active","ping":56},{"user_id":72,"name":"blobb","steam_id":76561198950448488,"connected_time":634000000000,"state":"active","ping":75},{"user_id":81,"name":"Kamin","steam_id":76561198255299559,"connected_time":425000000000,"state":"active","ping":63},{"user_id":74,"name":"dog","steam_id":76561198263873491,"connected_time":607000000000,"state":"active","ping":60},{"user_id":48,"name":"doughboy","steam_id":76561198219012928,"connected_time":2706000000000,"state":"active","ping":80},{"user_id":64,"name":"im bladee! drain gang!","steam_id":76561198042600523,"connected_time":1574000000000,"state":"active","ping":48},{"user_id":84,"name":"Beanboi","steam_id":76561198977881677,"connected_time":362000000000,"state":"active","ping":61},{"user_id":55,"name":"The Squid Gamer™","steam_id":76561198340621517,"connected_time":2292000000000,"state":"active","ping":82},{"user_id":67,"name":"Domino Jones","steam_id":76561198202195792,"connected_time":1378000000000,"state":"active","ping":78},{"user_id":71,"name":"Onyx","steam_id":76561198275349640,"connected_time":741000000000,"state":"active","ping":58},{"user_id":53,"name":"Yengozi","steam_id":76561198448764748,"connected_time":2381000000000,"state":"active","ping":81},{"user_id":75,"name":"rbstat","steam_id":76561198050169034,"connected_time":598000000000,"state":"active","ping":103},{"user_id":69,"name":"Stone Toad Steve Austin","steam_id":76561198030622861,"connected_time":1213000000000,"state":"active","ping":82},{"user_id":82,"name":"TheGuyWho'sHereForNoReason","steam_id":76561198851507736,"connected_time":422000000000,"state":"active","ping":110},{"user_id":78,"name":"Shalom","steam_id":76561198410005222,"connected_time":525000000000,"state":"active","ping":61},{"user_id":86,"name":"Can You Feel It Mr.Krabs","steam_id":76561198128302414,"connected_time":204000000000,"state":"spawning","ping":99},{"user_id":51,"name":"Blue Collar","steam_id":76561198354781722,"connected_time":2527000000000,"state":"active","ping":75},{"user_id":44,"name":"aisu","steam_id":76561198043768507,"connected_time":2852000000000,"state":"active","ping":90},{"user_id":80,"name":"dodecadron","steam_id":76561198027397222,"connected_time":449000000000,"state":"active","ping":106},{"user_id":47,"name":"Moonflower ✦","steam_id":76561198191782483,"connected_time":2757000000000,"state":"active","ping":64},{"user_id":83,"name":"Serenue","steam_id":76561199040361250,"connected_time":413000000000,"state":"active","ping":116}]},{"server_id":5,"name":"Uncletopia | Frankfurt | 1 | All Maps","name_short":"frk-1","host":"frk-1.de.uncletopia.com","port":27015,"enabled":true,"region":"eu","cc":"de","latitude":50.110924,"longitude":8.682127,"reserved":0,"last_update":"0001-01-01T00:00:00Z","name_a2s":"Uncletopia | Frankfurt | 1 | All Maps","protocol":17,"map":"pl_thundermountain","folder":"tf","game":"Team Fortress","app_id":440,"player_count":24,"max_players":24,"Bots":0,"server_type":"Dedicated","server_os":"Linux","password":true,"vac":true,"version":"7723704","steam_id":85568392924469989,"keywords":["nocrits","nodmgspread","payload","uncletopia"],"game_id":440,"stv_port":27016,"stv_name":"Uncletopia | Frankfurt | 1 | All Maps | STV","players":[{"user_id":536,"name":"MrClyde","steam_id":76561198132627420,"connected_time":1410000000000,"state":"active","ping":68},{"user_id":523,"name":"Gruel","steam_id":76561198045408509,"connected_time":2557000000000,"state":"active","ping":63},{"user_id":526,"name":"JujuBalu","steam_id":76561198207253071,"connected_time":2164000000000,"state":"active","ping":49},{"user_id":503,"name":"SynthBox3","steam_id":76561199094075745,"connected_time":3905000000000,"state":"active","ping":89},{"user_id":541,"name":"nedilya","steam_id":76561198039692077,"connected_time":767000000000,"state":"active","ping":59},{"user_id":543,"name":"darrenthebozz","steam_id":76561198241275578,"connected_time":386000000000,"state":"active","ping":64},{"user_id":547,"name":"Kevin","steam_id":76561198035625423,"connected_time":113000000000,"state":"active","ping":71},{"user_id":529,"name":"hushhx","steam_id":76561198216200092,"connected_time":1701000000000,"state":"active","ping":66},{"user_id":483,"name":"DarkFloy","steam_id":76561198070650206,"connected_time":5166000000000,"state":"active","ping":78},{"user_id":501,"name":"Pico","steam_id":76561198063552545,"connected_time":4243000000000,"state":"active","ping":96},{"user_id":518,"name":"ELON MUSK","steam_id":76561198132788284,"connected_time":2717000000000,"state":"active","ping":69},{"user_id":443,"name":"Washed","steam_id":76561198148115584,"connected_time":6391000000000,"state":"active","ping":69},{"user_id":495,"name":"Gnarville","steam_id":76561198006373329,"connected_time":4592000000000,"state":"active","ping":63},{"user_id":535,"name":"Human bean","steam_id":76561198261377744,"connected_time":1424000000000,"state":"active","ping":115},{"user_id":545,"name":"Sweetcheesus","steam_id":76561198022299033,"connected_time":327000000000,"state":"active","ping":65},{"user_id":542,"name":"Windows Vista Cruiser","steam_id":76561198064102233,"connected_time":746000000000,"state":"active","ping":70},{"user_id":530,"name":"john fortress","steam_id":76561198202668788,"connected_time":1681000000000,"state":"active","ping":61},{"user_id":538,"name":"Wrabchev* Just_Smile","steam_id":76561198040645344,"connected_time":1216000000000,"state":"active","ping":68},{"user_id":504,"name":"Catali","steam_id":76561198054056911,"connected_time":3612000000000,"state":"active","ping":74},{"user_id":498,"name":"csnipery","steam_id":76561199435280050,"connected_time":4363000000000,"state":"active","ping":65},{"user_id":539,"name":"nox","steam_id":76561198287360892,"connected_time":1214000000000,"state":"active","ping":62},{"user_id":546,"name":"EaTtussy","steam_id":76561199235376543,"connected_time":308000000000,"state":"active","ping":59},{"user_id":531,"name":"AsuX","steam_id":76561197990333289,"connected_time":1676000000000,"state":"active","ping":63},{"user_id":537,"name":"Fales","steam_id":76561198126124929,"connected_time":1283000000000,"state":"active","ping":79}]},{"server_id":110,"name":"Uncletopia | Frankfurt | 2 | All Maps","name_short":"frk-2","host":"frk-1.de.uncletopia.com","port":27025,"enabled":true,"region":"eu","cc":"de","latitude":50.110924,"longitude":8.682127,"reserved":0,"last_update":"0001-01-01T00:00:00Z","name_a2s":"Uncletopia | Frankfurt | 2 | All Maps","protocol":17,"map":"koth_highpass","folder":"tf","game":"Team Fortress","app_id":440,"player_count":23,"max_players":24,"Bots":0,"server_type":"Dedicated","server_os":"Linux","password":true,"vac":true,"version":"7723704","steam_id":85568392924469990,"keywords":["cp","nocrits","nodmgspread","uncletopia"],"game_id":440,"stv_port":27026,"stv_name":"Uncletopia | Frankfurt | 2 | All Maps | STV","players":[{"user_id":825,"name":"MoreGun","steam_id":76561198315362212,"connected_time":279000000000,"state":"active","ping":80},{"user_id":814,"name":"guarda-chuva","steam_id":76561198078694330,"connected_time":881000000000,"state":"active","ping":44},{"user_id":824,"name":"otlos","steam_id":76561198000642269,"connected_time":299000000000,"state":"active","ping":71},{"user_id":811,"name":"Fayden","steam_id":76561199088873813,"connected_time":1052000000000,"state":"active","ping":61},{"user_id":821,"name":"Ecton","steam_id":76561198025103720,"connected_time":559000000000,"state":"active","ping":66},{"user_id":826,"name":"Mad Szalinski","steam_id":76561198003572454,"connected_time":276000000000,"state":"active","ping":65},{"user_id":819,"name":"Gravel Mercenary","steam_id":76561199019412162,"connected_time":622000000000,"state":"active","ping":64},{"user_id":785,"name":"Dommy","steam_id":76561197990864747,"connected_time":2956000000000,"state":"active","ping":52},{"user_id":820,"name":"Pasat","steam_id":76561198826204435,"connected_time":613000000000,"state":"active","ping":62},{"user_id":728,"name":"Mr.GameR.","steam_id":76561198252127576,"connected_time":6036000000000,"state":"active","ping":93},{"user_id":823,"name":"Tarixxiv","steam_id":76561198084365415,"connected_time":450000000000,"state":"active","ping":87},{"user_id":827,"name":"Enormous F.A.G.","steam_id":76561198023956144,"connected_time":272000000000,"state":"active","ping":84},{"user_id":771,"name":"meriones","steam_id":76561198034234373,"connected_time":4031000000000,"state":"active","ping":56},{"user_id":789,"name":"DarthMurloc","steam_id":76561198075577711,"connected_time":2716000000000,"state":"active","ping":78},{"user_id":828,"name":"Aleks Χ Ξ Σ","steam_id":76561198139607429,"connected_time":226000000000,"state":"active","ping":75},{"user_id":790,"name":"Phalcon","steam_id":76561197987051394,"connected_time":2712000000000,"state":"active","ping":78},{"user_id":829,"name":"⚡Evr1k","steam_id":76561198370902997,"connected_time":226000000000,"state":"active","ping":134},{"user_id":831,"name":"Fizzing Fool","steam_id":76561198425415033,"connected_time":156000000000,"state":"active","ping":105},{"user_id":832,"name":"it just ain't fair","steam_id":76561198418538887,"connected_time":147000000000,"state":"active","ping":93},{"user_id":722,"name":"lvl. 50 honkler","steam_id":76561198061688660,"connected_time":6454000000000,"state":"active","ping":151},{"user_id":794,"name":":3 :3 :3","steam_id":76561198067990185,"connected_time":2614000000000,"state":"active","ping":68},{"user_id":800,"name":"meatsoupcube","steam_id":76561198276802249,"connected_time":2237000000000,"state":"active","ping":68},{"user_id":806,"name":"jaMie","steam_id":76561198170148783,"connected_time":1558000000000,"state":"active","ping":58}]},{"server_id":308,"name":"Uncletopia | Frankfurt | 3 | All Maps","name_short":"frk-3","host":"frk-1.de.uncletopia.com","port":27035,"enabled":true,"region":"eu","cc":"de","latitude":50.110924,"longitude":8.682127,"reserved":0,"last_update":"0001-01-01T00:00:00Z","name_a2s":"Uncletopia | Frankfurt | 3 | All Maps","protocol":17,"map":"pl_borneo","folder":"tf","game":"Team Fortress","app_id":440,"player_count":24,"max_players":24,"Bots":0,"server_type":"Dedicated","server_os":"Linux","password":true,"vac":true,"version":"7723704","steam_id":85568392924504274,"keywords":["nocrits","nodmgspread","payload","uncletopia"],"game_id":440,"stv_port":27036,"stv_name":"Uncletopia | Frankfurt | 3 | All Maps | STV","players":[{"user_id":621,"name":"Tonne","steam_id":76561197970856766,"connected_time":4408000000000,"state":"active","ping":53},{"user_id":670,"name":"why rum gone","steam_id":76561198158484784,"connected_time":1336000000000,"state":"active","ping":60},{"user_id":671,"name":"Malfare","steam_id":76561198135448291,"connected_time":1296000000000,"state":"active","ping":72},{"user_id":662,"name":"Flask","steam_id":76561198038028999,"connected_time":2231000000000,"state":"active","ping":58},{"user_id":672,"name":"Rega Macist","steam_id":76561198446797116,"connected_time":1274000000000,"state":"active","ping":76},{"user_id":676,"name":"raz","steam_id":76561198147277460,"connected_time":1018000000000,"state":"active","ping":58},{"user_id":669,"name":"Karewa.","steam_id":76561198201109002,"connected_time":1413000000000,"state":"active","ping":86},{"user_id":659,"name":"scaghEnzo","steam_id":76561198018107699,"connected_time":2613000000000,"state":"active","ping":69},{"user_id":673,"name":"Avsky","steam_id":76561198048870734,"connected_time":1271000000000,"state":"active","ping":72},{"user_id":689,"name":"Gryoss","steam_id":76561197999837111,"connected_time":536000000000,"state":"active","ping":104},{"user_id":675,"name":"shr1mple","steam_id":76561198173537027,"connected_time":1083000000000,"state":"active","ping":41},{"user_id":648,"name":"Toast On Cheese","steam_id":76561198078766475,"connected_time":3273000000000,"state":"active","ping":67},{"user_id":650,"name":"xavier :)","steam_id":76561198076494034,"connected_time":3246000000000,"state":"active","ping":61},{"user_id":677,"name":"noot","steam_id":76561198148074472,"connected_time":1016000000000,"state":"active","ping":41},{"user_id":678,"name":"bop","steam_id":76561198023211417,"connected_time":1012000000000,"state":"active","ping":65},{"user_id":627,"name":"S0LDaTo","steam_id":76561198269413360,"connected_time":4298000000000,"state":"active","ping":69},{"user_id":686,"name":"Warme Perle","steam_id":76561198020071321,"connected_time":693000000000,"state":"active","ping":62},{"user_id":690,"name":"Rarky","steam_id":76561198054398642,"connected_time":378000000000,"state":"active","ping":56},{"user_id":687,"name":"alien","steam_id":76561197968892194,"connected_time":650000000000,"state":"active","ping":59},{"user_id":667,"name":"Zelmor","steam_id":76561197997708311,"connected_time":1630000000000,"state":"active","ping":57},{"user_id":683,"name":"Bubbles","steam_id":76561198131764464,"connected_time":899000000000,"state":"active","ping":122},{"user_id":653,"name":"Germanium_Ge","steam_id":76561198130561775,"connected_time":3187000000000,"state":"active","ping":65},{"user_id":688,"name":"Toofy","steam_id":76561197989727907,"connected_time":620000000000,"state":"active","ping":55},{"user_id":661,"name":"Vershal Smershal","steam_id":76561198116223995,"connected_time":2244000000000,"state":"active","ping":60}]},{"server_id":309,"name":"Uncletopia | Frankfurt | 4 | All Maps","name_short":"frk-4","host":"frk-1.de.uncletopia.com","port":27045,"enabled":true,"region":"eu","cc":"de","latitude":50.110924,"longitude":8.682127,"reserved":0,"last_update":"0001-01-01T00:00:00Z","name_a2s":"Uncletopia | Frankfurt | 4 | All Maps","protocol":17,"map":"koth_lakeside_final","folder":"tf","game":"Team Fortress","app_id":440,"player_count":0,"max_players":24,"Bots":0,"server_type":"Dedicated","server_os":"Linux","password":true,"vac":true,"version":"7723704","steam_id":85568392924504275,"keywords":["cp","nocrits","nodmgspread","uncletopia"],"game_id":440,"stv_port":27046,"stv_name":"Uncletopia | Frankfurt | 4 | All Maps | STV","players":null},{"server_id":310,"name":"Uncletopia | Frankfurt | 5 | All Maps","name_short":"frk-5","host":"frk-1.de.uncletopia.com","port":27055,"enabled":true,"region":"eu","cc":"de","latitude":50.110924,"longitude":8.682127,"reserved":0,"last_update":"0001-01-01T00:00:00Z","name_a2s":"Uncletopia | Frankfurt | 5 | All Maps","protocol":17,"map":"pl_frontier_final","folder":"tf","game":"Team Fortress","app_id":440,"player_count":4,"max_players":24,"Bots":0,"server_type":"Dedicated","server_os":"Linux","password":true,"vac":true,"version":"7723704","steam_id":85568392924504277,"keywords":["nocrits","nodmgspread","payload","uncletopia"],"game_id":440,"stv_port":27056,"stv_name":"Uncletopia | Frankfurt | 5 | All Maps | STV","players":[{"user_id":602,"name":"Gay Potato","steam_id":76561198018859519,"connected_time":988000000000,"state":"active","ping":47},{"user_id":590,"name":"Sado","steam_id":76561198212542081,"connected_time":2927000000000,"state":"active","ping":74},{"user_id":586,"name":"Peehole explorer","steam_id":76561198042593027,"connected_time":3173000000000,"state":"active","ping":83},{"user_id":595,"name":"Aydin Channel","steam_id":76561198138031624,"connected_time":2290000000000,"state":"active","ping":122}]},{"server_id":311,"name":"Uncletopia | Frankfurt | 6 | All Maps","name_short":"frk-6","host":"frk-1.de.uncletopia.com","port":27065,"enabled":true,"region":"eu","cc":"de","latitude":50.110924,"longitude":8.682127,"reserved":0,"last_update":"0001-01-01T00:00:00Z","name_a2s":"Uncletopia | Frankfurt | 6 | All Maps","protocol":17,"map":"pl_borneo","folder":"tf","game":"Team Fortress","app_id":440,"player_count":5,"max_players":24,"Bots":0,"server_type":"Dedicated","server_os":"Linux","password":true,"vac":true,"version":"7723704","steam_id":85568392924504278,"keywords":["nocrits","nodmgspread","payload","uncletopia"],"game_id":440,"stv_port":27066,"stv_name":"Uncletopia | Frankfurt | 6 | All Maps | STV","players":[{"user_id":465,"name":"Alfred2.2","steam_id":76561198339314744,"connected_time":1995000000000,"state":"active","ping":61},{"user_id":469,"name":"hatac","steam_id":76561198204281927,"connected_time":1110000000000,"state":"active","ping":47},{"user_id":466,"name":"Cryo","steam_id":76561198007769092,"connected_time":1945000000000,"state":"active","ping":67},{"user_id":456,"name":"JumboJuice","steam_id":76561198054122270,"connected_time":2485000000000,"state":"active","ping":59},{"user_id":446,"name":"Walter White","steam_id":76561198265079595,"connected_time":3778000000000,"state":"active","ping":182}]},{"server_id":23,"name":"Uncletopia | Frankfurt | 7 | No Payload","name_short":"frk-7","host":"frk-1.de.uncletopia.com","port":27075,"enabled":true,"region":"eu","cc":"de","latitude":50.110924,"longitude":8.682127,"reserved":0,"last_update":"0001-01-01T00:00:00Z","name_a2s":"Uncletopia | Frankfurt | 7 | No Payload","protocol":17,"map":"cp_mountainlab","folder":"tf","game":"Team Fortress","app_id":440,"player_count":0,"max_players":24,"Bots":0,"server_type":"Dedicated","server_os":"Linux","password":true,"vac":true,"version":"7723704","steam_id":85568392924742827,"keywords":["cp","nocrits","nodmgspread","uncletopia"],"game_id":440,"stv_port":27076,"stv_name":"Uncletopia | Frankfurt | 7 | No Payload | STV","players":null},{"server_id":24,"name":"Uncletopia | Frankfurt | 8 | Community","name_short":"frk-8","host":"frk-1.de.uncletopia.com","port":27085,"enabled":true,"region":"eu","cc":"de","latitude":50.110924,"longitude":8.682127,"reserved":0,"last_update":"0001-01-01T00:00:00Z","name_a2s":"Uncletopia | Frankfurt | 8 | Community","protocol":17,"map":"workshop/cp_sulfur_rc2.ugc619869471","folder":"tf","game":"Team Fortress","app_id":440,"player_count":0,"max_players":24,"Bots":0,"server_type":"Dedicated","server_os":"Linux","password":true,"vac":true,"version":"7723704","steam_id":85568392924742828,"keywords":["cp","nocrits","nodmgspread","uncletopia"],"game_id":440,"stv_port":27086,"stv_name":"Uncletopia | Frankfurt | 8 | Community | STV","players":null},{"server_id":202,"name":"Uncletopia | Hong Kong | 1 | All Maps","name_short":"hgk-1","host":"hgk-1.hk.uncletopia.com","port":27015,"enabled":true,"region":"asia","cc":"hk","latitude":22.302711,"longitude":114.177216,"reserved":0,"last_update":"0001-01-01T00:00:00Z","name_a2s":"Uncletopia | Hong Kong | 1 | All Maps","protocol":17,"map":"cp_snakewater_final1","folder":"tf","game":"Team Fortress","app_id":440,"player_count":0,"max_players":24,"Bots":0,"server_type":"Dedicated","server_os":"Linux","password":true,"vac":true,"version":"7723704","steam_id":85568392924494504,"keywords":["cp","nocrits","nodmgspread","uncletopia"],"game_id":440,"stv_port":27016,"stv_name":"Uncletopia | Hong Kong | 1 | All Maps | STV","players":null},{"server_id":1,"name":"Uncletopia | Los Angeles | 1 | All Maps","name_short":"lax-1","host":"lax-1.us.uncletopia.com","port":27015,"enabled":true,"region":"us-west","cc":"us","latitude":33.94279,"longitude":-118.41004,"reserved":0,"last_update":"0001-01-01T00:00:00Z","name_a2s":"Uncletopia | Los Angeles | 1 | All Maps","protocol":17,"map":"pl_frontier_final","folder":"tf","game":"Team Fortress","app_id":440,"player_count":0,"max_players":24,"Bots":0,"server_type":"Dedicated","server_os":"Linux","password":true,"vac":true,"version":"7723704","steam_id":85568392924469991,"keywords":["nocrits","nodmgspread","payload","uncletopia"],"game_id":440,"stv_port":27016,"stv_name":"Uncletopia | Los Angeles | 1 | All Maps | STV","players":null},{"server_id":112,"name":"Uncletopia | Los Angeles | 2 | All Maps","name_short":"lax-2","host":"lax-1.us.uncletopia.com","port":27025,"enabled":true,"region":"us-west","cc":"us","latitude":33.94279,"longitude":-118.41004,"reserved":0,"last_update":"0001-01-01T00:00:00Z","name_a2s":"Uncletopia | Los Angeles | 2 | All Maps","protocol":17,"map":"pl_pier","folder":"tf","game":"Team Fortress","app_id":440,"player_count":0,"max_players":24,"Bots":0,"server_type":"Dedicated","server_os":"Linux","password":true,"vac":true,"version":"7723704","steam_id":85568392924469992,"keywords":["nocrits","nodmgspread","payload","uncletopia"],"game_id":440,"stv_port":27026,"stv_name":"Uncletopia | Los Angeles | 2 | All Maps | STV","players":null},{"server_id":324,"name":"Uncletopia | Los Angeles | 3 | All Maps","name_short":"lax-3","host":"lax-1.us.uncletopia.com","port":27035,"enabled":true,"region":"us-west","cc":"us","latitude":33.94279,"longitude":-118.41004,"reserved":0,"last_update":"0001-01-01T00:00:00Z","name_a2s":"Uncletopia | Los Angeles | 3 | All Maps","protocol":17,"map":"koth_highpass","folder":"tf","game":"Team Fortress","app_id":440,"player_count":0,"max_players":24,"Bots":0,"server_type":"Dedicated","server_os":"Linux","password":true,"vac":true,"version":"7723704","steam_id":85568392924510198,"keywords":["cp","nocrits","nodmgspread","uncletopia"],"game_id":440,"stv_port":27036,"stv_name":"Uncletopia | Los Angeles | 3 | All Maps | STV","players":null},{"server_id":25,"name":"Uncletopia | Los Angeles | 4 | No Payload","name_short":"lax-4","host":"lax-1.us.uncletopia.com","port":27045,"enabled":true,"region":"us-west","cc":"us","latitude":33.94279,"longitude":-118.41004,"reserved":0,"last_update":"0001-01-01T00:00:00Z","name_a2s":"Uncletopia | Los Angeles | 4 | No Payload","protocol":17,"map":"cp_mountainlab","folder":"tf","game":"Team Fortress","app_id":440,"player_count":0,"max_players":24,"Bots":0,"server_type":"Dedicated","server_os":"Linux","password":true,"vac":true,"version":"7723704","steam_id":85568392924510199,"keywords":["cp","nocrits","nodmgspread","uncletopia"],"game_id":440,"stv_port":27046,"stv_name":"Uncletopia | Los Angeles | 4 | No Payload | STV","players":null},{"server_id":11,"name":"Uncletopia | London | 1 | All Maps","name_short":"lon-1","host":"lon-1.uk.uncletopia.com","port":27015,"enabled":true,"region":"eu","cc":"gb","latitude":51.509865,"longitude":-0.118092,"reserved":0,"last_update":"0001-01-01T00:00:00Z","name_a2s":"Uncletopia | London | 1 | All Maps","protocol":17,"map":"cp_mountainlab","folder":"tf","game":"Team Fortress","app_id":440,"player_count":17,"max_players":24,"Bots":0,"server_type":"Dedicated","server_os":"Linux","password":true,"vac":true,"version":"7723704","steam_id":85568392924367362,"keywords":["cp","nocrits","nodmgspread","uncletopia"],"game_id":440,"stv_port":27016,"stv_name":"Uncletopia | London | 1 | All Maps | STV","players":[{"user_id":525,"name":"19raic","steam_id":76561199093514786,"connected_time":357000000000,"state":"active","ping":69},{"user_id":533,"name":"chrissymas","steam_id":76561198096547662,"connected_time":81000000000,"state":"active","ping":56},{"user_id":531,"name":"Firearms","steam_id":76561197989867612,"connected_time":245000000000,"state":"active","ping":44},{"user_id":510,"name":"Padgriffin","steam_id":76561198205745757,"connected_time":2386000000000,"state":"active","ping":42},{"user_id":528,"name":"big heavy is heavy heavy","steam_id":76561198300059652,"connected_time":341000000000,"state":"active","ping":61},{"user_id":519,"name":"festive jones","steam_id":76561198073975078,"connected_time":1199000000000,"state":"active","ping":97},{"user_id":530,"name":"Calsim","steam_id":76561198164877219,"connected_time":262000000000,"state":"active","ping":39},{"user_id":532,"name":"The Terminator","steam_id":76561198027307745,"connected_time":224000000000,"state":"active","ping":43},{"user_id":460,"name":"Tazza","steam_id":76561198159811050,"connected_time":6895000000000,"state":"active","ping":57},{"user_id":534,"name":"steve","steam_id":76561198076135756,"connected_time":21000000000,"state":"spawning","ping":60},{"user_id":508,"name":"Bones","steam_id":76561198065081225,"connected_time":2501000000000,"state":"active","ping":47},{"user_id":388,"name":"KPhii","steam_id":76561198970587061,"connected_time":10465000000000,"state":"active","ping":59},{"user_id":500,"name":"SuperBob103","steam_id":76561199175360012,"connected_time":3359000000000,"state":"active","ping":46},{"user_id":523,"name":"Davidoff","steam_id":76561199099163283,"connected_time":408000000000,"state":"active","ping":75},{"user_id":458,"name":"Banjo","steam_id":76561198206218496,"connected_time":7220000000000,"state":"active","ping":45},{"user_id":513,"name":"Quartermistress","steam_id":76561198140199123,"connected_time":2122000000000,"state":"active","ping":45},{"user_id":512,"name":"Nokrah","steam_id":76561198268174920,"connected_time":2262000000000,"state":"active","ping":37}]},{"server_id":114,"name":"Uncletopia | London | 2 | All Maps","name_short":"lon-2","host":"lon-1.uk.uncletopia.com","port":27025,"enabled":true,"region":"eu","cc":"gb","latitude":51.509865,"longitude":-0.118092,"reserved":0,"last_update":"0001-01-01T00:00:00Z","name_a2s":"Uncletopia | London | 2 | All Maps","protocol":17,"map":"cp_dustbowl","folder":"tf","game":"Team Fortress","app_id":440,"player_count":22,"max_players":24,"Bots":0,"server_type":"Dedicated","server_os":"Linux","password":true,"vac":true,"version":"7723704","steam_id":85568392924470941,"keywords":["cp","nocrits","nodmgspread","uncletopia"],"game_id":440,"stv_port":27026,"stv_name":"Uncletopia | London | 2 | All Maps | STV","players":[{"user_id":218,"name":"Le0901","steam_id":76561198372891244,"connected_time":1650000000000,"state":"active","ping":156},{"user_id":244,"name":"Lamarr","steam_id":76561198087965924,"connected_time":94000000000,"state":"active","ping":146},{"user_id":220,"name":"wingo","steam_id":76561198254576930,"connected_time":1340000000000,"state":"active","ping":70},{"user_id":221,"name":"Miedzan","steam_id":76561198405250516,"connected_time":1249000000000,"state":"active","ping":72},{"user_id":223,"name":"Tortoise","steam_id":76561198229648184,"connected_time":1083000000000,"state":"active","ping":41},{"user_id":235,"name":"heisenburger","steam_id":76561198284589853,"connected_time":505000000000,"state":"active","ping":91},{"user_id":224,"name":"Kyeel_Smeel","steam_id":76561199164471622,"connected_time":1077000000000,"state":"active","ping":59},{"user_id":229,"name":"Omnom143","steam_id":76561198097838265,"connected_time":683000000000,"state":"active","ping":116},{"user_id":234,"name":"bull.","steam_id":76561197965462062,"connected_time":536000000000,"state":"active","ping":60},{"user_id":210,"name":"Mr.Cupcake","steam_id":76561198152711174,"connected_time":2244000000000,"state":"active","ping":65},{"user_id":228,"name":"Mr. Pink","steam_id":76561198065858172,"connected_time":794000000000,"state":"active","ping":115},{"user_id":226,"name":"Crunchy Potato","steam_id":76561199090227525,"connected_time":963000000000,"state":"active","ping":53},{"user_id":245,"name":"bad player","steam_id":76561198088898260,"connected_time":76000000000,"state":"active","ping":62},{"user_id":246,"name":"Samus","steam_id":76561198045943019,"connected_time":40000000000,"state":"active","ping":54},{"user_id":216,"name":"duckels","steam_id":76561198127790695,"connected_time":1982000000000,"state":"active","ping":58},{"user_id":232,"name":"Criterion","steam_id":76561198128829201,"connected_time":609000000000,"state":"active","ping":138},{"user_id":233,"name":"Monet","steam_id":76561198087656854,"connected_time":540000000000,"state":"active","ping":61},{"user_id":237,"name":"waffle toaster","steam_id":76561198799089628,"connected_time":368000000000,"state":"active","ping":46},{"user_id":247,"name":"TurboTabs","steam_id":76561198009785131,"connected_time":29000000000,"state":"active","ping":52},{"user_id":145,"name":"zero","steam_id":76561198055365234,"connected_time":6700000000000,"state":"active","ping":74},{"user_id":240,"name":"Rolprev","steam_id":76561198047275939,"connected_time":322000000000,"state":"active","ping":64},{"user_id":243,"name":"oberhausmatt","steam_id":76561198377673739,"connected_time":201000000000,"state":"active","ping":152}]},{"server_id":320,"name":"Uncletopia | London | 3 | All Maps","name_short":"lon-3","host":"lon-1.uk.uncletopia.com","port":27035,"enabled":true,"region":"eu","cc":"gb","latitude":51.509865,"longitude":-0.118092,"reserved":0,"last_update":"0001-01-01T00:00:00Z","name_a2s":"Uncletopia | London | 3 | All Maps","protocol":17,"map":"cp_snakewater_final1","folder":"tf","game":"Team Fortress","app_id":440,"player_count":0,"max_players":24,"Bots":0,"server_type":"Dedicated","server_os":"Linux","password":true,"vac":true,"version":"7723704","steam_id":85568392924510192,"keywords":["cp","nocrits","nodmgspread","uncletopia"],"game_id":440,"stv_port":27036,"stv_name":"Uncletopia | London | 3 | All Maps | STV","players":null},{"server_id":321,"name":"Uncletopia | London | 4 | All Maps","name_short":"lon-4","host":"lon-1.uk.uncletopia.com","port":27045,"enabled":true,"region":"eu","cc":"gb","latitude":51.509865,"longitude":-0.118092,"reserved":0,"last_update":"0001-01-01T00:00:00Z","name_a2s":"Uncletopia | London | 4 | All Maps","protocol":17,"map":"koth_cascade","folder":"tf","game":"Team Fortress","app_id":440,"player_count":0,"max_players":24,"Bots":0,"server_type":"Dedicated","server_os":"Linux","password":true,"vac":true,"version":"7723704","steam_id":85568392924510193,"keywords":["cp","nocrits","nodmgspread","uncletopia"],"game_id":440,"stv_port":27046,"stv_name":"Uncletopia | London | 4 | All Maps | STV","players":null},{"server_id":21,"name":"Uncletopia | London | 5 | All Maps","name_short":"lon-5","host":"lon-1.uk.uncletopia.com","port":27055,"enabled":true,"region":"eu","cc":"gb","latitude":51.509865,"longitude":-0.118092,"reserved":0,"last_update":"0001-01-01T00:00:00Z","name_a2s":"Uncletopia | London | 5 | All Maps","protocol":17,"map":"koth_lakeside_final","folder":"tf","game":"Team Fortress","app_id":440,"player_count":0,"max_players":24,"Bots":0,"server_type":"Dedicated","server_os":"Linux","password":true,"vac":true,"version":"7723704","steam_id":85568392924742829,"keywords":["cp","nocrits","nodmgspread","uncletopia"],"game_id":440,"stv_port":27056,"stv_name":"Uncletopia | London | 5 | All Maps | STV","players":null},{"server_id":22,"name":"Uncletopia | London | 6 | All Maps","name_short":"lon-6","host":"lon-1.uk.uncletopia.com","port":27065,"enabled":true,"region":"eu","cc":"gb","latitude":51.509865,"longitude":-0.118092,"reserved":0,"last_update":"0001-01-01T00:00:00Z","name_a2s":"Uncletopia | London | 6 | All Maps","protocol":17,"map":"pl_borneo","folder":"tf","game":"Team Fortress","app_id":440,"player_count":22,"max_players":24,"Bots":0,"server_type":"Dedicated","server_os":"Linux","password":true,"vac":true,"version":"7723704","steam_id":85568392924742830,"keywords":["nocrits","nodmgspread","payload","uncletopia"],"game_id":440,"stv_port":27066,"stv_name":"Uncletopia | London | 6 | All Maps | STV","players":[{"user_id":365,"name":"ArekanPL","steam_id":76561198306811916,"connected_time":942000000000,"state":"active","ping":75},{"user_id":368,"name":"The Erotic Barber","steam_id":76561198423902979,"connected_time":595000000000,"state":"active","ping":47},{"user_id":371,"name":"azzy","steam_id":76561198061293740,"connected_time":448000000000,"state":"active","ping":75},{"user_id":343,"name":"chief","steam_id":76561198027033926,"connected_time":1594000000000,"state":"active","ping":45},{"user_id":370,"name":"Clitorina","steam_id":76561198077570815,"connected_time":470000000000,"state":"active","ping":41},{"user_id":345,"name":"stun","steam_id":76561198276681691,"connected_time":1504000000000,"state":"active","ping":44},{"user_id":346,"name":"rmz.ssj","steam_id":76561198329613930,"connected_time":1487000000000,"state":"active","ping":48},{"user_id":318,"name":"PrimeTarget","steam_id":76561198046409289,"connected_time":3502000000000,"state":"active","ping":80},{"user_id":367,"name":"Buggy","steam_id":76561198989158872,"connected_time":755000000000,"state":"active","ping":44},{"user_id":347,"name":"fiyahstorm","steam_id":76561197992574261,"connected_time":1451000000000,"state":"active","ping":37},{"user_id":366,"name":"Coyote29","steam_id":76561198344502070,"connected_time":940000000000,"state":"active","ping":89},{"user_id":363,"name":"Joseph Stalin LFT","steam_id":76561198033199746,"connected_time":1118000000000,"state":"active","ping":36},{"user_id":375,"name":"тукку ирма","steam_id":76561197998715016,"connected_time":240000000000,"state":"active","ping":64},{"user_id":350,"name":"w3doee","steam_id":76561198046982508,"connected_time":1436000000000,"state":"active","ping":48},{"user_id":372,"name":"GOLDEN","steam_id":76561199104447883,"connected_time":447000000000,"state":"active","ping":176},{"user_id":369,"name":"Mir","steam_id":76561198271925474,"connected_time":550000000000,"state":"active","ping":59},{"user_id":376,"name":"worry about it","steam_id":76561199414716848,"connected_time":218000000000,"state":"active","ping":75},{"user_id":377,"name":"rummy","steam_id":76561197997573379,"connected_time":110000000000,"state":"active","ping":46},{"user_id":357,"name":"Pizza/Cheese/Pepperoni","steam_id":76561198174510235,"connected_time":1273000000000,"state":"active","ping":50},{"user_id":358,"name":"cazador","steam_id":76561198123096922,"connected_time":1263000000000,"state":"active","ping":105},{"user_id":378,"name":"Spoof059","steam_id":76561198356116829,"connected_time":67000000000,"state":"active","ping":52},{"user_id":373,"name":"Chiefy","steam_id":76561197970524667,"connected_time":419000000000,"state":"active","ping":89}]},{"server_id":40,"name":"Uncletopia | London | 7 | No Payload","name_short":"lon-7","host":"lon-1.uk.uncletopia.com","port":27075,"enabled":true,"region":"eu","cc":"gb","latitude":51.509865,"longitude":-0.118092,"reserved":0,"last_update":"0001-01-01T00:00:00Z","name_a2s":"Uncletopia | London | 7 | No Payload","protocol":17,"map":"koth_cascade","folder":"tf","game":"Team Fortress","app_id":440,"player_count":0,"max_players":24,"Bots":0,"server_type":"Dedicated","server_os":"Linux","password":true,"vac":true,"version":"7723704","steam_id":85568392924964314,"keywords":["cp","nocrits","nodmgspread","uncletopia"],"game_id":440,"stv_port":27076,"stv_name":"Uncletopia | London | 7 | No Payload | STV","players":null},{"server_id":41,"name":"Uncletopia | London | 8 | Community","name_short":"lon-8","host":"lon-1.uk.uncletopia.com","port":27085,"enabled":true,"region":"eu","cc":"gb","latitude":51.509865,"longitude":-0.118092,"reserved":0,"last_update":"0001-01-01T00:00:00Z","name_a2s":"Uncletopia | London | 8 | Community","protocol":17,"map":"workshop/koth_ramjam_v2_b2.ugc2865676487","folder":"tf","game":"Team Fortress","app_id":440,"player_count":0,"max_players":24,"Bots":0,"server_type":"Dedicated","server_os":"Linux","password":true,"vac":true,"version":"7723704","steam_id":85568392924964315,"keywords":["cp","nocrits","nodmgspread","uncletopia"],"game_id":440,"stv_port":27086,"stv_name":"Uncletopia | London | 8 | Community | STV","players":null},{"server_id":300,"name":"Uncletopia | Montréal | 1 | All Maps","name_short":"mtl-1","host":"mtl-1.ca.uncletopia.com","port":27015,"enabled":true,"region":"us-east","cc":"ca","latitude":45.50889,"longitude":-73.56167,"reserved":0,"last_update":"0001-01-01T00:00:00Z","name_a2s":"Uncletopia | Montréal | 1 | All Maps","protocol":17,"map":"cp_mountainlab","folder":"tf","game":"Team Fortress","app_id":440,"player_count":0,"max_players":24,"Bots":0,"server_type":"Dedicated","server_os":"Linux","password":true,"vac":true,"version":"7723704","steam_id":85568392924500087,"keywords":["cp","nocrits","nodmgspread","uncletopia"],"game_id":440,"stv_port":27016,"stv_name":"Uncletopia | Montréal | 1 | All Maps | STV","players":null},{"server_id":301,"name":"Uncletopia | Montréal | 2 | All Maps","name_short":"mtl-2","host":"mtl-1.ca.uncletopia.com","port":27025,"enabled":true,"region":"us-east","cc":"ca","latitude":45.50889,"longitude":-73.56167,"reserved":0,"last_update":"0001-01-01T00:00:00Z","name_a2s":"Uncletopia | Montréal | 2 | All Maps","protocol":17,"map":"cp_sunshine","folder":"tf","game":"Team Fortress","app_id":440,"player_count":0,"max_players":24,"Bots":0,"server_type":"Dedicated","server_os":"Linux","password":true,"vac":true,"version":"7723704","steam_id":85568392924500088,"keywords":["cp","nocrits","nodmgspread","uncletopia"],"game_id":440,"stv_port":27026,"stv_name":"Uncletopia | Montréal | 2 | All Maps | STV","players":null},{"server_id":302,"name":"Uncletopia | Montréal | 3 | All Maps","name_short":"mtl-3","host":"mtl-1.ca.uncletopia.com","port":27035,"enabled":true,"region":"us-east","cc":"ca","latitude":45.50889,"longitude":-73.56167,"reserved":0,"last_update":"0001-01-01T00:00:00Z","name_a2s":"Uncletopia | Montréal | 3 | All Maps","protocol":17,"map":"cp_dustbowl","folder":"tf","game":"Team Fortress","app_id":440,"player_count":0,"max_players":24,"Bots":0,"server_type":"Dedicated","server_os":"Linux","password":true,"vac":true,"version":"7723704","steam_id":85568392924500089,"keywords":["cp","nocrits","nodmgspread","uncletopia"],"game_id":440,"stv_port":27036,"stv_name":"Uncletopia | Montréal | 3 | All Maps | STV","players":null},{"server_id":303,"name":"Uncletopia | Montréal | 4 | No Payload","name_short":"mtl-4","host":"mtl-1.ca.uncletopia.com","port":27045,"enabled":true,"region":"us-east","cc":"ca","latitude":45.50889,"longitude":-73.56167,"reserved":0,"last_update":"0001-01-01T00:00:00Z","name_a2s":"Uncletopia | Montréal | 4 | No Payload","protocol":17,"map":"koth_nucleus","folder":"tf","game":"Team Fortress","app_id":440,"player_count":0,"max_players":24,"Bots":0,"server_type":"Dedicated","server_os":"Linux","password":true,"vac":true,"version":"7723704","steam_id":85568392924500090,"keywords":["cp","nocrits","nodmgspread","uncletopia"],"game_id":440,"stv_port":27046,"stv_name":"Uncletopia | Montréal | 4 | No Payload | STV","players":null},{"server_id":13,"name":"Uncletopia | New York City | 1 | All Maps","name_short":"nyc-1","host":"nyc-1.us.uncletopia.com","port":27015,"enabled":true,"region":"us-east","cc":"us","latitude":40.73061,"longitude":-73.93524,"reserved":0,"last_update":"0001-01-01T00:00:00Z","name_a2s":"Uncletopia | New York City | 1 | All Maps","protocol":17,"map":"pl_hoodoo_final","folder":"tf","game":"Team Fortress","app_id":440,"player_count":24,"max_players":24,"Bots":0,"server_type":"Dedicated","server_os":"Linux","password":true,"vac":true,"version":"7723704","steam_id":85568392924469993,"keywords":["nocrits","nodmgspread","payload","uncletopia"],"game_id":440,"stv_port":27016,"stv_name":"Uncletopia | New York City | 1 | All Maps | STV","players":[{"user_id":379,"name":"Bee_Pirate","steam_id":76561199000599111,"connected_time":1020000000000,"state":"active","ping":66},{"user_id":378,"name":"󠀡󠀡","steam_id":76561198094421358,"connected_time":1239000000000,"state":"active","ping":120},{"user_id":395,"name":"Slondermin","steam_id":76561198320301349,"connected_time":319000000000,"state":"active","ping":66},{"user_id":393,"name":"Lion","steam_id":76561198848879603,"connected_time":501000000000,"state":"active","ping":54},{"user_id":348,"name":"Johnny Esports","steam_id":76561198115812405,"connected_time":3255000000000,"state":"active","ping":65},{"user_id":380,"name":"CyberSyn","steam_id":76561198169966346,"connected_time":983000000000,"state":"active","ping":73},{"user_id":377,"name":"Crimmas","steam_id":76561198129326627,"connected_time":1291000000000,"state":"active","ping":56},{"user_id":382,"name":"SoupKnight","steam_id":76561199122067199,"connected_time":932000000000,"state":"active","ping":83},{"user_id":375,"name":"The_Epic_Conclusion","steam_id":76561198084250179,"connected_time":1666000000000,"state":"active","ping":58},{"user_id":347,"name":"Penis but it rhymes with Venice","steam_id":76561197986420836,"connected_time":3282000000000,"state":"active","ping":57},{"user_id":383,"name":"fudo myoo","steam_id":76561198456258164,"connected_time":928000000000,"state":"active","ping":69},{"user_id":372,"name":"Vaporeon","steam_id":76561198107058140,"connected_time":1837000000000,"state":"active","ping":58},{"user_id":394,"name":"floppy muppet","steam_id":76561198003076261,"connected_time":340000000000,"state":"active","ping":90},{"user_id":396,"name":"Regi","steam_id":76561198271508598,"connected_time":266000000000,"state":"active","ping":65},{"user_id":385,"name":"erwebomio","steam_id":76561198071152924,"connected_time":897000000000,"state":"active","ping":123},{"user_id":399,"name":"Gamer Man","steam_id":76561198983776208,"connected_time":200000000000,"state":"active","ping":59},{"user_id":336,"name":"static","steam_id":76561199093261935,"connected_time":3585000000000,"state":"active","ping":60},{"user_id":388,"name":"mkl","steam_id":76561197986401685,"connected_time":840000000000,"state":"active","ping":94},{"user_id":398,"name":"John Darksoul","steam_id":76561198999712284,"connected_time":243000000000,"state":"active","ping":76},{"user_id":390,"name":"Bigby","steam_id":76561199056842761,"connected_time":816000000000,"state":"active","ping":115},{"user_id":362,"name":"The Ghost of Jay Leno","steam_id":76561198058938897,"connected_time":2687000000000,"state":"active","ping":74},{"user_id":363,"name":"iamoctopii","steam_id":76561198876901076,"connected_time":2676000000000,"state":"active","ping":125},{"user_id":354,"name":"BlueStripe355","steam_id":76561198144211518,"connected_time":3124000000000,"state":"active","ping":72},{"user_id":364,"name":"Dask","steam_id":76561198043385839,"connected_time":2633000000000,"state":"active","ping":73}]},{"server_id":14,"name":"Uncletopia | New York City | 2 | All Maps","name_short":"nyc-2","host":"nyc-1.us.uncletopia.com","port":27025,"enabled":true,"region":"us-east","cc":"us","latitude":40.73061,"longitude":-73.93524,"reserved":0,"last_update":"0001-01-01T00:00:00Z","name_a2s":"Uncletopia | New York City | 2 | All Maps","protocol":17,"map":"koth_suijin","folder":"tf","game":"Team Fortress","app_id":440,"player_count":3,"max_players":24,"Bots":0,"server_type":"Dedicated","server_os":"Linux","password":true,"vac":true,"version":"7723704","steam_id":85568392924469994,"keywords":["cp","nocrits","nodmgspread","uncletopia"],"game_id":440,"stv_port":27026,"stv_name":"Uncletopia | New York City | 2 | All Maps | STV","players":[{"user_id":120,"name":"SomeFlamingo","steam_id":76561198869299841,"connected_time":372000000000,"state":"active","ping":46},{"user_id":117,"name":"gummie","steam_id":76561198998340318,"connected_time":899000000000,"state":"active","ping":150},{"user_id":118,"name":"SwooWoop","steam_id":76561199244312225,"connected_time":806000000000,"state":"active","ping":118}]},{"server_id":15,"name":"Uncletopia | New York City | 3 | All Maps","name_short":"nyc-3","host":"nyc-1.us.uncletopia.com","port":27035,"enabled":true,"region":"us-east","cc":"us","latitude":40.73061,"longitude":-73.93524,"reserved":0,"last_update":"0001-01-01T00:00:00Z","name_a2s":"Uncletopia | New York City | 3 | All Maps","protocol":17,"map":"cp_dustbowl","folder":"tf","game":"Team Fortress","app_id":440,"player_count":0,"max_players":24,"Bots":0,"server_type":"Dedicated","server_os":"Linux","password":true,"vac":true,"version":"7723704","steam_id":85568392924742820,"keywords":["cp","nocrits","nodmgspread","uncletopia"],"game_id":440,"stv_port":27036,"stv_name":"Uncletopia | New York City | 3 | All Maps | STV","players":null},{"server_id":16,"name":"Uncletopia | New York City | 4 | Community","name_short":"nyc-4","host":"nyc-1.us.uncletopia.com","port":27045,"enabled":true,"region":"us-east","cc":"us","latitude":40.73061,"longitude":-73.93524,"reserved":0,"last_update":"0001-01-01T00:00:00Z","name_a2s":"Uncletopia | New York City | 4 | Community","protocol":17,"map":"workshop/koth_product_final.ugc454272353","folder":"tf","game":"Team Fortress","app_id":440,"player_count":0,"max_players":24,"Bots":0,"server_type":"Dedicated","server_os":"Linux","password":true,"vac":true,"version":"7723704","steam_id":85568392924742821,"keywords":["cp","nocrits","nodmgspread","uncletopia"],"game_id":440,"stv_port":27046,"stv_name":"Uncletopia | New York City | 4 | Community | STV","players":null},{"server_id":142,"name":"Uncletopia | São Paulo | 1 | All Maps","name_short":"sao-1","host":"sao-1.br.uncletopia.com","port":27015,"enabled":true,"region":"sa","cc":"br","latitude":-23.533773,"longitude":-46.62529,"reserved":0,"last_update":"0001-01-01T00:00:00Z","name_a2s":"Uncletopia | São Paulo | 1 | All Maps","protocol":17,"map":"pl_frontier_final","folder":"tf","game":"Team Fortress","app_id":440,"player_count":21,"max_players":24,"Bots":0,"server_type":"Dedicated","server_os":"Linux","password":true,"vac":true,"version":"7723704","steam_id":85568392924469996,"keywords":["nocrits","nodmgspread","payload","uncletopia"],"game_id":440,"stv_port":27016,"stv_name":"Uncletopia | São Paulo | 1 | All Maps | STV","players":[{"user_id":183,"name":"Pathetic","steam_id":76561198051056987,"connected_time":1948000000000,"state":"active","ping":60},{"user_id":200,"name":"rafael","steam_id":76561198129125575,"connected_time":386000000000,"state":"active","ping":65},{"user_id":41,"name":"Zoom!","steam_id":76561198289562649,"connected_time":11713000000000,"state":"active","ping":44},{"user_id":201,"name":"Thompy","steam_id":76561199409024712,"connected_time":321000000000,"state":"active","ping":55},{"user_id":179,"name":"Piraru-kun","steam_id":76561198197990549,"connected_time":2388000000000,"state":"active","ping":94},{"user_id":192,"name":"6ix *","steam_id":76561198415484497,"connected_time":850000000000,"state":"active","ping":60},{"user_id":199,"name":"Larry","steam_id":76561198401275135,"connected_time":507000000000,"state":"active","ping":73},{"user_id":206,"name":"Vic Rattlehead","steam_id":76561199232899925,"connected_time":45000000000,"state":"active","ping":52},{"user_id":198,"name":"Glorious i3wm","steam_id":76561198134310648,"connected_time":535000000000,"state":"active","ping":102},{"user_id":208,"name":"rsk1","steam_id":76561198199413370,"connected_time":19000000000,"state":"spawning","ping":69},{"user_id":203,"name":"Milla-chan supremacy","steam_id":76561198351902011,"connected_time":287000000000,"state":"active","ping":45},{"user_id":169,"name":"jr_rusty","steam_id":76561198313937899,"connected_time":2986000000000,"state":"active","ping":49},{"user_id":190,"name":"rafxv","steam_id":76561198083321227,"connected_time":1027000000000,"state":"active","ping":61},{"user_id":191,"name":"Me chame de Marcos","steam_id":76561198268977376,"connected_time":860000000000,"state":"active","ping":64},{"user_id":193,"name":"ebd_Failnaught","steam_id":76561198108041555,"connected_time":847000000000,"state":"active","ping":66},{"user_id":209,"name":"RedStar","steam_id":76561198100495977,"connected_time":12000000000,"state":"spawning","ping":75},{"user_id":195,"name":"ayumi","steam_id":76561197977365746,"connected_time":834000000000,"state":"active","ping":40},{"user_id":204,"name":"Neferious Acts Enjoyer","steam_id":76561198354898457,"connected_time":257000000000,"state":"active","ping":37},{"user_id":117,"name":"Perão","steam_id":76561198044655726,"connected_time":7293000000000,"state":"active","ping":50},{"user_id":156,"name":"Blepy","steam_id":76561198199455773,"connected_time":3793000000000,"state":"active","ping":78},{"user_id":185,"name":"Brawmario","steam_id":76561198025313430,"connected_time":1947000000000,"state":"active","ping":38}]},{"server_id":143,"name":"Uncletopia | São Paulo | 2 | All Maps","name_short":"sao-2","host":"sao-2.br.uncletopia.com","port":27015,"enabled":true,"region":"sa","cc":"br","latitude":-23.533773,"longitude":-46.62529,"reserved":0,"last_update":"0001-01-01T00:00:00Z","name_a2s":"Uncletopia | São Paulo | 2 | All Maps","protocol":17,"map":"koth_highpass","folder":"tf","game":"Team Fortress","app_id":440,"player_count":0,"max_players":24,"Bots":0,"server_type":"Dedicated","server_os":"Linux","password":true,"vac":true,"version":"7723704","steam_id":85568392924485349,"keywords":["cp","nocrits","nodmgspread","uncletopia"],"game_id":440,"stv_port":27016,"stv_name":"Uncletopia | São Paulo | 2 | All Maps | STV","players":null},{"server_id":7,"name":"Uncletopia | Seattle | 1 | All Maps","name_short":"sea-1","host":"sea-1.us.uncletopia.com","port":27015,"enabled":true,"region":"us-west","cc":"us","latitude":47.608013,"longitude":-122.33517,"reserved":0,"last_update":"0001-01-01T00:00:00Z","name_a2s":"Uncletopia | Seattle | 1 | All Maps","protocol":17,"map":"pl_borneo","folder":"tf","game":"Team Fortress","app_id":440,"player_count":24,"max_players":24,"Bots":0,"server_type":"Dedicated","server_os":"Linux","password":true,"vac":true,"version":"7723704","steam_id":85568392924469997,"keywords":["nocrits","nodmgspread","payload","uncletopia"],"game_id":440,"stv_port":27016,"stv_name":"Uncletopia | Seattle | 1 | All Maps | STV","players":[{"user_id":139,"name":"TheCowledWiz","steam_id":76561198016735868,"connected_time":2275000000000,"state":"active","ping":47},{"user_id":99,"name":"toodles","steam_id":76561198025463883,"connected_time":5452000000000,"state":"active","ping":47},{"user_id":162,"name":"corbenis","steam_id":76561199012442511,"connected_time":496000000000,"state":"active","ping":89},{"user_id":132,"name":"Slay all day!","steam_id":76561198075582076,"connected_time":3053000000000,"state":"active","ping":85},{"user_id":155,"name":"Thezest","steam_id":76561198043895839,"connected_time":1336000000000,"state":"active","ping":40},{"user_id":159,"name":"Sniff","steam_id":76561198010270922,"connected_time":937000000000,"state":"active","ping":43},{"user_id":168,"name":"Flickerr","steam_id":76561198080190967,"connected_time":99000000000,"state":"active","ping":50},{"user_id":165,"name":"Bevan(The Manager)","steam_id":76561198073890273,"connected_time":226000000000,"state":"active","ping":52},{"user_id":150,"name":"ivan","steam_id":76561199017754044,"connected_time":1725000000000,"state":"active","ping":61},{"user_id":166,"name":"Doony","steam_id":76561198073472571,"connected_time":205000000000,"state":"active","ping":48},{"user_id":140,"name":"tiana","steam_id":76561198999674529,"connected_time":2267000000000,"state":"active","ping":114},{"user_id":169,"name":"BoofWhimperskins","steam_id":76561198355708209,"connected_time":80000000000,"state":"active","ping":94},{"user_id":124,"name":"Daft Tigers","steam_id":76561198081871942,"connected_time":4046000000000,"state":"active","ping":78},{"user_id":91,"name":"bleh","steam_id":76561198398383076,"connected_time":6482000000000,"state":"active","ping":100},{"user_id":113,"name":"Chickemns","steam_id":76561199019739030,"connected_time":4571000000000,"state":"active","ping":74},{"user_id":31,"name":"Oomitch","steam_id":76561198071702759,"connected_time":8237000000000,"state":"active","ping":44},{"user_id":142,"name":"cannabinoid","steam_id":76561198271939793,"connected_time":2194000000000,"state":"active","ping":45},{"user_id":154,"name":"Brison","steam_id":76561198051370524,"connected_time":1398000000000,"state":"active","ping":45},{"user_id":147,"name":"♦Benji♦","steam_id":76561198313529973,"connected_time":1834000000000,"state":"active","ping":46},{"user_id":121,"name":"Spycrab Surprise","steam_id":76561198086767034,"connected_time":4227000000000,"state":"active","ping":55},{"user_id":160,"name":"SOPHIEMASTER 🥵🔥","steam_id":76561198817675660,"connected_time":932000000000,"state":"active","ping":120},{"user_id":148,"name":"MCman","steam_id":76561198412110305,"connected_time":1833000000000,"state":"active","ping":76},{"user_id":141,"name":"Chimpish","steam_id":76561199263493270,"connected_time":2262000000000,"state":"active","ping":136},{"user_id":157,"name":"Tom Skirrett","steam_id":76561198014600788,"connected_time":1200000000000,"state":"active","ping":62}]},{"server_id":119,"name":"Uncletopia | Seattle | 2 | All Maps","name_short":"sea-2","host":"sea-1.us.uncletopia.com","port":27025,"enabled":true,"region":"us-west","cc":"us","latitude":47.608013,"longitude":-122.33517,"reserved":0,"last_update":"0001-01-01T00:00:00Z","name_a2s":"Uncletopia | Seattle | 2 | All Maps","protocol":17,"map":"ctf_2fort","folder":"tf","game":"Team Fortress","app_id":440,"player_count":5,"max_players":24,"Bots":0,"server_type":"Dedicated","server_os":"Linux","password":true,"vac":true,"version":"7723704","steam_id":85568392924469998,"keywords":["ctf","nocrits","nodmgspread","uncletopia"],"game_id":440,"stv_port":27026,"stv_name":"Uncletopia | Seattle | 2 | All Maps | STV","players":[{"user_id":19,"name":"alexwasherefirst","steam_id":76561198846755124,"connected_time":347000000000,"state":"active","ping":77},{"user_id":17,"name":"That Guy","steam_id":76561197997444126,"connected_time":474000000000,"state":"active","ping":37},{"user_id":22,"name":"chompmastr","steam_id":76561199121805899,"connected_time":47000000000,"state":"active","ping":55},{"user_id":20,"name":"Twitch.Tv/JinxArte","steam_id":76561198280150602,"connected_time":345000000000,"state":"active","ping":49},{"user_id":23,"name":"Dogg wader","steam_id":76561199090314340,"connected_time":30000000000,"state":"active","ping":144}]},{"server_id":17,"name":"Uncletopia | San Francisco | 1 | All Maps","name_short":"sfo-1","host":"sfo-1.us.uncletopia.com","port":27015,"enabled":true,"region":"us-west","cc":"us","latitude":37.77397,"longitude":-122.4313,"reserved":0,"last_update":"0001-01-01T00:00:00Z","name_a2s":"Uncletopia | San Francisco | 1 | All Maps","protocol":17,"map":"koth_viaduct","folder":"tf","game":"Team Fortress","app_id":440,"player_count":0,"max_players":24,"Bots":0,"server_type":"Dedicated","server_os":"Linux","password":true,"vac":true,"version":"7723704","steam_id":85568392924469999,"keywords":["cp","nocrits","nodmgspread","uncletopia"],"game_id":440,"stv_port":27016,"stv_name":"Uncletopia | San Francisco | 1 | All Maps | STV","players":null},{"server_id":18,"name":"Uncletopia | San Francisco | 2 | All Maps","name_short":"sfo-2","host":"sfo-1.us.uncletopia.com","port":27025,"enabled":true,"region":"us-west","cc":"us","latitude":37.77397,"longitude":-122.4313,"reserved":0,"last_update":"0001-01-01T00:00:00Z","name_a2s":"Uncletopia | San Francisco | 2 | All Maps","protocol":17,"map":"cp_dustbowl","folder":"tf","game":"Team Fortress","app_id":440,"player_count":0,"max_players":24,"Bots":0,"server_type":"Dedicated","server_os":"Linux","password":true,"vac":true,"version":"7723704","steam_id":85568392924470000,"keywords":["cp","nocrits","nodmgspread","uncletopia"],"game_id":440,"stv_port":27026,"stv_name":"Uncletopia | San Francisco | 2 | All Maps | STV","players":null},{"server_id":19,"name":"Uncletopia | San Francisco | 3 | No Payload","name_short":"sfo-3","host":"sfo-1.us.uncletopia.com","port":27035,"enabled":true,"region":"us-west","cc":"us","latitude":37.77397,"longitude":-122.4313,"reserved":0,"last_update":"0001-01-01T00:00:00Z","name_a2s":"Uncletopia | San Francisco | 3 | No Payload","protocol":17,"map":"cp_mercenarypark","folder":"tf","game":"Team Fortress","app_id":440,"player_count":0,"max_players":24,"Bots":0,"server_type":"Dedicated","server_os":"Linux","password":true,"vac":true,"version":"7723704","steam_id":85568392924742824,"keywords":["cp","nocrits","nodmgspread","uncletopia"],"game_id":440,"stv_port":27036,"stv_name":"Uncletopia | San Francisco | 3 | No Payload | STV","players":null},{"server_id":20,"name":"Uncletopia | San Francisco | 4 | Community","name_short":"sfo-4","host":"sfo-1.us.uncletopia.com","port":27045,"enabled":true,"region":"us-west","cc":"us","latitude":37.77397,"longitude":-122.4313,"reserved":0,"last_update":"0001-01-01T00:00:00Z","name_a2s":"Uncletopia | San Francisco | 4 | Community","protocol":17,"map":"workshop/cp_overgrown_rc7b.ugc503939302","folder":"tf","game":"Team Fortress","app_id":440,"player_count":16,"max_players":24,"Bots":0,"server_type":"Dedicated","server_os":"Linux","password":true,"vac":true,"version":"7723704","steam_id":85568392924742826,"keywords":["cp","nocrits","nodmgspread","uncletopia"],"game_id":440,"stv_port":27046,"stv_name":"Uncletopia | San Francisco | 4 | Community | STV","players":[{"user_id":193,"name":"Infentdegree211","steam_id":76561198385234127,"connected_time":1974000000000,"state":"active","ping":65},{"user_id":210,"name":"TheBuljum","steam_id":76561198114706369,"connected_time":1069000000000,"state":"active","ping":59},{"user_id":221,"name":"Lets dance to the real thing","steam_id":76561198175955138,"connected_time":691000000000,"state":"active","ping":64},{"user_id":231,"name":"kbharcher","steam_id":76561198200138614,"connected_time":167000000000,"state":"active","ping":75},{"user_id":211,"name":"Bone Francois","steam_id":76561198272128260,"connected_time":1062000000000,"state":"active","ping":38},{"user_id":195,"name":"Monsterjj","steam_id":76561198077019286,"connected_time":1923000000000,"state":"active","ping":70},{"user_id":225,"name":"coolgogo12","steam_id":76561198155558311,"connected_time":433000000000,"state":"active","ping":59},{"user_id":229,"name":"walidov","steam_id":76561198079965605,"connected_time":312000000000,"state":"active","ping":101},{"user_id":188,"name":"June","steam_id":76561198141803658,"connected_time":2301000000000,"state":"active","ping":55},{"user_id":209,"name":"nintendofan712","steam_id":76561198067232540,"connected_time":1203000000000,"state":"active","ping":110},{"user_id":228,"name":"The Dumper","steam_id":76561198147302569,"connected_time":376000000000,"state":"active","ping":72},{"user_id":208,"name":"i gotta pee bad","steam_id":76561198006307133,"connected_time":1250000000000,"state":"active","ping":101},{"user_id":199,"name":"Cute Gatito","steam_id":76561198351147780,"connected_time":1722000000000,"state":"active","ping":50},{"user_id":233,"name":"Amy","steam_id":76561198071896932,"connected_time":52000000000,"state":"active","ping":81},{"user_id":230,"name":"They could be starlings","steam_id":76561198441020995,"connected_time":312000000000,"state":"active","ping":55},{"user_id":197,"name":"B.A.S.E","steam_id":76561198065324447,"connected_time":1821000000000,"state":"active","ping":48}]},{"server_id":141,"name":"Uncletopia | Sydney | 1 | All Maps","name_short":"syd-1","host":"syd-1.au.uncletopia.com","port":27015,"enabled":true,"region":"au","cc":"au","latitude":-33.865143,"longitude":151.2099,"reserved":0,"last_update":"0001-01-01T00:00:00Z","name_a2s":"Uncletopia | Sydney | 1 | All Maps","protocol":17,"map":"koth_cascade","folder":"tf","game":"Team Fortress","app_id":440,"player_count":2,"max_players":24,"Bots":0,"server_type":"Dedicated","server_os":"Linux","password":true,"vac":true,"version":"7723704","steam_id":85568392924470001,"keywords":["cp","nocrits","nodmgspread","uncletopia"],"game_id":440,"stv_port":27016,"stv_name":"Uncletopia | Sydney | 1 | All Maps | STV","players":[{"user_id":18,"name":"DIY Miracle (An Hero)","steam_id":76561198046228152,"connected_time":710000000000,"state":"active","ping":47},{"user_id":20,"name":"ItzDecster","steam_id":76561198321908932,"connected_time":19000000000,"state":"active","ping":59}]},{"server_id":123,"name":"Uncletopia | Sydney | 2 | All Maps","name_short":"syd-2","host":"syd-1.au.uncletopia.com","port":27025,"enabled":true,"region":"au","cc":"au","latitude":-33.865143,"longitude":151.2099,"reserved":0,"last_update":"0001-01-01T00:00:00Z","name_a2s":"Uncletopia | Sydney | 2 | All Maps","protocol":17,"map":"pl_wutville_event","folder":"tf","game":"Team Fortress","app_id":440,"player_count":0,"max_players":24,"Bots":0,"server_type":"Dedicated","server_os":"Linux","password":true,"vac":true,"version":"7723704","steam_id":85568392924470002,"keywords":["nocrits","nodmgspread","payload","uncletopia"],"game_id":440,"stv_port":27026,"stv_name":"Uncletopia | Sydney | 2 | All Maps | STV","players":null},{"server_id":395,"name":"Uncletopia | Sydney | 3 | All Maps","name_short":"syd-3","host":"syd-1.au.uncletopia.com","port":27035,"enabled":true,"region":"au","cc":"au","latitude":-33.865143,"longitude":151.2099,"reserved":0,"last_update":"0001-01-01T00:00:00Z","name_a2s":"Uncletopia | Sydney | 3 | All Maps","protocol":17,"map":"pl_wutville_event","folder":"tf","game":"Team Fortress","app_id":440,"player_count":0,"max_players":24,"Bots":0,"server_type":"Dedicated","server_os":"Linux","password":true,"vac":true,"version":"7723704","steam_id":85568392925194467,"keywords":["nocrits","nodmgspread","payload","uncletopia"],"game_id":440,"stv_port":27036,"stv_name":"Uncletopia | Sydney | 3 | All Maps | STV","players":null},{"server_id":396,"name":"Uncletopia | Sydney | 4 | All Maps","name_short":"syd-4","host":"syd-1.au.uncletopia.com","port":27045,"enabled":true,"region":"au","cc":"au","latitude":-33.865143,"longitude":151.2099,"reserved":0,"last_update":"0001-01-01T00:00:00Z","name_a2s":"Uncletopia | Sydney | 4 | All Maps","protocol":17,"map":"pl_wutville_event","folder":"tf","game":"Team Fortress","app_id":440,"player_count":0,"max_players":24,"Bots":0,"server_type":"Dedicated","server_os":"Linux","password":true,"vac":true,"version":"7723704","steam_id":85568392925397958,"keywords":["nocrits","nodmgspread","payload","uncletopia"],"game_id":440,"stv_port":27046,"stv_name":"Uncletopia | Sydney | 4 | All Maps | STV","players":null},{"server_id":58,"name":"Uncletopia | Sydney | 5 | No Payload","name_short":"syd-5","host":"syd-1.au.uncletopia.com","port":27055,"enabled":true,"region":"au","cc":"au","latitude":-33.865143,"longitude":151.2099,"reserved":0,"last_update":"0001-01-01T00:00:00Z","name_a2s":"Uncletopia | Sydney | 5 | No Payload","protocol":17,"map":"koth_sawmill","folder":"tf","game":"Team Fortress","app_id":440,"player_count":0,"max_players":24,"Bots":0,"server_type":"Dedicated","server_os":"Linux","password":true,"vac":true,"version":"7723704","steam_id":85568392925397959,"keywords":["cp","nocrits","nodmgspread","uncletopia"],"game_id":440,"stv_port":27056,"stv_name":"Uncletopia | Sydney | 5 | No Payload | STV","players":null},{"server_id":59,"name":"Uncletopia | Sydney | 6 | Community","name_short":"syd-6","host":"syd-1.au.uncletopia.com","port":27065,"enabled":true,"region":"au","cc":"au","latitude":-33.865143,"longitude":151.2099,"reserved":0,"last_update":"0001-01-01T00:00:00Z","name_a2s":"Uncletopia | Sydney | 6 | Community","protocol":17,"map":"workshop/rd_asteroid_redux_rc9.ugc2154902912","folder":"tf","game":"Team Fortress","app_id":440,"player_count":0,"max_players":24,"Bots":0,"server_type":"Dedicated","server_os":"Linux","password":true,"vac":true,"version":"7723704","steam_id":85568392925397960,"keywords":["beta","nocrits","nodmgspread","rd","uncletopia"],"game_id":440,"stv_port":27066,"stv_name":"Uncletopia | Sydney | 6 | Community | STV","players":null},{"server_id":49,"name":"Uncletopia | Warsaw | 1 | All Maps","name_short":"waw-1","host":"waw-1.pl.uncletopia.com","port":27015,"enabled":true,"region":"eu","cc":"pl","latitude":52.2297,"longitude":21.017532,"reserved":0,"last_update":"0001-01-01T00:00:00Z","name_a2s":"Uncletopia | Warsaw | 1 | All Maps","protocol":17,"map":"cp_process_final","folder":"tf","game":"Team Fortress","app_id":440,"player_count":0,"max_players":24,"Bots":0,"server_type":"Dedicated","server_os":"Linux","password":true,"vac":true,"version":"7723704","steam_id":85568392925397850,"keywords":["cp","nocrits","nodmgspread","uncletopia"],"game_id":440,"stv_port":27016,"stv_name":"Uncletopia | Warsaw | 1 | All Maps | STV","players":null},{"server_id":50,"name":"Uncletopia | Warsaw | 2 | All Maps","name_short":"waw-2","host":"waw-1.pl.uncletopia.com","port":27025,"enabled":true,"region":"eu","cc":"pl","latitude":52.2297,"longitude":21.017532,"reserved":0,"last_update":"0001-01-01T00:00:00Z","name_a2s":"Uncletopia | Warsaw | 2 | All Maps","protocol":17,"map":"koth_highpass","folder":"tf","game":"Team Fortress","app_id":440,"player_count":0,"max_players":24,"Bots":0,"server_type":"Dedicated","server_os":"Linux","password":true,"vac":true,"version":"7723704","steam_id":85568392925397851,"keywords":["cp","nocrits","nodmgspread","uncletopia"],"game_id":440,"stv_port":27026,"stv_name":"Uncletopia | Warsaw | 2 | All Maps | STV","players":null},{"server_id":51,"name":"Uncletopia | Warsaw | 3 | All Maps","name_short":"waw-3","host":"waw-1.pl.uncletopia.com","port":27035,"enabled":true,"region":"eu","cc":"pl","latitude":52.2297,"longitude":21.017532,"reserved":0,"last_update":"0001-01-01T00:00:00Z","name_a2s":"Uncletopia | Warsaw | 3 | All Maps","protocol":17,"map":"koth_lakeside_final","folder":"tf","game":"Team Fortress","app_id":440,"player_count":0,"max_players":24,"Bots":0,"server_type":"Dedicated","server_os":"Linux","password":true,"vac":true,"version":"7723704","steam_id":85568392925397852,"keywords":["cp","nocrits","nodmgspread","uncletopia"],"game_id":440,"stv_port":27036,"stv_name":"Uncletopia | Warsaw | 3 | All Maps | STV","players":null},{"server_id":52,"name":"Uncletopia | Warsaw | 4 | All Maps","name_short":"waw-4","host":"waw-1.pl.uncletopia.com","port":27045,"enabled":true,"region":"eu","cc":"pl","latitude":52.2297,"longitude":21.017532,"reserved":0,"last_update":"0001-01-01T00:00:00Z","name_a2s":"Uncletopia | Warsaw | 4 | All Maps","protocol":17,"map":"pl_frontier_final","folder":"tf","game":"Team Fortress","app_id":440,"player_count":0,"max_players":24,"Bots":0,"server_type":"Dedicated","server_os":"Linux","password":true,"vac":true,"version":"7723704","steam_id":85568392925397853,"keywords":["nocrits","nodmgspread","payload","uncletopia"],"game_id":440,"stv_port":27046,"stv_name":"Uncletopia | Warsaw | 4 | All Maps | STV","players":null},{"server_id":53,"name":"Uncletopia | Warsaw | 5 | No Payload","name_short":"waw-5","host":"waw-1.pl.uncletopia.com","port":27055,"enabled":true,"region":"eu","cc":"pl","latitude":52.2297,"longitude":21.017532,"reserved":0,"last_update":"0001-01-01T00:00:00Z","name_a2s":"Uncletopia | Warsaw | 5 | No Payload","protocol":17,"map":"koth_highpass","folder":"tf","game":"Team Fortress","app_id":440,"player_count":0,"max_players":24,"Bots":0,"server_type":"Dedicated","server_os":"Linux","password":true,"vac":true,"version":"7723704","steam_id":85568392925397854,"keywords":["cp","nocrits","nodmgspread","uncletopia"],"game_id":440,"stv_port":27056,"stv_name":"Uncletopia | Warsaw | 5 | No Payload | STV","players":null},{"server_id":54,"name":"Uncletopia | Warsaw | 6 | Community","name_short":"waw-6","host":"waw-1.pl.uncletopia.com","port":27065,"enabled":true,"region":"eu","cc":"pl","latitude":52.2297,"longitude":21.017532,"reserved":0,"last_update":"0001-01-01T00:00:00Z","name_a2s":"Uncletopia | Warsaw | 6 | Community","protocol":17,"map":"workshop/pl_fifthcurve_rc1.ugc648227046","folder":"tf","game":"Team Fortress","app_id":440,"player_count":0,"max_players":24,"Bots":0,"server_type":"Dedicated","server_os":"Linux","password":true,"vac":true,"version":"7723704","steam_id":85568392925397856,"keywords":["nocrits","nodmgspread","payload","uncletopia"],"game_id":440,"stv_port":27066,"stv_name":"Uncletopia | Warsaw | 6 | Community | STV","players":null}]}