{"status":true,"message":"","result":[{"server_id":9,"name":"Uncletopia | Atlanta | 1 | All Maps","name_short":"atl-1","host":"atl-1.us.uncletopia.com","port":27015,"enabled":true,"region":"us-east","cc":"us","latitude":33.753746,"longitude":-84.38633,"reserved":0,"last_update":"0001-01-01T00:00:00Z","name_a2s":"Uncletopia | Atlanta | 1 | All Maps","protocol":17,"map":"pl_upward","folder":"tf","game":"Team Fortress","app_id":440,"player_count":24,"max_players":24,"Bots":0,"server_type":"Dedicated","server_os":"Linux","password":true,"vac":true,"version":"7882260","steam_id":85568392924469982,"keywords":["nocrits","nodmgspread","payload","uncletopia"],"game_id":440,"stv_port":27016,"stv_name":"Uncletopia | Atlanta | 1 | All Maps | STV","players":[{"user_id":15,"name":"uniwu - BUFF THE SPEED","steam_id":76561198864421290,"connected_time":4661000000000,"state":"active","ping":45},{"user_id":26,"name":"Pootis Pie®","steam_id":76561199058049384,"connected_time":3051000000000,"state":"active","ping":79},{"user_id":68,"name":"chilling with batman","steam_id":76561198289280906,"connected_time":326000000000,"state":"active","ping":96},{"user_id":41,"name":"Goose24","steam_id":76561199218911535,"connected_time":2438000000000,"state":"active","ping":73},{"user_id":70,"name":"Rottleknocket Whiz","steam_id":76561198811544339,"connected_time":81000000000,"state":"active","ping":65},{"user_id":28,"name":"chipchip","steam_id":76561199483183459,"connected_time":2819000000000,"state":"active","ping":111},{"user_id":29,"name":"Zen","steam_id":76561199008362890,"connected_time":2755000000000,"state":"active","ping":67},{"user_id":30,"name":"Looking for BBW in stanfield nc","steam_id":76561199207371234,"connected_time":2734000000000,"state":"active","ping":76},{"user_id":31,"name":"Vegerot","steam_id":76561197997843710,"connected_time":2694000000000,"state":"active","ping":60},{"user_id":71,"name":"Faswoosh","steam_id":76561199117460963,"connected_time":77000000000,"state":"active","ping":61},{"user_id":33,"name":"gallowsCalibrator","steam_id":76561198076388445,"connected_time":2661000000000,"state":"active","ping":88},{"user_id":64,"name":"heritage","steam_id":76561198108685037,"connected_time":856000000000,"state":"active","ping":81},{"user_id":65,"name":"El Bondin","steam_id":76561198820792434,"connected_time":717000000000,"state":"active","ping":87},{"user_id":42,"name":"LG_Fridge_User","steam_id":76561198977815014,"connected_time":2395000000000,"state":"active","ping":105},{"user_id":59,"name":"RyInc","steam_id":76561198874261643,"connected_time":1404000000000,"state":"active","ping":66},{"user_id":69,"name":"BIG HOG","steam_id":76561198079923652,"connected_time":124000000000,"state":"active","ping":61},{"user_id":66,"name":"Girl [Big Gock Edition]","steam_id":76561198276385778,"connected_time":486000000000,"state":"active","ping":105},{"user_id":46,"name":"mocha","steam_id":76561199100342013,"connected_time":2173000000000,"state":"active","ping":105},{"user_id":72,"name":"cave johnson","steam_id":76561199389283507,"connected_time":67000000000,"state":"active","ping":106},{"user_id":48,"name":"Tavdogg11","steam_id":76561198139212358,"connected_time":2158000000000,"state":"active","ping":102},{"user_id":49,"name":"Pixel","steam_id":76561198096221632,"connected_time":2150000000000,"state":"active","ping":49},{"user_id":50,"name":"anabolic steroids","steam_id":76561199097771720,"connected_time":2145000000000,"state":"active","ping":77},{"user_id":51,"name":"dr sex, md (sexologist)","steam_id":76561198115874625,"connected_time":2127000000000,"state":"active","ping":90},{"user_id":67,"name":"Koishi","steam_id":76561198054541054,"connected_time":428000000000,"state":"active","ping":62}]},{"server_id":104,"name":"Uncletopia | Atlanta | 2 | All Maps","name_short":"atl-2","host":"atl-1.us.uncletopia.com","port":27025,"enabled":true,"region":"us-east","cc":"us","latitude":33.753746,"longitude":-84.38633,"reserved":0,"last_update":"0001-01-01T00:00:00Z","name_a2s":"Uncletopia | Atlanta | 2 | All Maps","protocol":17,"map":"pl_upward","folder":"tf","game":"Team Fortress","app_id":440,"player_count":1,"max_players":24,"Bots":0,"server_type":"Dedicated","server_os":"Linux","password":true,"vac":true,"version":"7882260","steam_id":85568392924469983,"keywords":["nocrits","nodmgspread","payload","uncletopia"],"game_id":440,"stv_port":27026,"stv_name":"Uncletopia | Atlanta | 2 | All Maps | STV","players":[{"user_id":11,"name":"lodediper","steam_id":76561198049606896,"connected_time":479000000000,"state":"active","ping":50}]},{"server_id":400,"name":"Uncletopia | Atlanta | 3 | Community","name_short":"atl-3","host":"atl-1.us.uncletopia.com","port":27035,"enabled":true,"region":"us-east","cc":"us","latitude":33.753746,"longitude":-84.38633,"reserved":0,"last_update":"0001-01-01T00:00:00Z","name_a2s":"Uncletopia | Atlanta | 3 | Community","protocol":17,"map":"workshop/cp_croissant_final.ugc458840209","folder":"tf","game":"Team Fortress","app_id":440,"player_count":0,"max_players":24,"Bots":0,"server_type":"Dedicated","server_os":"Linux","password":true,"vac":true,"version":"7882260","steam_id":85568392924515187,"keywords":["cp","nocrits","nodmgspread","uncletopia"],"game_id":440,"stv_port":27036,"stv_name":"Uncletopia | Atlanta | 3 | Community | STV","players":null},{"server_id":401,"name":"Uncletopia | Atlanta | 4 | No Payload","name_short":"atl-4","host":"atl-1.us.uncletopia.com","port":27045,"enabled":true,"region":"us-east","cc":"us","latitude":33.753746,"longitude":-84.38633,"reserved":0,"last_update":"0001-01-01T00:00:00Z","name_a2s":"","protocol":0,"map":"","folder":"","game":"","app_id":0,"player_count":0,"max_players":0,"Bots":0,"server_type":"","server_os":"","password":false,"vac":false,"version":"","steam_id":0,"keywords":null,"game_id":0,"stv_port":0,"stv_name":"","players":null},{"server_id":2,"name":"Uncletopia | Chicago | 1 | All Maps","name_short":"chi-1","host":"chi-1.us.uncletopia.com","port":27015,"enabled":true,"region":"us-central","cc":"us","latitude":41.881832,"longitude":-87.62318,"reserved":0,"last_update":"0001-01-01T00:00:00Z","name_a2s":"Uncletopia | Chicago | 1 | All Maps","protocol":17,"map":"pl_badwater","folder":"tf","game":"Team Fortress","app_id":440,"player_count":24,"max_players":24,"Bots":0,"server_type":"Dedicated","server_os":"Linux","password":true,"vac":true,"version":"7882260","steam_id":85568392924469984,"keywords":["nocrits","nodmgspread","payload","uncletopia"],"game_id":440,"stv_port":27016,"stv_name":"Uncletopia | Chicago | 1 | All Maps | STV","players":[{"user_id":16,"name":"Mikael_01","steam_id":76561199080253129,"connected_time":2213000000000,"state":"active","ping":183},{"user_id":10,"name":"Gremmy","steam_id":76561198226526104,"connected_time":3113000000000,"state":"active","ping":63},{"user_id":25,"name":"SoundslikeJustice","steam_id":76561198963640645,"connected_time":1610000000000,"state":"active","ping":80},{"user_id":40,"name":"MankTKO","steam_id":76561198189421005,"connected_time":1100000000000,"state":"active","ping":45},{"user_id":47,"name":"Chiki","steam_id":76561198063590320,"connected_time":332000000000,"state":"active","ping":72},{"user_id":21,"name":"Ordze","steam_id":76561199155171347,"connected_time":1932000000000,"state":"active","ping":76},{"user_id":33,"name":"painting4","steam_id":76561198067554256,"connected_time":1301000000000,"state":"active","ping":138},{"user_id":20,"name":"craig","steam_id":76561198883415090,"connected_time":2005000000000,"state":"active","ping":87},{"user_id":26,"name":"Mightocondra","steam_id":76561198250559058,"connected_time":1590000000000,"state":"active","ping":69},{"user_id":23,"name":"Ripheart","steam_id":76561198089661561,"connected_time":1776000000000,"state":"active","ping":45},{"user_id":27,"name":"하늘의 피","steam_id":76561198978262040,"connected_time":1558000000000,"state":"active","ping":187},{"user_id":28,"name":"goober","steam_id":76561199014881883,"connected_time":1493000000000,"state":"active","ping":70},{"user_id":50,"name":"mocolata","steam_id":76561198023757872,"connected_time":100000000000,"state":"active","ping":69},{"user_id":48,"name":"PKBEAST_7","steam_id":76561198177136537,"connected_time":122000000000,"state":"active","ping":85},{"user_id":51,"name":"caberknight tf2  (f2p-ish)","steam_id":76561199273882768,"connected_time":97000000000,"state":"active","ping":71},{"user_id":32,"name":"predicantAcolyte","steam_id":76561198302929288,"connected_time":1363000000000,"state":"active","ping":78},{"user_id":36,"name":"Batouuu","steam_id":76561199031212822,"connected_time":1201000000000,"state":"active","ping":133},{"user_id":37,"name":"Nemcat.Jr","steam_id":76561198079821706,"connected_time":1149000000000,"state":"active","ping":46},{"user_id":38,"name":"Daehypeels","steam_id":76561198268981599,"connected_time":1148000000000,"state":"active","ping":69},{"user_id":39,"name":"Quibl","steam_id":76561199110591930,"connected_time":1119000000000,"state":"active","ping":81},{"user_id":42,"name":"Fred","steam_id":76561198114281255,"connected_time":1078000000000,"state":"active","ping":74},{"user_id":46,"name":"Motreir","steam_id":76561198151717946,"connected_time":655000000000,"state":"active","ping":77},{"user_id":44,"name":"God (real)","steam_id":76561198131089513,"connected_time":1035000000000,"state":"active","ping":45},{"user_id":49,"name":"Cargoshorts Johnny","steam_id":76561198281732417,"connected_time":121000000000,"state":"active","ping":83}]},{"server_id":106,"name":"Uncletopia | Chicago | 2 | All Maps","name_short":"chi-2","host":"chi-1.us.uncletopia.com","port":27025,"enabled":true,"region":"us-central","cc":"us","latitude":41.881832,"longitude":-87.62318,"reserved":0,"last_update":"0001-01-01T00:00:00Z","name_a2s":"Uncletopia | Chicago | 2 | All Maps","protocol":17,"map":"pl_pier","folder":"tf","game":"Team Fortress","app_id":440,"player_count":24,"max_players":24,"Bots":0,"server_type":"Dedicated","server_os":"Linux","password":true,"vac":true,"version":"7882260","steam_id":85568392924469985,"keywords":["nocrits","nodmgspread","payload","uncletopia"],"game_id":440,"stv_port":27026,"stv_name":"Uncletopia | Chicago | 2 | All Maps | STV","players":[{"user_id":206,"name":"Splinto","steam_id":76561198111260488,"connected_time":1661000000000,"state":"active","ping":48},{"user_id":213,"name":"HollowMan","steam_id":76561198967266827,"connected_time":1377000000000,"state":"active","ping":79},{"user_id":230,"name":"quint","steam_id":76561198046797995,"connected_time":546000000000,"state":"active","ping":64},{"user_id":227,"name":"Soda Drink Shartblast","steam_id":76561198134187113,"connected_time":804000000000,"state":"active","ping":83},{"user_id":236,"name":"PEKPEK","steam_id":76561198048797430,"connected_time":76000000000,"state":"active","ping":70},{"user_id":234,"name":"The Witchfinder General","steam_id":76561199113662942,"connected_time":222000000000,"state":"active","ping":93},{"user_id":211,"name":"LunarrD","steam_id":76561198811220107,"connected_time":1455000000000,"state":"active","ping":81},{"user_id":235,"name":"Ballin546","steam_id":76561199387318962,"connected_time":104000000000,"state":"active","ping":74},{"user_id":233,"name":"Cyberjesus","steam_id":76561199230865007,"connected_time":324000000000,"state":"active","ping":61},{"user_id":197,"name":"Inpecular","steam_id":76561198096571237,"connected_time":2409000000000,"state":"active","ping":89},{"user_id":223,"name":"cringe_#abandontf2","steam_id":76561199074872253,"connected_time":925000000000,"state":"active","ping":61},{"user_id":192,"name":"Mury","steam_id":76561198069743049,"connected_time":2647000000000,"state":"active","ping":93},{"user_id":199,"name":"Mailer","steam_id":76561198062690074,"connected_time":2206000000000,"state":"active","ping":136},{"user_id":231,"name":"todo bien papi :)","steam_id":76561198102681457,"connected_time":394000000000,"state":"active","ping":74},{"user_id":224,"name":"Ventastega","steam_id":76561197999366317,"connected_time":889000000000,"state":"active","ping":80},{"user_id":205,"name":"CHARLES","steam_id":76561199209277528,"connected_time":1778000000000,"state":"active","ping":106},{"user_id":229,"name":"Manic Lunatic","steam_id":76561199022053857,"connected_time":764000000000,"state":"active","ping":76},{"user_id":127,"name":"koolamundo","steam_id":76561198101705890,"connected_time":6828000000000,"state":"active","ping":68},{"user_id":226,"name":"crack goblin lft newcomer","steam_id":76561198161251965,"connected_time":863000000000,"state":"active","ping":60},{"user_id":208,"name":"draculaura (g3)","steam_id":76561198982584470,"connected_time":1616000000000,"state":"active","ping":104},{"user_id":74,"name":"Coffee with a Stranger","steam_id":76561198307422313,"connected_time":8557000000000,"state":"active","ping":70},{"user_id":219,"name":"AkimboAoki","steam_id":76561198158323058,"connected_time":996000000000,"state":"active","ping":93},{"user_id":210,"name":"thedoud1201","steam_id":76561199007734851,"connected_time":1519000000000,"state":"active","ping":86},{"user_id":139,"name":"bouncyballs.com","steam_id":76561198236166288,"connected_time":6201000000000,"state":"active","ping":71}]},{"server_id":402,"name":"Uncletopia | Chicago | 3 | All Maps","name_short":"chi-3","host":"chi-1.us.uncletopia.com","port":27035,"enabled":true,"region":"us-central","cc":"us","latitude":41.881832,"longitude":-87.62318,"reserved":0,"last_update":"0001-01-01T00:00:00Z","name_a2s":"Uncletopia | Chicago | 3 | All Maps","protocol":17,"map":"pl_frontier_final","folder":"tf","game":"Team Fortress","app_id":440,"player_count":23,"max_players":24,"Bots":0,"server_type":"Dedicated","server_os":"Linux","password":true,"vac":true,"version":"7882260","steam_id":85568392924515191,"keywords":["nocrits","nodmgspread","payload","uncletopia"],"game_id":440,"stv_port":27036,"stv_name":"Uncletopia | Chicago | 3 | All Maps | STV","players":[{"user_id":224,"name":"nhbiker","steam_id":76561198081277675,"connected_time":209000000000,"state":"active","ping":45},{"user_id":225,"name":"bobo [noob]","steam_id":76561199012524121,"connected_time":151000000000,"state":"active","ping":95},{"user_id":213,"name":"andyiscolorless","steam_id":76561199239870921,"connected_time":1201000000000,"state":"active","ping":128},{"user_id":221,"name":"fear","steam_id":76561198954859895,"connected_time":586000000000,"state":"active","ping":87},{"user_id":209,"name":"Its Dr.Stoned","steam_id":76561198079622791,"connected_time":1633000000000,"state":"active","ping":75},{"user_id":214,"name":"Doc_Eevee","steam_id":76561199289204820,"connected_time":1143000000000,"state":"active","ping":80},{"user_id":202,"name":"Dude Named Bob","steam_id":76561198310448093,"connected_time":2408000000000,"state":"active","ping":45},{"user_id":178,"name":"The Eyeball Man","steam_id":76561198013534207,"connected_time":3591000000000,"state":"active","ping":63},{"user_id":179,"name":"Raptortastic","steam_id":76561198105613110,"connected_time":3586000000000,"state":"active","ping":48},{"user_id":216,"name":"Lunar","steam_id":76561198127767292,"connected_time":1106000000000,"state":"active","ping":74},{"user_id":226,"name":"Idk","steam_id":76561198971629959,"connected_time":147000000000,"state":"active","ping":140},{"user_id":181,"name":"Bangushonkle","steam_id":76561198218887511,"connected_time":3568000000000,"state":"active","ping":93},{"user_id":182,"name":"pogo","steam_id":76561198148913461,"connected_time":3558000000000,"state":"active","ping":59},{"user_id":227,"name":"Scotch Tape","steam_id":76561199389314894,"connected_time":113000000000,"state":"active","ping":78},{"user_id":223,"name":"ClutchSR","steam_id":76561199018366378,"connected_time":256000000000,"state":"active","ping":88},{"user_id":219,"name":"MrVegasAguitar","steam_id":76561198084466946,"connected_time":718000000000,"state":"active","ping":100},{"user_id":184,"name":"LiftN","steam_id":76561198167974713,"connected_time":3531000000000,"state":"active","ping":75},{"user_id":188,"name":"WatchWill","steam_id":76561198157237945,"connected_time":3357000000000,"state":"active","ping":71},{"user_id":228,"name":"dr peppah chug!","steam_id":76561198068835693,"connected_time":17000000000,"state":"active","ping":85},{"user_id":222,"name":"Epicmullen","steam_id":76561198259850795,"connected_time":271000000000,"state":"active","ping":78},{"user_id":196,"name":"Adam (Cursed Confetti Creature)","steam_id":76561198317690197,"connected_time":2797000000000,"state":"active","ping":49},{"user_id":205,"name":"AYAYA!!!","steam_id":76561198992102180,"connected_time":2265000000000,"state":"active","ping":47},{"user_id":110,"name":"blossom @mar13","steam_id":76561198042735130,"connected_time":7277000000000,"state":"active","ping":113}]},{"server_id":403,"name":"Uncletopia | Chicago | 4 | All Maps","name_short":"chi-4","host":"chi-1.us.uncletopia.com","port":27045,"enabled":true,"region":"us-central","cc":"us","latitude":41.881832,"longitude":-87.62318,"reserved":0,"last_update":"0001-01-01T00:00:00Z","name_a2s":"Uncletopia | Chicago | 4 | All Maps","protocol":17,"map":"koth_cascade","folder":"tf","game":"Team Fortress","app_id":440,"player_count":0,"max_players":24,"Bots":0,"server_type":"Dedicated","server_os":"Linux","password":true,"vac":true,"version":"7882260","steam_id":85568392924515193,"keywords":["cp","nocrits","nodmgspread","uncletopia"],"game_id":440,"stv_port":27046,"stv_name":"Uncletopia | Chicago | 4 | All Maps | STV","players":null},{"server_id":36,"name":"Uncletopia | Chicago | 5 | All Maps","name_short":"chi-5","host":"chi-2.us.uncletopia.com","port":27015,"enabled":true,"region":"us-central","cc":"us","latitude":41.881832,"longitude":-87.62318,"reserved":0,"last_update":"0001-01-01T00:00:00Z","name_a2s":"Uncletopia | Chicago | 5 | All Maps","protocol":17,"map":"cp_dustbowl","folder":"tf","game":"Team Fortress","app_id":440,"player_count":24,"max_players":24,"Bots":0,"server_type":"Dedicated","server_os":"Linux","password":true,"vac":true,"version":"7882260","steam_id":85568392924866362,"keywords":["cp","nocrits","nodmgspread","uncletopia"],"game_id":440,"stv_port":27016,"stv_name":"Uncletopia | Chicago | 5 | All Maps | STV","players":[{"user_id":100,"name":"tiananmensquare1989","steam_id":76561199076837870,"connected_time":1925000000000,"state":"active","ping":85},{"user_id":115,"name":"AreYouMyMummy?","steam_id":76561197995101745,"connected_time":658000000000,"state":"active","ping":60},{"user_id":69,"name":"Mr.Government","steam_id":76561199076891158,"connected_time":4407000000000,"state":"active","ping":61},{"user_id":99,"name":"Pow!","steam_id":76561199006361788,"connected_time":1968000000000,"state":"active","ping":72},{"user_id":112,"name":"Sonic Color","steam_id":76561198160335315,"connected_time":892000000000,"state":"active","ping":39},{"user_id":96,"name":"Apricot","steam_id":76561198355699935,"connected_time":2077000000000,"state":"active","ping":65},{"user_id":83,"name":"Maining Knight Has Gave Me AIDS","steam_id":76561199013172148,"connected_time":3145000000000,"state":"active","ping":67},{"user_id":70,"name":"Lord Razor","steam_id":76561198373286283,"connected_time":4406000000000,"state":"active","ping":85},{"user_id":78,"name":"starvin marvin","steam_id":76561198347286009,"connected_time":3279000000000,"state":"active","ping":80},{"user_id":101,"name":"Herr Müller","steam_id":76561198064876829,"connected_time":1923000000000,"state":"active","ping":96},{"user_id":85,"name":"MellowBoy-2354","steam_id":76561199080630632,"connected_time":3100000000000,"state":"active","ping":97},{"user_id":119,"name":"Obama F. Kennedy","steam_id":76561198282499318,"connected_time":492000000000,"state":"active","ping":74},{"user_id":90,"name":"basil smoking weed","steam_id":76561198119590214,"connected_time":2570000000000,"state":"active","ping":63},{"user_id":113,"name":"Spring Beans","steam_id":76561197978546259,"connected_time":853000000000,"state":"active","ping":58},{"user_id":81,"name":"Nassu","steam_id":76561198147367577,"connected_time":3235000000000,"state":"active","ping":88},{"user_id":105,"name":"GrapeGoodra","steam_id":76561198042141579,"connected_time":1839000000000,"state":"active","ping":58},{"user_id":114,"name":"bean d eafs","steam_id":76561199479091860,"connected_time":832000000000,"state":"active","ping":76},{"user_id":111,"name":"jazztree14","steam_id":76561199239395356,"connected_time":1455000000000,"state":"active","ping":60},{"user_id":107,"name":"Revenant","steam_id":76561198074139416,"connected_time":1828000000000,"state":"active","ping":79},{"user_id":118,"name":"MADHEAD347","steam_id":76561199475145723,"connected_time":547000000000,"state":"active","ping":86},{"user_id":72,"name":"gravid baby","steam_id":76561198318646867,"connected_time":3829000000000,"state":"active","ping":62},{"user_id":92,"name":"TJGSASQUATCH","steam_id":76561198077806921,"connected_time":2495000000000,"state":"active","ping":75},{"user_id":95,"name":"Grease Monkey","steam_id":76561199073112578,"connected_time":2462000000000,"state":"active","ping":88},{"user_id":108,"name":"Maverick","steam_id":76561198322829814,"connected_time":1827000000000,"state":"active","ping":79}]},{"server_id":37,"name":"Uncletopia | Chicago | 6 | All Maps","name_short":"chi-6","host":"chi-2.us.uncletopia.com","port":27025,"enabled":true,"region":"us-central","cc":"us","latitude":41.881832,"longitude":-87.62318,"reserved":0,"last_update":"0001-01-01T00:00:00Z","name_a2s":"Uncletopia | Chicago | 6 | All Maps","protocol":17,"map":"koth_cascade","folder":"tf","game":"Team Fortress","app_id":440,"player_count":0,"max_players":24,"Bots":0,"server_type":"Dedicated","server_os":"Linux","password":true,"vac":true,"version":"7882260","steam_id":85568392924866363,"keywords":["cp","nocrits","nodmgspread","uncletopia"],"game_id":440,"stv_port":27026,"stv_name":"Uncletopia | Chicago | 6 | All Maps | STV","players":null},{"server_id":38,"name":"Uncletopia | Chicago | 7 | Stopwatch Beta","name_short":"chi-7","host":"chi-2.us.uncletopia.com","port":27035,"enabled":true,"region":"us-central","cc":"us","latitude":41.881832,"longitude":-87.62318,"reserved":0,"last_update":"0001-01-01T00:00:00Z","name_a2s":"Uncletopia | Chicago | 7 | Stopwatch Beta","protocol":17,"map":"pl_borneo","folder":"tf","game":"Team Fortress","app_id":440,"player_count":0,"max_players":24,"Bots":0,"server_type":"Dedicated","server_os":"Linux","password":true,"vac":true,"version":"7882260","steam_id":85568392924866364,"keywords":["nocrits","nodmgspread","payload","uncletopia"],"game_id":440,"stv_port":27036,"stv_name":"Uncletopia | Chicago | 7 | Stopwatch Beta | STV","players":null},{"server_id":39,"name":"Uncletopia | Chicago | 8 | Community","name_short":"chi-8","host":"chi-2.us.uncletopia.com","port":27045,"enabled":true,"region":"us-central","cc":"us","latitude":41.881832,"longitude":-87.62318,"reserved":0,"last_update":"0001-01-01T00:00:00Z","name_a2s":"Uncletopia | Chicago | 8 | Community","protocol":17,"map":"workshop/cp_indulge.ugc528106646","folder":"tf","game":"Team Fortress","app_id":440,"player_count":0,"max_players":24,"Bots":0,"server_type":"Dedicated","server_os":"Linux","password":true,"vac":true,"version":"7882260","steam_id":85568392924866365,"keywords":["cp","nocrits","nodmgspread","uncletopia"],"game_id":440,"stv_port":27046,"stv_name":"Uncletopia | Chicago | 8 | Community | STV","players":null},{"server_id":8,"name":"Uncletopia | Dallas | 1 | All Maps","name_short":"dal-1","host":"dal-1.us.uncletopia.com","port":27015,"enabled":true,"region":"us-central","cc":"us","latitude":32.779167,"longitude":-96.80889,"reserved":0,"last_update":"0001-01-01T00:00:00Z","name_a2s":"Uncletopia | Dallas | 1 | All Maps","protocol":17,"map":"pl_upward","folder":"tf","game":"Team Fortress","app_id":440,"player_count":24,"max_players":24,"Bots":0,"server_type":"Dedicated","server_os":"Linux","password":true,"vac":true,"version":"7882260","steam_id":85568392924469986,"keywords":["nocrits","nodmgspread","payload","uncletopia"],"game_id":440,"stv_port":27016,"stv_name":"Uncletopia | Dallas | 1 | All Maps | STV","players":[{"user_id":5,"name":"Gull","steam_id":76561198094113612,"connected_time":5337000000000,"state":"active","ping":58},{"user_id":72,"name":"BurritoCat","steam_id":76561198059822805,"connected_time":1662000000000,"state":"active","ping":73},{"user_id":50,"name":"Potato PC","steam_id":76561197994217512,"connected_time":3128000000000,"state":"active","ping":88},{"user_id":40,"name":"TeriyakiDynamite","steam_id":76561198050049346,"connected_time":3545000000000,"state":"active","ping":95},{"user_id":63,"name":"kingjeffry2012@hotmail.com","steam_id":76561198314104415,"connected_time":2293000000000,"state":"active","ping":78},{"user_id":78,"name":"b4rry","steam_id":76561198365887154,"connected_time":683000000000,"state":"active","ping":94},{"user_id":81,"name":"Serene Salamander","steam_id":76561198001094770,"connected_time":466000000000,"state":"active","ping":84},{"user_id":54,"name":"JR","steam_id":76561199013221822,"connected_time":2864000000000,"state":"active","ping":141},{"user_id":67,"name":"Turtle","steam_id":76561199051358736,"connected_time":2045000000000,"state":"active","ping":62},{"user_id":70,"name":"howbizarre","steam_id":76561198955248082,"connected_time":1693000000000,"state":"active","ping":62},{"user_id":51,"name":"SAD MOSCOVIA","steam_id":76561198101081520,"connected_time":3091000000000,"state":"active","ping":118},{"user_id":82,"name":"Half-Alpha","steam_id":76561199274000697,"connected_time":456000000000,"state":"active","ping":95},{"user_id":77,"name":"LooneyMonkey","steam_id":76561198414675183,"connected_time":696000000000,"state":"active","ping":58},{"user_id":32,"name":"LegendaryMister151","steam_id":76561198064890524,"connected_time":3841000000000,"state":"active","ping":89},{"user_id":55,"name":"Viennetta","steam_id":76561198044088335,"connected_time":2822000000000,"state":"active","ping":100},{"user_id":48,"name":"B.","steam_id":76561198040445907,"connected_time":3427000000000,"state":"active","ping":73},{"user_id":68,"name":"Gek Ambassador","steam_id":76561199080135821,"connected_time":1909000000000,"state":"active","ping":61},{"user_id":73,"name":"Spacey","steam_id":76561198127335850,"connected_time":1330000000000,"state":"active","ping":72},{"user_id":83,"name":"jamalbob33","steam_id":76561198410281331,"connected_time":455000000000,"state":"active","ping":109},{"user_id":79,"name":"rice white","steam_id":76561198320732910,"connected_time":639000000000,"state":"active","ping":91},{"user_id":75,"name":"bing","steam_id":76561198005160560,"connected_time":1021000000000,"state":"active","ping":104},{"user_id":49,"name":"wiiblob","steam_id":76561198109106242,"connected_time":3235000000000,"state":"active","ping":157},{"user_id":80,"name":"IPlayGamez","steam_id":76561198041387508,"connected_time":499000000000,"state":"active","ping":75},{"user_id":65,"name":"good soup guy","steam_id":76561199210237835,"connected_time":2223000000000,"state":"active","ping":90}]},{"server_id":108,"name":"Uncletopia | Dallas | 2 | All Maps","name_short":"dal-2","host":"dal-1.us.uncletopia.com","port":27025,"enabled":true,"region":"us-central","cc":"us","latitude":32.779167,"longitude":-96.80889,"reserved":0,"last_update":"0001-01-01T00:00:00Z","name_a2s":"Uncletopia | Dallas | 2 | All Maps","protocol":17,"map":"cp_mountainlab","folder":"tf","game":"Team Fortress","app_id":440,"player_count":0,"max_players":24,"Bots":0,"server_type":"Dedicated","server_os":"Linux","password":true,"vac":true,"version":"7882260","steam_id":85568392924469988,"keywords":["cp","nocrits","nodmgspread","uncletopia"],"game_id":440,"stv_port":27026,"stv_name":"Uncletopia | Dallas | 2 | All Maps | STV","players":null},{"server_id":5,"name":"Uncletopia | Frankfurt | 1 | All Maps","name_short":"frk-1","host":"frk-1.de.uncletopia.com","port":27015,"enabled":true,"region":"eu","cc":"de","latitude":50.110924,"longitude":8.682127,"reserved":0,"last_update":"0001-01-01T00:00:00Z","name_a2s":"Uncletopia | Frankfurt | 1 | All Maps","protocol":17,"map":"cp_dustbowl","folder":"tf","game":"Team Fortress","app_id":440,"player_count":24,"max_players":24,"Bots":0,"server_type":"Dedicated","server_os":"Linux","password":true,"vac":true,"version":"7882260","steam_id":85568392924469989,"keywords":["cp","nocrits","nodmgspread","uncletopia"],"game_id":440,"stv_port":27016,"stv_name":"Uncletopia | Frankfurt | 1 | All Maps | STV","players":[{"user_id":243,"name":"XuMuK","steam_id":76561198102102340,"connected_time":4331000000000,"state":"active","ping":77},{"user_id":297,"name":"Wardruna96","steam_id":76561199057083828,"connected_time":1231000000000,"state":"active","ping":74},{"user_id":290,"name":"CEO_GRINDSET","steam_id":76561199164488284,"connected_time":1572000000000,"state":"active","ping":121},{"user_id":288,"name":"BELADIT","steam_id":76561198011911501,"connected_time":1849000000000,"state":"active","ping":67},{"user_id":284,"name":"DerZomberter","steam_id":76561197985199105,"connected_time":2231000000000,"state":"active","ping":59},{"user_id":287,"name":"Wololo","steam_id":76561197972235375,"connected_time":1962000000000,"state":"active","ping":63},{"user_id":278,"name":"Flash","steam_id":76561198067379855,"connected_time":2548000000000,"state":"active","ping":57},{"user_id":296,"name":"skill based","steam_id":76561198341178432,"connected_time":1324000000000,"state":"active","ping":57},{"user_id":242,"name":"Killer13","steam_id":76561198303460133,"connected_time":4344000000000,"state":"active","ping":115},{"user_id":265,"name":"Murphy","steam_id":76561198271394131,"connected_time":3490000000000,"state":"active","ping":62},{"user_id":299,"name":"\u003e\u003c\u003e","steam_id":76561198190225954,"connected_time":867000000000,"state":"active","ping":81},{"user_id":291,"name":"Cars","steam_id":76561198173329977,"connected_time":1529000000000,"state":"active","ping":64},{"user_id":301,"name":"yum็","steam_id":76561198350053321,"connected_time":450000000000,"state":"active","ping":58},{"user_id":249,"name":"DENZ3L","steam_id":76561198121892767,"connected_time":4209000000000,"state":"active","ping":108},{"user_id":250,"name":"zsonyik :^D","steam_id":76561198180119047,"connected_time":4186000000000,"state":"active","ping":84},{"user_id":292,"name":"DrExplosive 30fps gaming","steam_id":76561198063678579,"connected_time":1415000000000,"state":"active","ping":66},{"user_id":276,"name":"We are in a world of magic","steam_id":76561198104745492,"connected_time":2648000000000,"state":"active","ping":69},{"user_id":294,"name":"strideΔ","steam_id":76561199007826093,"connected_time":1394000000000,"state":"active","ping":77},{"user_id":295,"name":"Anri Okita's Massive Milkers","steam_id":76561199186352720,"connected_time":1388000000000,"state":"active","ping":71},{"user_id":300,"name":"salmon15","steam_id":76561198838807521,"connected_time":683000000000,"state":"active","ping":105},{"user_id":293,"name":"Artificial.Ignorance","steam_id":76561198453090180,"connected_time":1401000000000,"state":"active","ping":156},{"user_id":280,"name":"C.H.E.R.E.P.","steam_id":76561198026938595,"connected_time":2458000000000,"state":"active","ping":74},{"user_id":260,"name":"Nintyuk","steam_id":76561197994176164,"connected_time":3943000000000,"state":"active","ping":51},{"user_id":261,"name":"Evelin","steam_id":76561198153971363,"connected_time":3941000000000,"state":"active","ping":85}]},{"server_id":110,"name":"Uncletopia | Frankfurt | 2 | All Maps","name_short":"frk-2","host":"frk-1.de.uncletopia.com","port":27025,"enabled":true,"region":"eu","cc":"de","latitude":50.110924,"longitude":8.682127,"reserved":0,"last_update":"0001-01-01T00:00:00Z","name_a2s":"Uncletopia | Frankfurt | 2 | All Maps","protocol":17,"map":"cp_gullywash_final1","folder":"tf","game":"Team Fortress","app_id":440,"player_count":23,"max_players":24,"Bots":0,"server_type":"Dedicated","server_os":"Linux","password":true,"vac":true,"version":"7882260","steam_id":85568392924469990,"keywords":["cp","nocrits","nodmgspread","uncletopia"],"game_id":440,"stv_port":27026,"stv_name":"Uncletopia | Frankfurt | 2 | All Maps | STV","players":[{"user_id":190,"name":"simon","steam_id":76561198880361394,"connected_time":1176000000000,"state":"active","ping":47},{"user_id":206,"name":"noahjwarner09","steam_id":76561199444479988,"connected_time":311000000000,"state":"active","ping":174},{"user_id":191,"name":"eva.","steam_id":76561198054474684,"connected_time":1173000000000,"state":"active","ping":69},{"user_id":162,"name":"Lyell","steam_id":76561198350329389,"connected_time":3822000000000,"state":"active","ping":79},{"user_id":181,"name":"One-Face","steam_id":76561197999384826,"connected_time":1960000000000,"state":"active","ping":42},{"user_id":139,"name":"X-tis","steam_id":76561198043837480,"connected_time":5293000000000,"state":"active","ping":61},{"user_id":163,"name":"static","steam_id":76561198836825741,"connected_time":3729000000000,"state":"active","ping":58},{"user_id":208,"name":"LivEssense","steam_id":76561198052476979,"connected_time":71000000000,"state":"active","ping":75},{"user_id":166,"name":"Piteras","steam_id":76561198858532207,"connected_time":3572000000000,"state":"active","ping":75},{"user_id":149,"name":"Jonathan","steam_id":76561198087988880,"connected_time":4376000000000,"state":"active","ping":45},{"user_id":202,"name":"mindas","steam_id":76561198056839438,"connected_time":667000000000,"state":"active","ping":59},{"user_id":189,"name":"OreHaX","steam_id":76561198272166623,"connected_time":1321000000000,"state":"active","ping":73},{"user_id":209,"name":"\u003c3","steam_id":76561199429407130,"connected_time":0,"state":"spawning","ping":15},{"user_id":136,"name":"Fat Pigeon","steam_id":76561198817940142,"connected_time":5869000000000,"state":"active","ping":47},{"user_id":205,"name":"YuraGreek","steam_id":76561198050182252,"connected_time":353000000000,"state":"active","ping":74},{"user_id":198,"name":"SlowMode","steam_id":76561198039631442,"connected_time":1019000000000,"state":"active","ping":83},{"user_id":175,"name":"Udinese Dion","steam_id":76561198067931573,"connected_time":2762000000000,"state":"active","ping":54},{"user_id":114,"name":"☞LaZe☜","steam_id":76561198202191400,"connected_time":6962000000000,"state":"active","ping":62},{"user_id":157,"name":"WatermelonWill32","steam_id":76561198089478290,"connected_time":4222000000000,"state":"active","ping":49},{"user_id":201,"name":"Literally just a guy, do not pe","steam_id":76561197998825323,"connected_time":769000000000,"state":"active","ping":57},{"user_id":194,"name":"vurtun","steam_id":76561198857395274,"connected_time":1131000000000,"state":"active","ping":53},{"user_id":195,"name":"Favi","steam_id":76561198013236935,"connected_time":1126000000000,"state":"active","ping":66},{"user_id":207,"name":"Honkerthonker","steam_id":76561199138310686,"connected_time":216000000000,"state":"active","ping":61}]},{"server_id":308,"name":"Uncletopia | Frankfurt | 3 | All Maps","name_short":"frk-3","host":"frk-1.de.uncletopia.com","port":27035,"enabled":true,"region":"eu","cc":"de","latitude":50.110924,"longitude":8.682127,"reserved":0,"last_update":"0001-01-01T00:00:00Z","name_a2s":"Uncletopia | Frankfurt | 3 | All Maps","protocol":17,"map":"pl_badwater","folder":"tf","game":"Team Fortress","app_id":440,"player_count":20,"max_players":24,"Bots":0,"server_type":"Dedicated","server_os":"Linux","password":true,"vac":true,"version":"7882260","steam_id":85568392924504274,"keywords":["nocrits","nodmgspread","payload","uncletopia"],"game_id":440,"stv_port":27036,"stv_name":"Uncletopia | Frankfurt | 3 | All Maps | STV","players":[{"user_id":143,"name":"After8","steam_id":76561198090750865,"connected_time":7768000000000,"state":"active","ping":63},{"user_id":239,"name":"The Abbiatons","steam_id":76561198133085347,"connected_time":135000000000,"state":"active","ping":52},{"user_id":241,"name":"KillerQueen (he/they/she)","steam_id":76561199019399725,"connected_time":66000000000,"state":"active","ping":60},{"user_id":240,"name":"elijah","steam_id":76561198093936708,"connected_time":127000000000,"state":"active","ping":62},{"user_id":126,"name":"Teathling","steam_id":76561198061580505,"connected_time":8704000000000,"state":"active","ping":60},{"user_id":242,"name":"adam.prochazka2009","steam_id":76561198157511897,"connected_time":66000000000,"state":"active","ping":45},{"user_id":206,"name":"bagasser","steam_id":76561198051283300,"connected_time":4154000000000,"state":"active","ping":66},{"user_id":208,"name":"hol horse","steam_id":76561199235435358,"connected_time":3936000000000,"state":"active","ping":88},{"user_id":243,"name":"HelwiiHill","steam_id":76561198066730552,"connected_time":66000000000,"state":"active","ping":85},{"user_id":244,"name":"apples","steam_id":76561198032787233,"connected_time":29000000000,"state":"spawning","ping":75},{"user_id":230,"name":"john01k","steam_id":76561198059731548,"connected_time":1516000000000,"state":"active","ping":176},{"user_id":207,"name":"XL54M15Y","steam_id":76561198048250715,"connected_time":3976000000000,"state":"active","ping":49},{"user_id":220,"name":"誰かが見ている","steam_id":76561198834913692,"connected_time":2514000000000,"state":"active","ping":63},{"user_id":245,"name":"Dr.Sees [F2P]","steam_id":76561199219233587,"connected_time":21000000000,"state":"active","ping":75},{"user_id":140,"name":"Ennard777","steam_id":76561198965409493,"connected_time":7885000000000,"state":"active","ping":93},{"user_id":225,"name":"Papperskorg","steam_id":76561197963615539,"connected_time":2241000000000,"state":"active","ping":45},{"user_id":200,"name":"cinny","steam_id":76561198832112629,"connected_time":4261000000000,"state":"active","ping":74},{"user_id":234,"name":"burt","steam_id":76561198137548311,"connected_time":803000000000,"state":"active","ping":158},{"user_id":223,"name":"Captain Scrumpe","steam_id":76561198032206577,"connected_time":2350000000000,"state":"active","ping":85},{"user_id":214,"name":"beebass","steam_id":76561198211644077,"connected_time":3322000000000,"state":"active","ping":77}]},{"server_id":309,"name":"Uncletopia | Frankfurt | 4 | All Maps","name_short":"frk-4","host":"frk-1.de.uncletopia.com","port":27045,"enabled":true,"region":"eu","cc":"de","latitude":50.110924,"longitude":8.682127,"reserved":0,"last_update":"0001-01-01T00:00:00Z","name_a2s":"Uncletopia | Frankfurt | 4 | All Maps","protocol":17,"map":"pl_goldrush","folder":"tf","game":"Team Fortress","app_id":440,"player_count":21,"max_players":24,"Bots":0,"server_type":"Dedicated","server_os":"Linux","password":true,"vac":true,"version":"7882260","steam_id":85568392924504275,"keywords":["nocrits","nodmgspread","payload","uncletopia"],"game_id":440,"stv_port":27046,"stv_name":"Uncletopia | Frankfurt | 4 | All Maps | STV","players":[{"user_id":115,"name":"vdl","steam_id":76561198044583116,"connected_time":1638000000000,"state":"active","ping":90},{"user_id":150,"name":"FanFish","steam_id":76561199389558024,"connected_time":166000000000,"state":"active","ping":67},{"user_id":147,"name":"PashaVerti","steam_id":76561199013963024,"connected_time":228000000000,"state":"active","ping":79},{"user_id":148,"name":"smell_my_cheese","steam_id":76561198008517427,"connected_time":213000000000,"state":"active","ping":68},{"user_id":139,"name":"e1⁧⁧aD","steam_id":76561198815186243,"connected_time":683000000000,"state":"active","ping":93},{"user_id":149,"name":"Pixel_Flamex","steam_id":76561198398929110,"connected_time":203000000000,"state":"active","ping":95},{"user_id":145,"name":"The Reaper","steam_id":76561199485533961,"connected_time":420000000000,"state":"active","ping":84},{"user_id":151,"name":"cactusninja arena_lumberyard","steam_id":76561198956710084,"connected_time":165000000000,"state":"active","ping":66},{"user_id":152,"name":"timshel","steam_id":76561198100612264,"connected_time":81000000000,"state":"active","ping":51},{"user_id":75,"name":"ONDRASEKCUKROUSEK","steam_id":76561198254030118,"connected_time":4970000000000,"state":"active","ping":45},{"user_id":126,"name":"dirty rascal","steam_id":76561198000871038,"connected_time":1439000000000,"state":"active","ping":58},{"user_id":112,"name":"Kahvi","steam_id":76561198723244199,"connected_time":2462000000000,"state":"active","ping":90},{"user_id":110,"name":"gagalak","steam_id":76561198089979108,"connected_time":3010000000000,"state":"active","ping":90},{"user_id":121,"name":"Mike","steam_id":76561198228455736,"connected_time":1556000000000,"state":"active","ping":61},{"user_id":154,"name":"forv","steam_id":76561198326667006,"connected_time":2000000000,"state":"spawning","ping":82},{"user_id":81,"name":"KnugenIV","steam_id":76561198127091993,"connected_time":4884000000000,"state":"active","ping":65},{"user_id":143,"name":"󠀡󠀡","steam_id":76561198399390201,"connected_time":524000000000,"state":"active","ping":93},{"user_id":85,"name":"Evix","steam_id":76561198418450671,"connected_time":4285000000000,"state":"active","ping":84},{"user_id":136,"name":"Expanix","steam_id":76561198111125317,"connected_time":1232000000000,"state":"active","ping":88},{"user_id":106,"name":"Shovelhalfrusty","steam_id":76561198346447513,"connected_time":3279000000000,"state":"active","ping":85},{"user_id":125,"name":"ok","steam_id":76561198052575567,"connected_time":1507000000000,"state":"active","ping":85}]},{"server_id":310,"name":"Uncletopia | Frankfurt | 5 | All Maps","name_short":"frk-5","host":"frk-1.de.uncletopia.com","port":27055,"enabled":true,"region":"eu","cc":"de","latitude":50.110924,"longitude":8.682127,"reserved":0,"last_update":"0001-01-01T00:00:00Z","name_a2s":"Uncletopia | Frankfurt | 5 | All Maps","protocol":17,"map":"pl_borneo","folder":"tf","game":"Team Fortress","app_id":440,"player_count":21,"max_players":24,"Bots":0,"server_type":"Dedicated","server_os":"Linux","password":true,"vac":true,"version":"7882260","steam_id":85568392924504277,"keywords":["nocrits","nodmgspread","payload","uncletopia"],"game_id":440,"stv_port":27056,"stv_name":"Uncletopia | Frankfurt | 5 | All Maps | STV","players":[{"user_id":203,"name":"Ixion","steam_id":76561198041660675,"connected_time":125000000000,"state":"active","ping":74},{"user_id":135,"name":"poliakov.noam","steam_id":76561199259322961,"connected_time":3841000000000,"state":"active","ping":109},{"user_id":199,"name":"Creamydot","steam_id":76561198102496062,"connected_time":299000000000,"state":"active","ping":70},{"user_id":200,"name":"Fran","steam_id":76561199070516960,"connected_time":261000000000,"state":"active","ping":64},{"user_id":145,"name":"Ardello","steam_id":76561198864484125,"connected_time":3219000000000,"state":"active","ping":78},{"user_id":188,"name":"Pikatrix","steam_id":76561198850101181,"connected_time":1498000000000,"state":"active","ping":60},{"user_id":160,"name":"Kiif","steam_id":76561198175271494,"connected_time":2314000000000,"state":"active","ping":75},{"user_id":196,"name":"Tin","steam_id":76561198022201818,"connected_time":969000000000,"state":"active","ping":45},{"user_id":208,"name":"Chinasian","steam_id":76561198255753866,"connected_time":16000000000,"state":"active","ping":75},{"user_id":156,"name":"jill valentine","steam_id":76561198075068529,"connected_time":2571000000000,"state":"active","ping":89},{"user_id":176,"name":"Ketich","steam_id":76561198021772703,"connected_time":1750000000000,"state":"active","ping":73},{"user_id":180,"name":"Suvis","steam_id":76561198153048602,"connected_time":1709000000000,"state":"active","ping":87},{"user_id":204,"name":"soop","steam_id":76561199031638932,"connected_time":120000000000,"state":"active","ping":78},{"user_id":205,"name":"Grim","steam_id":76561198141464555,"connected_time":117000000000,"state":"active","ping":66},{"user_id":206,"name":"Dragon","steam_id":76561198163255365,"connected_time":89000000000,"state":"active","ping":105},{"user_id":152,"name":"Spy is Sapping my Sandwich","steam_id":76561198011840096,"connected_time":2916000000000,"state":"active","ping":61},{"user_id":207,"name":"WATANG!","steam_id":76561198040478926,"connected_time":68000000000,"state":"active","ping":68},{"user_id":182,"name":"jeff","steam_id":76561198272815746,"connected_time":1680000000000,"state":"active","ping":57},{"user_id":193,"name":"demon","steam_id":76561198192080711,"connected_time":1171000000000,"state":"active","ping":74},{"user_id":184,"name":"Rook","steam_id":76561197995204779,"connected_time":1650000000000,"state":"active","ping":60},{"user_id":191,"name":"wicked","steam_id":76561198164376035,"connected_time":1361000000000,"state":"active","ping":71}]},{"server_id":311,"name":"Uncletopia | Frankfurt | 6 | All Maps","name_short":"frk-6","host":"frk-1.de.uncletopia.com","port":27065,"enabled":true,"region":"eu","cc":"de","latitude":50.110924,"longitude":8.682127,"reserved":0,"last_update":"0001-01-01T00:00:00Z","name_a2s":"Uncletopia | Frankfurt | 6 | All Maps","protocol":17,"map":"koth_highpass","folder":"tf","game":"Team Fortress","app_id":440,"player_count":23,"max_players":24,"Bots":0,"server_type":"Dedicated","server_os":"Linux","password":true,"vac":true,"version":"7882260","steam_id":85568392924504278,"keywords":["cp","nocrits","nodmgspread","uncletopia"],"game_id":440,"stv_port":27066,"stv_name":"Uncletopia | Frankfurt | 6 | All Maps | STV","players":[{"user_id":24,"name":"Femboy","steam_id":76561198384909993,"connected_time":934000000000,"state":"active","ping":99},{"user_id":21,"name":"TörichteTerrorTaube","steam_id":76561198284303280,"connected_time":1079000000000,"state":"active","ping":65},{"user_id":51,"name":"Deckard","steam_id":76561198004704647,"connected_time":293000000000,"state":"active","ping":76},{"user_id":49,"name":"PONCHO 90","steam_id":76561198412197820,"connected_time":316000000000,"state":"active","ping":82},{"user_id":23,"name":"[kot.bob]","steam_id":76561198990993971,"connected_time":968000000000,"state":"active","ping":120},{"user_id":25,"name":"galaxy","steam_id":76561198164819022,"connected_time":919000000000,"state":"active","ping":64},{"user_id":26,"name":"Dr. Cox","steam_id":76561198246629218,"connected_time":909000000000,"state":"active","ping":113},{"user_id":27,"name":"big poo","steam_id":76561199088284199,"connected_time":891000000000,"state":"active","ping":60},{"user_id":28,"name":"Shadow","steam_id":76561198202115036,"connected_time":811000000000,"state":"active","ping":69},{"user_id":29,"name":"Eggcracker","steam_id":76561199274850641,"connected_time":803000000000,"state":"active","ping":81},{"user_id":30,"name":"4","steam_id":76561197964945192,"connected_time":769000000000,"state":"active","ping":60},{"user_id":31,"name":":)","steam_id":76561198384259748,"connected_time":741000000000,"state":"active","ping":55},{"user_id":32,"name":"arcticcu","steam_id":76561198002435882,"connected_time":740000000000,"state":"active","ping":95},{"user_id":33,"name":"Garuda1","steam_id":76561198058244959,"connected_time":707000000000,"state":"active","ping":76},{"user_id":46,"name":"gart","steam_id":76561198203394358,"connected_time":363000000000,"state":"active","ping":92},{"user_id":36,"name":"₪HunterStone₪","steam_id":76561198992613954,"connected_time":621000000000,"state":"active","ping":86},{"user_id":42,"name":"SHFO","steam_id":76561198132104112,"connected_time":504000000000,"state":"active","ping":76},{"user_id":43,"name":"Dr. Le Quack","steam_id":76561197995711176,"connected_time":473000000000,"state":"active","ping":84},{"user_id":44,"name":"Xriasp","steam_id":76561198104721321,"connected_time":425000000000,"state":"active","ping":73},{"user_id":40,"name":"why rum gone","steam_id":76561198158484784,"connected_time":561000000000,"state":"active","ping":60},{"user_id":45,"name":"Farmercy","steam_id":76561198000038039,"connected_time":406000000000,"state":"active","ping":60},{"user_id":52,"name":"Ptahotep","steam_id":76561198008708645,"connected_time":237000000000,"state":"active","ping":68},{"user_id":53,"name":"Avarus","steam_id":76561198040324008,"connected_time":193000000000,"state":"active","ping":71}]},{"server_id":23,"name":"Uncletopia | Frankfurt | 7 | Stopwatch Beta","name_short":"frk-7","host":"frk-1.de.uncletopia.com","port":27075,"enabled":true,"region":"eu","cc":"de","latitude":50.110924,"longitude":8.682127,"reserved":0,"last_update":"0001-01-01T00:00:00Z","name_a2s":"Uncletopia | Frankfurt | 7 | Stopwatch Beta","protocol":17,"map":"koth_lakeside_final","folder":"tf","game":"Team Fortress","app_id":440,"player_count":0,"max_players":24,"Bots":0,"server_type":"Dedicated","server_os":"Linux","password":true,"vac":true,"version":"7882260","steam_id":85568392924742827,"keywords":["cp","nocrits","nodmgspread","uncletopia"],"game_id":440,"stv_port":27076,"stv_name":"Uncletopia | Frankfurt | 7 | Stopwatch Beta | STV","players":null},{"server_id":24,"name":"Uncletopia | Frankfurt | 8 | Community","name_short":"frk-8","host":"frk-1.de.uncletopia.com","port":27085,"enabled":true,"region":"eu","cc":"de","latitude":50.110924,"longitude":8.682127,"reserved":0,"last_update":"0001-01-01T00:00:00Z","name_a2s":"Uncletopia | Frankfurt | 8 | Community","protocol":17,"map":"workshop/koth_slaughter_rc1.ugc1712845210","folder":"tf","game":"Team Fortress","app_id":440,"player_count":4,"max_players":24,"Bots":0,"server_type":"Dedicated","server_os":"Linux","password":true,"vac":true,"version":"7882260","steam_id":85568392924742828,"keywords":["cp","nocrits","nodmgspread","uncletopia"],"game_id":440,"stv_port":27086,"stv_name":"Uncletopia | Frankfurt | 8 | Community | STV","players":[{"user_id":21,"name":"Geesemans","steam_id":76561199478892816,"connected_time":480000000000,"state":"active","ping":251},{"user_id":20,"name":"daddy_cool","steam_id":76561198073332036,"connected_time":677000000000,"state":"active","ping":104},{"user_id":22,"name":"Jack.Orlando","steam_id":76561198802400236,"connected_time":256000000000,"state":"active","ping":73},{"user_id":23,"name":"SnowyCactus","steam_id":76561198332710410,"connected_time":251000000000,"state":"active","ping":57}]},{"server_id":202,"name":"Uncletopia | Hong Kong | 1 | All Maps","name_short":"hgk-1","host":"hgk-1.hk.uncletopia.com","port":27015,"enabled":true,"region":"asia","cc":"hk","latitude":22.302711,"longitude":114.177216,"reserved":0,"last_update":"0001-01-01T00:00:00Z","name_a2s":"Uncletopia | Hong Kong | 1 | All Maps","protocol":17,"map":"pl_snowycoast","folder":"tf","game":"Team Fortress","app_id":440,"player_count":24,"max_players":24,"Bots":0,"server_type":"Dedicated","server_os":"Linux","password":true,"vac":true,"version":"7882260","steam_id":85568392924494504,"keywords":["nocrits","nodmgspread","payload","uncletopia"],"game_id":440,"stv_port":27016,"stv_name":"Uncletopia | Hong Kong | 1 | All Maps | STV","players":[{"user_id":581,"name":"쿠키","steam_id":76561197997220367,"connected_time":269000000000,"state":"active","ping":52},{"user_id":554,"name":"Sensei Patch","steam_id":76561199467636377,"connected_time":2075000000000,"state":"active","ping":117},{"user_id":457,"name":"Vortex Swagger","steam_id":76561198833527091,"connected_time":8350000000000,"state":"active","ping":87},{"user_id":575,"name":"vers","steam_id":76561198795466192,"connected_time":937000000000,"state":"active","ping":90},{"user_id":552,"name":"Turbo.RF4 x Platinum","steam_id":76561199061012484,"connected_time":2239000000000,"state":"active","ping":70},{"user_id":571,"name":"walid","steam_id":76561198395530753,"connected_time":1097000000000,"state":"active","ping":141},{"user_id":511,"name":"Knightgrail","steam_id":76561199127238071,"connected_time":3736000000000,"state":"active","ping":65},{"user_id":494,"name":"Azule","steam_id":76561198136804802,"connected_time":4751000000000,"state":"active","ping":133},{"user_id":564,"name":"AmaiGai(?)","steam_id":76561199122491157,"connected_time":1725000000000,"state":"active","ping":118},{"user_id":501,"name":"Aug","steam_id":76561199212711900,"connected_time":4517000000000,"state":"active","ping":101},{"user_id":584,"name":"Blarx","steam_id":76561198837822442,"connected_time":6000000000,"state":"spawning","ping":151},{"user_id":580,"name":"lsf","steam_id":76561198908975024,"connected_time":490000000000,"state":"active","ping":38},{"user_id":560,"name":"Samoyed","steam_id":76561198299150410,"connected_time":1954000000000,"state":"active","ping":96},{"user_id":574,"name":"Hằng Ra đơ","steam_id":76561199373637717,"connected_time":984000000000,"state":"active","ping":82},{"user_id":576,"name":"L + dont care + didnt ask","steam_id":76561198062865762,"connected_time":861000000000,"state":"active","ping":38},{"user_id":380,"name":"Headmouth","steam_id":76561198019789855,"connected_time":11560000000000,"state":"active","ping":148},{"user_id":583,"name":"Women Beater Simulator 2023","steam_id":76561198333809604,"connected_time":168000000000,"state":"active","ping":74},{"user_id":547,"name":"Heavy Fingers Guy","steam_id":76561199016545154,"connected_time":2645000000000,"state":"active","ping":41},{"user_id":579,"name":"The Black Ninja from Ninjago","steam_id":76561199019247258,"connected_time":558000000000,"state":"active","ping":75},{"user_id":549,"name":"JDSFE","steam_id":76561198975490851,"connected_time":2565000000000,"state":"active","ping":110},{"user_id":515,"name":"nyakky","steam_id":76561198927779787,"connected_time":3709000000000,"state":"active","ping":91},{"user_id":488,"name":"17","steam_id":76561198241530712,"connected_time":4802000000000,"state":"active","ping":60},{"user_id":537,"name":"母の肉団子@hao123.com","steam_id":76561198069561896,"connected_time":3062000000000,"state":"active","ping":45},{"user_id":578,"name":"Milf (The fan O'Milk)","steam_id":76561198213031155,"connected_time":742000000000,"state":"active","ping":99}]},{"server_id":1,"name":"Uncletopia | Los Angeles | 1 | All Maps","name_short":"lax-1","host":"lax-1.us.uncletopia.com","port":27015,"enabled":true,"region":"us-west","cc":"us","latitude":33.94279,"longitude":-118.41004,"reserved":0,"last_update":"0001-01-01T00:00:00Z","name_a2s":"Uncletopia | Los Angeles | 1 | All Maps","protocol":17,"map":"pl_pier","folder":"tf","game":"Team Fortress","app_id":440,"player_count":0,"max_players":24,"Bots":0,"server_type":"Dedicated","server_os":"Linux","password":true,"vac":true,"version":"7882260","steam_id":85568392924469991,"keywords":["nocrits","nodmgspread","payload","uncletopia"],"game_id":440,"stv_port":27016,"stv_name":"Uncletopia | Los Angeles | 1 | All Maps | STV","players":null},{"server_id":112,"name":"Uncletopia | Los Angeles | 2 | All Maps","name_short":"lax-2","host":"lax-1.us.uncletopia.com","port":27025,"enabled":true,"region":"us-west","cc":"us","latitude":33.94279,"longitude":-118.41004,"reserved":0,"last_update":"0001-01-01T00:00:00Z","name_a2s":"Uncletopia | Los Angeles | 2 | All Maps","protocol":17,"map":"pl_snowycoast","folder":"tf","game":"Team Fortress","app_id":440,"player_count":0,"max_players":24,"Bots":0,"server_type":"Dedicated","server_os":"Linux","password":true,"vac":true,"version":"7882260","steam_id":85568392924469992,"keywords":["nocrits","nodmgspread","payload","uncletopia"],"game_id":440,"stv_port":27026,"stv_name":"Uncletopia | Los Angeles | 2 | All Maps | STV","players":null},{"server_id":324,"name":"Uncletopia | Los Angeles | 3 | All Maps","name_short":"lax-3","host":"lax-1.us.uncletopia.com","port":27035,"enabled":true,"region":"us-west","cc":"us","latitude":33.94279,"longitude":-118.41004,"reserved":0,"last_update":"0001-01-01T00:00:00Z","name_a2s":"Uncletopia | Los Angeles | 3 | All Maps","protocol":17,"map":"cp_sunshine","folder":"tf","game":"Team Fortress","app_id":440,"player_count":0,"max_players":24,"Bots":0,"server_type":"Dedicated","server_os":"Linux","password":true,"vac":true,"version":"7882260","steam_id":85568392924510198,"keywords":["cp","nocrits","nodmgspread","uncletopia"],"game_id":440,"stv_port":27036,"stv_name":"Uncletopia | Los Angeles | 3 | All Maps | STV","players":null},{"server_id":25,"name":"Uncletopia | Los Angeles | 4 | Stopwatch Beta","name_short":"lax-4","host":"lax-1.us.uncletopia.com","port":27045,"enabled":true,"region":"us-west","cc":"us","latitude":33.94279,"longitude":-118.41004,"reserved":0,"last_update":"0001-01-01T00:00:00Z","name_a2s":"Uncletopia | Los Angeles | 4 | Stopwatch Beta","protocol":17,"map":"koth_lakeside_final","folder":"tf","game":"Team Fortress","app_id":440,"player_count":0,"max_players":24,"Bots":0,"server_type":"Dedicated","server_os":"Linux","password":true,"vac":true,"version":"7882260","steam_id":85568392924510199,"keywords":["cp","nocrits","nodmgspread","uncletopia"],"game_id":440,"stv_port":27046,"stv_name":"Uncletopia | Los Angeles | 4 | Stopwatch Beta | STV","players":null},{"server_id":11,"name":"Uncletopia | London | 1 | All Maps","name_short":"lon-1","host":"lon-1.uk.uncletopia.com","port":27015,"enabled":true,"region":"eu","cc":"gb","latitude":51.509865,"longitude":-0.118092,"reserved":0,"last_update":"0001-01-01T00:00:00Z","name_a2s":"Uncletopia | London | 1 | All Maps","protocol":17,"map":"pl_borneo","folder":"tf","game":"Team Fortress","app_id":440,"player_count":21,"max_players":24,"Bots":0,"server_type":"Dedicated","server_os":"Linux","password":true,"vac":true,"version":"7882260","steam_id":85568392924367362,"keywords":["nocrits","nodmgspread","payload","uncletopia"],"game_id":440,"stv_port":27016,"stv_name":"Uncletopia | London | 1 | All Maps | STV","players":[{"user_id":372,"name":"Watermelon","steam_id":76561198078349914,"connected_time":8000000000,"state":"active","ping":78},{"user_id":361,"name":"goff","steam_id":76561198118989010,"connected_time":451000000000,"state":"active","ping":56},{"user_id":355,"name":"53512512412123121","steam_id":76561199234688598,"connected_time":1601000000000,"state":"active","ping":89},{"user_id":338,"name":"Acu1000","steam_id":76561198996751455,"connected_time":2629000000000,"state":"active","ping":97},{"user_id":349,"name":"Combat Wombat","steam_id":76561197994720068,"connected_time":2150000000000,"state":"active","ping":55},{"user_id":309,"name":"punchmypotatoes","steam_id":76561198091255731,"connected_time":5333000000000,"state":"active","ping":52},{"user_id":360,"name":"Asa Mitaka","steam_id":76561198361723475,"connected_time":463000000000,"state":"active","ping":72},{"user_id":339,"name":"Toofy","steam_id":76561197989727907,"connected_time":2627000000000,"state":"active","ping":33},{"user_id":364,"name":"Remizer","steam_id":76561198799755616,"connected_time":402000000000,"state":"active","ping":68},{"user_id":354,"name":"hwyad","steam_id":76561199129942647,"connected_time":1707000000000,"state":"active","ping":48},{"user_id":332,"name":"♛perry the platypus♛","steam_id":76561199379159771,"connected_time":3698000000000,"state":"active","ping":152},{"user_id":352,"name":"avewszystkim","steam_id":76561199382492530,"connected_time":2023000000000,"state":"active","ping":74},{"user_id":331,"name":"flappi","steam_id":76561198072892783,"connected_time":3728000000000,"state":"active","ping":60},{"user_id":353,"name":"One Hop Dis Time *BWRAB*","steam_id":76561198146081601,"connected_time":1755000000000,"state":"active","ping":46},{"user_id":366,"name":"Creative","steam_id":76561198835034247,"connected_time":342000000000,"state":"active","ping":90},{"user_id":367,"name":"sirsmit1","steam_id":76561199129778001,"connected_time":327000000000,"state":"active","ping":128},{"user_id":356,"name":"Some Guy","steam_id":76561198137335527,"connected_time":1503000000000,"state":"active","ping":58},{"user_id":358,"name":"astra","steam_id":76561198042980579,"connected_time":916000000000,"state":"active","ping":61},{"user_id":371,"name":"Someone","steam_id":76561199030195879,"connected_time":127000000000,"state":"active","ping":43},{"user_id":369,"name":"svantezch","steam_id":76561198373831657,"connected_time":310000000000,"state":"active","ping":91},{"user_id":347,"name":"Wyro","steam_id":76561199176835169,"connected_time":2346000000000,"state":"active","ping":51}]},{"server_id":114,"name":"Uncletopia | London | 2 | All Maps","name_short":"lon-2","host":"lon-1.uk.uncletopia.com","port":27025,"enabled":true,"region":"eu","cc":"gb","latitude":51.509865,"longitude":-0.118092,"reserved":0,"last_update":"0001-01-01T00:00:00Z","name_a2s":"Uncletopia | London | 2 | All Maps","protocol":17,"map":"pl_badwater","folder":"tf","game":"Team Fortress","app_id":440,"player_count":24,"max_players":24,"Bots":0,"server_type":"Dedicated","server_os":"Linux","password":true,"vac":true,"version":"7882260","steam_id":85568392924470941,"keywords":["nocrits","nodmgspread","payload","uncletopia"],"game_id":440,"stv_port":27026,"stv_name":"Uncletopia | London | 2 | All Maps | STV","players":[{"user_id":259,"name":"mercurial","steam_id":76561198046227550,"connected_time":3185000000000,"state":"active","ping":41},{"user_id":299,"name":"Jeerven","steam_id":76561198259189841,"connected_time":337000000000,"state":"active","ping":74},{"user_id":305,"name":"Ze","steam_id":76561198314901652,"connected_time":26000000000,"state":"spawning","ping":98},{"user_id":300,"name":"Insain Bolt!","steam_id":76561198025687726,"connected_time":315000000000,"state":"active","ping":76},{"user_id":258,"name":"LemonLeCitron","steam_id":76561198215545267,"connected_time":3335000000000,"state":"active","ping":69},{"user_id":296,"name":"bAdmon","steam_id":76561197961785793,"connected_time":628000000000,"state":"active","ping":58},{"user_id":260,"name":"Breizbuc","steam_id":76561198118220633,"connected_time":2772000000000,"state":"active","ping":58},{"user_id":301,"name":"Teecho","steam_id":76561197995269610,"connected_time":301000000000,"state":"active","ping":55},{"user_id":279,"name":"Cosmetic brain","steam_id":76561198055936410,"connected_time":2177000000000,"state":"active","ping":86},{"user_id":293,"name":"Mr_Pulse_","steam_id":76561198095001602,"connected_time":949000000000,"state":"active","ping":100},{"user_id":289,"name":"Houlles","steam_id":76561198095277383,"connected_time":1636000000000,"state":"active","ping":58},{"user_id":283,"name":"modavak","steam_id":76561198946290908,"connected_time":1872000000000,"state":"active","ping":105},{"user_id":121,"name":"Melon wizard","steam_id":76561198455781892,"connected_time":13115000000000,"state":"active","ping":62},{"user_id":304,"name":"lettuce out of stock","steam_id":76561199401283123,"connected_time":223000000000,"state":"active","ping":54},{"user_id":277,"name":"tracey stacks","steam_id":76561198885581544,"connected_time":2340000000000,"state":"active","ping":78},{"user_id":187,"name":"Rabiot420","steam_id":76561199072230477,"connected_time":9083000000000,"state":"active","ping":60},{"user_id":235,"name":"VampiuS","steam_id":76561197998827007,"connected_time":5621000000000,"state":"active","ping":71},{"user_id":287,"name":"LSKi","steam_id":76561198215470228,"connected_time":1672000000000,"state":"active","ping":60},{"user_id":291,"name":"madijo","steam_id":76561198012617400,"connected_time":1239000000000,"state":"active","ping":74},{"user_id":268,"name":"MaRo","steam_id":76561198992286676,"connected_time":2632000000000,"state":"active","ping":54},{"user_id":303,"name":"Agartha Dweller","steam_id":76561198076881381,"connected_time":270000000000,"state":"active","ping":85},{"user_id":298,"name":"Christmas Ham","steam_id":76561198119601623,"connected_time":444000000000,"state":"active","ping":48},{"user_id":294,"name":"Runyohell","steam_id":76561198309876860,"connected_time":841000000000,"state":"active","ping":88},{"user_id":292,"name":"GREEK MGE GOD","steam_id":76561197988085026,"connected_time":1092000000000,"state":"active","ping":74}]},{"server_id":320,"name":"Uncletopia | London | 3 | All Maps","name_short":"lon-3","host":"lon-1.uk.uncletopia.com","port":27035,"enabled":true,"region":"eu","cc":"gb","latitude":51.509865,"longitude":-0.118092,"reserved":0,"last_update":"0001-01-01T00:00:00Z","name_a2s":"Uncletopia | London | 3 | All Maps","protocol":17,"map":"pl_pier","folder":"tf","game":"Team Fortress","app_id":440,"player_count":0,"max_players":24,"Bots":0,"server_type":"Dedicated","server_os":"Linux","password":true,"vac":true,"version":"7882260","steam_id":85568392924510192,"keywords":["nocrits","nodmgspread","payload","uncletopia"],"game_id":440,"stv_port":27036,"stv_name":"Uncletopia | London | 3 | All Maps | STV","players":null},{"server_id":321,"name":"Uncletopia | London | 4 | All Maps","name_short":"lon-4","host":"lon-1.uk.uncletopia.com","port":27045,"enabled":true,"region":"eu","cc":"gb","latitude":51.509865,"longitude":-0.118092,"reserved":0,"last_update":"0001-01-01T00:00:00Z","name_a2s":"Uncletopia | London | 4 | All Maps","protocol":17,"map":"pl_upward","folder":"tf","game":"Team Fortress","app_id":440,"player_count":24,"max_players":24,"Bots":0,"server_type":"Dedicated","server_os":"Linux","password":true,"vac":true,"version":"7882260","steam_id":85568392924510193,"keywords":["nocrits","nodmgspread","payload","uncletopia"],"game_id":440,"stv_port":27046,"stv_name":"Uncletopia | London | 4 | All Maps | STV","players":[{"user_id":75,"name":"PASTAMAN!!!","steam_id":76561198995641765,"connected_time":421000000000,"state":"active","ping":59},{"user_id":70,"name":"Orbit","steam_id":76561198242999878,"connected_time":1220000000000,"state":"active","ping":57},{"user_id":65,"name":"Mauve","steam_id":76561198371121377,"connected_time":1787000000000,"state":"active","ping":47},{"user_id":69,"name":"penis gnome","steam_id":76561198097612561,"connected_time":1335000000000,"state":"active","ping":62},{"user_id":37,"name":"akisam","steam_id":76561198044654329,"connected_time":2841000000000,"state":"active","ping":60},{"user_id":20,"name":"Medic Girlfriend","steam_id":76561198243554156,"connected_time":4172000000000,"state":"active","ping":56},{"user_id":38,"name":"Sammy","steam_id":76561197977379410,"connected_time":2840000000000,"state":"active","ping":92},{"user_id":63,"name":"LAGAwLADZE","steam_id":76561198238918240,"connected_time":1876000000000,"state":"active","ping":72},{"user_id":74,"name":"flr","steam_id":76561198249327786,"connected_time":609000000000,"state":"active","ping":73},{"user_id":45,"name":"Maximus","steam_id":76561198032472655,"connected_time":2680000000000,"state":"active","ping":60},{"user_id":76,"name":"senior pomidor","steam_id":76561198123659806,"connected_time":395000000000,"state":"active","ping":97},{"user_id":80,"name":"Hetmanych","steam_id":76561198870926865,"connected_time":87000000000,"state":"active","ping":41},{"user_id":41,"name":"James","steam_id":76561198168882012,"connected_time":2821000000000,"state":"active","ping":52},{"user_id":79,"name":"Professional facestab","steam_id":76561198258721056,"connected_time":185000000000,"state":"active","ping":53},{"user_id":73,"name":"nicco","steam_id":76561198046217866,"connected_time":1109000000000,"state":"active","ping":55},{"user_id":64,"name":"Monara12th","steam_id":76561199478607360,"connected_time":1874000000000,"state":"active","ping":64},{"user_id":78,"name":"jude","steam_id":76561198979036031,"connected_time":279000000000,"state":"active","ping":54},{"user_id":47,"name":"I-I","steam_id":76561198267969436,"connected_time":2611000000000,"state":"active","ping":72},{"user_id":51,"name":"Lieutenant Lead","steam_id":76561198336867604,"connected_time":2359000000000,"state":"active","ping":52},{"user_id":52,"name":"RitzyElephant66","steam_id":76561198368742904,"connected_time":2333000000000,"state":"active","ping":62},{"user_id":59,"name":"meow (they/them)","steam_id":76561198416657815,"connected_time":2054000000000,"state":"active","ping":78},{"user_id":60,"name":"ඞbominasus 2137  #SaveTF2","steam_id":76561198030062981,"connected_time":2047000000000,"state":"active","ping":76},{"user_id":71,"name":"A Pigeon","steam_id":76561198114090555,"connected_time":1207000000000,"state":"active","ping":73},{"user_id":62,"name":"quickfast","steam_id":76561199438900919,"connected_time":2015000000000,"state":"active","ping":44}]},{"server_id":21,"name":"Uncletopia | London | 5 | All Maps","name_short":"lon-5","host":"lon-1.uk.uncletopia.com","port":27055,"enabled":true,"region":"eu","cc":"gb","latitude":51.509865,"longitude":-0.118092,"reserved":0,"last_update":"0001-01-01T00:00:00Z","name_a2s":"Uncletopia | London | 5 | All Maps","protocol":17,"map":"cp_snakewater_final1","folder":"tf","game":"Team Fortress","app_id":440,"player_count":23,"max_players":24,"Bots":0,"server_type":"Dedicated","server_os":"Linux","password":true,"vac":true,"version":"7882260","steam_id":85568392924742829,"keywords":["cp","nocrits","nodmgspread","uncletopia"],"game_id":440,"stv_port":27056,"stv_name":"Uncletopia | London | 5 | All Maps | STV","players":[{"user_id":87,"name":"dun-Dun-DUUUUUN!","steam_id":76561198193357946,"connected_time":2247000000000,"state":"active","ping":97},{"user_id":84,"name":"meatsoupcube","steam_id":76561198276802249,"connected_time":2406000000000,"state":"active","ping":100},{"user_id":114,"name":"WHUSSKEY","steam_id":76561198137827441,"connected_time":530000000000,"state":"active","ping":76},{"user_id":69,"name":"rob","steam_id":76561198122211848,"connected_time":3409000000000,"state":"active","ping":94},{"user_id":122,"name":"Remmy","steam_id":76561198268857418,"connected_time":325000000000,"state":"active","ping":141},{"user_id":115,"name":"/ff brujman","steam_id":76561198095238286,"connected_time":517000000000,"state":"active","ping":45},{"user_id":111,"name":"RomAnjentululiantiarion","steam_id":76561198161417211,"connected_time":688000000000,"state":"active","ping":96},{"user_id":125,"name":"Cha0tikip","steam_id":76561197963860634,"connected_time":252000000000,"state":"active","ping":88},{"user_id":106,"name":"SkoomaAddicted","steam_id":76561197975241482,"connected_time":1546000000000,"state":"active","ping":73},{"user_id":118,"name":"Craig","steam_id":76561198123346614,"connected_time":423000000000,"state":"active","ping":143},{"user_id":120,"name":"GrassHopper","steam_id":76561198201371821,"connected_time":380000000000,"state":"active","ping":64},{"user_id":97,"name":"Dr. Feelgood","steam_id":76561199173885103,"connected_time":1970000000000,"state":"active","ping":146},{"user_id":34,"name":"Sipsu","steam_id":76561198059424107,"connected_time":5399000000000,"state":"active","ping":81},{"user_id":123,"name":"Harbinger Of Chaos","steam_id":76561198150513110,"connected_time":308000000000,"state":"active","ping":63},{"user_id":71,"name":"strohkopf9","steam_id":76561198059349860,"connected_time":3363000000000,"state":"active","ping":72},{"user_id":70,"name":"Malai","steam_id":76561198062537014,"connected_time":3409000000000,"state":"active","ping":68},{"user_id":124,"name":"panakid","steam_id":76561198364121077,"connected_time":292000000000,"state":"active","ping":101},{"user_id":129,"name":"Núúb","steam_id":76561198111933414,"connected_time":45000000000,"state":"spawning","ping":66},{"user_id":56,"name":"Cabbch","steam_id":76561198045955679,"connected_time":4613000000000,"state":"active","ping":45},{"user_id":99,"name":"Amoru","steam_id":76561198798161817,"connected_time":1951000000000,"state":"active","ping":91},{"user_id":126,"name":"Mafew","steam_id":76561198119993886,"connected_time":234000000000,"state":"active","ping":61},{"user_id":128,"name":"BROOMSTER","steam_id":76561198344833818,"connected_time":151000000000,"state":"active","ping":64},{"user_id":113,"name":"the straightest medic main ever","steam_id":76561199259727736,"connected_time":626000000000,"state":"active","ping":77}]},{"server_id":22,"name":"Uncletopia | London | 6 | All Maps","name_short":"lon-6","host":"lon-1.uk.uncletopia.com","port":27065,"enabled":true,"region":"eu","cc":"gb","latitude":51.509865,"longitude":-0.118092,"reserved":0,"last_update":"0001-01-01T00:00:00Z","name_a2s":"Uncletopia | London | 6 | All Maps","protocol":17,"map":"pl_swiftwater_final1","folder":"tf","game":"Team Fortress","app_id":440,"player_count":24,"max_players":24,"Bots":0,"server_type":"Dedicated","server_os":"Linux","password":true,"vac":true,"version":"7882260","steam_id":85568392924742830,"keywords":["nocrits","nodmgspread","payload","uncletopia"],"game_id":440,"stv_port":27066,"stv_name":"Uncletopia | London | 6 | All Maps | STV","players":[{"user_id":393,"name":"THE SASQUATCH","steam_id":76561198197606282,"connected_time":2911000000000,"state":"active","ping":41},{"user_id":413,"name":"boofing prozac","steam_id":76561198851157897,"connected_time":1342000000000,"state":"active","ping":61},{"user_id":404,"name":"WE HAVE THE TECHNOLOGY","steam_id":76561198798803845,"connected_time":2042000000000,"state":"active","ping":52},{"user_id":366,"name":"sumire.gg (inactive)","steam_id":76561198072250111,"connected_time":4745000000000,"state":"active","ping":45},{"user_id":423,"name":"snowycoast","steam_id":76561198346638308,"connected_time":446000000000,"state":"active","ping":59},{"user_id":412,"name":"Kinda Angry HugeE","steam_id":76561198245495152,"connected_time":1399000000000,"state":"active","ping":59},{"user_id":407,"name":"gneeda","steam_id":76561198147249160,"connected_time":1707000000000,"state":"active","ping":120},{"user_id":409,"name":"ᘛ⁐̤ᕐᐷ Catface","steam_id":76561198963378933,"connected_time":1682000000000,"state":"active","ping":42},{"user_id":418,"name":"Michael","steam_id":76561198003146906,"connected_time":719000000000,"state":"active","ping":43},{"user_id":415,"name":"Phiphler","steam_id":76561197994055715,"connected_time":1322000000000,"state":"active","ping":68},{"user_id":426,"name":"znunney","steam_id":76561199438501613,"connected_time":70000000000,"state":"active","ping":65},{"user_id":371,"name":"Laylakikio","steam_id":76561198090146457,"connected_time":4365000000000,"state":"active","ping":40},{"user_id":424,"name":"Aight","steam_id":76561198300453404,"connected_time":153000000000,"state":"active","ping":94},{"user_id":414,"name":"el wiwi","steam_id":76561199384892422,"connected_time":1339000000000,"state":"active","ping":64},{"user_id":365,"name":"AleXandriX","steam_id":76561198035203950,"connected_time":4780000000000,"state":"active","ping":62},{"user_id":389,"name":"Spy among us?","steam_id":76561199196591135,"connected_time":3120000000000,"state":"active","ping":86},{"user_id":376,"name":"Facehurt","steam_id":76561198028504034,"connected_time":4175000000000,"state":"active","ping":133},{"user_id":420,"name":"Cotton Eye Joe","steam_id":76561198080594207,"connected_time":553000000000,"state":"active","ping":56},{"user_id":372,"name":"Bukayo Zaza","steam_id":76561198307037169,"connected_time":4364000000000,"state":"active","ping":47},{"user_id":375,"name":"Wattseyy","steam_id":76561198248567360,"connected_time":4202000000000,"state":"active","ping":39},{"user_id":417,"name":"Uncledane The ZAZA main","steam_id":76561198103706881,"connected_time":808000000000,"state":"active","ping":69},{"user_id":391,"name":"Rori","steam_id":76561198052582902,"connected_time":3089000000000,"state":"active","ping":106},{"user_id":422,"name":"Caliber 12","steam_id":76561198884090116,"connected_time":501000000000,"state":"active","ping":145},{"user_id":406,"name":"Gryoss","steam_id":76561197999837111,"connected_time":1892000000000,"state":"active","ping":107}]},{"server_id":40,"name":"Uncletopia | London | 7 | No Payload","name_short":"lon-7","host":"lon-1.uk.uncletopia.com","port":27075,"enabled":true,"region":"eu","cc":"gb","latitude":51.509865,"longitude":-0.118092,"reserved":0,"last_update":"0001-01-01T00:00:00Z","name_a2s":"Uncletopia | London | 7 | No Payload","protocol":17,"map":"ctf_landfall","folder":"tf","game":"Team Fortress","app_id":440,"player_count":23,"max_players":24,"Bots":0,"server_type":"Dedicated","server_os":"Linux","password":true,"vac":true,"version":"7882260","steam_id":85568392924964314,"keywords":["ctf","nocrits","nodmgspread","uncletopia"],"game_id":440,"stv_port":27076,"stv_name":"Uncletopia | London | 7 | No Payload | STV","players":[{"user_id":288,"name":"IndigoJones","steam_id":76561198050284262,"connected_time":9792000000000,"state":"active","ping":47},{"user_id":413,"name":"SUSman","steam_id":76561199193589170,"connected_time":2195000000000,"state":"active","ping":103},{"user_id":250,"name":"M2rtRa","steam_id":76561198111036466,"connected_time":12481000000000,"state":"active","ping":74},{"user_id":414,"name":"FliturbiousRex","steam_id":76561199217583334,"connected_time":2132000000000,"state":"active","ping":139},{"user_id":388,"name":"one beer","steam_id":76561199181821779,"connected_time":4204000000000,"state":"active","ping":59},{"user_id":21,"name":"Nyhde","steam_id":76561198012771416,"connected_time":26341000000000,"state":"active","ping":106},{"user_id":322,"name":"wheatley worshipper","steam_id":76561198883869325,"connected_time":7473000000000,"state":"active","ping":58},{"user_id":430,"name":"Stańczyk","steam_id":76561197998906563,"connected_time":1332000000000,"state":"active","ping":41},{"user_id":349,"name":"Aspartus","steam_id":76561198101385763,"connected_time":5950000000000,"state":"active","ping":38},{"user_id":431,"name":"Fenril","steam_id":76561198008962391,"connected_time":1281000000000,"state":"active","ping":51},{"user_id":410,"name":"Kylute","steam_id":76561198447504417,"connected_time":2487000000000,"state":"active","ping":42},{"user_id":398,"name":"SONIC THE GOD","steam_id":76561199185147093,"connected_time":3406000000000,"state":"active","ping":91},{"user_id":434,"name":"The.Real.Genesis","steam_id":76561198999652040,"connected_time":196000000000,"state":"active","ping":51},{"user_id":423,"name":"mistah ham","steam_id":76561198880365394,"connected_time":1479000000000,"state":"active","ping":146},{"user_id":418,"name":"Truegear","steam_id":76561198059511386,"connected_time":1812000000000,"state":"active","ping":71},{"user_id":435,"name":"cursed","steam_id":76561198381491880,"connected_time":174000000000,"state":"active","ping":125},{"user_id":391,"name":"morris33morris","steam_id":76561198196456242,"connected_time":3892000000000,"state":"active","ping":65},{"user_id":375,"name":"Arthur","steam_id":76561198066109166,"connected_time":4878000000000,"state":"active","ping":85},{"user_id":436,"name":"Xeno","steam_id":76561198404755133,"connected_time":39000000000,"state":"active","ping":111},{"user_id":379,"name":"cat,","steam_id":76561199050072230,"connected_time":4659000000000,"state":"active","ping":52},{"user_id":409,"name":"pippis!","steam_id":76561198264553801,"connected_time":2708000000000,"state":"active","ping":97},{"user_id":425,"name":"Eerorri","steam_id":76561199001745671,"connected_time":1476000000000,"state":"active","ping":84},{"user_id":406,"name":"Men Fortress 2","steam_id":76561197999459536,"connected_time":3212000000000,"state":"active","ping":60}]},{"server_id":41,"name":"Uncletopia | London | 8 | Community","name_short":"lon-8","host":"lon-1.uk.uncletopia.com","port":27085,"enabled":true,"region":"eu","cc":"gb","latitude":51.509865,"longitude":-0.118092,"reserved":0,"last_update":"0001-01-01T00:00:00Z","name_a2s":"Uncletopia | London | 8 | Community","protocol":17,"map":"workshop/koth_ramjam_rc1.ugc459778887","folder":"tf","game":"Team Fortress","app_id":440,"player_count":0,"max_players":24,"Bots":0,"server_type":"Dedicated","server_os":"Linux","password":true,"vac":true,"version":"7882260","steam_id":85568392924964315,"keywords":["cp","nocrits","nodmgspread","uncletopia"],"game_id":440,"stv_port":27086,"stv_name":"Uncletopia | London | 8 | Community | STV","players":null},{"server_id":300,"name":"Uncletopia | Montréal | 1 | All Maps","name_short":"mtl-1","host":"mtl-1.ca.uncletopia.com","port":27015,"enabled":true,"region":"us-east","cc":"ca","latitude":45.50889,"longitude":-73.56167,"reserved":0,"last_update":"0001-01-01T00:00:00Z","name_a2s":"Uncletopia | Montréal | 1 | All Maps","protocol":17,"map":"pl_snowycoast","folder":"tf","game":"Team Fortress","app_id":440,"player_count":0,"max_players":24,"Bots":0,"server_type":"Dedicated","server_os":"Linux","password":true,"vac":true,"version":"7882260","steam_id":85568392924500087,"keywords":["nocrits","nodmgspread","payload","uncletopia"],"game_id":440,"stv_port":27016,"stv_name":"Uncletopia | Montréal | 1 | All Maps | STV","players":null},{"server_id":301,"name":"Uncletopia | Montréal | 2 | All Maps","name_short":"mtl-2","host":"mtl-1.ca.uncletopia.com","port":27025,"enabled":true,"region":"us-east","cc":"ca","latitude":45.50889,"longitude":-73.56167,"reserved":0,"last_update":"0001-01-01T00:00:00Z","name_a2s":"Uncletopia | Montréal | 2 | All Maps","protocol":17,"map":"cp_sunshine","folder":"tf","game":"Team Fortress","app_id":440,"player_count":0,"max_players":24,"Bots":0,"server_type":"Dedicated","server_os":"Linux","password":true,"vac":true,"version":"7882260","steam_id":85568392924500088,"keywords":["cp","nocrits","nodmgspread","uncletopia"],"game_id":440,"stv_port":27026,"stv_name":"Uncletopia | Montréal | 2 | All Maps | STV","players":null},{"server_id":302,"name":"Uncletopia | Montréal | 3 | All Maps","name_short":"mtl-3","host":"mtl-1.ca.uncletopia.com","port":27035,"enabled":true,"region":"us-east","cc":"ca","latitude":45.50889,"longitude":-73.56167,"reserved":0,"last_update":"0001-01-01T00:00:00Z","name_a2s":"Uncletopia | Montréal | 3 | All Maps","protocol":17,"map":"pl_borneo","folder":"tf","game":"Team Fortress","app_id":440,"player_count":0,"max_players":24,"Bots":0,"server_type":"Dedicated","server_os":"Linux","password":true,"vac":true,"version":"7882260","steam_id":85568392924500089,"keywords":["nocrits","nodmgspread","payload","uncletopia"],"game_id":440,"stv_port":27036,"stv_name":"Uncletopia | Montréal | 3 | All Maps | STV","players":null},{"server_id":303,"name":"Uncletopia | Montréal | 4 | No Payload","name_short":"mtl-4","host":"mtl-1.ca.uncletopia.com","port":27045,"enabled":true,"region":"us-east","cc":"ca","latitude":45.50889,"longitude":-73.56167,"reserved":0,"last_update":"0001-01-01T00:00:00Z","name_a2s":"Uncletopia | Montréal | 4 | No Payload","protocol":17,"map":"cp_altitude","folder":"tf","game":"Team Fortress","app_id":440,"player_count":0,"max_players":24,"Bots":0,"server_type":"Dedicated","server_os":"Linux","password":true,"vac":true,"version":"7882260","steam_id":85568392924500090,"keywords":["cp","nocrits","nodmgspread","uncletopia"],"game_id":440,"stv_port":27046,"stv_name":"Uncletopia | Montréal | 4 | No Payload | STV","players":null},{"server_id":13,"name":"Uncletopia | New York City | 1 | All Maps","name_short":"nyc-1","host":"nyc-1.us.uncletopia.com","port":27015,"enabled":true,"region":"us-east","cc":"us","latitude":40.73061,"longitude":-73.93524,"reserved":0,"last_update":"0001-01-01T00:00:00Z","name_a2s":"Uncletopia | New York City | 1 | All Maps","protocol":17,"map":"pl_pier","folder":"tf","game":"Team Fortress","app_id":440,"player_count":24,"max_players":24,"Bots":0,"server_type":"Dedicated","server_os":"Linux","password":true,"vac":true,"version":"7882260","steam_id":85568392924469993,"keywords":["nocrits","nodmgspread","payload","uncletopia"],"game_id":440,"stv_port":27016,"stv_name":"Uncletopia | New York City | 1 | All Maps | STV","players":[{"user_id":228,"name":"Orion","steam_id":76561198000418837,"connected_time":67000000000,"state":"active","ping":85},{"user_id":217,"name":"Herr Doktor","steam_id":76561199186282369,"connected_time":1469000000000,"state":"active","ping":162},{"user_id":181,"name":"minecraft","steam_id":76561198966980576,"connected_time":4766000000000,"state":"active","ping":44},{"user_id":196,"name":"WackAddict","steam_id":76561198407399114,"connected_time":3659000000000,"state":"active","ping":74},{"user_id":204,"name":"Manticore","steam_id":76561198044664093,"connected_time":2677000000000,"state":"active","ping":70},{"user_id":210,"name":"meth ape","steam_id":76561199110579692,"connected_time":1900000000000,"state":"active","ping":70},{"user_id":211,"name":"Lovedaddy","steam_id":76561198006569710,"connected_time":1897000000000,"state":"active","ping":72},{"user_id":221,"name":"Apollo","steam_id":76561198257683872,"connected_time":846000000000,"state":"active","ping":88},{"user_id":64,"name":"SHADY SWEATER SALESMAN","steam_id":76561198014616865,"connected_time":10402000000000,"state":"active","ping":51},{"user_id":227,"name":"King","steam_id":76561198039763676,"connected_time":615000000000,"state":"active","ping":72},{"user_id":218,"name":"kiewass","steam_id":76561198870729709,"connected_time":1309000000000,"state":"active","ping":146},{"user_id":193,"name":"The Loveable CHI.I.BI.","steam_id":76561198039262228,"connected_time":3900000000000,"state":"active","ping":86},{"user_id":197,"name":"Womp","steam_id":76561198245103000,"connected_time":3650000000000,"state":"active","ping":56},{"user_id":200,"name":"Hank","steam_id":76561198101223635,"connected_time":3027000000000,"state":"active","ping":46},{"user_id":222,"name":"6' 4\" 270 lbs ALL MUSCLE","steam_id":76561198021308963,"connected_time":795000000000,"state":"active","ping":89},{"user_id":213,"name":"Fuulip","steam_id":76561199109275013,"connected_time":1820000000000,"state":"active","ping":99},{"user_id":216,"name":"XD_ChaChingXD","steam_id":76561199103086783,"connected_time":1679000000000,"state":"active","ping":67},{"user_id":144,"name":"Kirbs","steam_id":76561198970654800,"connected_time":6815000000000,"state":"active","ping":45},{"user_id":223,"name":"[RGGL] Baccouch","steam_id":76561198001480670,"connected_time":795000000000,"state":"active","ping":81},{"user_id":224,"name":"seljum","steam_id":76561198188021354,"connected_time":793000000000,"state":"active","ping":55},{"user_id":186,"name":"Brown_Dream","steam_id":76561198975766145,"connected_time":4344000000000,"state":"active","ping":73},{"user_id":225,"name":"Anita Hanjaab","steam_id":76561199307270490,"connected_time":789000000000,"state":"active","ping":87},{"user_id":226,"name":"batheman63","steam_id":76561198881818552,"connected_time":757000000000,"state":"active","ping":66},{"user_id":219,"name":"Ampereii","steam_id":76561199047421020,"connected_time":1295000000000,"state":"active","ping":58}]},{"server_id":14,"name":"Uncletopia | New York City | 2 | All Maps","name_short":"nyc-2","host":"nyc-1.us.uncletopia.com","port":27025,"enabled":true,"region":"us-east","cc":"us","latitude":40.73061,"longitude":-73.93524,"reserved":0,"last_update":"0001-01-01T00:00:00Z","name_a2s":"Uncletopia | New York City | 2 | All Maps","protocol":17,"map":"koth_highpass","folder":"tf","game":"Team Fortress","app_id":440,"player_count":0,"max_players":24,"Bots":0,"server_type":"Dedicated","server_os":"Linux","password":true,"vac":true,"version":"7882260","steam_id":85568392924469994,"keywords":["cp","nocrits","nodmgspread","uncletopia"],"game_id":440,"stv_port":27026,"stv_name":"Uncletopia | New York City | 2 | All Maps | STV","players":null},{"server_id":15,"name":"Uncletopia | New York City | 3 | Stopwatch Beta","name_short":"nyc-3","host":"nyc-1.us.uncletopia.com","port":27035,"enabled":true,"region":"us-east","cc":"us","latitude":40.73061,"longitude":-73.93524,"reserved":0,"last_update":"0001-01-01T00:00:00Z","name_a2s":"Uncletopia | New York City | 3 | Stopwatch Beta","protocol":17,"map":"koth_lakeside_final","folder":"tf","game":"Team Fortress","app_id":440,"player_count":0,"max_players":24,"Bots":0,"server_type":"Dedicated","server_os":"Linux","password":true,"vac":true,"version":"7882260","steam_id":85568392924742820,"keywords":["cp","nocrits","nodmgspread","uncletopia"],"game_id":440,"stv_port":27036,"stv_name":"Uncletopia | New York City | 3 | Stopwatch Beta | STV","players":null},{"server_id":16,"name":"Uncletopia | New York City | 4 | Community","name_short":"nyc-4","host":"nyc-1.us.uncletopia.com","port":27045,"enabled":true,"region":"us-east","cc":"us","latitude":40.73061,"longitude":-73.93524,"reserved":0,"last_update":"0001-01-01T00:00:00Z","name_a2s":"Uncletopia | New York City | 4 | Community","protocol":17,"map":"workshop/koth_product_final.ugc454272353","folder":"tf","game":"Team Fortress","app_id":440,"player_count":0,"max_players":24,"Bots":0,"server_type":"Dedicated","server_os":"Linux","password":true,"vac":true,"version":"7882260","steam_id":85568392924742821,"keywords":["cp","nocrits","nodmgspread","uncletopia"],"game_id":440,"stv_port":27046,"stv_name":"Uncletopia | New York City | 4 | Community | STV","players":null},{"server_id":142,"name":"Uncletopia | São Paulo | 1 | All Maps","name_short":"sao-1","host":"sao-1.br.uncletopia.com","port":27015,"enabled":true,"region":"sa","cc":"br","latitude":-23.533773,"longitude":-46.62529,"reserved":0,"last_update":"0001-01-01T00:00:00Z","name_a2s":"Uncletopia | São Paulo | 1 | All Maps","protocol":17,"map":"pl_pier","folder":"tf","game":"Team Fortress","app_id":440,"player_count":0,"max_players":24,"Bots":0,"server_type":"Dedicated","server_os":"Linux","password":true,"vac":true,"version":"7882260","steam_id":85568392924469996,"keywords":["nocrits","nodmgspread","payload","uncletopia"],"game_id":440,"stv_port":27016,"stv_name":"Uncletopia | São Paulo | 1 | All Maps | STV","players":null},{"server_id":143,"name":"Uncletopia | São Paulo | 2 | All Maps","name_short":"sao-2","host":"sao-2.br.uncletopia.com","port":27015,"enabled":true,"region":"sa","cc":"br","latitude":-23.533773,"longitude":-46.62529,"reserved":0,"last_update":"0001-01-01T00:00:00Z","name_a2s":"Uncletopia | São Paulo | 2 | All Maps","protocol":17,"map":"pl_pier","folder":"tf","game":"Team Fortress","app_id":440,"player_count":1,"max_players":24,"Bots":0,"server_type":"Dedicated","server_os":"Linux","password":true,"vac":true,"version":"7882260","steam_id":85568392924485349,"keywords":["nocrits","nodmgspread","payload","uncletopia"],"game_id":440,"stv_port":27016,"stv_name":"Uncletopia | São Paulo | 2 | All Maps | STV","players":[{"user_id":7,"name":"$2 away of being P2P","steam_id":76561199061549831,"connected_time":302000000000,"state":"active","ping":80}]},{"server_id":7,"name":"Uncletopia | Seattle | 1 | All Maps","name_short":"sea-1","host":"sea-1.us.uncletopia.com","port":27015,"enabled":true,"region":"us-west","cc":"us","latitude":47.608013,"longitude":-122.33517,"reserved":0,"last_update":"0001-01-01T00:00:00Z","name_a2s":"Uncletopia | Seattle | 1 | All Maps","protocol":17,"map":"pl_swiftwater_final1","folder":"tf","game":"Team Fortress","app_id":440,"player_count":24,"max_players":24,"Bots":0,"server_type":"Dedicated","server_os":"Linux","password":true,"vac":true,"version":"7882260","steam_id":85568392924469997,"keywords":["nocrits","nodmgspread","payload","uncletopia"],"game_id":440,"stv_port":27016,"stv_name":"Uncletopia | Seattle | 1 | All Maps | STV","players":[{"user_id":22,"name":"Banzai","steam_id":76561198196503877,"connected_time":3646000000000,"state":"active","ping":45},{"user_id":71,"name":"ghosttᗝ","steam_id":76561199214430703,"connected_time":108000000000,"state":"active","ping":95},{"user_id":72,"name":"Mcfighter2","steam_id":76561198168073956,"connected_time":101000000000,"state":"active","ping":98},{"user_id":64,"name":"Pootis Bird","steam_id":76561199442979748,"connected_time":980000000000,"state":"active","ping":110},{"user_id":50,"name":"canakblasteran","steam_id":76561199472518822,"connected_time":1644000000000,"state":"active","ping":90},{"user_id":31,"name":"Themasterman75","steam_id":76561199385573293,"connected_time":2322000000000,"state":"active","ping":68},{"user_id":68,"name":"jayeskae","steam_id":76561198144220801,"connected_time":258000000000,"state":"active","ping":49},{"user_id":34,"name":"Anor","steam_id":76561198356139775,"connected_time":2122000000000,"state":"active","ping":87},{"user_id":35,"name":"Mom","steam_id":76561198207936000,"connected_time":1993000000000,"state":"active","ping":60},{"user_id":73,"name":"uncle 'ardboss","steam_id":76561198055490732,"connected_time":38000000000,"state":"spawning","ping":119},{"user_id":38,"name":"Renz","steam_id":76561198118995036,"connected_time":1857000000000,"state":"active","ping":52},{"user_id":48,"name":"fukfuk the friendly dinosaur","steam_id":76561198111878431,"connected_time":1677000000000,"state":"active","ping":66},{"user_id":54,"name":"Cloud","steam_id":76561198272454184,"connected_time":1382000000000,"state":"active","ping":172},{"user_id":62,"name":"DanceBunny","steam_id":76561198243610560,"connected_time":993000000000,"state":"active","ping":73},{"user_id":57,"name":"Sunshine","steam_id":76561198885528098,"connected_time":1297000000000,"state":"active","ping":120},{"user_id":43,"name":"bobletoob","steam_id":76561199184464900,"connected_time":1752000000000,"state":"active","ping":88},{"user_id":60,"name":"Integral","steam_id":76561198158225481,"connected_time":1223000000000,"state":"active","ping":68},{"user_id":67,"name":"Tyler\u0026Fingers","steam_id":76561198085154485,"connected_time":460000000000,"state":"active","ping":132},{"user_id":53,"name":"Ryld","steam_id":76561198010174380,"connected_time":1472000000000,"state":"active","ping":65},{"user_id":66,"name":"goodbye see you later","steam_id":76561198206922028,"connected_time":730000000000,"state":"active","ping":75},{"user_id":52,"name":"carpet","steam_id":76561198207881077,"connected_time":1564000000000,"state":"active","ping":103},{"user_id":69,"name":"Zom_Named_Zam","steam_id":76561198328066203,"connected_time":253000000000,"state":"active","ping":82},{"user_id":63,"name":"ふわふわ毛布","steam_id":76561198088403016,"connected_time":992000000000,"state":"active","ping":180},{"user_id":59,"name":"waltuh","steam_id":76561197960723571,"connected_time":1270000000000,"state":"active","ping":89}]},{"server_id":119,"name":"Uncletopia | Seattle | 2 | All Maps","name_short":"sea-2","host":"sea-1.us.uncletopia.com","port":27025,"enabled":true,"region":"us-west","cc":"us","latitude":47.608013,"longitude":-122.33517,"reserved":0,"last_update":"0001-01-01T00:00:00Z","name_a2s":"Uncletopia | Seattle | 2 | All Maps","protocol":17,"map":"koth_highpass","folder":"tf","game":"Team Fortress","app_id":440,"player_count":0,"max_players":24,"Bots":0,"server_type":"Dedicated","server_os":"Linux","password":true,"vac":true,"version":"7882260","steam_id":85568392924469998,"keywords":["cp","nocrits","nodmgspread","uncletopia"],"game_id":440,"stv_port":27026,"stv_name":"Uncletopia | Seattle | 2 | All Maps | STV","players":null},{"server_id":406,"name":"Uncletopia | Seattle | 3 | Stopwatch Beta","name_short":"sea-3","host":"sea-1.us.uncletopia.com","port":27035,"enabled":true,"region":"us-west","cc":"us","latitude":47.608013,"longitude":-122.33517,"reserved":0,"last_update":"0001-01-01T00:00:00Z","name_a2s":"Uncletopia | Seattle | 3 | Stopwatch Beta","protocol":17,"map":"cp_mountainlab","folder":"tf","game":"Team Fortress","app_id":440,"player_count":0,"max_players":24,"Bots":0,"server_type":"Dedicated","server_os":"Linux","password":true,"vac":true,"version":"7882260","steam_id":85568392924515217,"keywords":["cp","nocrits","nodmgspread","uncletopia"],"game_id":440,"stv_port":27036,"stv_name":"Uncletopia | Seattle | 3 | Stopwatch Beta | STV","players":null},{"server_id":17,"name":"Uncletopia | San Francisco | 1 | All Maps","name_short":"sfo-1","host":"sfo-1.us.uncletopia.com","port":27015,"enabled":true,"region":"us-west","cc":"us","latitude":37.77397,"longitude":-122.4313,"reserved":0,"last_update":"0001-01-01T00:00:00Z","name_a2s":"Uncletopia | San Francisco | 1 | All Maps","protocol":17,"map":"pl_barnblitz","folder":"tf","game":"Team Fortress","app_id":440,"player_count":0,"max_players":24,"Bots":0,"server_type":"Dedicated","server_os":"Linux","password":true,"vac":true,"version":"7882260","steam_id":85568392924469999,"keywords":["nocrits","nodmgspread","payload","uncletopia"],"game_id":440,"stv_port":27016,"stv_name":"Uncletopia | San Francisco | 1 | All Maps | STV","players":null},{"server_id":18,"name":"Uncletopia | San Francisco | 2 | All Maps","name_short":"sfo-2","host":"sfo-1.us.uncletopia.com","port":27025,"enabled":true,"region":"us-west","cc":"us","latitude":37.77397,"longitude":-122.4313,"reserved":0,"last_update":"0001-01-01T00:00:00Z","name_a2s":"Uncletopia | San Francisco | 2 | All Maps","protocol":17,"map":"pl_swiftwater_final1","folder":"tf","game":"Team Fortress","app_id":440,"player_count":0,"max_players":24,"Bots":0,"server_type":"Dedicated","server_os":"Linux","password":true,"vac":true,"version":"7882260","steam_id":85568392924470000,"keywords":["nocrits","nodmgspread","payload","uncletopia"],"game_id":440,"stv_port":27026,"stv_name":"Uncletopia | San Francisco | 2 | All Maps | STV","players":null},{"server_id":19,"name":"Uncletopia | San Francisco | 3 | Stopwatch Beta","name_short":"sfo-3","host":"sfo-1.us.uncletopia.com","port":27035,"enabled":true,"region":"us-west","cc":"us","latitude":37.77397,"longitude":-122.4313,"reserved":0,"last_update":"0001-01-01T00:00:00Z","name_a2s":"Uncletopia | San Francisco | 3 | Stopwatch Beta","protocol":17,"map":"pl_frontier_final","folder":"tf","game":"Team Fortress","app_id":440,"player_count":0,"max_players":24,"Bots":0,"server_type":"Dedicated","server_os":"Linux","password":true,"vac":true,"version":"7882260","steam_id":85568392924742824,"keywords":["nocrits","nodmgspread","payload","uncletopia"],"game_id":440,"stv_port":27036,"stv_name":"Uncletopia | San Francisco | 3 | Stopwatch Beta | STV","players":null},{"server_id":20,"name":"Uncletopia | San Francisco | 4 | Community","name_short":"sfo-4","host":"sfo-1.us.uncletopia.com","port":27045,"enabled":true,"region":"us-west","cc":"us","latitude":37.77397,"longitude":-122.4313,"reserved":0,"last_update":"0001-01-01T00:00:00Z","name_a2s":"Uncletopia | San Francisco | 4 | Community","protocol":17,"map":"workshop/cp_propaganda_b18.ugc1603743849","folder":"tf","game":"Team Fortress","app_id":440,"player_count":0,"max_players":24,"Bots":0,"server_type":"Dedicated","server_os":"Linux","password":true,"vac":true,"version":"7882260","steam_id":85568392924742826,"keywords":["cp","nocrits","nodmgspread","uncletopia"],"game_id":440,"stv_port":27046,"stv_name":"Uncletopia | San Francisco | 4 | Community | STV","players":null},{"server_id":141,"name":"Uncletopia | Sydney | 1 | All Maps","name_short":"syd-1","host":"syd-1.au.uncletopia.com","port":27015,"enabled":true,"region":"au","cc":"au","latitude":-33.865143,"longitude":151.2099,"reserved":0,"last_update":"0001-01-01T00:00:00Z","name_a2s":"Uncletopia | Sydney | 1 | All Maps","protocol":17,"map":"koth_lakeside_final","folder":"tf","game":"Team Fortress","app_id":440,"player_count":0,"max_players":24,"Bots":0,"server_type":"Dedicated","server_os":"Linux","password":true,"vac":true,"version":"7882260","steam_id":85568392924470001,"keywords":["cp","nocrits","nodmgspread","uncletopia"],"game_id":440,"stv_port":27016,"stv_name":"Uncletopia | Sydney | 1 | All Maps | STV","players":null},{"server_id":123,"name":"Uncletopia | Sydney | 2 | All Maps","name_short":"syd-2","host":"syd-1.au.uncletopia.com","port":27025,"enabled":true,"region":"au","cc":"au","latitude":-33.865143,"longitude":151.2099,"reserved":0,"last_update":"0001-01-01T00:00:00Z","name_a2s":"Uncletopia | Sydney | 2 | All Maps","protocol":17,"map":"koth_cascade","folder":"tf","game":"Team Fortress","app_id":440,"player_count":0,"max_players":24,"Bots":0,"server_type":"Dedicated","server_os":"Linux","password":true,"vac":true,"version":"7882260","steam_id":85568392924470002,"keywords":["cp","nocrits","nodmgspread","uncletopia"],"game_id":440,"stv_port":27026,"stv_name":"Uncletopia | Sydney | 2 | All Maps | STV","players":null},{"server_id":395,"name":"Uncletopia | Sydney | 3 | All Maps","name_short":"syd-3","host":"syd-1.au.uncletopia.com","port":27035,"enabled":true,"region":"au","cc":"au","latitude":-33.865143,"longitude":151.2099,"reserved":0,"last_update":"0001-01-01T00:00:00Z","name_a2s":"Uncletopia | Sydney | 3 | All Maps","protocol":17,"map":"koth_viaduct","folder":"tf","game":"Team Fortress","app_id":440,"player_count":0,"max_players":24,"Bots":0,"server_type":"Dedicated","server_os":"Linux","password":true,"vac":true,"version":"7882260","steam_id":85568392925194467,"keywords":["cp","nocrits","nodmgspread","uncletopia"],"game_id":440,"stv_port":27036,"stv_name":"Uncletopia | Sydney | 3 | All Maps | STV","players":null},{"server_id":396,"name":"Uncletopia | Sydney | 4 | All Maps","name_short":"syd-4","host":"syd-1.au.uncletopia.com","port":27045,"enabled":true,"region":"au","cc":"au","latitude":-33.865143,"longitude":151.2099,"reserved":0,"last_update":"0001-01-01T00:00:00Z","name_a2s":"Uncletopia | Sydney | 4 | All Maps","protocol":17,"map":"koth_highpass","folder":"tf","game":"Team Fortress","app_id":440,"player_count":0,"max_players":24,"Bots":0,"server_type":"Dedicated","server_os":"Linux","password":true,"vac":true,"version":"7882260","steam_id":85568392925397958,"keywords":["cp","nocrits","nodmgspread","uncletopia"],"game_id":440,"stv_port":27046,"stv_name":"Uncletopia | Sydney | 4 | All Maps | STV","players":null},{"server_id":58,"name":"Uncletopia | Sydney | 5 | Stopwatch Beta","name_short":"syd-5","host":"syd-1.au.uncletopia.com","port":27055,"enabled":true,"region":"au","cc":"au","latitude":-33.865143,"longitude":151.2099,"reserved":0,"last_update":"0001-01-01T00:00:00Z","name_a2s":"Uncletopia | Sydney | 5 | Stopwatch Beta","protocol":17,"map":"koth_highpass","folder":"tf","game":"Team Fortress","app_id":440,"player_count":0,"max_players":24,"Bots":0,"server_type":"Dedicated","server_os":"Linux","password":true,"vac":true,"version":"7882260","steam_id":85568392925397959,"keywords":["cp","nocrits","nodmgspread","uncletopia"],"game_id":440,"stv_port":27056,"stv_name":"Uncletopia | Sydney | 5 | Stopwatch Beta | STV","players":null},{"server_id":59,"name":"Uncletopia | Sydney | 6 | Community","name_short":"syd-6","host":"syd-1.au.uncletopia.com","port":27065,"enabled":true,"region":"au","cc":"au","latitude":-33.865143,"longitude":151.2099,"reserved":0,"last_update":"0001-01-01T00:00:00Z","name_a2s":"Uncletopia | Sydney | 6 | Community","protocol":17,"map":"workshop/koth_product_final.ugc454272353","folder":"tf","game":"Team Fortress","app_id":440,"player_count":0,"max_players":24,"Bots":0,"server_type":"Dedicated","server_os":"Linux","password":true,"vac":true,"version":"7882260","steam_id":85568392925397960,"keywords":["cp","nocrits","nodmgspread","uncletopia"],"game_id":440,"stv_port":27066,"stv_name":"Uncletopia | Sydney | 6 | Community | STV","players":null},{"server_id":49,"name":"Uncletopia | Warsaw | 1 | All Maps","name_short":"waw-1","host":"waw-1.pl.uncletopia.com","port":27015,"enabled":true,"region":"eu","cc":"pl","latitude":52.2297,"longitude":21.017532,"reserved":0,"last_update":"0001-01-01T00:00:00Z","name_a2s":"","protocol":0,"map":"","folder":"","game":"","app_id":0,"player_count":0,"max_players":0,"Bots":0,"server_type":"","server_os":"","password":false,"vac":false,"version":"","steam_id":0,"keywords":null,"game_id":0,"stv_port":0,"stv_name":"","players":null},{"server_id":50,"name":"Uncletopia | Warsaw | 2 | All Maps","name_short":"waw-2","host":"waw-1.pl.uncletopia.com","port":27025,"enabled":true,"region":"eu","cc":"pl","latitude":52.2297,"longitude":21.017532,"reserved":0,"last_update":"0001-01-01T00:00:00Z","name_a2s":"Uncletopia | Warsaw | 2 | All Maps","protocol":17,"map":"pl_upward","folder":"tf","game":"Team Fortress","app_id":440,"player_count":0,"max_players":24,"Bots":0,"server_type":"Dedicated","server_os":"Linux","password":true,"vac":true,"version":"7882260","steam_id":85568392925397851,"keywords":["nocrits","nodmgspread","payload","uncletopia"],"game_id":440,"stv_port":27026,"stv_name":"Uncletopia | Warsaw | 2 | All Maps | STV","players":null},{"server_id":51,"name":"Uncletopia | Warsaw | 3 | All Maps","name_short":"waw-3","host":"waw-1.pl.uncletopia.com","port":27035,"enabled":true,"region":"eu","cc":"pl","latitude":52.2297,"longitude":21.017532,"reserved":0,"last_update":"0001-01-01T00:00:00Z","name_a2s":"Uncletopia | Warsaw | 3 | All Maps","protocol":17,"map":"koth_viaduct","folder":"tf","game":"Team Fortress","app_id":440,"player_count":0,"max_players":24,"Bots":0,"server_type":"Dedicated","server_os":"Linux","password":true,"vac":true,"version":"7882260","steam_id":85568392925397852,"keywords":["cp","nocrits","nodmgspread","uncletopia"],"game_id":440,"stv_port":27036,"stv_name":"Uncletopia | Warsaw | 3 | All Maps | STV","players":null},{"server_id":52,"name":"Uncletopia | Warsaw | 4 | All Maps","name_short":"waw-4","host":"waw-1.pl.uncletopia.com","port":27045,"enabled":true,"region":"eu","cc":"pl","latitude":52.2297,"longitude":21.017532,"reserved":0,"last_update":"0001-01-01T00:00:00Z","name_a2s":"Uncletopia | Warsaw | 4 | All Maps","protocol":17,"map":"koth_highpass","folder":"tf","game":"Team Fortress","app_id":440,"player_count":0,"max_players":24,"Bots":0,"server_type":"Dedicated","server_os":"Linux","password":true,"vac":true,"version":"7882260","steam_id":85568392925397853,"keywords":["cp","nocrits","nodmgspread","uncletopia"],"game_id":440,"stv_port":27046,"stv_name":"Uncletopia | Warsaw | 4 | All Maps | STV","players":null},{"server_id":53,"name":"Uncletopia | Warsaw | 5 | Stopwatch Beta","name_short":"waw-5","host":"waw-1.pl.uncletopia.com","port":27055,"enabled":true,"region":"eu","cc":"pl","latitude":52.2297,"longitude":21.017532,"reserved":0,"last_update":"0001-01-01T00:00:00Z","name_a2s":"Uncletopia | Warsaw | 5 | Stopwatch Beta","protocol":17,"map":"cp_mountainlab","folder":"tf","game":"Team Fortress","app_id":440,"player_count":0,"max_players":24,"Bots":0,"server_type":"Dedicated","server_os":"Linux","password":true,"vac":true,"version":"7882260","steam_id":85568392925397854,"keywords":["cp","nocrits","nodmgspread","uncletopia"],"game_id":440,"stv_port":27056,"stv_name":"Uncletopia | Warsaw | 5 | Stopwatch Beta | STV","players":null},{"server_id":54,"name":"Uncletopia | Warsaw | 6 | Community","name_short":"waw-6","host":"waw-1.pl.uncletopia.com","port":27065,"enabled":true,"region":"eu","cc":"pl","latitude":52.2297,"longitude":21.017532,"reserved":0,"last_update":"0001-01-01T00:00:00Z","name_a2s":"Uncletopia | Warsaw | 6 | Community","protocol":17,"map":"koth_viaduct","folder":"tf","game":"Team Fortress","app_id":440,"player_count":0,"max_players":24,"Bots":0,"server_type":"Dedicated","server_os":"Linux","password":true,"vac":true,"version":"7882260","steam_id":85568392925397856,"keywords":["cp","nocrits","nodmgspread","uncletopia"],"game_id":440,"stv_port":27066,"stv_name":"Uncletopia | Warsaw | 6 | Community | STV","players":null}]}