{"status":true,"message":"","result":[{"server_id":2,"name":"Uncletopia | Chicago | 1 | All Maps","name_short":"chi-1","host":"chi-1.us.uncletopia.com","port":27015,"enabled":true,"region":"us-central","cc":"us","latitude":41.881832,"longitude":-87.62318,"reserved":0,"last_update":"0001-01-01T00:00:00Z","name_a2s":"Uncletopia | Chicago | 1 | All Maps","protocol":17,"map":"ctf_2fort","folder":"tf","game":"Team Fortress","app_id":440,"player_count":24,"max_players":24,"Bots":0,"server_type":"Dedicated","server_os":"Linux","password":true,"vac":true,"version":"7932396","steam_id":85568392924469984,"keywords":["ctf","nocrits","nodmgspread","uncletopia"],"game_id":440,"stv_port":27016,"stv_name":"Uncletopia | Chicago | 1 | All Maps | STV","players":[{"user_id":770,"name":"nullptr","steam_id":76561198111790388,"connected_time":1487000000000,"state":"active","ping":87},{"user_id":771,"name":"lb Diamond","steam_id":76561197967998740,"connected_time":1237000000000,"state":"active","ping":107},{"user_id":689,"name":"Shadoe","steam_id":76561198218577281,"connected_time":8363000000000,"state":"active","ping":47},{"user_id":791,"name":"A Rather Questionable Tomato","steam_id":76561198064629474,"connected_time":51000000000,"state":"active","ping":37},{"user_id":742,"name":"corse hock","steam_id":76561198283872395,"connected_time":3399000000000,"state":"active","ping":209},{"user_id":778,"name":"ma≈Çiƒô","steam_id":76561198337705174,"connected_time":1032000000000,"state":"active","ping":63},{"user_id":766,"name":"„Éì„Éº„Éä„Éº","steam_id":76561199196918355,"connected_time":1578000000000,"state":"active","ping":45},{"user_id":761,"name":"Save","steam_id":76561198032740584,"connected_time":2058000000000,"state":"active","ping":75},{"user_id":783,"name":"Lucille_Bluth","steam_id":76561198206133916,"connected_time":495000000000,"state":"active","ping":72},{"user_id":784,"name":"Giant Dad","steam_id":76561198042088837,"connected_time":474000000000,"state":"active","ping":220},{"user_id":780,"name":"Spike Bones","steam_id":76561198234926120,"connected_time":766000000000,"state":"active","ping":89},{"user_id":785,"name":"Axel Beoulve","steam_id":76561198126511231,"connected_time":442000000000,"state":"active","ping":237},{"user_id":759,"name":"Your Local Queer Librarian","steam_id":76561198013077080,"connected_time":2405000000000,"state":"active","ping":57},{"user_id":751,"name":"Scion","steam_id":76561198287677258,"connected_time":2689000000000,"state":"active","ping":81},{"user_id":749,"name":"Killer Kled","steam_id":76561198087002008,"connected_time":2770000000000,"state":"active","ping":67},{"user_id":750,"name":"An Insanely Sly Sausage","steam_id":76561198271342168,"connected_time":2744000000000,"state":"active","ping":76},{"user_id":786,"name":"BilboShepard","steam_id":76561198400412548,"connected_time":418000000000,"state":"active","ping":100},{"user_id":753,"name":"SNIPER MONKEY","steam_id":76561198403205128,"connected_time":2665000000000,"state":"active","ping":115},{"user_id":754,"name":"Ludcmorais","steam_id":76561198359217809,"connected_time":2639000000000,"state":"active","ping":183},{"user_id":776,"name":"QWERTY","steam_id":76561198211430420,"connected_time":1109000000000,"state":"active","ping":70},{"user_id":792,"name":"Emangamez","steam_id":76561198143997970,"connected_time":28000000000,"state":"active","ping":64},{"user_id":726,"name":"bluefoxx118","steam_id":76561198182884975,"connected_time":5749000000000,"state":"active","ping":54},{"user_id":762,"name":"Viktor Ludwig","steam_id":76561198973370004,"connected_time":2054000000000,"state":"active","ping":104},{"user_id":790,"name":"Alfred Alfer","steam_id":76561198131833567,"connected_time":335000000000,"state":"active","ping":111}]},{"server_id":106,"name":"Uncletopia | Chicago | 2 | All Maps","name_short":"chi-2","host":"chi-1.us.uncletopia.com","port":27025,"enabled":true,"region":"us-central","cc":"us","latitude":41.881832,"longitude":-87.62318,"reserved":0,"last_update":"0001-01-01T00:00:00Z","name_a2s":"Uncletopia | Chicago | 2 | All Maps","protocol":17,"map":"cp_snakewater_final1","folder":"tf","game":"Team Fortress","app_id":440,"player_count":0,"max_players":24,"Bots":0,"server_type":"Dedicated","server_os":"Linux","password":true,"vac":true,"version":"7932396","steam_id":85568392924469985,"keywords":["cp","nocrits","nodmgspread","uncletopia"],"game_id":440,"stv_port":27026,"stv_name":"Uncletopia | Chicago | 2 | All Maps | STV","players":null},{"server_id":402,"name":"Uncletopia | Chicago | 3 | All Maps","name_short":"chi-3","host":"chi-1.us.uncletopia.com","port":27035,"enabled":true,"region":"us-central","cc":"us","latitude":41.881832,"longitude":-87.62318,"reserved":0,"last_update":"0001-01-01T00:00:00Z","name_a2s":"Uncletopia | Chicago | 3 | All Maps","protocol":17,"map":"pl_barnblitz","folder":"tf","game":"Team Fortress","app_id":440,"player_count":0,"max_players":24,"Bots":0,"server_type":"Dedicated","server_os":"Linux","password":true,"vac":true,"version":"7932396","steam_id":85568392924515191,"keywords":["nocrits","nodmgspread","payload","uncletopia"],"game_id":440,"stv_port":27036,"stv_name":"Uncletopia | Chicago | 3 | All Maps | STV","players":null},{"server_id":403,"name":"Uncletopia | Chicago | 4 | All Maps","name_short":"chi-4","host":"chi-1.us.uncletopia.com","port":27045,"enabled":true,"region":"us-central","cc":"us","latitude":41.881832,"longitude":-87.62318,"reserved":0,"last_update":"0001-01-01T00:00:00Z","name_a2s":"Uncletopia | Chicago | 4 | All Maps","protocol":17,"map":"pl_badwater","folder":"tf","game":"Team Fortress","app_id":440,"player_count":24,"max_players":24,"Bots":0,"server_type":"Dedicated","server_os":"Linux","password":true,"vac":true,"version":"7932396","steam_id":85568392924515193,"keywords":["nocrits","nodmgspread","payload","uncletopia"],"game_id":440,"stv_port":27046,"stv_name":"Uncletopia | Chicago | 4 | All Maps | STV","players":[{"user_id":781,"name":"Khaicchi","steam_id":76561198104454754,"connected_time":1225000000000,"state":"active","ping":178},{"user_id":779,"name":"Toastee","steam_id":76561198085410969,"connected_time":1307000000000,"state":"active","ping":54},{"user_id":773,"name":"CART","steam_id":76561198079476352,"connected_time":1839000000000,"state":"active","ping":105},{"user_id":711,"name":"aleksei.fi","steam_id":76561199061380038,"connected_time":5720000000000,"state":"active","ping":60},{"user_id":777,"name":"mans got the mouse katool","steam_id":76561198073103529,"connected_time":1534000000000,"state":"active","ping":75},{"user_id":793,"name":"M3L","steam_id":76561199474189433,"connected_time":857000000000,"state":"active","ping":76},{"user_id":784,"name":"I‚Äôm literally standing","steam_id":76561198089630547,"connected_time":1103000000000,"state":"active","ping":67},{"user_id":768,"name":"mOoOoOoO","steam_id":76561198145615363,"connected_time":2255000000000,"state":"active","ping":61},{"user_id":758,"name":"Terminal Brain Rot","steam_id":76561198112594672,"connected_time":2681000000000,"state":"active","ping":70},{"user_id":794,"name":"Larry","steam_id":76561198005056455,"connected_time":581000000000,"state":"active","ping":90},{"user_id":785,"name":"SlurdyDurdy","steam_id":76561198101494591,"connected_time":1094000000000,"state":"active","ping":85},{"user_id":786,"name":"-natalexei.gb -iwnl-","steam_id":76561198100477765,"connected_time":1079000000000,"state":"active","ping":206},{"user_id":788,"name":"huh","steam_id":76561198102265073,"connected_time":973000000000,"state":"active","ping":105},{"user_id":757,"name":"VHSTAPE","steam_id":76561198036560740,"connected_time":2829000000000,"state":"active","ping":93},{"user_id":706,"name":"Kritzburgh","steam_id":76561198149466938,"connected_time":6162000000000,"state":"active","ping":63},{"user_id":789,"name":"Stan","steam_id":76561199057962816,"connected_time":945000000000,"state":"active","ping":60},{"user_id":762,"name":"Cr0w","steam_id":76561198453514133,"connected_time":2465000000000,"state":"active","ping":108},{"user_id":790,"name":"Scout","steam_id":76561198081464125,"connected_time":927000000000,"state":"active","ping":62},{"user_id":796,"name":"0","steam_id":76561198046065237,"connected_time":38000000000,"state":"active","ping":75},{"user_id":685,"name":"i need cock goku","steam_id":76561198154449875,"connected_time":8151000000000,"state":"active","ping":104},{"user_id":764,"name":"·≤º ·≤º","steam_id":76561198149443710,"connected_time":2419000000000,"state":"active","ping":98},{"user_id":765,"name":"domkey","steam_id":76561198066114874,"connected_time":2416000000000,"state":"active","ping":105},{"user_id":792,"name":"Stargazer","steam_id":76561198075490415,"connected_time":901000000000,"state":"active","ping":73},{"user_id":686,"name":"machine embodiment","steam_id":76561199081837220,"connected_time":8101000000000,"state":"active","ping":84}]},{"server_id":36,"name":"Uncletopia | Chicago | 5 | All Maps","name_short":"chi-5","host":"chi-2.us.uncletopia.com","port":27015,"enabled":true,"region":"us-central","cc":"us","latitude":41.881832,"longitude":-87.62318,"reserved":0,"last_update":"0001-01-01T00:00:00Z","name_a2s":"Uncletopia | Chicago | 5 | All Maps","protocol":17,"map":"cp_mountainlab","folder":"tf","game":"Team Fortress","app_id":440,"player_count":0,"max_players":24,"Bots":0,"server_type":"Dedicated","server_os":"Linux","password":true,"vac":true,"version":"7932396","steam_id":85568392924866362,"keywords":["cp","nocrits","nodmgspread","uncletopia"],"game_id":440,"stv_port":27016,"stv_name":"Uncletopia | Chicago | 5 | All Maps | STV","players":null},{"server_id":37,"name":"Uncletopia | Chicago | 6 | All Maps","name_short":"chi-6","host":"chi-2.us.uncletopia.com","port":27025,"enabled":true,"region":"us-central","cc":"us","latitude":41.881832,"longitude":-87.62318,"reserved":0,"last_update":"0001-01-01T00:00:00Z","name_a2s":"Uncletopia | Chicago | 6 | All Maps","protocol":17,"map":"koth_cascade","folder":"tf","game":"Team Fortress","app_id":440,"player_count":0,"max_players":24,"Bots":0,"server_type":"Dedicated","server_os":"Linux","password":true,"vac":true,"version":"7932396","steam_id":85568392924866363,"keywords":["cp","nocrits","nodmgspread","uncletopia"],"game_id":440,"stv_port":27026,"stv_name":"Uncletopia | Chicago | 6 | All Maps | STV","players":null},{"server_id":38,"name":"Uncletopia | Chicago | 7 | Stopwatch Beta","name_short":"chi-7","host":"chi-2.us.uncletopia.com","port":27035,"enabled":true,"region":"us-central","cc":"us","latitude":41.881832,"longitude":-87.62318,"reserved":0,"last_update":"0001-01-01T00:00:00Z","name_a2s":"Uncletopia | Chicago | 7 | Stopwatch Beta","protocol":17,"map":"workshop/pl_summercoast_rc8e.ugc1761528829","folder":"tf","game":"Team Fortress","app_id":440,"player_count":0,"max_players":24,"Bots":0,"server_type":"Dedicated","server_os":"Linux","password":true,"vac":true,"version":"7932396","steam_id":85568392924866364,"keywords":["nocrits","nodmgspread","payload","uncletopia"],"game_id":440,"stv_port":27036,"stv_name":"Uncletopia | Chicago | 7 | Stopwatch Beta | STV","players":null},{"server_id":39,"name":"Uncletopia | Chicago | 8 | Community","name_short":"chi-8","host":"chi-2.us.uncletopia.com","port":27045,"enabled":true,"region":"us-central","cc":"us","latitude":41.881832,"longitude":-87.62318,"reserved":0,"last_update":"0001-01-01T00:00:00Z","name_a2s":"Uncletopia | Chicago | 8 | Community","protocol":17,"map":"workshop/koth_slaughter_rc1.ugc1712845210","folder":"tf","game":"Team Fortress","app_id":440,"player_count":0,"max_players":24,"Bots":0,"server_type":"Dedicated","server_os":"Linux","password":true,"vac":true,"version":"7932396","steam_id":85568392924866365,"keywords":["cp","nocrits","nodmgspread","uncletopia"],"game_id":440,"stv_port":27046,"stv_name":"Uncletopia | Chicago | 8 | Community | STV","players":null},{"server_id":8,"name":"Uncletopia | Dallas | 1 | All Maps","name_short":"dal-1","host":"dal-1.us.uncletopia.com","port":27015,"enabled":true,"region":"us-central","cc":"us","latitude":32.779167,"longitude":-96.80889,"reserved":0,"last_update":"0001-01-01T00:00:00Z","name_a2s":"Uncletopia | Dallas | 1 | All Maps","protocol":17,"map":"pl_borneo","folder":"tf","game":"Team Fortress","app_id":440,"player_count":24,"max_players":24,"Bots":0,"server_type":"Dedicated","server_os":"Linux","password":true,"vac":true,"version":"7932396","steam_id":85568392924469986,"keywords":["nocrits","nodmgspread","payload","uncletopia"],"game_id":440,"stv_port":27016,"stv_name":"Uncletopia | Dallas | 1 | All Maps | STV","players":[{"user_id":1091,"name":"Blows","steam_id":76561198065349185,"connected_time":4342000000000,"state":"active","ping":74},{"user_id":1122,"name":"yungevilbruh","steam_id":76561198127631900,"connected_time":1953000000000,"state":"active","ping":77},{"user_id":1023,"name":"squidpunk1312","steam_id":76561198202274248,"connected_time":10870000000000,"state":"active","ping":61},{"user_id":1133,"name":"‚ù§[S'more]‚ù§","steam_id":76561198817361963,"connected_time":548000000000,"state":"active","ping":106},{"user_id":1102,"name":"Frank Forearms.","steam_id":76561198225910596,"connected_time":3426000000000,"state":"active","ping":56},{"user_id":1114,"name":"chocolat3823","steam_id":76561199249875689,"connected_time":2297000000000,"state":"active","ping":87},{"user_id":1136,"name":"Deluxe_Taco34","steam_id":76561199037653437,"connected_time":527000000000,"state":"active","ping":125},{"user_id":1124,"name":"bag fumbler","steam_id":76561198073946141,"connected_time":1681000000000,"state":"active","ping":189},{"user_id":1115,"name":"mndbrkn","steam_id":76561198054390505,"connected_time":2235000000000,"state":"active","ping":69},{"user_id":1128,"name":"AlcoholicDad454","steam_id":76561198157414556,"connected_time":1410000000000,"state":"active","ping":82},{"user_id":1097,"name":"what is completely unfappable?","steam_id":76561198032259680,"connected_time":4133000000000,"state":"active","ping":88},{"user_id":1106,"name":"Rusted Cake","steam_id":76561198209755931,"connected_time":3181000000000,"state":"active","ping":87},{"user_id":1130,"name":"Doctor X (Michiko Daemon)","steam_id":76561199106264424,"connected_time":695000000000,"state":"active","ping":140},{"user_id":1117,"name":"The Horselords and Animal Gods","steam_id":76561197975094050,"connected_time":2032000000000,"state":"active","ping":80},{"user_id":1129,"name":"doug demodome","steam_id":76561198048882285,"connected_time":876000000000,"state":"active","ping":83},{"user_id":1134,"name":"Eins","steam_id":76561199030343810,"connected_time":541000000000,"state":"active","ping":59},{"user_id":1135,"name":"im the beef","steam_id":76561198069506128,"connected_time":534000000000,"state":"active","ping":75},{"user_id":1095,"name":"resh!","steam_id":76561198066619792,"connected_time":4176000000000,"state":"active","ping":55},{"user_id":1137,"name":"i need u","steam_id":76561198030625151,"connected_time":525000000000,"state":"active","ping":75},{"user_id":1104,"name":"Sev","steam_id":76561198978665598,"connected_time":3250000000000,"state":"active","ping":69},{"user_id":1131,"name":"Madeline (she/her)","steam_id":76561198336551859,"connected_time":680000000000,"state":"active","ping":77},{"user_id":1121,"name":"Cinnamon Toast Crunch","steam_id":76561199265597843,"connected_time":1985000000000,"state":"active","ping":97},{"user_id":1123,"name":"bbq chiken","steam_id":76561198111969542,"connected_time":1919000000000,"state":"active","ping":77},{"user_id":993,"name":"transgender fortress 2","steam_id":76561198062263639,"connected_time":12481000000000,"state":"active","ping":59}]},{"server_id":108,"name":"Uncletopia | Dallas | 2 | All Maps","name_short":"dal-2","host":"dal-1.us.uncletopia.com","port":27025,"enabled":true,"region":"us-central","cc":"us","latitude":32.779167,"longitude":-96.80889,"reserved":0,"last_update":"0001-01-01T00:00:00Z","name_a2s":"Uncletopia | Dallas | 2 | All Maps","protocol":17,"map":"koth_lakeside_final","folder":"tf","game":"Team Fortress","app_id":440,"player_count":0,"max_players":24,"Bots":0,"server_type":"Dedicated","server_os":"Linux","password":true,"vac":true,"version":"7932396","steam_id":85568392924469988,"keywords":["cp","nocrits","nodmgspread","uncletopia"],"game_id":440,"stv_port":27026,"stv_name":"Uncletopia | Dallas | 2 | All Maps | STV","players":null},{"server_id":5,"name":"Uncletopia | Frankfurt | 1 | All Maps","name_short":"frk-1","host":"frk-1.de.uncletopia.com","port":27015,"enabled":true,"region":"eu","cc":"de","latitude":50.110924,"longitude":8.682127,"reserved":0,"last_update":"0001-01-01T00:00:00Z","name_a2s":"Uncletopia | Frankfurt | 1 | All Maps","protocol":17,"map":"pl_pier","folder":"tf","game":"Team Fortress","app_id":440,"player_count":24,"max_players":24,"Bots":0,"server_type":"Dedicated","server_os":"Linux","password":true,"vac":true,"version":"7932396","steam_id":85568392924469989,"keywords":["nocrits","nodmgspread","payload","uncletopia"],"game_id":440,"stv_port":27016,"stv_name":"Uncletopia | Frankfurt | 1 | All Maps | STV","players":[{"user_id":125,"name":"Chopperson_","steam_id":76561198873728497,"connected_time":155000000000,"state":"active","ping":104},{"user_id":95,"name":"cl","steam_id":76561199436640904,"connected_time":2238000000000,"state":"active","ping":75},{"user_id":106,"name":"UnknownHero","steam_id":76561198864766392,"connected_time":1508000000000,"state":"active","ping":84},{"user_id":96,"name":"Sim","steam_id":76561198086641180,"connected_time":2133000000000,"state":"active","ping":100},{"user_id":113,"name":"marvs","steam_id":76561198851777617,"connected_time":743000000000,"state":"active","ping":53},{"user_id":115,"name":"Zoompee","steam_id":76561198021382249,"connected_time":538000000000,"state":"active","ping":112},{"user_id":108,"name":"TheGoldenCitation","steam_id":76561199237956000,"connected_time":1476000000000,"state":"active","ping":63},{"user_id":79,"name":"Spy is Sapping my Sandwich","steam_id":76561198011840096,"connected_time":3148000000000,"state":"active","ping":69},{"user_id":80,"name":"vadr","steam_id":76561198334528186,"connected_time":2898000000000,"state":"active","ping":59},{"user_id":77,"name":"tf2 gamer 2023 (real)","steam_id":76561198305115828,"connected_time":3206000000000,"state":"active","ping":98},{"user_id":124,"name":"üÉî Katarina","steam_id":76561198065652251,"connected_time":262000000000,"state":"active","ping":43},{"user_id":128,"name":"lunaire","steam_id":76561198163344452,"connected_time":112000000000,"state":"active","ping":88},{"user_id":119,"name":"dumb idiot moron","steam_id":76561198053929269,"connected_time":428000000000,"state":"active","ping":87},{"user_id":109,"name":"Mr. Masturbeast","steam_id":76561198942024930,"connected_time":1423000000000,"state":"active","ping":90},{"user_id":122,"name":"cuddle","steam_id":76561198805181599,"connected_time":275000000000,"state":"active","ping":71},{"user_id":120,"name":"ksg","steam_id":76561198042894236,"connected_time":406000000000,"state":"active","ping":69},{"user_id":111,"name":"Kvadrat","steam_id":76561198022834916,"connected_time":1349000000000,"state":"active","ping":114},{"user_id":88,"name":"Joy","steam_id":76561198155314925,"connected_time":2532000000000,"state":"active","ping":60},{"user_id":131,"name":"The Poot","steam_id":76561198093889730,"connected_time":44000000000,"state":"active","ping":157},{"user_id":94,"name":"Hedge Knight","steam_id":76561198989449047,"connected_time":2291000000000,"state":"active","ping":155},{"user_id":112,"name":"rubberduck","steam_id":76561198278561932,"connected_time":1345000000000,"state":"active","ping":113},{"user_id":129,"name":"matzi","steam_id":76561198038472045,"connected_time":74000000000,"state":"active","ping":60},{"user_id":130,"name":"Blam","steam_id":76561199142730050,"connected_time":49000000000,"state":"active","ping":162},{"user_id":132,"name":"SPIRIT SIMP","steam_id":76561198993372539,"connected_time":23000000000,"state":"spawning","ping":60}]},{"server_id":110,"name":"Uncletopia | Frankfurt | 2 | All Maps","name_short":"frk-2","host":"frk-1.de.uncletopia.com","port":27025,"enabled":true,"region":"eu","cc":"de","latitude":50.110924,"longitude":8.682127,"reserved":0,"last_update":"0001-01-01T00:00:00Z","name_a2s":"Uncletopia | Frankfurt | 2 | All Maps","protocol":17,"map":"pl_borneo","folder":"tf","game":"Team Fortress","app_id":440,"player_count":0,"max_players":24,"Bots":0,"server_type":"Dedicated","server_os":"Linux","password":true,"vac":true,"version":"7932396","steam_id":85568392924469990,"keywords":["nocrits","nodmgspread","payload","uncletopia"],"game_id":440,"stv_port":27026,"stv_name":"Uncletopia | Frankfurt | 2 | All Maps | STV","players":null},{"server_id":308,"name":"Uncletopia | Frankfurt | 3 | All Maps","name_short":"frk-3","host":"frk-1.de.uncletopia.com","port":27035,"enabled":true,"region":"eu","cc":"de","latitude":50.110924,"longitude":8.682127,"reserved":0,"last_update":"0001-01-01T00:00:00Z","name_a2s":"Uncletopia | Frankfurt | 3 | All Maps","protocol":17,"map":"cp_mountainlab","folder":"tf","game":"Team Fortress","app_id":440,"player_count":0,"max_players":24,"Bots":0,"server_type":"Dedicated","server_os":"Linux","password":true,"vac":true,"version":"7932396","steam_id":85568392924504274,"keywords":["cp","nocrits","nodmgspread","uncletopia"],"game_id":440,"stv_port":27036,"stv_name":"Uncletopia | Frankfurt | 3 | All Maps | STV","players":null},{"server_id":309,"name":"Uncletopia | Frankfurt | 4 | All Maps","name_short":"frk-4","host":"frk-1.de.uncletopia.com","port":27045,"enabled":true,"region":"eu","cc":"de","latitude":50.110924,"longitude":8.682127,"reserved":0,"last_update":"0001-01-01T00:00:00Z","name_a2s":"Uncletopia | Frankfurt | 4 | All Maps","protocol":17,"map":"koth_viaduct","folder":"tf","game":"Team Fortress","app_id":440,"player_count":0,"max_players":24,"Bots":0,"server_type":"Dedicated","server_os":"Linux","password":true,"vac":true,"version":"7932396","steam_id":85568392924504275,"keywords":["cp","nocrits","nodmgspread","uncletopia"],"game_id":440,"stv_port":27046,"stv_name":"Uncletopia | Frankfurt | 4 | All Maps | STV","players":null},{"server_id":310,"name":"Uncletopia | Frankfurt | 5 | All Maps","name_short":"frk-5","host":"frk-1.de.uncletopia.com","port":27055,"enabled":true,"region":"eu","cc":"de","latitude":50.110924,"longitude":8.682127,"reserved":0,"last_update":"0001-01-01T00:00:00Z","name_a2s":"Uncletopia | Frankfurt | 5 | All Maps","protocol":17,"map":"pl_badwater","folder":"tf","game":"Team Fortress","app_id":440,"player_count":0,"max_players":24,"Bots":0,"server_type":"Dedicated","server_os":"Linux","password":true,"vac":true,"version":"7932396","steam_id":85568392924504277,"keywords":["nocrits","nodmgspread","payload","uncletopia"],"game_id":440,"stv_port":27056,"stv_name":"Uncletopia | Frankfurt | 5 | All Maps | STV","players":null},{"server_id":311,"name":"Uncletopia | Frankfurt | 6 | All Maps","name_short":"frk-6","host":"frk-1.de.uncletopia.com","port":27065,"enabled":true,"region":"eu","cc":"de","latitude":50.110924,"longitude":8.682127,"reserved":0,"last_update":"0001-01-01T00:00:00Z","name_a2s":"Uncletopia | Frankfurt | 6 | All Maps","protocol":17,"map":"koth_viaduct","folder":"tf","game":"Team Fortress","app_id":440,"player_count":0,"max_players":24,"Bots":0,"server_type":"Dedicated","server_os":"Linux","password":true,"vac":true,"version":"7932396","steam_id":85568392924504278,"keywords":["cp","nocrits","nodmgspread","uncletopia"],"game_id":440,"stv_port":27066,"stv_name":"Uncletopia | Frankfurt | 6 | All Maps | STV","players":null},{"server_id":23,"name":"Uncletopia | Frankfurt | 7 | Stopwatch Beta","name_short":"frk-7","host":"frk-1.de.uncletopia.com","port":27075,"enabled":true,"region":"eu","cc":"de","latitude":50.110924,"longitude":8.682127,"reserved":0,"last_update":"0001-01-01T00:00:00Z","name_a2s":"Uncletopia | Frankfurt | 7 | Stopwatch Beta","protocol":17,"map":"pl_snowycoast","folder":"tf","game":"Team Fortress","app_id":440,"player_count":0,"max_players":24,"Bots":0,"server_type":"Dedicated","server_os":"Linux","password":true,"vac":true,"version":"7932396","steam_id":85568392924742827,"keywords":["nocrits","nodmgspread","payload","uncletopia"],"game_id":440,"stv_port":27076,"stv_name":"Uncletopia | Frankfurt | 7 | Stopwatch Beta | STV","players":null},{"server_id":24,"name":"Uncletopia | Frankfurt | 8 | Community","name_short":"frk-8","host":"frk-1.de.uncletopia.com","port":27085,"enabled":true,"region":"eu","cc":"de","latitude":50.110924,"longitude":8.682127,"reserved":0,"last_update":"0001-01-01T00:00:00Z","name_a2s":"Uncletopia | Frankfurt | 8 | Community","protocol":17,"map":"pl_barnblitz","folder":"tf","game":"Team Fortress","app_id":440,"player_count":0,"max_players":24,"Bots":0,"server_type":"Dedicated","server_os":"Linux","password":true,"vac":true,"version":"7932396","steam_id":85568392924742828,"keywords":["nocrits","nodmgspread","payload","uncletopia"],"game_id":440,"stv_port":27086,"stv_name":"Uncletopia | Frankfurt | 8 | Community | STV","players":null},{"server_id":202,"name":"Uncletopia | Hong Kong | 1 | All Maps","name_short":"hgk-1","host":"hgk-1.hk.uncletopia.com","port":27015,"enabled":true,"region":"asia","cc":"hk","latitude":22.302711,"longitude":114.177216,"reserved":0,"last_update":"0001-01-01T00:00:00Z","name_a2s":"Uncletopia | Hong Kong | 1 | All Maps","protocol":17,"map":"plr_hightower","folder":"tf","game":"Team Fortress","app_id":440,"player_count":12,"max_players":24,"Bots":0,"server_type":"Dedicated","server_os":"Linux","password":true,"vac":true,"version":"7932396","steam_id":85568392924494504,"keywords":["nocrits","nodmgspread","payload","uncletopia"],"game_id":440,"stv_port":27016,"stv_name":"Uncletopia | Hong Kong | 1 | All Maps | STV","players":[{"user_id":160,"name":"NotKomori","steam_id":76561198845165975,"connected_time":1302000000000,"state":"active","ping":117},{"user_id":161,"name":"Mr. Smiggles","steam_id":76561199189835188,"connected_time":1230000000000,"state":"active","ping":126},{"user_id":162,"name":"TheInfiniteK","steam_id":76561198353173330,"connected_time":1219000000000,"state":"active","ping":234},{"user_id":152,"name":"Slonk","steam_id":76561198845070475,"connected_time":2585000000000,"state":"active","ping":107},{"user_id":153,"name":"BOX","steam_id":76561198845309411,"connected_time":2445000000000,"state":"active","ping":144},{"user_id":163,"name":"slippin jimmy with a law degree","steam_id":76561199106941544,"connected_time":1063000000000,"state":"active","ping":113},{"user_id":169,"name":"protons","steam_id":76561198008307645,"connected_time":775000000000,"state":"active","ping":129},{"user_id":112,"name":"Box Standard","steam_id":76561198312001455,"connected_time":8313000000000,"state":"active","ping":112},{"user_id":172,"name":"Big PP","steam_id":76561198203073201,"connected_time":331000000000,"state":"active","ping":74},{"user_id":171,"name":"Raiden00","steam_id":76561197994078111,"connected_time":667000000000,"state":"active","ping":76},{"user_id":173,"name":"Longst01","steam_id":76561199170105562,"connected_time":9000000000,"state":"spawning","ping":225},{"user_id":175,"name":"wom","steam_id":76561199375834537,"connected_time":7000000000,"state":"spawning","ping":93}]},{"server_id":1,"name":"Uncletopia | Los Angeles | 1 | All Maps","name_short":"lax-1","host":"lax-1.us.uncletopia.com","port":27015,"enabled":true,"region":"us-west","cc":"us","latitude":33.94279,"longitude":-118.41004,"reserved":0,"last_update":"0001-01-01T00:00:00Z","name_a2s":"Uncletopia | Los Angeles | 1 | All Maps","protocol":17,"map":"pl_swiftwater_final1","folder":"tf","game":"Team Fortress","app_id":440,"player_count":0,"max_players":24,"Bots":0,"server_type":"Dedicated","server_os":"Linux","password":true,"vac":true,"version":"7932396","steam_id":85568392924469991,"keywords":["nocrits","nodmgspread","payload","uncletopia"],"game_id":440,"stv_port":27016,"stv_name":"Uncletopia | Los Angeles | 1 | All Maps | STV","players":null},{"server_id":112,"name":"Uncletopia | Los Angeles | 2 | All Maps","name_short":"lax-2","host":"lax-1.us.uncletopia.com","port":27025,"enabled":true,"region":"us-west","cc":"us","latitude":33.94279,"longitude":-118.41004,"reserved":0,"last_update":"0001-01-01T00:00:00Z","name_a2s":"Uncletopia | Los Angeles | 2 | All Maps","protocol":17,"map":"koth_highpass","folder":"tf","game":"Team Fortress","app_id":440,"player_count":0,"max_players":24,"Bots":0,"server_type":"Dedicated","server_os":"Linux","password":true,"vac":true,"version":"7932396","steam_id":85568392924469992,"keywords":["cp","nocrits","nodmgspread","uncletopia"],"game_id":440,"stv_port":27026,"stv_name":"Uncletopia | Los Angeles | 2 | All Maps | STV","players":null},{"server_id":324,"name":"Uncletopia | Los Angeles | 3 | All Maps","name_short":"lax-3","host":"lax-1.us.uncletopia.com","port":27035,"enabled":true,"region":"us-west","cc":"us","latitude":33.94279,"longitude":-118.41004,"reserved":0,"last_update":"0001-01-01T00:00:00Z","name_a2s":"Uncletopia | Los Angeles | 3 | All Maps","protocol":17,"map":"koth_lakeside_final","folder":"tf","game":"Team Fortress","app_id":440,"player_count":0,"max_players":24,"Bots":0,"server_type":"Dedicated","server_os":"Linux","password":true,"vac":true,"version":"7932396","steam_id":85568392924510198,"keywords":["cp","nocrits","nodmgspread","uncletopia"],"game_id":440,"stv_port":27036,"stv_name":"Uncletopia | Los Angeles | 3 | All Maps | STV","players":null},{"server_id":25,"name":"Uncletopia | Los Angeles | 4 | Stopwatch Beta","name_short":"lax-4","host":"lax-1.us.uncletopia.com","port":27045,"enabled":true,"region":"us-west","cc":"us","latitude":33.94279,"longitude":-118.41004,"reserved":0,"last_update":"0001-01-01T00:00:00Z","name_a2s":"Uncletopia | Los Angeles | 4 | Stopwatch Beta","protocol":17,"map":"workshop/koth_clearcut_b15.ugc2107050255","folder":"tf","game":"Team Fortress","app_id":440,"player_count":0,"max_players":24,"Bots":0,"server_type":"Dedicated","server_os":"Linux","password":true,"vac":true,"version":"7932396","steam_id":85568392924510199,"keywords":["cp","nocrits","nodmgspread","uncletopia"],"game_id":440,"stv_port":27046,"stv_name":"Uncletopia | Los Angeles | 4 | Stopwatch Beta | STV","players":null},{"server_id":11,"name":"Uncletopia | London | 1 | All Maps","name_short":"lon-1","host":"lon-1.uk.uncletopia.com","port":27015,"enabled":true,"region":"eu","cc":"gb","latitude":51.509865,"longitude":-0.118092,"reserved":0,"last_update":"0001-01-01T00:00:00Z","name_a2s":"Uncletopia | London | 1 | All Maps","protocol":17,"map":"koth_cascade","folder":"tf","game":"Team Fortress","app_id":440,"player_count":0,"max_players":24,"Bots":0,"server_type":"Dedicated","server_os":"Linux","password":true,"vac":true,"version":"7932396","steam_id":85568392924367362,"keywords":["cp","nocrits","nodmgspread","uncletopia"],"game_id":440,"stv_port":27016,"stv_name":"Uncletopia | London | 1 | All Maps | STV","players":null},{"server_id":114,"name":"Uncletopia | London | 2 | All Maps","name_short":"lon-2","host":"lon-1.uk.uncletopia.com","port":27025,"enabled":true,"region":"eu","cc":"gb","latitude":51.509865,"longitude":-0.118092,"reserved":0,"last_update":"0001-01-01T00:00:00Z","name_a2s":"Uncletopia | London | 2 | All Maps","protocol":17,"map":"koth_highpass","folder":"tf","game":"Team Fortress","app_id":440,"player_count":0,"max_players":24,"Bots":0,"server_type":"Dedicated","server_os":"Linux","password":true,"vac":true,"version":"7932396","steam_id":85568392924470941,"keywords":["cp","nocrits","nodmgspread","uncletopia"],"game_id":440,"stv_port":27026,"stv_name":"Uncletopia | London | 2 | All Maps | STV","players":null},{"server_id":320,"name":"Uncletopia | London | 3 | All Maps","name_short":"lon-3","host":"lon-1.uk.uncletopia.com","port":27035,"enabled":true,"region":"eu","cc":"gb","latitude":51.509865,"longitude":-0.118092,"reserved":0,"last_update":"0001-01-01T00:00:00Z","name_a2s":"Uncletopia | London | 3 | All Maps","protocol":17,"map":"cp_altitude","folder":"tf","game":"Team Fortress","app_id":440,"player_count":0,"max_players":24,"Bots":0,"server_type":"Dedicated","server_os":"Linux","password":true,"vac":true,"version":"7932396","steam_id":85568392924510192,"keywords":["cp","nocrits","nodmgspread","uncletopia"],"game_id":440,"stv_port":27036,"stv_name":"Uncletopia | London | 3 | All Maps | STV","players":null},{"server_id":321,"name":"Uncletopia | London | 4 | All Maps","name_short":"lon-4","host":"lon-1.uk.uncletopia.com","port":27045,"enabled":true,"region":"eu","cc":"gb","latitude":51.509865,"longitude":-0.118092,"reserved":0,"last_update":"0001-01-01T00:00:00Z","name_a2s":"Uncletopia | London | 4 | All Maps","protocol":17,"map":"pl_frontier_final","folder":"tf","game":"Team Fortress","app_id":440,"player_count":13,"max_players":24,"Bots":0,"server_type":"Dedicated","server_os":"Linux","password":true,"vac":true,"version":"7932396","steam_id":85568392924510193,"keywords":["nocrits","nodmgspread","payload","uncletopia"],"game_id":440,"stv_port":27046,"stv_name":"Uncletopia | London | 4 | All Maps | STV","players":[{"user_id":34,"name":"Unseen","steam_id":76561198154670360,"connected_time":1083000000000,"state":"active","ping":83},{"user_id":51,"name":"DIErector of death","steam_id":76561199217741639,"connected_time":159000000000,"state":"active","ping":117},{"user_id":36,"name":"elyas","steam_id":76561198964639269,"connected_time":938000000000,"state":"active","ping":174},{"user_id":52,"name":"IsThatAJoJoReference","steam_id":76561198835513424,"connected_time":90000000000,"state":"active","ping":200},{"user_id":9,"name":"RealManiHACK","steam_id":76561198408081068,"connected_time":3839000000000,"state":"active","ping":71},{"user_id":53,"name":"Kestrel","steam_id":76561198144033005,"connected_time":6000000000,"state":"spawning","ping":45},{"user_id":54,"name":"cherry‚ù§","steam_id":76561198346851670,"connected_time":2000000000,"state":"spawning","ping":64},{"user_id":48,"name":"Antifascist catgirl","steam_id":76561198149806947,"connected_time":445000000000,"state":"active","ping":150},{"user_id":42,"name":"fregaropa","steam_id":76561198150806166,"connected_time":739000000000,"state":"active","ping":76},{"user_id":43,"name":"Labomarcelo","steam_id":76561198211186473,"connected_time":727000000000,"state":"active","ping":80},{"user_id":46,"name":"Zelascelar","steam_id":76561197974628666,"connected_time":639000000000,"state":"active","ping":96},{"user_id":44,"name":"Patriarhul","steam_id":76561198209648257,"connected_time":723000000000,"state":"active","ping":93},{"user_id":45,"name":"Sorcha The Wise","steam_id":76561198063220459,"connected_time":684000000000,"state":"active","ping":58}]},{"server_id":21,"name":"Uncletopia | London | 5 | All Maps","name_short":"lon-5","host":"lon-1.uk.uncletopia.com","port":27055,"enabled":true,"region":"eu","cc":"gb","latitude":51.509865,"longitude":-0.118092,"reserved":0,"last_update":"0001-01-01T00:00:00Z","name_a2s":"Uncletopia | London | 5 | All Maps","protocol":17,"map":"pl_borneo","folder":"tf","game":"Team Fortress","app_id":440,"player_count":1,"max_players":24,"Bots":0,"server_type":"Dedicated","server_os":"Linux","password":true,"vac":true,"version":"7932396","steam_id":85568392924742829,"keywords":["nocrits","nodmgspread","payload","uncletopia"],"game_id":440,"stv_port":27056,"stv_name":"Uncletopia | London | 5 | All Maps | STV","players":[{"user_id":3,"name":"N.M.E","steam_id":76561198012351470,"connected_time":231000000000,"state":"active","ping":150}]},{"server_id":22,"name":"Uncletopia | London | 6 | All Maps","name_short":"lon-6","host":"lon-1.uk.uncletopia.com","port":27065,"enabled":true,"region":"eu","cc":"gb","latitude":51.509865,"longitude":-0.118092,"reserved":0,"last_update":"0001-01-01T00:00:00Z","name_a2s":"Uncletopia | London | 6 | All Maps","protocol":17,"map":"pl_upward","folder":"tf","game":"Team Fortress","app_id":440,"player_count":24,"max_players":24,"Bots":0,"server_type":"Dedicated","server_os":"Linux","password":true,"vac":true,"version":"7932396","steam_id":85568392924742830,"keywords":["nocrits","nodmgspread","payload","uncletopia"],"game_id":440,"stv_port":27066,"stv_name":"Uncletopia | London | 6 | All Maps | STV","players":[{"user_id":209,"name":"dunduu","steam_id":76561198875240717,"connected_time":482000000000,"state":"active","ping":78},{"user_id":183,"name":"Mirandaws","steam_id":76561198930890710,"connected_time":1921000000000,"state":"active","ping":78},{"user_id":210,"name":"Dolcelatte","steam_id":76561198038501770,"connected_time":370000000000,"state":"active","ping":61},{"user_id":131,"name":"ambiwalentna","steam_id":76561199010825303,"connected_time":7122000000000,"state":"active","ping":79},{"user_id":184,"name":"ItzFtitan","steam_id":76561198860332079,"connected_time":1808000000000,"state":"active","ping":106},{"user_id":191,"name":"HayLeX","steam_id":76561198130997343,"connected_time":1318000000000,"state":"active","ping":72},{"user_id":208,"name":"Mangaphysics","steam_id":76561198328905546,"connected_time":655000000000,"state":"active","ping":117},{"user_id":150,"name":"Ruth(-less bitch)","steam_id":76561198150006573,"connected_time":5464000000000,"state":"active","ping":56},{"user_id":186,"name":"meow (they/them)","steam_id":76561198416657815,"connected_time":1605000000000,"state":"active","ping":75},{"user_id":70,"name":"Perpetual Pub Push","steam_id":76561198256714846,"connected_time":14339000000000,"state":"active","ping":40},{"user_id":192,"name":"Dicartal","steam_id":76561198295793592,"connected_time":1238000000000,"state":"active","ping":145},{"user_id":205,"name":"AGAKAKSKAGESH","steam_id":76561198382281653,"connected_time":847000000000,"state":"active","ping":83},{"user_id":212,"name":"JamesPepega","steam_id":76561198019156154,"connected_time":256000000000,"state":"active","ping":76},{"user_id":196,"name":"rachel aldana's massive milkers","steam_id":76561198025916703,"connected_time":1044000000000,"state":"active","ping":58},{"user_id":149,"name":"png.png","steam_id":76561198444446521,"connected_time":5522000000000,"state":"active","ping":112},{"user_id":194,"name":"Chill Spirit","steam_id":76561198845001725,"connected_time":1188000000000,"state":"active","ping":55},{"user_id":189,"name":"bussy hunter","steam_id":76561199013445121,"connected_time":1487000000000,"state":"active","ping":42},{"user_id":206,"name":"PP_master69420","steam_id":76561199019913910,"connected_time":840000000000,"state":"active","ping":86},{"user_id":211,"name":"Gordon","steam_id":76561198303652059,"connected_time":277000000000,"state":"active","ping":69},{"user_id":136,"name":"rosepinkyfuzz","steam_id":76561198018546334,"connected_time":6522000000000,"state":"active","ping":80},{"user_id":190,"name":"Basinox","steam_id":76561198019628384,"connected_time":1417000000000,"state":"active","ping":64},{"user_id":213,"name":"Icaras","steam_id":76561198416724843,"connected_time":85000000000,"state":"active","ping":36},{"user_id":202,"name":"jt7","steam_id":76561198073655162,"connected_time":899000000000,"state":"active","ping":80},{"user_id":203,"name":"ulterior plank meals","steam_id":76561198013502376,"connected_time":898000000000,"state":"active","ping":56}]},{"server_id":40,"name":"Uncletopia | London | 7 | No Payload","name_short":"lon-7","host":"lon-1.uk.uncletopia.com","port":27075,"enabled":true,"region":"eu","cc":"gb","latitude":51.509865,"longitude":-0.118092,"reserved":0,"last_update":"0001-01-01T00:00:00Z","name_a2s":"Uncletopia | London | 7 | No Payload","protocol":17,"map":"pl_snowycoast","folder":"tf","game":"Team Fortress","app_id":440,"player_count":0,"max_players":24,"Bots":0,"server_type":"Dedicated","server_os":"Linux","password":true,"vac":true,"version":"7932396","steam_id":85568392924964314,"keywords":["nocrits","nodmgspread","payload","uncletopia"],"game_id":440,"stv_port":27076,"stv_name":"Uncletopia | London | 7 | No Payload | STV","players":null},{"server_id":41,"name":"Uncletopia | London | 8 | Community","name_short":"lon-8","host":"lon-1.uk.uncletopia.com","port":27085,"enabled":true,"region":"eu","cc":"gb","latitude":51.509865,"longitude":-0.118092,"reserved":0,"last_update":"0001-01-01T00:00:00Z","name_a2s":"Uncletopia | London | 8 | Community","protocol":17,"map":"pl_barnblitz","folder":"tf","game":"Team Fortress","app_id":440,"player_count":2,"max_players":24,"Bots":0,"server_type":"Dedicated","server_os":"Linux","password":true,"vac":true,"version":"7932396","steam_id":85568392924964315,"keywords":["nocrits","nodmgspread","payload","uncletopia"],"game_id":440,"stv_port":27086,"stv_name":"Uncletopia | London | 8 | Community | STV","players":[{"user_id":5,"name":"Kiz","steam_id":76561198811732820,"connected_time":1047000000000,"state":"active","ping":66},{"user_id":4,"name":"DicyPicky","steam_id":76561198078873335,"connected_time":1083000000000,"state":"active","ping":74}]},{"server_id":300,"name":"Uncletopia | Montr√©al | 1 | All Maps","name_short":"mtl-1","host":"mtl-1.ca.uncletopia.com","port":27015,"enabled":true,"region":"us-east","cc":"ca","latitude":45.50889,"longitude":-73.56167,"reserved":0,"last_update":"0001-01-01T00:00:00Z","name_a2s":"Uncletopia | Montr√©al | 1 | All Maps","protocol":17,"map":"cp_altitude","folder":"tf","game":"Team Fortress","app_id":440,"player_count":0,"max_players":24,"Bots":0,"server_type":"Dedicated","server_os":"Linux","password":true,"vac":true,"version":"7932396","steam_id":85568392924500087,"keywords":["cp","nocrits","nodmgspread","uncletopia"],"game_id":440,"stv_port":27016,"stv_name":"Uncletopia | Montr√©al | 1 | All Maps | STV","players":null},{"server_id":301,"name":"Uncletopia | Montr√©al | 2 | All Maps","name_short":"mtl-2","host":"mtl-1.ca.uncletopia.com","port":27025,"enabled":true,"region":"us-east","cc":"ca","latitude":45.50889,"longitude":-73.56167,"reserved":0,"last_update":"0001-01-01T00:00:00Z","name_a2s":"Uncletopia | Montr√©al | 2 | All Maps","protocol":17,"map":"koth_lakeside_final","folder":"tf","game":"Team Fortress","app_id":440,"player_count":0,"max_players":24,"Bots":0,"server_type":"Dedicated","server_os":"Linux","password":true,"vac":true,"version":"7932396","steam_id":85568392924500088,"keywords":["cp","nocrits","nodmgspread","uncletopia"],"game_id":440,"stv_port":27026,"stv_name":"Uncletopia | Montr√©al | 2 | All Maps | STV","players":null},{"server_id":302,"name":"Uncletopia | Montr√©al | 3 | All Maps","name_short":"mtl-3","host":"mtl-1.ca.uncletopia.com","port":27035,"enabled":true,"region":"us-east","cc":"ca","latitude":45.50889,"longitude":-73.56167,"reserved":0,"last_update":"0001-01-01T00:00:00Z","name_a2s":"Uncletopia | Montr√©al | 3 | All Maps","protocol":17,"map":"cp_process_final","folder":"tf","game":"Team Fortress","app_id":440,"player_count":0,"max_players":24,"Bots":0,"server_type":"Dedicated","server_os":"Linux","password":true,"vac":true,"version":"7932396","steam_id":85568392924500089,"keywords":["cp","nocrits","nodmgspread","uncletopia"],"game_id":440,"stv_port":27036,"stv_name":"Uncletopia | Montr√©al | 3 | All Maps | STV","players":null},{"server_id":303,"name":"Uncletopia | Montr√©al | 4 | No Payload","name_short":"mtl-4","host":"mtl-1.ca.uncletopia.com","port":27045,"enabled":true,"region":"us-east","cc":"ca","latitude":45.50889,"longitude":-73.56167,"reserved":0,"last_update":"0001-01-01T00:00:00Z","name_a2s":"Uncletopia | Montr√©al | 4 | No Payload","protocol":17,"map":"cp_snakewater_final1","folder":"tf","game":"Team Fortress","app_id":440,"player_count":0,"max_players":24,"Bots":0,"server_type":"Dedicated","server_os":"Linux","password":true,"vac":true,"version":"7932396","steam_id":85568392924500090,"keywords":["cp","nocrits","nodmgspread","uncletopia"],"game_id":440,"stv_port":27046,"stv_name":"Uncletopia | Montr√©al | 4 | No Payload | STV","players":null},{"server_id":13,"name":"Uncletopia | New York City | 1 | All Maps","name_short":"nyc-1","host":"nyc-1.us.uncletopia.com","port":27015,"enabled":true,"region":"us-east","cc":"us","latitude":40.73061,"longitude":-73.93524,"reserved":0,"last_update":"0001-01-01T00:00:00Z","name_a2s":"Uncletopia | New York City | 1 | All Maps","protocol":17,"map":"cp_dustbowl","folder":"tf","game":"Team Fortress","app_id":440,"player_count":0,"max_players":24,"Bots":0,"server_type":"Dedicated","server_os":"Linux","password":true,"vac":true,"version":"7932396","steam_id":85568392924469993,"keywords":["cp","nocrits","nodmgspread","uncletopia"],"game_id":440,"stv_port":27016,"stv_name":"Uncletopia | New York City | 1 | All Maps | STV","players":null},{"server_id":14,"name":"Uncletopia | New York City | 2 | All Maps","name_short":"nyc-2","host":"nyc-1.us.uncletopia.com","port":27025,"enabled":true,"region":"us-east","cc":"us","latitude":40.73061,"longitude":-73.93524,"reserved":0,"last_update":"0001-01-01T00:00:00Z","name_a2s":"Uncletopia | New York City | 2 | All Maps","protocol":17,"map":"koth_lakeside_final","folder":"tf","game":"Team Fortress","app_id":440,"player_count":0,"max_players":24,"Bots":0,"server_type":"Dedicated","server_os":"Linux","password":true,"vac":true,"version":"7932396","steam_id":85568392924469994,"keywords":["cp","nocrits","nodmgspread","uncletopia"],"game_id":440,"stv_port":27026,"stv_name":"Uncletopia | New York City | 2 | All Maps | STV","players":null},{"server_id":15,"name":"Uncletopia | New York City | 3 | Stopwatch Beta","name_short":"nyc-3","host":"nyc-1.us.uncletopia.com","port":27035,"enabled":true,"region":"us-east","cc":"us","latitude":40.73061,"longitude":-73.93524,"reserved":0,"last_update":"0001-01-01T00:00:00Z","name_a2s":"Uncletopia | New York City | 3 | Stopwatch Beta","protocol":17,"map":"cp_sunshine","folder":"tf","game":"Team Fortress","app_id":440,"player_count":0,"max_players":24,"Bots":0,"server_type":"Dedicated","server_os":"Linux","password":true,"vac":true,"version":"7932396","steam_id":85568392924742820,"keywords":["cp","nocrits","nodmgspread","uncletopia"],"game_id":440,"stv_port":27036,"stv_name":"Uncletopia | New York City | 3 | Stopwatch Beta | STV","players":null},{"server_id":16,"name":"Uncletopia | New York City | 4 | Community","name_short":"nyc-4","host":"nyc-1.us.uncletopia.com","port":27045,"enabled":true,"region":"us-east","cc":"us","latitude":40.73061,"longitude":-73.93524,"reserved":0,"last_update":"0001-01-01T00:00:00Z","name_a2s":"Uncletopia | New York City | 4 | Community","protocol":17,"map":"pl_barnblitz","folder":"tf","game":"Team Fortress","app_id":440,"player_count":0,"max_players":24,"Bots":0,"server_type":"Dedicated","server_os":"Linux","password":true,"vac":true,"version":"7932396","steam_id":85568392924742821,"keywords":["nocrits","nodmgspread","payload","uncletopia"],"game_id":440,"stv_port":27046,"stv_name":"Uncletopia | New York City | 4 | Community | STV","players":null},{"server_id":142,"name":"Uncletopia | S√£o Paulo | 1 | All Maps","name_short":"sao-1","host":"sao-1.br.uncletopia.com","port":27015,"enabled":true,"region":"sa","cc":"br","latitude":-23.533773,"longitude":-46.62529,"reserved":0,"last_update":"0001-01-01T00:00:00Z","name_a2s":"Uncletopia | S√£o Paulo | 1 | All Maps","protocol":17,"map":"cp_mountainlab","folder":"tf","game":"Team Fortress","app_id":440,"player_count":0,"max_players":24,"Bots":0,"server_type":"Dedicated","server_os":"Linux","password":true,"vac":true,"version":"7932396","steam_id":85568392924469996,"keywords":["cp","nocrits","nodmgspread","uncletopia"],"game_id":440,"stv_port":27016,"stv_name":"Uncletopia | S√£o Paulo | 1 | All Maps | STV","players":null},{"server_id":143,"name":"Uncletopia | S√£o Paulo | 2 | All Maps","name_short":"sao-2","host":"sao-2.br.uncletopia.com","port":27015,"enabled":true,"region":"sa","cc":"br","latitude":-23.533773,"longitude":-46.62529,"reserved":0,"last_update":"0001-01-01T00:00:00Z","name_a2s":"Uncletopia | S√£o Paulo | 2 | All Maps","protocol":17,"map":"pl_swiftwater_final1","folder":"tf","game":"Team Fortress","app_id":440,"player_count":0,"max_players":24,"Bots":0,"server_type":"Dedicated","server_os":"Linux","password":true,"vac":true,"version":"7932396","steam_id":85568392924485349,"keywords":["nocrits","nodmgspread","payload","uncletopia"],"game_id":440,"stv_port":27016,"stv_name":"Uncletopia | S√£o Paulo | 2 | All Maps | STV","players":null},{"server_id":7,"name":"Uncletopia | Seattle | 1 | All Maps","name_short":"sea-1","host":"sea-1.us.uncletopia.com","port":27015,"enabled":true,"region":"us-west","cc":"us","latitude":47.608013,"longitude":-122.33517,"reserved":0,"last_update":"0001-01-01T00:00:00Z","name_a2s":"Uncletopia | Seattle | 1 | All Maps","protocol":17,"map":"koth_lakeside_final","folder":"tf","game":"Team Fortress","app_id":440,"player_count":19,"max_players":24,"Bots":0,"server_type":"Dedicated","server_os":"Linux","password":true,"vac":true,"version":"7932396","steam_id":85568392924469997,"keywords":["cp","nocrits","nodmgspread","uncletopia"],"game_id":440,"stv_port":27016,"stv_name":"Uncletopia | Seattle | 1 | All Maps | STV","players":[{"user_id":700,"name":"Gringrant","steam_id":76561198095730487,"connected_time":4836000000000,"state":"active","ping":110},{"user_id":744,"name":"INFINITE","steam_id":76561197971285557,"connected_time":295000000000,"state":"active","ping":105},{"user_id":714,"name":":(){ :|:\u0026 };:","steam_id":76561198115242460,"connected_time":2014000000000,"state":"active","ping":46},{"user_id":750,"name":"Miista","steam_id":76561198117357040,"connected_time":219000000000,"state":"active","ping":29},{"user_id":741,"name":"CatLike Pigeon","steam_id":76561198171716030,"connected_time":596000000000,"state":"active","ping":102},{"user_id":719,"name":"‚Ä∫ Noir","steam_id":76561197977418994,"connected_time":1938000000000,"state":"active","ping":66},{"user_id":733,"name":"Yummy Kabobz","steam_id":76561198067661705,"connected_time":1064000000000,"state":"active","ping":119},{"user_id":729,"name":"Enderlord99","steam_id":76561198158152954,"connected_time":1474000000000,"state":"active","ping":51},{"user_id":749,"name":"Buffalo Gold","steam_id":76561198119693806,"connected_time":245000000000,"state":"active","ping":69},{"user_id":747,"name":"i like trains","steam_id":76561198090531755,"connected_time":263000000000,"state":"active","ping":105},{"user_id":735,"name":"Jack from Jack in The Box","steam_id":76561199083594971,"connected_time":1041000000000,"state":"active","ping":76},{"user_id":751,"name":"‚ô•ur :3 medic gf‚ô• (51ref/hr)","steam_id":76561198816778484,"connected_time":196000000000,"state":"active","ping":92},{"user_id":701,"name":"Meatful Wonder","steam_id":76561198109238749,"connected_time":4801000000000,"state":"active","ping":64},{"user_id":738,"name":"John Wilkes Booth","steam_id":76561197983398671,"connected_time":712000000000,"state":"active","ping":59},{"user_id":752,"name":"bil","steam_id":76561198800825607,"connected_time":159000000000,"state":"active","ping":105},{"user_id":748,"name":"Paul Gaming","steam_id":76561198065538229,"connected_time":262000000000,"state":"active","ping":78},{"user_id":754,"name":"tr","steam_id":76561198046944222,"connected_time":98000000000,"state":"active","ping":40},{"user_id":755,"name":"TheShadowAtMidnight","steam_id":76561199073880155,"connected_time":87000000000,"state":"active","ping":130},{"user_id":756,"name":"[FGCP] party hat","steam_id":76561198044268609,"connected_time":63000000000,"state":"active","ping":117}]},{"server_id":119,"name":"Uncletopia | Seattle | 2 | All Maps","name_short":"sea-2","host":"sea-1.us.uncletopia.com","port":27025,"enabled":true,"region":"us-west","cc":"us","latitude":47.608013,"longitude":-122.33517,"reserved":0,"last_update":"0001-01-01T00:00:00Z","name_a2s":"Uncletopia | Seattle | 2 | All Maps","protocol":17,"map":"pl_upward","folder":"tf","game":"Team Fortress","app_id":440,"player_count":0,"max_players":24,"Bots":0,"server_type":"Dedicated","server_os":"Linux","password":true,"vac":true,"version":"7932396","steam_id":85568392924469998,"keywords":["nocrits","nodmgspread","payload","uncletopia"],"game_id":440,"stv_port":27026,"stv_name":"Uncletopia | Seattle | 2 | All Maps | STV","players":null},{"server_id":406,"name":"Uncletopia | Seattle | 3 | Stopwatch Beta","name_short":"sea-3","host":"sea-1.us.uncletopia.com","port":27035,"enabled":true,"region":"us-west","cc":"us","latitude":47.608013,"longitude":-122.33517,"reserved":0,"last_update":"0001-01-01T00:00:00Z","name_a2s":"Uncletopia | Seattle | 3 | Stopwatch Beta","protocol":17,"map":"workshop/koth_clearcut_b15.ugc2107050255","folder":"tf","game":"Team Fortress","app_id":440,"player_count":0,"max_players":24,"Bots":0,"server_type":"Dedicated","server_os":"Linux","password":true,"vac":true,"version":"7932396","steam_id":85568392924515217,"keywords":["cp","nocrits","nodmgspread","uncletopia"],"game_id":440,"stv_port":27036,"stv_name":"Uncletopia | Seattle | 3 | Stopwatch Beta | STV","players":null},{"server_id":17,"name":"Uncletopia | San Francisco | 1 | All Maps","name_short":"sfo-1","host":"sfo-1.us.uncletopia.com","port":27015,"enabled":true,"region":"us-west","cc":"us","latitude":37.77397,"longitude":-122.4313,"reserved":0,"last_update":"0001-01-01T00:00:00Z","name_a2s":"Uncletopia | San Francisco | 1 | All Maps","protocol":17,"map":"koth_highpass","folder":"tf","game":"Team Fortress","app_id":440,"player_count":0,"max_players":24,"Bots":0,"server_type":"Dedicated","server_os":"Linux","password":true,"vac":true,"version":"7932396","steam_id":85568392924469999,"keywords":["cp","nocrits","nodmgspread","uncletopia"],"game_id":440,"stv_port":27016,"stv_name":"Uncletopia | San Francisco | 1 | All Maps | STV","players":null},{"server_id":18,"name":"Uncletopia | San Francisco | 2 | All Maps","name_short":"sfo-2","host":"sfo-1.us.uncletopia.com","port":27025,"enabled":true,"region":"us-west","cc":"us","latitude":37.77397,"longitude":-122.4313,"reserved":0,"last_update":"0001-01-01T00:00:00Z","name_a2s":"Uncletopia | San Francisco | 2 | All Maps","protocol":17,"map":"cp_altitude","folder":"tf","game":"Team Fortress","app_id":440,"player_count":0,"max_players":24,"Bots":0,"server_type":"Dedicated","server_os":"Linux","password":true,"vac":true,"version":"7932396","steam_id":85568392924470000,"keywords":["cp","nocrits","nodmgspread","uncletopia"],"game_id":440,"stv_port":27026,"stv_name":"Uncletopia | San Francisco | 2 | All Maps | STV","players":null},{"server_id":19,"name":"Uncletopia | San Francisco | 3 | Stopwatch Beta","name_short":"sfo-3","host":"sfo-1.us.uncletopia.com","port":27035,"enabled":true,"region":"us-west","cc":"us","latitude":37.77397,"longitude":-122.4313,"reserved":0,"last_update":"0001-01-01T00:00:00Z","name_a2s":"Uncletopia | San Francisco | 3 | Stopwatch Beta","protocol":17,"map":"workshop/pl_badwater_pro_v12.ugc2142942074","folder":"tf","game":"Team Fortress","app_id":440,"player_count":0,"max_players":24,"Bots":0,"server_type":"Dedicated","server_os":"Linux","password":true,"vac":true,"version":"7932396","steam_id":85568392924742824,"keywords":["nocrits","nodmgspread","payload","uncletopia"],"game_id":440,"stv_port":27036,"stv_name":"Uncletopia | San Francisco | 3 | Stopwatch Beta | STV","players":null},{"server_id":20,"name":"Uncletopia | San Francisco | 4 | Community","name_short":"sfo-4","host":"sfo-1.us.uncletopia.com","port":27045,"enabled":true,"region":"us-west","cc":"us","latitude":37.77397,"longitude":-122.4313,"reserved":0,"last_update":"0001-01-01T00:00:00Z","name_a2s":"Uncletopia | San Francisco | 4 | Community","protocol":17,"map":"workshop/koth_trenchfoot_b1a.ugc731436616","folder":"tf","game":"Team Fortress","app_id":440,"player_count":0,"max_players":24,"Bots":0,"server_type":"Dedicated","server_os":"Linux","password":true,"vac":true,"version":"7932396","steam_id":85568392924742826,"keywords":["cp","nocrits","nodmgspread","uncletopia"],"game_id":440,"stv_port":27046,"stv_name":"Uncletopia | San Francisco | 4 | Community | STV","players":null},{"server_id":141,"name":"Uncletopia | Sydney | 1 | All Maps","name_short":"syd-1","host":"syd-1.au.uncletopia.com","port":27015,"enabled":true,"region":"au","cc":"au","latitude":-33.865143,"longitude":151.2099,"reserved":0,"last_update":"0001-01-01T00:00:00Z","name_a2s":"Uncletopia | Sydney | 1 | All Maps","protocol":17,"map":"pl_barnblitz","folder":"tf","game":"Team Fortress","app_id":440,"player_count":24,"max_players":24,"Bots":0,"server_type":"Dedicated","server_os":"Linux","password":true,"vac":true,"version":"7932396","steam_id":85568392924470001,"keywords":["nocrits","nodmgspread","payload","uncletopia"],"game_id":440,"stv_port":27016,"stv_name":"Uncletopia | Sydney | 1 | All Maps | STV","players":[{"user_id":186,"name":"Vulkan","steam_id":76561198041348822,"connected_time":449000000000,"state":"active","ping":53},{"user_id":137,"name":"jim :)","steam_id":76561198127508905,"connected_time":3537000000000,"state":"active","ping":40},{"user_id":128,"name":"Lace","steam_id":76561198290993506,"connected_time":4769000000000,"state":"active","ping":55},{"user_id":173,"name":"cibo","steam_id":76561198798929932,"connected_time":1764000000000,"state":"active","ping":68},{"user_id":187,"name":"Mr Doctor","steam_id":76561198081415999,"connected_time":293000000000,"state":"active","ping":70},{"user_id":171,"name":"Skree'kaw / Eryn","steam_id":76561199415758131,"connected_time":1878000000000,"state":"active","ping":67},{"user_id":165,"name":"JokerMain","steam_id":76561198144857794,"connected_time":2661000000000,"state":"active","ping":46},{"user_id":172,"name":"‚±£êåÑ≈§êåÑ“∞","steam_id":76561199140764838,"connected_time":1863000000000,"state":"active","ping":71},{"user_id":166,"name":"Xenix","steam_id":76561198795888766,"connected_time":2402000000000,"state":"active","ping":69},{"user_id":167,"name":"Fixer","steam_id":76561199349854515,"connected_time":2344000000000,"state":"active","ping":59},{"user_id":183,"name":"Iron Man Armored Adventures","steam_id":76561198202555552,"connected_time":777000000000,"state":"active","ping":46},{"user_id":174,"name":"Player 3.14","steam_id":76561198016766670,"connected_time":1371000000000,"state":"active","ping":51},{"user_id":188,"name":"Breadstick Boy","steam_id":76561198061468933,"connected_time":277000000000,"state":"active","ping":51},{"user_id":143,"name":"Genuline","steam_id":76561198126426787,"connected_time":3299000000000,"state":"active","ping":47},{"user_id":144,"name":"Louis","steam_id":76561198013395847,"connected_time":3298000000000,"state":"active","ping":53},{"user_id":155,"name":"ËçÉÁÅ£Â¢úÂ§©Âú∞ÁçÑÁç∏","steam_id":76561198321885643,"connected_time":3001000000000,"state":"active","ping":164},{"user_id":179,"name":"RickDog","steam_id":76561198160382607,"connected_time":1069000000000,"state":"active","ping":62},{"user_id":168,"name":"Pile of Sneed","steam_id":76561198143537391,"connected_time":2190000000000,"state":"active","ping":72},{"user_id":177,"name":"Batering","steam_id":76561198039849442,"connected_time":1129000000000,"state":"active","ping":56},{"user_id":150,"name":"CoolGuyMatt","steam_id":76561198009757360,"connected_time":3079000000000,"state":"active","ping":70},{"user_id":164,"name":"Hippity_Hoppity","steam_id":76561198861050395,"connected_time":2722000000000,"state":"active","ping":70},{"user_id":178,"name":"Blondie","steam_id":76561198046977058,"connected_time":1094000000000,"state":"active","ping":72},{"user_id":184,"name":"Kremmen","steam_id":76561198051368641,"connected_time":751000000000,"state":"active","ping":69},{"user_id":176,"name":"Dupiter","steam_id":76561198108820767,"connected_time":1183000000000,"state":"active","ping":60}]},{"server_id":123,"name":"Uncletopia | Sydney | 2 | All Maps","name_short":"syd-2","host":"syd-1.au.uncletopia.com","port":27025,"enabled":true,"region":"au","cc":"au","latitude":-33.865143,"longitude":151.2099,"reserved":0,"last_update":"0001-01-01T00:00:00Z","name_a2s":"Uncletopia | Sydney | 2 | All Maps","protocol":17,"map":"koth_cascade","folder":"tf","game":"Team Fortress","app_id":440,"player_count":5,"max_players":24,"Bots":0,"server_type":"Dedicated","server_os":"Linux","password":true,"vac":true,"version":"7932396","steam_id":85568392924470002,"keywords":["cp","nocrits","nodmgspread","uncletopia"],"game_id":440,"stv_port":27026,"stv_name":"Uncletopia | Sydney | 2 | All Maps | STV","players":[{"user_id":19,"name":"slime","steam_id":76561199176020333,"connected_time":826000000000,"state":"active","ping":57},{"user_id":17,"name":"tim88435","steam_id":76561198089653987,"connected_time":838000000000,"state":"active","ping":54},{"user_id":20,"name":"Locker633","steam_id":76561198132624042,"connected_time":823000000000,"state":"active","ping":84},{"user_id":21,"name":"\u003cuser\u003e","steam_id":76561198064249290,"connected_time":805000000000,"state":"active","ping":32},{"user_id":22,"name":"Mandyyo","steam_id":76561199012617774,"connected_time":699000000000,"state":"active","ping":49}]},{"server_id":395,"name":"Uncletopia | Sydney | 3 | All Maps","name_short":"syd-3","host":"syd-1.au.uncletopia.com","port":27035,"enabled":true,"region":"au","cc":"au","latitude":-33.865143,"longitude":151.2099,"reserved":0,"last_update":"0001-01-01T00:00:00Z","name_a2s":"Uncletopia | Sydney | 3 | All Maps","protocol":17,"map":"pl_badwater","folder":"tf","game":"Team Fortress","app_id":440,"player_count":23,"max_players":24,"Bots":0,"server_type":"Dedicated","server_os":"Linux","password":true,"vac":true,"version":"7932396","steam_id":85568392925194467,"keywords":["nocrits","nodmgspread","payload","uncletopia"],"game_id":440,"stv_port":27036,"stv_name":"Uncletopia | Sydney | 3 | All Maps | STV","players":[{"user_id":261,"name":"theory haver","steam_id":76561198133867907,"connected_time":406000000000,"state":"active","ping":66},{"user_id":224,"name":"4-Star Yelp Review","steam_id":76561197995258180,"connected_time":3761000000000,"state":"active","ping":51},{"user_id":260,"name":"MikkyD","steam_id":76561198043452962,"connected_time":470000000000,"state":"active","ping":61},{"user_id":212,"name":"Johnny Fairplay","steam_id":76561198121757287,"connected_time":4592000000000,"state":"active","ping":45},{"user_id":204,"name":"mazoingbur splorgnorbus","steam_id":76561198063481761,"connected_time":4850000000000,"state":"active","ping":41},{"user_id":234,"name":"flow","steam_id":76561198113244106,"connected_time":2335000000000,"state":"active","ping":52},{"user_id":226,"name":"pedal powered brain","steam_id":76561198000568803,"connected_time":3520000000000,"state":"active","ping":54},{"user_id":248,"name":"SchlaytoN","steam_id":76561198206793747,"connected_time":1465000000000,"state":"active","ping":70},{"user_id":252,"name":"tom :D","steam_id":76561198073393715,"connected_time":1408000000000,"state":"active","ping":108},{"user_id":200,"name":"Maquire's Constipation","steam_id":76561198096130103,"connected_time":4921000000000,"state":"active","ping":52},{"user_id":253,"name":"Join the Jihad brother","steam_id":76561199257116847,"connected_time":1399000000000,"state":"active","ping":58},{"user_id":196,"name":"Trotter","steam_id":76561198343965263,"connected_time":5201000000000,"state":"active","ping":60},{"user_id":220,"name":"horrid webbon ·òõ‚ÅêÃ§·ïê·ê∑","steam_id":76561198061998379,"connected_time":4054000000000,"state":"active","ping":46},{"user_id":262,"name":"Zeraki","steam_id":76561198004276062,"connected_time":386000000000,"state":"active","ping":70},{"user_id":202,"name":"former romeo","steam_id":76561198031293430,"connected_time":4885000000000,"state":"active","ping":86},{"user_id":235,"name":"RAINY","steam_id":76561198009848533,"connected_time":2333000000000,"state":"active","ping":61},{"user_id":221,"name":"JP","steam_id":76561198026221737,"connected_time":3950000000000,"state":"active","ping":56},{"user_id":247,"name":"SilverPenguin","steam_id":76561199025744213,"connected_time":1513000000000,"state":"active","ping":172},{"user_id":263,"name":"cool38","steam_id":76561198288970258,"connected_time":328000000000,"state":"active","ping":50},{"user_id":244,"name":"CypressFluff (She/Her)","steam_id":76561198174667818,"connected_time":1859000000000,"state":"active","ping":56},{"user_id":210,"name":"you will be boiled","steam_id":76561198079351541,"connected_time":4683000000000,"state":"active","ping":52},{"user_id":223,"name":"Edgar's can't be choosers","steam_id":76561198301282416,"connected_time":3830000000000,"state":"active","ping":59},{"user_id":218,"name":"Paul Hollywood","steam_id":76561198060024585,"connected_time":4091000000000,"state":"active","ping":37}]},{"server_id":396,"name":"Uncletopia | Sydney | 4 | All Maps","name_short":"syd-4","host":"syd-1.au.uncletopia.com","port":27045,"enabled":true,"region":"au","cc":"au","latitude":-33.865143,"longitude":151.2099,"reserved":0,"last_update":"0001-01-01T00:00:00Z","name_a2s":"Uncletopia | Sydney | 4 | All Maps","protocol":17,"map":"koth_lakeside_final","folder":"tf","game":"Team Fortress","app_id":440,"player_count":0,"max_players":24,"Bots":0,"server_type":"Dedicated","server_os":"Linux","password":true,"vac":true,"version":"7932396","steam_id":85568392925397958,"keywords":["cp","nocrits","nodmgspread","uncletopia"],"game_id":440,"stv_port":27046,"stv_name":"Uncletopia | Sydney | 4 | All Maps | STV","players":null},{"server_id":58,"name":"Uncletopia | Sydney | 5 | Stopwatch Beta","name_short":"syd-5","host":"syd-1.au.uncletopia.com","port":27055,"enabled":true,"region":"au","cc":"au","latitude":-33.865143,"longitude":151.2099,"reserved":0,"last_update":"0001-01-01T00:00:00Z","name_a2s":"Uncletopia | Sydney | 5 | Stopwatch Beta","protocol":17,"map":"pl_borneo","folder":"tf","game":"Team Fortress","app_id":440,"player_count":0,"max_players":24,"Bots":0,"server_type":"Dedicated","server_os":"Linux","password":true,"vac":true,"version":"7932396","steam_id":85568392925397959,"keywords":["nocrits","nodmgspread","payload","uncletopia"],"game_id":440,"stv_port":27056,"stv_name":"Uncletopia | Sydney | 5 | Stopwatch Beta | STV","players":null},{"server_id":59,"name":"Uncletopia | Sydney | 6 | Community","name_short":"syd-6","host":"syd-1.au.uncletopia.com","port":27065,"enabled":true,"region":"au","cc":"au","latitude":-33.865143,"longitude":151.2099,"reserved":0,"last_update":"0001-01-01T00:00:00Z","name_a2s":"Uncletopia | Sydney | 6 | Community","protocol":17,"map":"workshop/cp_sulfur_rc2.ugc619869471","folder":"tf","game":"Team Fortress","app_id":440,"player_count":0,"max_players":24,"Bots":0,"server_type":"Dedicated","server_os":"Linux","password":true,"vac":true,"version":"7932396","steam_id":85568392925397960,"keywords":["cp","nocrits","nodmgspread","uncletopia"],"game_id":440,"stv_port":27066,"stv_name":"Uncletopia | Sydney | 6 | Community | STV","players":null},{"server_id":49,"name":"Uncletopia | Warsaw | 1 | All Maps","name_short":"waw-1","host":"waw-1.pl.uncletopia.com","port":27015,"enabled":true,"region":"eu","cc":"pl","latitude":52.2297,"longitude":21.017532,"reserved":0,"last_update":"0001-01-01T00:00:00Z","name_a2s":"","protocol":0,"map":"","folder":"","game":"","app_id":0,"player_count":0,"max_players":0,"Bots":0,"server_type":"","server_os":"","password":false,"vac":false,"version":"","steam_id":0,"keywords":null,"game_id":0,"stv_port":0,"stv_name":"","players":null},{"server_id":50,"name":"Uncletopia | Warsaw | 2 | All Maps","name_short":"waw-2","host":"waw-1.pl.uncletopia.com","port":27025,"enabled":true,"region":"eu","cc":"pl","latitude":52.2297,"longitude":21.017532,"reserved":0,"last_update":"0001-01-01T00:00:00Z","name_a2s":"Uncletopia | Warsaw | 2 | All Maps","protocol":17,"map":"koth_cascade","folder":"tf","game":"Team Fortress","app_id":440,"player_count":0,"max_players":24,"Bots":0,"server_type":"Dedicated","server_os":"Linux","password":true,"vac":true,"version":"7932396","steam_id":85568392925397851,"keywords":["cp","nocrits","nodmgspread","uncletopia"],"game_id":440,"stv_port":27026,"stv_name":"Uncletopia | Warsaw | 2 | All Maps | STV","players":null},{"server_id":51,"name":"Uncletopia | Warsaw | 3 | All Maps","name_short":"waw-3","host":"waw-1.pl.uncletopia.com","port":27035,"enabled":true,"region":"eu","cc":"pl","latitude":52.2297,"longitude":21.017532,"reserved":0,"last_update":"0001-01-01T00:00:00Z","name_a2s":"Uncletopia | Warsaw | 3 | All Maps","protocol":17,"map":"koth_lakeside_final","folder":"tf","game":"Team Fortress","app_id":440,"player_count":0,"max_players":24,"Bots":0,"server_type":"Dedicated","server_os":"Linux","password":true,"vac":true,"version":"7932396","steam_id":85568392925397852,"keywords":["cp","nocrits","nodmgspread","uncletopia"],"game_id":440,"stv_port":27036,"stv_name":"Uncletopia | Warsaw | 3 | All Maps | STV","players":null},{"server_id":52,"name":"Uncletopia | Warsaw | 4 | All Maps","name_short":"waw-4","host":"waw-1.pl.uncletopia.com","port":27045,"enabled":true,"region":"eu","cc":"pl","latitude":52.2297,"longitude":21.017532,"reserved":0,"last_update":"0001-01-01T00:00:00Z","name_a2s":"Uncletopia | Warsaw | 4 | All Maps","protocol":17,"map":"pl_swiftwater_final1","folder":"tf","game":"Team Fortress","app_id":440,"player_count":0,"max_players":24,"Bots":0,"server_type":"Dedicated","server_os":"Linux","password":true,"vac":true,"version":"7932396","steam_id":85568392925397853,"keywords":["nocrits","nodmgspread","payload","uncletopia"],"game_id":440,"stv_port":27046,"stv_name":"Uncletopia | Warsaw | 4 | All Maps | STV","players":null},{"server_id":53,"name":"Uncletopia | Warsaw | 5 | Stopwatch Beta","name_short":"waw-5","host":"waw-1.pl.uncletopia.com","port":27055,"enabled":true,"region":"eu","cc":"pl","latitude":52.2297,"longitude":21.017532,"reserved":0,"last_update":"0001-01-01T00:00:00Z","name_a2s":"Uncletopia | Warsaw | 5 | Stopwatch Beta","protocol":17,"map":"koth_highpass","folder":"tf","game":"Team Fortress","app_id":440,"player_count":0,"max_players":24,"Bots":0,"server_type":"Dedicated","server_os":"Linux","password":true,"vac":true,"version":"7932396","steam_id":85568392925397854,"keywords":["cp","nocrits","nodmgspread","uncletopia"],"game_id":440,"stv_port":27056,"stv_name":"Uncletopia | Warsaw | 5 | Stopwatch Beta | STV","players":null},{"server_id":54,"name":"Uncletopia | Warsaw | 6 | Community","name_short":"waw-6","host":"waw-1.pl.uncletopia.com","port":27065,"enabled":true,"region":"eu","cc":"pl","latitude":52.2297,"longitude":21.017532,"reserved":0,"last_update":"0001-01-01T00:00:00Z","name_a2s":"Uncletopia | Warsaw | 6 | Community","protocol":17,"map":"pl_upward","folder":"tf","game":"Team Fortress","app_id":440,"player_count":0,"max_players":24,"Bots":0,"server_type":"Dedicated","server_os":"Linux","password":true,"vac":true,"version":"7932396","steam_id":85568392925397856,"keywords":["nocrits","nodmgspread","payload","uncletopia"],"game_id":440,"stv_port":27066,"stv_name":"Uncletopia | Warsaw | 6 | Community | STV","players":null}]}