{"status":true,"message":"","result":[{"server_id":9,"name":"Uncletopia | Atlanta | 1 | All Maps","name_short":"atl-1","host":"atl-1.us.uncletopia.com","port":27015,"enabled":true,"region":"us-east","cc":"us","latitude":33.753746,"longitude":-84.38633,"reserved":0,"last_update":"0001-01-01T00:00:00Z","name_a2s":"Uncletopia | Atlanta | 1 | All Maps","protocol":17,"map":"koth_lakeside_final","folder":"tf","game":"Team Fortress","app_id":440,"player_count":0,"max_players":24,"Bots":0,"server_type":"Dedicated","server_os":"Linux","password":true,"vac":true,"version":"7708610","steam_id":85568392924469982,"keywords":["cp","nocrits","nodmgspread","uncletopia"],"game_id":440,"stv_port":27016,"stv_name":"Uncletopia | Atlanta | 1 | All Maps | STV","players":null},{"server_id":400,"name":"Uncletopia | Atlanta | 3 | All Maps","name_short":"atl-3","host":"atl-1.us.uncletopia.com","port":27035,"enabled":true,"region":"us-east","cc":"us","latitude":33.753746,"longitude":-84.38633,"reserved":0,"last_update":"0001-01-01T00:00:00Z","name_a2s":"Uncletopia | Atlanta | 3 | All Maps","protocol":17,"map":"pl_snowycoast","folder":"tf","game":"Team Fortress","app_id":440,"player_count":23,"max_players":24,"Bots":0,"server_type":"Dedicated","server_os":"Linux","password":true,"vac":true,"version":"7708610","steam_id":85568392924515187,"keywords":["nocrits","nodmgspread","payload","uncletopia"],"game_id":440,"stv_port":27036,"stv_name":"Uncletopia | Atlanta | 3 | All Maps | STV","players":[{"user_id":733,"name":"Mr. Bubs","steam_id":76561198130283080,"connected_time":65000000000,"state":"active","ping":87},{"user_id":673,"name":"dog","steam_id":76561198263873491,"connected_time":3546000000000,"state":"active","ping":60},{"user_id":724,"name":"Ledstuffs","steam_id":76561198147072846,"connected_time":838000000000,"state":"active","ping":41},{"user_id":723,"name":"Snakeye3490","steam_id":76561198197060503,"connected_time":949000000000,"state":"active","ping":62},{"user_id":685,"name":"Samuel","steam_id":76561198045652639,"connected_time":3218000000000,"state":"active","ping":117},{"user_id":715,"name":"Quick-Fix Fan","steam_id":76561198872845740,"connected_time":1203000000000,"state":"active","ping":59},{"user_id":558,"name":"Spoonastic","steam_id":76561198343838009,"connected_time":14545000000000,"state":"active","ping":113},{"user_id":725,"name":"Gabagool","steam_id":76561198365935179,"connected_time":787000000000,"state":"active","ping":81},{"user_id":717,"name":"sheep","steam_id":76561198172943006,"connected_time":1187000000000,"state":"active","ping":61},{"user_id":734,"name":"shinoa","steam_id":76561199180954540,"connected_time":48000000000,"state":"active","ping":86},{"user_id":735,"name":"firebird50 #stormit","steam_id":76561198015155937,"connected_time":44000000000,"state":"active","ping":99},{"user_id":727,"name":"aeop","steam_id":76561198153671643,"connected_time":439000000000,"state":"active","ping":75},{"user_id":736,"name":"SpiderString","steam_id":76561198092409181,"connected_time":42000000000,"state":"active","ping":89},{"user_id":737,"name":"ChoccyMiltank","steam_id":76561198981474284,"connected_time":40000000000,"state":"active","ping":94},{"user_id":729,"name":"ryce","steam_id":76561198114572309,"connected_time":428000000000,"state":"active","ping":48},{"user_id":718,"name":"flatts","steam_id":76561198094127177,"connected_time":1181000000000,"state":"active","ping":52},{"user_id":741,"name":"Ashah","steam_id":76561198299053146,"connected_time":10000000000,"state":"spawning","ping":119},{"user_id":689,"name":"Wso1123","steam_id":76561198048040111,"connected_time":3179000000000,"state":"active","ping":104},{"user_id":730,"name":"Tay1Qr","steam_id":76561198082809935,"connected_time":230000000000,"state":"active","ping":61},{"user_id":719,"name":"❤ Ashley ❤","steam_id":76561198056428303,"connected_time":1176000000000,"state":"active","ping":105},{"user_id":491,"name":"A Puppy","steam_id":76561198828184456,"connected_time":20000000000000,"state":"active","ping":55},{"user_id":731,"name":"TÖZI","steam_id":76561198045268695,"connected_time":166000000000,"state":"active","ping":69},{"user_id":683,"name":"shelz0r","steam_id":76561198002195754,"connected_time":3259000000000,"state":"active","ping":101}]},{"server_id":401,"name":"Uncletopia | Atlanta | 4 | No Payload","name_short":"atl-4","host":"atl-1.us.uncletopia.com","port":27045,"enabled":true,"region":"us-east","cc":"us","latitude":33.753746,"longitude":-84.38633,"reserved":0,"last_update":"0001-01-01T00:00:00Z","name_a2s":"Uncletopia | Atlanta | 4 | No Payload","protocol":17,"map":"ctf_well","folder":"tf","game":"Team Fortress","app_id":440,"player_count":0,"max_players":24,"Bots":0,"server_type":"Dedicated","server_os":"Linux","password":true,"vac":true,"version":"7708610","steam_id":85568392924515188,"keywords":["ctf","nocrits","nodmgspread","uncletopia"],"game_id":440,"stv_port":27046,"stv_name":"Uncletopia | Atlanta | 4 | No Payload | STV","players":null},{"server_id":2,"name":"Uncletopia | Chicago | 1 | All Maps","name_short":"chi-1","host":"chi-1.us.uncletopia.com","port":27015,"enabled":true,"region":"us-central","cc":"us","latitude":41.881832,"longitude":-87.62318,"reserved":0,"last_update":"0001-01-01T00:00:00Z","name_a2s":"Uncletopia | Chicago | 1 | All Maps","protocol":17,"map":"cp_gorge","folder":"tf","game":"Team Fortress","app_id":440,"player_count":24,"max_players":24,"Bots":0,"server_type":"Dedicated","server_os":"Linux","password":true,"vac":true,"version":"7708610","steam_id":85568392924469984,"keywords":["cp","nocrits","nodmgspread","uncletopia"],"game_id":440,"stv_port":27016,"stv_name":"Uncletopia | Chicago | 1 | All Maps | STV","players":[{"user_id":747,"name":"rtd user","steam_id":76561198163977665,"connected_time":2130000000000,"state":"active","ping":74},{"user_id":775,"name":"ailee","steam_id":76561198284326069,"connected_time":891000000000,"state":"active","ping":55},{"user_id":749,"name":"Howoriginal","steam_id":76561197993701184,"connected_time":2054000000000,"state":"active","ping":57},{"user_id":763,"name":"u/unhinged_person","steam_id":76561198085839920,"connected_time":1554000000000,"state":"active","ping":62},{"user_id":751,"name":"8Z","steam_id":76561198027025876,"connected_time":2038000000000,"state":"active","ping":87},{"user_id":742,"name":"totally not a pile of beans","steam_id":76561198119851931,"connected_time":2705000000000,"state":"active","ping":76},{"user_id":773,"name":"GuyGoom","steam_id":76561198254522178,"connected_time":1019000000000,"state":"active","ping":57},{"user_id":772,"name":"PotatoKing","steam_id":76561198302517491,"connected_time":1031000000000,"state":"active","ping":83},{"user_id":764,"name":"Pharthus","steam_id":76561198093866050,"connected_time":1547000000000,"state":"active","ping":81},{"user_id":725,"name":"John Darksoul","steam_id":76561198031675881,"connected_time":3700000000000,"state":"active","ping":49},{"user_id":723,"name":"Jousty","steam_id":76561199162677853,"connected_time":3740000000000,"state":"active","ping":80},{"user_id":756,"name":"Shpadukin","steam_id":76561198160248914,"connected_time":1781000000000,"state":"active","ping":90},{"user_id":689,"name":"Legion","steam_id":76561199036242643,"connected_time":6391000000000,"state":"active","ping":62},{"user_id":782,"name":"leumas","steam_id":76561198240408540,"connected_time":211000000000,"state":"active","ping":59},{"user_id":726,"name":"tokemaster69","steam_id":76561198083996924,"connected_time":3695000000000,"state":"active","ping":65},{"user_id":741,"name":"Koishi","steam_id":76561198054541054,"connected_time":2791000000000,"state":"active","ping":56},{"user_id":759,"name":"wa","steam_id":76561198012945016,"connected_time":1664000000000,"state":"active","ping":55},{"user_id":776,"name":"Scrumpy Main","steam_id":76561198146302597,"connected_time":781000000000,"state":"active","ping":51},{"user_id":779,"name":"Sicko Mode (Chris Pratt Cover)","steam_id":76561198315786174,"connected_time":643000000000,"state":"active","ping":71},{"user_id":780,"name":"let that boba cheese","steam_id":76561198086193212,"connected_time":564000000000,"state":"active","ping":69},{"user_id":774,"name":"DustBowl TF2","steam_id":76561199171572966,"connected_time":1017000000000,"state":"active","ping":48},{"user_id":770,"name":"mike","steam_id":76561198099412571,"connected_time":1184000000000,"state":"active","ping":65},{"user_id":769,"name":"Kevin Y.","steam_id":76561198364331423,"connected_time":1276000000000,"state":"active","ping":81},{"user_id":781,"name":"POOPY GUY","steam_id":76561198145304571,"connected_time":498000000000,"state":"active","ping":102}]},{"server_id":106,"name":"Uncletopia | Chicago | 2 | All Maps","name_short":"chi-2","host":"chi-1.us.uncletopia.com","port":27025,"enabled":true,"region":"us-central","cc":"us","latitude":41.881832,"longitude":-87.62318,"reserved":0,"last_update":"0001-01-01T00:00:00Z","name_a2s":"Uncletopia | Chicago | 2 | All Maps","protocol":17,"map":"pl_pier","folder":"tf","game":"Team Fortress","app_id":440,"player_count":0,"max_players":24,"Bots":0,"server_type":"Dedicated","server_os":"Linux","password":true,"vac":true,"version":"7708610","steam_id":85568392924469985,"keywords":["nocrits","nodmgspread","payload","uncletopia"],"game_id":440,"stv_port":27026,"stv_name":"Uncletopia | Chicago | 2 | All Maps | STV","players":null},{"server_id":402,"name":"Uncletopia | Chicago | 3 | All Maps","name_short":"chi-3","host":"chi-1.us.uncletopia.com","port":27035,"enabled":true,"region":"us-central","cc":"us","latitude":41.881832,"longitude":-87.62318,"reserved":0,"last_update":"0001-01-01T00:00:00Z","name_a2s":"Uncletopia | Chicago | 3 | All Maps","protocol":17,"map":"pl_snowycoast","folder":"tf","game":"Team Fortress","app_id":440,"player_count":0,"max_players":24,"Bots":0,"server_type":"Dedicated","server_os":"Linux","password":true,"vac":true,"version":"7708610","steam_id":85568392924515191,"keywords":["nocrits","nodmgspread","payload","uncletopia"],"game_id":440,"stv_port":27036,"stv_name":"Uncletopia | Chicago | 3 | All Maps | STV","players":null},{"server_id":403,"name":"Uncletopia | Chicago | 4 | All Maps","name_short":"chi-4","host":"chi-1.us.uncletopia.com","port":27045,"enabled":true,"region":"us-central","cc":"us","latitude":41.881832,"longitude":-87.62318,"reserved":0,"last_update":"0001-01-01T00:00:00Z","name_a2s":"Uncletopia | Chicago | 4 | All Maps","protocol":17,"map":"pl_frontier_final","folder":"tf","game":"Team Fortress","app_id":440,"player_count":24,"max_players":24,"Bots":0,"server_type":"Dedicated","server_os":"Linux","password":true,"vac":true,"version":"7708610","steam_id":85568392924515193,"keywords":["nocrits","nodmgspread","payload","uncletopia"],"game_id":440,"stv_port":27046,"stv_name":"Uncletopia | Chicago | 4 | All Maps | STV","players":[{"user_id":621,"name":"Eric4bz","steam_id":76561198054439606,"connected_time":1322000000000,"state":"active","ping":97},{"user_id":624,"name":"Allotrope","steam_id":76561197998450103,"connected_time":643000000000,"state":"active","ping":46},{"user_id":619,"name":"johnman gooberguy","steam_id":76561199014859764,"connected_time":1466000000000,"state":"active","ping":105},{"user_id":614,"name":"Knightshade","steam_id":76561198047225393,"connected_time":1733000000000,"state":"active","ping":77},{"user_id":569,"name":"deltuh","steam_id":76561198121067719,"connected_time":3911000000000,"state":"active","ping":56},{"user_id":575,"name":"Cooldogjoe","steam_id":76561198105543698,"connected_time":3548000000000,"state":"active","ping":53},{"user_id":570,"name":"OrionKid","steam_id":76561198359094901,"connected_time":3828000000000,"state":"active","ping":79},{"user_id":573,"name":"Incredible Donk","steam_id":76561198427360423,"connected_time":3636000000000,"state":"active","ping":94},{"user_id":571,"name":"Eshie","steam_id":76561197983106498,"connected_time":3803000000000,"state":"active","ping":66},{"user_id":584,"name":"John","steam_id":76561198070700732,"connected_time":3139000000000,"state":"active","ping":102},{"user_id":620,"name":"Cooldog","steam_id":76561198155754968,"connected_time":1426000000000,"state":"active","ping":55},{"user_id":588,"name":"TAQ","steam_id":76561198127818784,"connected_time":3003000000000,"state":"active","ping":89},{"user_id":615,"name":"gimme benzos","steam_id":76561199223514262,"connected_time":1701000000000,"state":"active","ping":72},{"user_id":626,"name":"Bap","steam_id":76561198056717319,"connected_time":133000000000,"state":"active","ping":51},{"user_id":625,"name":"duneblaster0","steam_id":76561198040364680,"connected_time":369000000000,"state":"active","ping":46},{"user_id":586,"name":"Festive Joe","steam_id":76561198271907916,"connected_time":3070000000000,"state":"active","ping":57},{"user_id":587,"name":"Nebularized","steam_id":76561199232647775,"connected_time":3020000000000,"state":"active","ping":88},{"user_id":589,"name":"Medeev","steam_id":76561198165381710,"connected_time":2974000000000,"state":"active","ping":60},{"user_id":599,"name":"mommy claus","steam_id":76561199230929836,"connected_time":2407000000000,"state":"active","ping":101},{"user_id":618,"name":"Blargian Snagglebeast","steam_id":76561198115831507,"connected_time":1525000000000,"state":"active","ping":48},{"user_id":609,"name":"tiny hog","steam_id":76561198079923652,"connected_time":2289000000000,"state":"active","ping":85},{"user_id":593,"name":"Uber","steam_id":76561198139793532,"connected_time":2928000000000,"state":"active","ping":61},{"user_id":610,"name":"The Creature From The Abyss","steam_id":76561198129044043,"connected_time":2213000000000,"state":"active","ping":62},{"user_id":623,"name":"LYTEWERK","steam_id":76561198002819791,"connected_time":1271000000000,"state":"active","ping":75}]},{"server_id":36,"name":"Uncletopia | Chicago | 5 | All Maps","name_short":"chi-5","host":"chi-2.us.uncletopia.com","port":27015,"enabled":true,"region":"us-central","cc":"us","latitude":41.881832,"longitude":-87.62318,"reserved":0,"last_update":"0001-01-01T00:00:00Z","name_a2s":"Uncletopia | Chicago | 5 | All Maps","protocol":17,"map":"cp_mossrock","folder":"tf","game":"Team Fortress","app_id":440,"player_count":18,"max_players":24,"Bots":0,"server_type":"Dedicated","server_os":"Linux","password":true,"vac":true,"version":"7708610","steam_id":85568392924866362,"keywords":["cp","nocrits","nodmgspread","uncletopia"],"game_id":440,"stv_port":27016,"stv_name":"Uncletopia | Chicago | 5 | All Maps | STV","players":[{"user_id":371,"name":"Fantastic","steam_id":76561198079088978,"connected_time":2469000000000,"state":"spawning","ping":63},{"user_id":388,"name":"Cliff Gremlin","steam_id":76561198409907417,"connected_time":1167000000000,"state":"spawning","ping":280},{"user_id":381,"name":"The Animated Gamer","steam_id":76561198120639995,"connected_time":2164000000000,"state":"spawning","ping":121},{"user_id":389,"name":"snow worm","steam_id":76561198328256922,"connected_time":1160000000000,"state":"spawning","ping":50},{"user_id":400,"name":"matkaster","steam_id":76561197998546486,"connected_time":490000000000,"state":"spawning","ping":60},{"user_id":383,"name":"Antonio Molonio","steam_id":76561198038929334,"connected_time":1943000000000,"state":"spawning","ping":66},{"user_id":403,"name":"Air Fryer - $39.99 (4 Payments)","steam_id":76561198043572048,"connected_time":262000000000,"state":"spawning","ping":86},{"user_id":392,"name":"Joe Burning","steam_id":76561198208623275,"connected_time":947000000000,"state":"active","ping":117},{"user_id":360,"name":"Belloq","steam_id":76561198060279052,"connected_time":2641000000000,"state":"spawning","ping":219},{"user_id":373,"name":"Yeshie the Dragon Layer","steam_id":76561198080214214,"connected_time":2434000000000,"state":"spawning","ping":54},{"user_id":394,"name":"JPSS","steam_id":76561199239530493,"connected_time":922000000000,"state":"spawning","ping":91},{"user_id":395,"name":"Lone Dancer","steam_id":76561199096241116,"connected_time":818000000000,"state":"spawning","ping":64},{"user_id":396,"name":"Bandit","steam_id":76561198328421159,"connected_time":756000000000,"state":"active","ping":66},{"user_id":387,"name":"Fraglin","steam_id":76561198124964000,"connected_time":1245000000000,"state":"spawning","ping":75},{"user_id":398,"name":"Dwars","steam_id":76561197968737222,"connected_time":706000000000,"state":"spawning","ping":312},{"user_id":401,"name":"ipadkid","steam_id":76561199239446808,"connected_time":477000000000,"state":"spawning","ping":92},{"user_id":364,"name":"Missing Minus","steam_id":76561198120822928,"connected_time":2621000000000,"state":"spawning","ping":68},{"user_id":350,"name":"Sleepy Brady","steam_id":76561198867378129,"connected_time":3655000000000,"state":"spawning","ping":60}]},{"server_id":37,"name":"Uncletopia | Chicago | 6 | All Maps","name_short":"chi-6","host":"chi-2.us.uncletopia.com","port":27025,"enabled":true,"region":"us-central","cc":"us","latitude":41.881832,"longitude":-87.62318,"reserved":0,"last_update":"0001-01-01T00:00:00Z","name_a2s":"Uncletopia | Chicago | 6 | All Maps","protocol":17,"map":"cp_mountainlab","folder":"tf","game":"Team Fortress","app_id":440,"player_count":0,"max_players":24,"Bots":0,"server_type":"Dedicated","server_os":"Linux","password":true,"vac":true,"version":"7708610","steam_id":85568392924866363,"keywords":["cp","nocrits","nodmgspread","uncletopia"],"game_id":440,"stv_port":27026,"stv_name":"Uncletopia | Chicago | 6 | All Maps | STV","players":null},{"server_id":38,"name":"Uncletopia | Chicago | 7 | No Payload","name_short":"chi-7","host":"chi-2.us.uncletopia.com","port":27035,"enabled":true,"region":"us-central","cc":"us","latitude":41.881832,"longitude":-87.62318,"reserved":0,"last_update":"0001-01-01T00:00:00Z","name_a2s":"Uncletopia | Chicago | 7 | No Payload","protocol":17,"map":"koth_lazarus","folder":"tf","game":"Team Fortress","app_id":440,"player_count":0,"max_players":24,"Bots":0,"server_type":"Dedicated","server_os":"Linux","password":true,"vac":true,"version":"7708610","steam_id":85568392924866364,"keywords":["cp","nocrits","nodmgspread","uncletopia"],"game_id":440,"stv_port":27036,"stv_name":"Uncletopia | Chicago | 7 | No Payload | STV","players":null},{"server_id":39,"name":"Uncletopia | Chicago | 8 | Community","name_short":"chi-8","host":"chi-2.us.uncletopia.com","port":27045,"enabled":true,"region":"us-central","cc":"us","latitude":41.881832,"longitude":-87.62318,"reserved":0,"last_update":"0001-01-01T00:00:00Z","name_a2s":"Uncletopia | Chicago | 8 | Community","protocol":17,"map":"workshop/koth_bagel_rc5.ugc2514036946","folder":"tf","game":"Team Fortress","app_id":440,"player_count":0,"max_players":24,"Bots":0,"server_type":"Dedicated","server_os":"Linux","password":true,"vac":true,"version":"7708610","steam_id":85568392924866365,"keywords":["cp","nocrits","nodmgspread","uncletopia"],"game_id":440,"stv_port":27046,"stv_name":"Uncletopia | Chicago | 8 | Community | STV","players":null},{"server_id":8,"name":"Uncletopia | Dallas | 1 | All Maps","name_short":"dal-1","host":"dal-1.us.uncletopia.com","port":27015,"enabled":true,"region":"us-central","cc":"us","latitude":32.779167,"longitude":-96.80889,"reserved":0,"last_update":"0001-01-01T00:00:00Z","name_a2s":"Uncletopia | Dallas | 1 | All Maps","protocol":17,"map":"pl_upward","folder":"tf","game":"Team Fortress","app_id":440,"player_count":24,"max_players":24,"Bots":0,"server_type":"Dedicated","server_os":"Linux","password":true,"vac":true,"version":"7708610","steam_id":85568392924469986,"keywords":["nocrits","nodmgspread","payload","uncletopia"],"game_id":440,"stv_port":27016,"stv_name":"Uncletopia | Dallas | 1 | All Maps | STV","players":[{"user_id":777,"name":"Shadow Zero -ßЯҢ-","steam_id":76561198025326136,"connected_time":1251000000000,"state":"active","ping":77},{"user_id":776,"name":"-BRH- Tangled up in Bluegrass","steam_id":76561197987181139,"connected_time":1507000000000,"state":"active","ping":85},{"user_id":754,"name":"supcupman","steam_id":76561198051513866,"connected_time":3677000000000,"state":"active","ping":95},{"user_id":783,"name":"Bobby","steam_id":76561198164004939,"connected_time":948000000000,"state":"active","ping":98},{"user_id":784,"name":"trackball gaming","steam_id":76561198057371485,"connected_time":946000000000,"state":"active","ping":70},{"user_id":781,"name":"Tuna","steam_id":76561198197994975,"connected_time":966000000000,"state":"active","ping":46},{"user_id":727,"name":"SpinnerSpecial","steam_id":76561198065661869,"connected_time":5849000000000,"state":"active","ping":106},{"user_id":785,"name":"Tetanus Bob","steam_id":76561198074500319,"connected_time":897000000000,"state":"active","ping":99},{"user_id":798,"name":"SesataPomang","steam_id":76561198145133059,"connected_time":98000000000,"state":"active","ping":141},{"user_id":794,"name":"-ßЯҢ- CYBER PYRO","steam_id":76561197973948102,"connected_time":282000000000,"state":"active","ping":87},{"user_id":787,"name":"Aunty Frazzle","steam_id":76561198145596626,"connected_time":840000000000,"state":"active","ping":97},{"user_id":788,"name":"Baegel","steam_id":76561198027447051,"connected_time":823000000000,"state":"active","ping":80},{"user_id":789,"name":"Come on man thats too easy","steam_id":76561198392407790,"connected_time":819000000000,"state":"active","ping":73},{"user_id":790,"name":"Zippy","steam_id":76561198279229422,"connected_time":761000000000,"state":"active","ping":64},{"user_id":799,"name":"Jazz2T","steam_id":76561198154418867,"connected_time":89000000000,"state":"active","ping":105},{"user_id":769,"name":"BlueRikoroo","steam_id":76561198031865740,"connected_time":2311000000000,"state":"active","ping":65},{"user_id":800,"name":"Connie","steam_id":76561198068661013,"connected_time":87000000000,"state":"active","ping":81},{"user_id":791,"name":"Raggy","steam_id":76561198843747605,"connected_time":760000000000,"state":"active","ping":65},{"user_id":792,"name":"mac_cheese","steam_id":76561198071334162,"connected_time":758000000000,"state":"active","ping":91},{"user_id":793,"name":"DingDongAnalog","steam_id":76561198850181994,"connected_time":758000000000,"state":"active","ping":97},{"user_id":762,"name":"BLOOD !","steam_id":76561198004400850,"connected_time":3437000000000,"state":"active","ping":61},{"user_id":796,"name":"John F. Kennedy","steam_id":76561198068825962,"connected_time":140000000000,"state":"active","ping":81},{"user_id":765,"name":"GarretGood","steam_id":76561198071881495,"connected_time":3395000000000,"state":"active","ping":102},{"user_id":780,"name":"Fake21","steam_id":76561198282065071,"connected_time":1054000000000,"state":"active","ping":49}]},{"server_id":108,"name":"Uncletopia | Dallas | 2 | All Maps","name_short":"dal-2","host":"dal-1.us.uncletopia.com","port":27025,"enabled":true,"region":"us-central","cc":"us","latitude":32.779167,"longitude":-96.80889,"reserved":0,"last_update":"0001-01-01T00:00:00Z","name_a2s":"Uncletopia | Dallas | 2 | All Maps","protocol":17,"map":"cp_process_final","folder":"tf","game":"Team Fortress","app_id":440,"player_count":24,"max_players":24,"Bots":0,"server_type":"Dedicated","server_os":"Linux","password":true,"vac":true,"version":"7708610","steam_id":85568392924469988,"keywords":["cp","nocrits","nodmgspread","uncletopia"],"game_id":440,"stv_port":27026,"stv_name":"Uncletopia | Dallas | 2 | All Maps | STV","players":[{"user_id":608,"name":"YCheck137","steam_id":76561198099444879,"connected_time":2290000000000,"state":"active","ping":92},{"user_id":616,"name":"Echo Gaming","steam_id":76561198242890502,"connected_time":1500000000000,"state":"active","ping":60},{"user_id":625,"name":"herb","steam_id":76561198185980055,"connected_time":1077000000000,"state":"active","ping":70},{"user_id":627,"name":"Nugakku","steam_id":76561198082346219,"connected_time":977000000000,"state":"active","ping":83},{"user_id":525,"name":"ultra","steam_id":76561198327686189,"connected_time":9143000000000,"state":"active","ping":46},{"user_id":424,"name":"[K.Y.L.L.]Drone #0432 (they/it)","steam_id":76561198027321950,"connected_time":15063000000000,"state":"active","ping":89},{"user_id":629,"name":"Olitude","steam_id":76561199238964574,"connected_time":585000000000,"state":"active","ping":87},{"user_id":595,"name":"Satori Komeiji","steam_id":76561198158211423,"connected_time":2960000000000,"state":"active","ping":67},{"user_id":609,"name":"♔ Regular Tetragon","steam_id":76561198040366189,"connected_time":2281000000000,"state":"active","ping":95},{"user_id":632,"name":"Round King","steam_id":76561198273185290,"connected_time":290000000000,"state":"active","ping":98},{"user_id":606,"name":"BrendenMad","steam_id":76561198031250581,"connected_time":2500000000000,"state":"active","ping":60},{"user_id":600,"name":"Stillkill","steam_id":76561198065069057,"connected_time":2863000000000,"state":"active","ping":38},{"user_id":610,"name":"Wubslin","steam_id":76561198035864057,"connected_time":2276000000000,"state":"active","ping":71},{"user_id":611,"name":"Jean Supreme","steam_id":76561198041024577,"connected_time":2274000000000,"state":"active","ping":106},{"user_id":586,"name":"PoltergussyLordoftheAsstralVoid","steam_id":76561199195004708,"connected_time":4195000000000,"state":"active","ping":86},{"user_id":615,"name":"Sugercrash","steam_id":76561199187685119,"connected_time":1761000000000,"state":"active","ping":78},{"user_id":601,"name":"Gelliterate","steam_id":76561198107233070,"connected_time":2862000000000,"state":"active","ping":60},{"user_id":630,"name":"SavHud","steam_id":76561199111713748,"connected_time":536000000000,"state":"active","ping":91},{"user_id":613,"name":"SPOON MAN","steam_id":76561199028500370,"connected_time":2091000000000,"state":"active","ping":89},{"user_id":621,"name":"Rusty","steam_id":76561198056557928,"connected_time":1356000000000,"state":"active","ping":74},{"user_id":531,"name":"A Can of Arizona Green Tea","steam_id":76561198062481133,"connected_time":8612000000000,"state":"active","ping":68},{"user_id":622,"name":"akirajimbo","steam_id":76561197979960008,"connected_time":1331000000000,"state":"active","ping":83},{"user_id":604,"name":"GusyPls","steam_id":76561198058423925,"connected_time":2698000000000,"state":"active","ping":78},{"user_id":628,"name":"\u003e:)","steam_id":76561198808224331,"connected_time":617000000000,"state":"active","ping":97}]},{"server_id":5,"name":"Uncletopia | Frankfurt | 1 | All Maps","name_short":"frk-1","host":"frk-1.de.uncletopia.com","port":27015,"enabled":true,"region":"eu","cc":"de","latitude":50.110924,"longitude":8.682127,"reserved":0,"last_update":"0001-01-01T00:00:00Z","name_a2s":"Uncletopia | Frankfurt | 1 | All Maps","protocol":17,"map":"pl_swiftwater_final1","folder":"tf","game":"Team Fortress","app_id":440,"player_count":0,"max_players":24,"Bots":0,"server_type":"Dedicated","server_os":"Linux","password":true,"vac":true,"version":"7708610","steam_id":85568392924469989,"keywords":["nocrits","nodmgspread","payload","uncletopia"],"game_id":440,"stv_port":27016,"stv_name":"Uncletopia | Frankfurt | 1 | All Maps | STV","players":null},{"server_id":110,"name":"Uncletopia | Frankfurt | 2 | All Maps","name_short":"frk-2","host":"frk-1.de.uncletopia.com","port":27025,"enabled":true,"region":"eu","cc":"de","latitude":50.110924,"longitude":8.682127,"reserved":0,"last_update":"0001-01-01T00:00:00Z","name_a2s":"Uncletopia | Frankfurt | 2 | All Maps","protocol":17,"map":"pl_pier","folder":"tf","game":"Team Fortress","app_id":440,"player_count":0,"max_players":24,"Bots":0,"server_type":"Dedicated","server_os":"Linux","password":true,"vac":true,"version":"7708610","steam_id":85568392924469990,"keywords":["nocrits","nodmgspread","payload","uncletopia"],"game_id":440,"stv_port":0,"stv_name":"","players":null},{"server_id":308,"name":"Uncletopia | Frankfurt | 3 | All Maps","name_short":"frk-3","host":"frk-1.de.uncletopia.com","port":27035,"enabled":true,"region":"eu","cc":"de","latitude":50.110924,"longitude":8.682127,"reserved":0,"last_update":"0001-01-01T00:00:00Z","name_a2s":"Uncletopia | Frankfurt | 3 | All Maps","protocol":17,"map":"koth_cascade","folder":"tf","game":"Team Fortress","app_id":440,"player_count":0,"max_players":24,"Bots":0,"server_type":"Dedicated","server_os":"Linux","password":true,"vac":true,"version":"7708610","steam_id":85568392924504274,"keywords":["cp","nocrits","nodmgspread","uncletopia"],"game_id":440,"stv_port":0,"stv_name":"","players":null},{"server_id":309,"name":"Uncletopia | Frankfurt | 4 | All Maps","name_short":"frk-4","host":"frk-1.de.uncletopia.com","port":27045,"enabled":true,"region":"eu","cc":"de","latitude":50.110924,"longitude":8.682127,"reserved":0,"last_update":"0001-01-01T00:00:00Z","name_a2s":"Uncletopia | Frankfurt | 4 | All Maps","protocol":17,"map":"pl_swiftwater_final1","folder":"tf","game":"Team Fortress","app_id":440,"player_count":0,"max_players":24,"Bots":0,"server_type":"Dedicated","server_os":"Linux","password":true,"vac":true,"version":"7708610","steam_id":85568392924504275,"keywords":["nocrits","nodmgspread","payload","uncletopia"],"game_id":440,"stv_port":0,"stv_name":"","players":null},{"server_id":310,"name":"Uncletopia | Frankfurt | 5 | All Maps","name_short":"frk-5","host":"frk-1.de.uncletopia.com","port":27055,"enabled":true,"region":"eu","cc":"de","latitude":50.110924,"longitude":8.682127,"reserved":0,"last_update":"0001-01-01T00:00:00Z","name_a2s":"Uncletopia | Frankfurt | 5 | All Maps","protocol":17,"map":"koth_cascade","folder":"tf","game":"Team Fortress","app_id":440,"player_count":0,"max_players":24,"Bots":0,"server_type":"Dedicated","server_os":"Linux","password":true,"vac":true,"version":"7708610","steam_id":85568392924504277,"keywords":["cp","nocrits","nodmgspread","uncletopia"],"game_id":440,"stv_port":0,"stv_name":"","players":null},{"server_id":311,"name":"Uncletopia | Frankfurt | 6 | All Maps","name_short":"frk-6","host":"frk-1.de.uncletopia.com","port":27065,"enabled":true,"region":"eu","cc":"de","latitude":50.110924,"longitude":8.682127,"reserved":0,"last_update":"0001-01-01T00:00:00Z","name_a2s":"Uncletopia | Frankfurt | 6 | All Maps","protocol":17,"map":"koth_lakeside_final","folder":"tf","game":"Team Fortress","app_id":440,"player_count":0,"max_players":24,"Bots":0,"server_type":"Dedicated","server_os":"Linux","password":true,"vac":true,"version":"7708610","steam_id":85568392924504278,"keywords":["cp","nocrits","nodmgspread","uncletopia"],"game_id":440,"stv_port":0,"stv_name":"","players":null},{"server_id":23,"name":"Uncletopia | Frankfurt | 7 | No Payload","name_short":"frk-7","host":"frk-1.de.uncletopia.com","port":27075,"enabled":true,"region":"eu","cc":"de","latitude":50.110924,"longitude":8.682127,"reserved":0,"last_update":"0001-01-01T00:00:00Z","name_a2s":"Uncletopia | Frankfurt | 7 | No Payload","protocol":17,"map":"pl_frontier_final","folder":"tf","game":"Team Fortress","app_id":440,"player_count":0,"max_players":24,"Bots":0,"server_type":"Dedicated","server_os":"Linux","password":true,"vac":true,"version":"7708610","steam_id":85568392924742827,"keywords":["nocrits","nodmgspread","payload","uncletopia"],"game_id":440,"stv_port":0,"stv_name":"","players":null},{"server_id":24,"name":"Uncletopia | Frankfurt | 8 | Community","name_short":"frk-8","host":"frk-1.de.uncletopia.com","port":27085,"enabled":true,"region":"eu","cc":"de","latitude":50.110924,"longitude":8.682127,"reserved":0,"last_update":"0001-01-01T00:00:00Z","name_a2s":"Uncletopia | Frankfurt | 8 | Community","protocol":17,"map":"workshop/koth_ashville_final.ugc2130459942","folder":"tf","game":"Team Fortress","app_id":440,"player_count":0,"max_players":24,"Bots":0,"server_type":"Dedicated","server_os":"Linux","password":true,"vac":true,"version":"7708610","steam_id":85568392924742828,"keywords":["cp","nocrits","nodmgspread","uncletopia"],"game_id":440,"stv_port":27086,"stv_name":"Uncletopia | Frankfurt | 8 | Community | STV","players":null},{"server_id":202,"name":"Uncletopia | Hong Kong | 1 | All Maps","name_short":"hgk-1","host":"hgk-1.hk.uncletopia.com","port":27015,"enabled":true,"region":"asia","cc":"hk","latitude":22.302711,"longitude":114.177216,"reserved":0,"last_update":"0001-01-01T00:00:00Z","name_a2s":"Uncletopia | Hong Kong | 1 | All Maps","protocol":17,"map":"pl_barnblitz","folder":"tf","game":"Team Fortress","app_id":440,"player_count":23,"max_players":24,"Bots":0,"server_type":"Dedicated","server_os":"Linux","password":true,"vac":true,"version":"7708610","steam_id":85568392924494504,"keywords":["nocrits","nodmgspread","payload","uncletopia"],"game_id":440,"stv_port":27016,"stv_name":"Uncletopia | Hong Kong | 1 | All Maps | STV","players":[{"user_id":241,"name":"Lu","steam_id":76561198320532821,"connected_time":850000000000,"state":"active","ping":58},{"user_id":196,"name":"brizzard","steam_id":76561198048438653,"connected_time":3196000000000,"state":"active","ping":44},{"user_id":219,"name":"Pillboi","steam_id":76561198011172886,"connected_time":2098000000000,"state":"active","ping":45},{"user_id":224,"name":"gob lin","steam_id":76561198379597982,"connected_time":1390000000000,"state":"active","ping":94},{"user_id":227,"name":"junbi OK","steam_id":76561198116387218,"connected_time":1241000000000,"state":"active","ping":91},{"user_id":245,"name":"Tokyo Smoke","steam_id":76561198966418452,"connected_time":10000000000,"state":"active","ping":140},{"user_id":129,"name":"雪ノ下雪乃のoppai","steam_id":76561198008307645,"connected_time":7973000000000,"state":"active","ping":80},{"user_id":126,"name":"Nimbus","steam_id":76561198877713016,"connected_time":8069000000000,"state":"active","ping":101},{"user_id":161,"name":"Michael Scott","steam_id":76561198023082794,"connected_time":4031000000000,"state":"active","ping":48},{"user_id":139,"name":"cjp","steam_id":76561198081702190,"connected_time":6900000000000,"state":"active","ping":87},{"user_id":143,"name":"Rocketmaster","steam_id":76561198291383989,"connected_time":6603000000000,"state":"active","ping":118},{"user_id":92,"name":"Noyour","steam_id":76561198323259830,"connected_time":11891000000000,"state":"active","ping":113},{"user_id":210,"name":"bakabazooka(merrychrismas)","steam_id":76561198061628689,"connected_time":3031000000000,"state":"active","ping":59},{"user_id":229,"name":"Raz","steam_id":76561199219625644,"connected_time":1168000000000,"state":"active","ping":100},{"user_id":244,"name":"Irfan_shah","steam_id":76561198998908615,"connected_time":56000000000,"state":"spawning","ping":87},{"user_id":132,"name":"煙海 | Enkai","steam_id":76561198050460825,"connected_time":7525000000000,"state":"active","ping":88},{"user_id":218,"name":"Batbob","steam_id":76561198999413123,"connected_time":2305000000000,"state":"active","ping":68},{"user_id":214,"name":"paga","steam_id":76561198296718007,"connected_time":2626000000000,"state":"active","ping":106},{"user_id":114,"name":"ogey","steam_id":76561198074339034,"connected_time":9501000000000,"state":"active","ping":76},{"user_id":222,"name":"MS PowerPoint","steam_id":76561198369523192,"connected_time":1630000000000,"state":"active","ping":63},{"user_id":183,"name":"r","steam_id":76561198811024417,"connected_time":3563000000000,"state":"active","ping":70},{"user_id":195,"name":"Wx","steam_id":76561199217780897,"connected_time":3291000000000,"state":"active","ping":64},{"user_id":226,"name":"ZeniaPY (Playing on Wacom)","steam_id":76561198404352831,"connected_time":1371000000000,"state":"active","ping":60}]},{"server_id":1,"name":"Uncletopia | Los Angeles | 1 | All Maps","name_short":"lax-1","host":"lax-1.us.uncletopia.com","port":27015,"enabled":true,"region":"us-west","cc":"us","latitude":33.94279,"longitude":-118.41004,"reserved":0,"last_update":"0001-01-01T00:00:00Z","name_a2s":"Uncletopia | Los Angeles | 1 | All Maps","protocol":17,"map":"cp_snakewater_final1","folder":"tf","game":"Team Fortress","app_id":440,"player_count":24,"max_players":24,"Bots":0,"server_type":"Dedicated","server_os":"Linux","password":true,"vac":true,"version":"7708610","steam_id":85568392924469991,"keywords":["cp","nocrits","nodmgspread","uncletopia"],"game_id":440,"stv_port":27016,"stv_name":"Uncletopia | Los Angeles | 1 | All Maps | STV","players":[{"user_id":132,"name":"gamer (derogatory)","steam_id":76561198334059206,"connected_time":490000000000,"state":"active","ping":59},{"user_id":95,"name":"The Caretaker","steam_id":76561198125241411,"connected_time":3670000000000,"state":"active","ping":67},{"user_id":61,"name":"Moonflower ✦","steam_id":76561198191782483,"connected_time":7135000000000,"state":"active","ping":54},{"user_id":103,"name":"festive jester","steam_id":76561198079609974,"connected_time":3495000000000,"state":"active","ping":46},{"user_id":127,"name":"Googol","steam_id":76561198015967429,"connected_time":729000000000,"state":"active","ping":38},{"user_id":121,"name":"Jammers","steam_id":76561198064546814,"connected_time":1596000000000,"state":"active","ping":62},{"user_id":129,"name":"shoes","steam_id":76561198044104086,"connected_time":678000000000,"state":"active","ping":54},{"user_id":128,"name":"methanar/brandon","steam_id":76561198049489349,"connected_time":696000000000,"state":"active","ping":73},{"user_id":124,"name":"SuperBurgerBoy","steam_id":76561198856387197,"connected_time":1278000000000,"state":"active","ping":49},{"user_id":119,"name":"Pink_Mingo","steam_id":76561197970944856,"connected_time":1668000000000,"state":"active","ping":69},{"user_id":130,"name":"gazpacho","steam_id":76561198132903078,"connected_time":667000000000,"state":"active","ping":57},{"user_id":136,"name":"AJRODRIGO","steam_id":76561198262094385,"connected_time":25000000000,"state":"active","ping":63},{"user_id":74,"name":"sun sugar","steam_id":76561198385085005,"connected_time":6700000000000,"state":"active","ping":54},{"user_id":133,"name":"Pyrotek⁴","steam_id":76561198072747672,"connected_time":472000000000,"state":"active","ping":45},{"user_id":110,"name":"Nez","steam_id":76561197963109059,"connected_time":3129000000000,"state":"active","ping":67},{"user_id":107,"name":"bong hits for jesus","steam_id":76561198093276401,"connected_time":3306000000000,"state":"active","ping":59},{"user_id":118,"name":"bronto","steam_id":76561198043363119,"connected_time":1848000000000,"state":"active","ping":45},{"user_id":100,"name":"☁Chaoscist","steam_id":76561198133707355,"connected_time":3563000000000,"state":"active","ping":51},{"user_id":109,"name":"yah yeet","steam_id":76561198073021173,"connected_time":3197000000000,"state":"active","ping":67},{"user_id":113,"name":"VIRGINIA!!","steam_id":76561198036066855,"connected_time":3014000000000,"state":"active","ping":79},{"user_id":112,"name":"Strength!!","steam_id":76561198001241984,"connected_time":3038000000000,"state":"active","ping":81},{"user_id":105,"name":"Lambchop","steam_id":76561198043900363,"connected_time":3456000000000,"state":"active","ping":75},{"user_id":123,"name":"ArumiKaze","steam_id":76561198026814729,"connected_time":1343000000000,"state":"active","ping":60},{"user_id":89,"name":"ThatOneHermit","steam_id":76561199030898903,"connected_time":4836000000000,"state":"active","ping":102}]},{"server_id":112,"name":"Uncletopia | Los Angeles | 2 | All Maps","name_short":"lax-2","host":"lax-1.us.uncletopia.com","port":27025,"enabled":true,"region":"us-west","cc":"us","latitude":33.94279,"longitude":-118.41004,"reserved":0,"last_update":"0001-01-01T00:00:00Z","name_a2s":"Uncletopia | Los Angeles | 2 | All Maps","protocol":17,"map":"koth_viaduct","folder":"tf","game":"Team Fortress","app_id":440,"player_count":0,"max_players":24,"Bots":0,"server_type":"Dedicated","server_os":"Linux","password":true,"vac":true,"version":"7708610","steam_id":85568392924469992,"keywords":["cp","nocrits","nodmgspread","uncletopia"],"game_id":440,"stv_port":27026,"stv_name":"Uncletopia | Los Angeles | 2 | All Maps | STV","players":null},{"server_id":324,"name":"Uncletopia | Los Angeles | 3 | All Maps","name_short":"lax-3","host":"lax-1.us.uncletopia.com","port":27035,"enabled":true,"region":"us-west","cc":"us","latitude":33.94279,"longitude":-118.41004,"reserved":0,"last_update":"0001-01-01T00:00:00Z","name_a2s":"Uncletopia | Los Angeles | 3 | All Maps","protocol":17,"map":"pl_snowycoast","folder":"tf","game":"Team Fortress","app_id":440,"player_count":3,"max_players":24,"Bots":0,"server_type":"Dedicated","server_os":"Linux","password":true,"vac":true,"version":"7708610","steam_id":85568392924510198,"keywords":["nocrits","nodmgspread","payload","uncletopia"],"game_id":440,"stv_port":27036,"stv_name":"Uncletopia | Los Angeles | 3 | All Maps | STV","players":[{"user_id":125,"name":"IV","steam_id":76561198208996573,"connected_time":77000000000,"state":"active","ping":48},{"user_id":126,"name":"Imabox","steam_id":76561199206177858,"connected_time":65000000000,"state":"active","ping":63},{"user_id":127,"name":"iamcurrentlyonfire90","steam_id":76561198126834310,"connected_time":1000000000,"state":"spawning","ping":45}]},{"server_id":25,"name":"Uncletopia | Los Angeles | 4 | No Payload","name_short":"lax-4","host":"lax-1.us.uncletopia.com","port":27045,"enabled":true,"region":"us-west","cc":"us","latitude":33.94279,"longitude":-118.41004,"reserved":0,"last_update":"0001-01-01T00:00:00Z","name_a2s":"Uncletopia | Los Angeles | 4 | No Payload","protocol":17,"map":"plr_pipeline","folder":"tf","game":"Team Fortress","app_id":440,"player_count":0,"max_players":24,"Bots":0,"server_type":"Dedicated","server_os":"Linux","password":true,"vac":true,"version":"7708610","steam_id":85568392924510199,"keywords":["nocrits","nodmgspread","payload","uncletopia"],"game_id":440,"stv_port":27046,"stv_name":"Uncletopia | Los Angeles | 4 | No Payload | STV","players":null},{"server_id":11,"name":"Uncletopia | London | 1 | All Maps","name_short":"lon-1","host":"lon-1.uk.uncletopia.com","port":27015,"enabled":true,"region":"eu","cc":"gb","latitude":51.509865,"longitude":-0.118092,"reserved":0,"last_update":"0001-01-01T00:00:00Z","name_a2s":"Uncletopia | London | 1 | All Maps","protocol":17,"map":"pl_upward","folder":"tf","game":"Team Fortress","app_id":440,"player_count":20,"max_players":24,"Bots":0,"server_type":"Dedicated","server_os":"Linux","password":true,"vac":true,"version":"7708610","steam_id":85568392924367362,"keywords":["nocrits","nodmgspread","payload","uncletopia"],"game_id":440,"stv_port":27016,"stv_name":"Uncletopia | London | 1 | All Maps | STV","players":[{"user_id":2,"name":"Control Point Commando","steam_id":76561198119439177,"connected_time":2570000000000,"state":"active","ping":72},{"user_id":3,"name":"pl_badwater","steam_id":76561198152184280,"connected_time":2567000000000,"state":"active","ping":56},{"user_id":35,"name":"arnold","steam_id":76561198048763335,"connected_time":560000000000,"state":"active","ping":55},{"user_id":5,"name":"peruna","steam_id":76561198000721196,"connected_time":2556000000000,"state":"active","ping":75},{"user_id":6,"name":"pl_zławoda","steam_id":76561198040588109,"connected_time":2554000000000,"state":"active","ping":82},{"user_id":21,"name":"PyroHam","steam_id":76561198206285837,"connected_time":2215000000000,"state":"active","ping":75},{"user_id":36,"name":"Taha","steam_id":76561199259524970,"connected_time":559000000000,"state":"active","ping":92},{"user_id":10,"name":"Lena ^^","steam_id":76561199435586696,"connected_time":2545000000000,"state":"active","ping":94},{"user_id":11,"name":"french mafia","steam_id":76561198878687605,"connected_time":2544000000000,"state":"active","ping":105},{"user_id":39,"name":"Microsoft Excel","steam_id":76561199216713634,"connected_time":172000000000,"state":"active","ping":146},{"user_id":37,"name":"Schmax_zockt603","steam_id":76561198397898616,"connected_time":421000000000,"state":"active","ping":60},{"user_id":14,"name":"lvl. 50 honkler","steam_id":76561198061688660,"connected_time":2540000000000,"state":"active","ping":109},{"user_id":30,"name":"salim shahidy","steam_id":76561198416945706,"connected_time":1409000000000,"state":"active","ping":186},{"user_id":32,"name":"mush","steam_id":76561198310089797,"connected_time":795000000000,"state":"active","ping":149},{"user_id":40,"name":"scout gaming","steam_id":76561199380974466,"connected_time":108000000000,"state":"active","ping":82},{"user_id":33,"name":"Gothouk","steam_id":76561198084629668,"connected_time":723000000000,"state":"active","ping":133},{"user_id":34,"name":"Blood Death Knight","steam_id":76561198214306609,"connected_time":655000000000,"state":"active","ping":146},{"user_id":41,"name":"Mr. Bubs","steam_id":76561198130283080,"connected_time":105000000000,"state":"connecting","ping":0},{"user_id":42,"name":"TaintTickler67","steam_id":76561199230177172,"connected_time":58000000000,"state":"active","ping":143},{"user_id":43,"name":"󠀡󠀡","steam_id":76561199169154431,"connected_time":55000000000,"state":"active","ping":61}]},{"server_id":114,"name":"Uncletopia | London | 2 | All Maps","name_short":"lon-2","host":"lon-1.uk.uncletopia.com","port":27025,"enabled":true,"region":"eu","cc":"gb","latitude":51.509865,"longitude":-0.118092,"reserved":0,"last_update":"0001-01-01T00:00:00Z","name_a2s":"Uncletopia | London | 2 | All Maps","protocol":17,"map":"cp_snakewater_final1","folder":"tf","game":"Team Fortress","app_id":440,"player_count":0,"max_players":24,"Bots":0,"server_type":"Dedicated","server_os":"Linux","password":true,"vac":true,"version":"7708610","steam_id":85568392924470941,"keywords":["cp","nocrits","nodmgspread","uncletopia"],"game_id":440,"stv_port":0,"stv_name":"","players":null},{"server_id":320,"name":"Uncletopia | London | 3 | All Maps","name_short":"lon-3","host":"lon-1.uk.uncletopia.com","port":27035,"enabled":true,"region":"eu","cc":"gb","latitude":51.509865,"longitude":-0.118092,"reserved":0,"last_update":"0001-01-01T00:00:00Z","name_a2s":"Uncletopia | London | 3 | All Maps","protocol":17,"map":"cp_altitude","folder":"tf","game":"Team Fortress","app_id":440,"player_count":0,"max_players":24,"Bots":0,"server_type":"Dedicated","server_os":"Linux","password":true,"vac":true,"version":"7708610","steam_id":85568392924510192,"keywords":["cp","nocrits","nodmgspread","uncletopia"],"game_id":440,"stv_port":0,"stv_name":"","players":null},{"server_id":321,"name":"Uncletopia | London | 4 | All Maps","name_short":"lon-4","host":"lon-1.uk.uncletopia.com","port":27045,"enabled":true,"region":"eu","cc":"gb","latitude":51.509865,"longitude":-0.118092,"reserved":0,"last_update":"0001-01-01T00:00:00Z","name_a2s":"Uncletopia | London | 4 | All Maps","protocol":17,"map":"koth_viaduct","folder":"tf","game":"Team Fortress","app_id":440,"player_count":0,"max_players":24,"Bots":0,"server_type":"Dedicated","server_os":"Linux","password":true,"vac":true,"version":"7708610","steam_id":85568392924510193,"keywords":["cp","nocrits","nodmgspread","uncletopia"],"game_id":440,"stv_port":0,"stv_name":"","players":null},{"server_id":21,"name":"Uncletopia | London | 5 | All Maps","name_short":"lon-5","host":"lon-1.uk.uncletopia.com","port":27055,"enabled":true,"region":"eu","cc":"gb","latitude":51.509865,"longitude":-0.118092,"reserved":0,"last_update":"0001-01-01T00:00:00Z","name_a2s":"Uncletopia | London | 5 | All Maps","protocol":17,"map":"koth_lakeside_final","folder":"tf","game":"Team Fortress","app_id":440,"player_count":0,"max_players":24,"Bots":0,"server_type":"Dedicated","server_os":"Linux","password":true,"vac":true,"version":"7708610","steam_id":85568392924742829,"keywords":["cp","nocrits","nodmgspread","uncletopia"],"game_id":440,"stv_port":0,"stv_name":"","players":null},{"server_id":22,"name":"Uncletopia | London | 6 | All Maps","name_short":"lon-6","host":"lon-1.uk.uncletopia.com","port":27065,"enabled":true,"region":"eu","cc":"gb","latitude":51.509865,"longitude":-0.118092,"reserved":0,"last_update":"0001-01-01T00:00:00Z","name_a2s":"Uncletopia | London | 6 | All Maps","protocol":17,"map":"koth_viaduct","folder":"tf","game":"Team Fortress","app_id":440,"player_count":0,"max_players":24,"Bots":0,"server_type":"Dedicated","server_os":"Linux","password":true,"vac":true,"version":"7708610","steam_id":85568392924742830,"keywords":["cp","nocrits","nodmgspread","uncletopia"],"game_id":440,"stv_port":0,"stv_name":"","players":null},{"server_id":40,"name":"Uncletopia | London | 7 | No Payload","name_short":"lon-7","host":"lon-1.uk.uncletopia.com","port":27075,"enabled":true,"region":"eu","cc":"gb","latitude":51.509865,"longitude":-0.118092,"reserved":0,"last_update":"0001-01-01T00:00:00Z","name_a2s":"Uncletopia | London | 7 | No Payload","protocol":17,"map":"cp_snakewater_final1","folder":"tf","game":"Team Fortress","app_id":440,"player_count":0,"max_players":24,"Bots":0,"server_type":"Dedicated","server_os":"Linux","password":true,"vac":true,"version":"7708610","steam_id":85568392924964314,"keywords":["cp","nocrits","nodmgspread","uncletopia"],"game_id":440,"stv_port":0,"stv_name":"","players":null},{"server_id":41,"name":"Uncletopia | London | 8 | Community","name_short":"lon-8","host":"lon-1.uk.uncletopia.com","port":27085,"enabled":true,"region":"eu","cc":"gb","latitude":51.509865,"longitude":-0.118092,"reserved":0,"last_update":"0001-01-01T00:00:00Z","name_a2s":"Uncletopia | London | 8 | Community","protocol":17,"map":"cp_snakewater_final1","folder":"tf","game":"Team Fortress","app_id":440,"player_count":0,"max_players":24,"Bots":0,"server_type":"Dedicated","server_os":"Linux","password":true,"vac":true,"version":"7708610","steam_id":85568392924964315,"keywords":["cp","nocrits","nodmgspread","uncletopia"],"game_id":440,"stv_port":0,"stv_name":"","players":null},{"server_id":300,"name":"Uncletopia | Montréal | 1 | All Maps","name_short":"mtl-1","host":"mtl-1.ca.uncletopia.com","port":27015,"enabled":true,"region":"us-east","cc":"ca","latitude":45.50889,"longitude":-73.56167,"reserved":0,"last_update":"0001-01-01T00:00:00Z","name_a2s":"Uncletopia | Montréal | 1 | All Maps","protocol":17,"map":"koth_viaduct","folder":"tf","game":"Team Fortress","app_id":440,"player_count":0,"max_players":24,"Bots":0,"server_type":"Dedicated","server_os":"Linux","password":true,"vac":true,"version":"7708610","steam_id":85568392924500087,"keywords":["cp","nocrits","nodmgspread","uncletopia"],"game_id":440,"stv_port":27016,"stv_name":"Uncletopia | Montréal | 1 | All Maps | STV","players":null},{"server_id":301,"name":"Uncletopia | Montréal | 2 | All Maps","name_short":"mtl-2","host":"mtl-1.ca.uncletopia.com","port":27025,"enabled":true,"region":"us-east","cc":"ca","latitude":45.50889,"longitude":-73.56167,"reserved":0,"last_update":"0001-01-01T00:00:00Z","name_a2s":"Uncletopia | Montréal | 2 | All Maps","protocol":17,"map":"koth_lakeside_final","folder":"tf","game":"Team Fortress","app_id":440,"player_count":0,"max_players":24,"Bots":0,"server_type":"Dedicated","server_os":"Linux","password":true,"vac":true,"version":"7708610","steam_id":85568392924500088,"keywords":["cp","nocrits","nodmgspread","uncletopia"],"game_id":440,"stv_port":27026,"stv_name":"Uncletopia | Montréal | 2 | All Maps | STV","players":null},{"server_id":302,"name":"Uncletopia | Montréal | 3 | All Maps","name_short":"mtl-3","host":"mtl-1.ca.uncletopia.com","port":27035,"enabled":true,"region":"us-east","cc":"ca","latitude":45.50889,"longitude":-73.56167,"reserved":0,"last_update":"0001-01-01T00:00:00Z","name_a2s":"Uncletopia | Montréal | 3 | All Maps","protocol":17,"map":"koth_cascade","folder":"tf","game":"Team Fortress","app_id":440,"player_count":2,"max_players":24,"Bots":0,"server_type":"Dedicated","server_os":"Linux","password":true,"vac":true,"version":"7708610","steam_id":85568392924500089,"keywords":["cp","nocrits","nodmgspread","uncletopia"],"game_id":440,"stv_port":27036,"stv_name":"Uncletopia | Montréal | 3 | All Maps | STV","players":[{"user_id":17,"name":"Warbler_","steam_id":76561198242541680,"connected_time":719000000000,"state":"active","ping":48},{"user_id":18,"name":"DEM0N CH1LD 666","steam_id":76561198354828747,"connected_time":400000000000,"state":"active","ping":60}]},{"server_id":303,"name":"Uncletopia | Montréal | 4 | No Payload","name_short":"mtl-4","host":"mtl-1.ca.uncletopia.com","port":27045,"enabled":true,"region":"us-east","cc":"ca","latitude":45.50889,"longitude":-73.56167,"reserved":0,"last_update":"0001-01-01T00:00:00Z","name_a2s":"Uncletopia | Montréal | 4 | No Payload","protocol":17,"map":"koth_brazil","folder":"tf","game":"Team Fortress","app_id":440,"player_count":0,"max_players":24,"Bots":0,"server_type":"Dedicated","server_os":"Linux","password":true,"vac":true,"version":"7708610","steam_id":85568392924500090,"keywords":["cp","nocrits","nodmgspread","uncletopia"],"game_id":440,"stv_port":27046,"stv_name":"Uncletopia | Montréal | 4 | No Payload | STV","players":null},{"server_id":13,"name":"Uncletopia | New York City | 1 | All Maps","name_short":"nyc-1","host":"nyc-1.us.uncletopia.com","port":27015,"enabled":true,"region":"us-east","cc":"us","latitude":40.73061,"longitude":-73.93524,"reserved":0,"last_update":"0001-01-01T00:00:00Z","name_a2s":"Uncletopia | New York City | 1 | All Maps","protocol":17,"map":"cp_altitude","folder":"tf","game":"Team Fortress","app_id":440,"player_count":0,"max_players":24,"Bots":0,"server_type":"Dedicated","server_os":"Linux","password":true,"vac":true,"version":"7708610","steam_id":85568392924469993,"keywords":["cp","nocrits","nodmgspread","uncletopia"],"game_id":440,"stv_port":27016,"stv_name":"Uncletopia | New York City | 1 | All Maps | STV","players":null},{"server_id":14,"name":"Uncletopia | New York City | 2 | All Maps","name_short":"nyc-2","host":"nyc-1.us.uncletopia.com","port":27025,"enabled":true,"region":"us-east","cc":"us","latitude":40.73061,"longitude":-73.93524,"reserved":0,"last_update":"0001-01-01T00:00:00Z","name_a2s":"Uncletopia | New York City | 2 | All Maps","protocol":17,"map":"koth_viaduct","folder":"tf","game":"Team Fortress","app_id":440,"player_count":0,"max_players":24,"Bots":0,"server_type":"Dedicated","server_os":"Linux","password":true,"vac":true,"version":"7708610","steam_id":85568392924469994,"keywords":["cp","nocrits","nodmgspread","uncletopia"],"game_id":440,"stv_port":27026,"stv_name":"Uncletopia | New York City | 2 | All Maps | STV","players":null},{"server_id":15,"name":"Uncletopia | New York City | 3 | All Maps","name_short":"nyc-3","host":"nyc-1.us.uncletopia.com","port":27035,"enabled":true,"region":"us-east","cc":"us","latitude":40.73061,"longitude":-73.93524,"reserved":0,"last_update":"0001-01-01T00:00:00Z","name_a2s":"Uncletopia | New York City | 3 | All Maps","protocol":17,"map":"pl_barnblitz","folder":"tf","game":"Team Fortress","app_id":440,"player_count":22,"max_players":24,"Bots":0,"server_type":"Dedicated","server_os":"Linux","password":true,"vac":true,"version":"7708610","steam_id":85568392924742820,"keywords":["nocrits","nodmgspread","payload","uncletopia"],"game_id":440,"stv_port":27036,"stv_name":"Uncletopia | New York City | 3 | All Maps | STV","players":[{"user_id":434,"name":"gromit","steam_id":76561198037746805,"connected_time":1350000000000,"state":"active","ping":60},{"user_id":417,"name":"starer","steam_id":76561199229966290,"connected_time":2591000000000,"state":"active","ping":85},{"user_id":413,"name":"Wique","steam_id":76561198071217597,"connected_time":2953000000000,"state":"active","ping":64},{"user_id":415,"name":"Spike","steam_id":76561198141356571,"connected_time":2791000000000,"state":"active","ping":41},{"user_id":410,"name":"Shun Rosen","steam_id":76561198012823909,"connected_time":3699000000000,"state":"active","ping":73},{"user_id":432,"name":"Nihplod_","steam_id":76561199010320094,"connected_time":1651000000000,"state":"active","ping":45},{"user_id":376,"name":"Doomz","steam_id":76561198029147860,"connected_time":5781000000000,"state":"active","ping":66},{"user_id":435,"name":"zzz","steam_id":76561198351895498,"connected_time":1237000000000,"state":"active","ping":45},{"user_id":405,"name":"Casual Costanza","steam_id":76561198024409325,"connected_time":3960000000000,"state":"active","ping":74},{"user_id":380,"name":"shroomish enjoyer","steam_id":76561198149775502,"connected_time":5527000000000,"state":"active","ping":57},{"user_id":429,"name":"nauts salt","steam_id":76561198045832398,"connected_time":1801000000000,"state":"active","ping":82},{"user_id":436,"name":"Evolution","steam_id":76561198144767370,"connected_time":1216000000000,"state":"active","ping":73},{"user_id":411,"name":"Geraldo","steam_id":76561198046596619,"connected_time":3544000000000,"state":"active","ping":175},{"user_id":390,"name":"Among Us VR Booster Pack","steam_id":76561198352909489,"connected_time":5037000000000,"state":"active","ping":136},{"user_id":441,"name":"Zero","steam_id":76561199383267408,"connected_time":567000000000,"state":"active","ping":75},{"user_id":388,"name":"Among Us Booster Pack","steam_id":76561198068538473,"connected_time":5250000000000,"state":"active","ping":90},{"user_id":442,"name":"GrandRimtuTV","steam_id":76561199275280186,"connected_time":410000000000,"state":"active","ping":85},{"user_id":408,"name":"Chubo Kuay","steam_id":76561198095550617,"connected_time":3923000000000,"state":"active","ping":78},{"user_id":439,"name":"DIRTY_DAN","steam_id":76561199024109064,"connected_time":1031000000000,"state":"active","ping":72},{"user_id":425,"name":"Bali","steam_id":76561198038693845,"connected_time":2090000000000,"state":"active","ping":89},{"user_id":443,"name":"-W3E- grim10465","steam_id":76561198045698581,"connected_time":296000000000,"state":"active","ping":43},{"user_id":431,"name":"MAXIMUS","steam_id":76561198085809453,"connected_time":1764000000000,"state":"active","ping":73}]},{"server_id":16,"name":"Uncletopia | New York City | 4 | Community","name_short":"nyc-4","host":"nyc-1.us.uncletopia.com","port":27045,"enabled":true,"region":"us-east","cc":"us","latitude":40.73061,"longitude":-73.93524,"reserved":0,"last_update":"0001-01-01T00:00:00Z","name_a2s":"Uncletopia | New York City | 4 | Community","protocol":17,"map":"workshop/cp_reckoner_rc6.ugc674719999","folder":"tf","game":"Team Fortress","app_id":440,"player_count":0,"max_players":24,"Bots":0,"server_type":"Dedicated","server_os":"Linux","password":true,"vac":true,"version":"7708610","steam_id":85568392924742821,"keywords":["cp","nocrits","nodmgspread","uncletopia"],"game_id":440,"stv_port":27046,"stv_name":"Uncletopia | New York City | 4 | Community | STV","players":null},{"server_id":142,"name":"Uncletopia | São Paulo | 1 | All Maps","name_short":"sao-1","host":"sao-1.br.uncletopia.com","port":27015,"enabled":true,"region":"sa","cc":"br","latitude":-23.533773,"longitude":-46.62529,"reserved":0,"last_update":"0001-01-01T00:00:00Z","name_a2s":"Uncletopia | São Paulo | 1 | All Maps","protocol":17,"map":"pl_frontier_final","folder":"tf","game":"Team Fortress","app_id":440,"player_count":0,"max_players":24,"Bots":0,"server_type":"Dedicated","server_os":"Linux","password":true,"vac":true,"version":"7708610","steam_id":85568392924469996,"keywords":["nocrits","nodmgspread","payload","uncletopia"],"game_id":440,"stv_port":27016,"stv_name":"Uncletopia | São Paulo | 1 | All Maps | STV","players":null},{"server_id":143,"name":"Uncletopia | São Paulo | 2 | All Maps","name_short":"sao-2","host":"sao-2.br.uncletopia.com","port":27015,"enabled":true,"region":"sa","cc":"br","latitude":-23.533773,"longitude":-46.62529,"reserved":0,"last_update":"0001-01-01T00:00:00Z","name_a2s":"Uncletopia | São Paulo | 2 | All Maps","protocol":17,"map":"koth_cascade","folder":"tf","game":"Team Fortress","app_id":440,"player_count":0,"max_players":24,"Bots":0,"server_type":"Dedicated","server_os":"Linux","password":true,"vac":true,"version":"7708610","steam_id":85568392924485349,"keywords":["cp","nocrits","nodmgspread","uncletopia"],"game_id":440,"stv_port":27016,"stv_name":"Uncletopia | São Paulo | 2 | All Maps | STV","players":null},{"server_id":7,"name":"Uncletopia | Seattle | 1 | All Maps","name_short":"sea-1","host":"sea-1.us.uncletopia.com","port":27015,"enabled":true,"region":"us-west","cc":"us","latitude":47.608013,"longitude":-122.33517,"reserved":0,"last_update":"0001-01-01T00:00:00Z","name_a2s":"Uncletopia | Seattle | 1 | All Maps","protocol":17,"map":"cp_5gorge","folder":"tf","game":"Team Fortress","app_id":440,"player_count":23,"max_players":24,"Bots":0,"server_type":"Dedicated","server_os":"Linux","password":true,"vac":true,"version":"7708610","steam_id":85568392924469997,"keywords":["nocrits","nodmgspread","payload","uncletopia"],"game_id":440,"stv_port":27016,"stv_name":"Uncletopia | Seattle | 1 | All Maps | STV","players":[{"user_id":694,"name":"♦♣Quadric♥♠","steam_id":76561198061003853,"connected_time":3623000000000,"state":"active","ping":112},{"user_id":819,"name":"LeTonzy","steam_id":76561198005806699,"connected_time":904000000000,"state":"active","ping":83},{"user_id":580,"name":"AceSea","steam_id":76561198851176490,"connected_time":5653000000000,"state":"active","ping":47},{"user_id":508,"name":"Ayayahuasca","steam_id":76561199002906056,"connected_time":6739000000000,"state":"active","ping":48},{"user_id":487,"name":"ikuyo","steam_id":76561198996950205,"connected_time":7893000000000,"state":"active","ping":70},{"user_id":852,"name":"セイバー","steam_id":76561198169223408,"connected_time":287000000000,"state":"active","ping":58},{"user_id":828,"name":"Yatchi.","steam_id":76561198878073232,"connected_time":787000000000,"state":"active","ping":91},{"user_id":833,"name":"helloyes_123","steam_id":76561198184669555,"connected_time":663000000000,"state":"active","ping":70},{"user_id":770,"name":".didntnoagoodname.","steam_id":76561198031988564,"connected_time":2013000000000,"state":"active","ping":117},{"user_id":834,"name":"Dragonpow23","steam_id":76561198158997881,"connected_time":662000000000,"state":"active","ping":117},{"user_id":474,"name":"MY WIFE BEATS ME","steam_id":76561199025513044,"connected_time":7955000000000,"state":"active","ping":79},{"user_id":835,"name":"wegamingfishbruh69_ttv","steam_id":76561198347001548,"connected_time":649000000000,"state":"active","ping":67},{"user_id":728,"name":"Phaze","steam_id":76561198025267071,"connected_time":3085000000000,"state":"active","ping":82},{"user_id":811,"name":"Thanks Ants","steam_id":76561197966221018,"connected_time":1208000000000,"state":"active","ping":42},{"user_id":854,"name":"Aardappel","steam_id":76561198030894676,"connected_time":190000000000,"state":"active","ping":71},{"user_id":808,"name":"Wormy Getting Coal","steam_id":76561198054539200,"connected_time":1293000000000,"state":"active","ping":54},{"user_id":774,"name":"SquirrelAway™","steam_id":76561197998828619,"connected_time":1942000000000,"state":"active","ping":82},{"user_id":825,"name":"soda pop","steam_id":76561199403530076,"connected_time":835000000000,"state":"active","ping":93},{"user_id":776,"name":"Harold","steam_id":76561198057317770,"connected_time":1920000000000,"state":"active","ping":66},{"user_id":836,"name":"El Gato Paranoico","steam_id":76561198116567116,"connected_time":575000000000,"state":"active","ping":119},{"user_id":787,"name":"ุ","steam_id":76561198084134025,"connected_time":1757000000000,"state":"active","ping":66},{"user_id":838,"name":"parangatang","steam_id":76561198050311948,"connected_time":515000000000,"state":"active","ping":96},{"user_id":851,"name":"Skoad","steam_id":76561198104650528,"connected_time":300000000000,"state":"active","ping":57}]},{"server_id":119,"name":"Uncletopia | Seattle | 2 | All Maps","name_short":"sea-2","host":"sea-1.us.uncletopia.com","port":27025,"enabled":true,"region":"us-west","cc":"us","latitude":47.608013,"longitude":-122.33517,"reserved":0,"last_update":"0001-01-01T00:00:00Z","name_a2s":"Uncletopia | Seattle | 2 | All Maps","protocol":17,"map":"cp_steel","folder":"tf","game":"Team Fortress","app_id":440,"player_count":22,"max_players":24,"Bots":0,"server_type":"Dedicated","server_os":"Linux","password":true,"vac":true,"version":"7708610","steam_id":85568392924469998,"keywords":["cp","nocrits","nodmgspread","uncletopia"],"game_id":440,"stv_port":27026,"stv_name":"Uncletopia | Seattle | 2 | All Maps | STV","players":[{"user_id":470,"name":"Mr. Blubber","steam_id":76561198338906916,"connected_time":5686000000000,"state":"active","ping":73},{"user_id":548,"name":"vieodmsgea","steam_id":76561198025295263,"connected_time":961000000000,"state":"active","ping":102},{"user_id":528,"name":"Greskrendtregk","steam_id":76561197969553142,"connected_time":2104000000000,"state":"active","ping":64},{"user_id":537,"name":"Cuno Doesn't Care!","steam_id":76561198007372782,"connected_time":1233000000000,"state":"active","ping":65},{"user_id":560,"name":"Nugakku","steam_id":76561198082346219,"connected_time":139000000000,"state":"active","ping":88},{"user_id":561,"name":"Mesotec 『케지아』","steam_id":76561198135499719,"connected_time":12000000000,"state":"spawning","ping":135},{"user_id":547,"name":"Incredible Donk","steam_id":76561198427360423,"connected_time":995000000000,"state":"active","ping":111},{"user_id":538,"name":"Spearit5464","steam_id":76561199241807676,"connected_time":1181000000000,"state":"active","ping":56},{"user_id":503,"name":"Illitha","steam_id":76561199135491898,"connected_time":3870000000000,"state":"active","ping":93},{"user_id":549,"name":"w+m2","steam_id":76561198409907417,"connected_time":953000000000,"state":"active","ping":89},{"user_id":516,"name":"Koopa Paratroopa","steam_id":76561198035448426,"connected_time":2880000000000,"state":"active","ping":56},{"user_id":517,"name":"Oberynne","steam_id":76561198081868308,"connected_time":2878000000000,"state":"active","ping":48},{"user_id":534,"name":"Vem","steam_id":76561198117273112,"connected_time":1271000000000,"state":"active","ping":118},{"user_id":550,"name":"Oscidor","steam_id":76561198362839738,"connected_time":929000000000,"state":"active","ping":75},{"user_id":562,"name":"oil","steam_id":76561198099980149,"connected_time":4000000000,"state":"spawning","ping":89},{"user_id":553,"name":"emy","steam_id":76561198089691679,"connected_time":897000000000,"state":"active","ping":114},{"user_id":526,"name":"Karl Gerat2015","steam_id":76561199061625972,"connected_time":2315000000000,"state":"active","ping":87},{"user_id":545,"name":"PoltergussyLordoftheAsstralVoid","steam_id":76561199195004708,"connected_time":1037000000000,"state":"active","ping":76},{"user_id":520,"name":"[Bandit]","steam_id":76561197986919852,"connected_time":2850000000000,"state":"active","ping":54},{"user_id":558,"name":"small little tiny guy","steam_id":76561198116726318,"connected_time":379000000000,"state":"active","ping":106},{"user_id":559,"name":"SesataPomang","steam_id":76561198145133059,"connected_time":255000000000,"state":"active","ping":92},{"user_id":555,"name":"OxOoxen841","steam_id":76561198297981993,"connected_time":804000000000,"state":"active","ping":96}]},{"server_id":17,"name":"Uncletopia | San Francisco | 1 | All Maps","name_short":"sfo-1","host":"sfo-1.us.uncletopia.com","port":27015,"enabled":true,"region":"us-west","cc":"us","latitude":37.77397,"longitude":-122.4313,"reserved":0,"last_update":"0001-01-01T00:00:00Z","name_a2s":"Uncletopia | San Francisco | 1 | All Maps","protocol":17,"map":"koth_cascade","folder":"tf","game":"Team Fortress","app_id":440,"player_count":0,"max_players":24,"Bots":0,"server_type":"Dedicated","server_os":"Linux","password":true,"vac":true,"version":"7708610","steam_id":85568392924469999,"keywords":["cp","nocrits","nodmgspread","uncletopia"],"game_id":440,"stv_port":27016,"stv_name":"Uncletopia | San Francisco | 1 | All Maps | STV","players":null},{"server_id":18,"name":"Uncletopia | San Francisco | 2 | All Maps","name_short":"sfo-2","host":"sfo-1.us.uncletopia.com","port":27025,"enabled":true,"region":"us-west","cc":"us","latitude":37.77397,"longitude":-122.4313,"reserved":0,"last_update":"0001-01-01T00:00:00Z","name_a2s":"Uncletopia | San Francisco | 2 | All Maps","protocol":17,"map":"koth_nucleus","folder":"tf","game":"Team Fortress","app_id":440,"player_count":24,"max_players":24,"Bots":0,"server_type":"Dedicated","server_os":"Linux","password":true,"vac":true,"version":"7708610","steam_id":85568392924470000,"keywords":["cp","nocrits","nodmgspread","uncletopia"],"game_id":440,"stv_port":27026,"stv_name":"Uncletopia | San Francisco | 2 | All Maps | STV","players":[{"user_id":293,"name":"jeff__100","steam_id":76561198080870439,"connected_time":581000000000,"state":"active","ping":108},{"user_id":254,"name":"Bob the Builder","steam_id":76561199069029812,"connected_time":3220000000000,"state":"active","ping":62},{"user_id":255,"name":"moe","steam_id":76561198929586245,"connected_time":3208000000000,"state":"active","ping":58},{"user_id":288,"name":"eryn 🗺","steam_id":76561198004433070,"connected_time":686000000000,"state":"active","ping":100},{"user_id":218,"name":"MORE BOUNCE TO THE OUNCE","steam_id":76561198243399336,"connected_time":6215000000000,"state":"active","ping":58},{"user_id":294,"name":"Papa Panda","steam_id":76561198159061475,"connected_time":580000000000,"state":"active","ping":129},{"user_id":266,"name":"Trips","steam_id":76561198054581597,"connected_time":2423000000000,"state":"active","ping":45},{"user_id":275,"name":"An00bissmas","steam_id":76561198044084508,"connected_time":1336000000000,"state":"active","ping":62},{"user_id":188,"name":"General Fisticuffs","steam_id":76561198255721392,"connected_time":8767000000000,"state":"active","ping":106},{"user_id":286,"name":"Retesaurus","steam_id":76561198045189319,"connected_time":905000000000,"state":"active","ping":74},{"user_id":264,"name":"Frongus","steam_id":76561197979056451,"connected_time":2844000000000,"state":"active","ping":69},{"user_id":260,"name":"MantisTobboggan","steam_id":76561197969447887,"connected_time":2967000000000,"state":"active","ping":88},{"user_id":240,"name":"tweet","steam_id":76561198166515735,"connected_time":4641000000000,"state":"active","ping":50},{"user_id":249,"name":"BernardBull","steam_id":76561198036138813,"connected_time":3663000000000,"state":"active","ping":76},{"user_id":278,"name":"four","steam_id":76561198374227766,"connected_time":1290000000000,"state":"active","ping":115},{"user_id":279,"name":"oil","steam_id":76561198099980149,"connected_time":1285000000000,"state":"active","ping":60},{"user_id":280,"name":"Silly Scientist","steam_id":76561199199886079,"connected_time":1282000000000,"state":"active","ping":106},{"user_id":295,"name":"Super Mighty G","steam_id":76561198020932806,"connected_time":572000000000,"state":"active","ping":60},{"user_id":297,"name":"violetcassette","steam_id":76561199028224555,"connected_time":224000000000,"state":"active","ping":44},{"user_id":283,"name":"Wormy Getting Coal","steam_id":76561198054539200,"connected_time":1175000000000,"state":"active","ping":72},{"user_id":281,"name":"bballbhuddababyboy","steam_id":76561198079516052,"connected_time":1274000000000,"state":"active","ping":60},{"user_id":185,"name":"chloé","steam_id":76561198858926895,"connected_time":9394000000000,"state":"active","ping":59},{"user_id":282,"name":"The Super Mario Bros. Movie","steam_id":76561198871692156,"connected_time":1245000000000,"state":"active","ping":70},{"user_id":291,"name":"PickleKing23","steam_id":76561198179529599,"connected_time":650000000000,"state":"active","ping":51}]},{"server_id":19,"name":"Uncletopia | San Francisco | 3 | No Payload","name_short":"sfo-3","host":"sfo-1.us.uncletopia.com","port":27035,"enabled":true,"region":"us-west","cc":"us","latitude":37.77397,"longitude":-122.4313,"reserved":0,"last_update":"0001-01-01T00:00:00Z","name_a2s":"Uncletopia | San Francisco | 3 | No Payload","protocol":17,"map":"cp_altitude","folder":"tf","game":"Team Fortress","app_id":440,"player_count":1,"max_players":24,"Bots":0,"server_type":"Dedicated","server_os":"Linux","password":true,"vac":true,"version":"7708610","steam_id":85568392924742824,"keywords":["cp","nocrits","nodmgspread","uncletopia"],"game_id":440,"stv_port":27036,"stv_name":"Uncletopia | San Francisco | 3 | No Payload | STV","players":[{"user_id":30,"name":"FightyPNW","steam_id":76561198981808810,"connected_time":26000000000,"state":"active","ping":54}]},{"server_id":20,"name":"Uncletopia | San Francisco | 4 | Community","name_short":"sfo-4","host":"sfo-1.us.uncletopia.com","port":27045,"enabled":true,"region":"us-west","cc":"us","latitude":37.77397,"longitude":-122.4313,"reserved":0,"last_update":"0001-01-01T00:00:00Z","name_a2s":"Uncletopia | San Francisco | 4 | Community","protocol":17,"map":"workshop/koth_ramjam_v2_b2.ugc2865676487","folder":"tf","game":"Team Fortress","app_id":440,"player_count":0,"max_players":24,"Bots":0,"server_type":"Dedicated","server_os":"Linux","password":true,"vac":true,"version":"7708610","steam_id":85568392924742826,"keywords":["cp","nocrits","nodmgspread","uncletopia"],"game_id":440,"stv_port":27046,"stv_name":"Uncletopia | San Francisco | 4 | Community | STV","players":null},{"server_id":141,"name":"Uncletopia | Sydney | 1 | All Maps","name_short":"syd-1","host":"syd-1.au.uncletopia.com","port":27015,"enabled":true,"region":"au","cc":"au","latitude":-33.865143,"longitude":151.2099,"reserved":0,"last_update":"0001-01-01T00:00:00Z","name_a2s":"Uncletopia | Sydney | 1 | All Maps","protocol":17,"map":"cp_sunshine","folder":"tf","game":"Team Fortress","app_id":440,"player_count":23,"max_players":24,"Bots":0,"server_type":"Dedicated","server_os":"Linux","password":true,"vac":true,"version":"7708610","steam_id":85568392924470001,"keywords":["cp","nocrits","nodmgspread","uncletopia"],"game_id":440,"stv_port":27016,"stv_name":"Uncletopia | Sydney | 1 | All Maps | STV","players":[{"user_id":419,"name":"RR Mups","steam_id":76561198344833209,"connected_time":1640000000000,"state":"active","ping":59},{"user_id":401,"name":"abcdef","steam_id":76561198083700749,"connected_time":2571000000000,"state":"active","ping":70},{"user_id":420,"name":"RR D0n","steam_id":76561199171436009,"connected_time":1623000000000,"state":"active","ping":56},{"user_id":403,"name":"Rashid Of The Dank Memes","steam_id":76561198281398078,"connected_time":2491000000000,"state":"active","ping":63},{"user_id":430,"name":"Salty Dog","steam_id":76561198038713921,"connected_time":853000000000,"state":"active","ping":61},{"user_id":437,"name":"Nenguu","steam_id":76561198243952386,"connected_time":496000000000,"state":"active","ping":60},{"user_id":439,"name":"SpacePan","steam_id":76561199164052617,"connected_time":315000000000,"state":"active","ping":47},{"user_id":409,"name":"ВЛАДЕЛИЦА","steam_id":76561198855684280,"connected_time":2122000000000,"state":"active","ping":75},{"user_id":445,"name":"The Cake Is A Pie","steam_id":76561198043068402,"connected_time":181000000000,"state":"active","ping":75},{"user_id":433,"name":"covenofbats","steam_id":76561198152117315,"connected_time":574000000000,"state":"active","ping":41},{"user_id":434,"name":"҂Storm","steam_id":76561198073213264,"connected_time":566000000000,"state":"active","ping":47},{"user_id":408,"name":"yons","steam_id":76561198083920784,"connected_time":2215000000000,"state":"active","ping":58},{"user_id":440,"name":"skud","steam_id":76561198136866711,"connected_time":266000000000,"state":"active","ping":51},{"user_id":435,"name":"pooparse","steam_id":76561198217959591,"connected_time":557000000000,"state":"active","ping":60},{"user_id":429,"name":"Van","steam_id":76561198027324852,"connected_time":965000000000,"state":"active","ping":73},{"user_id":427,"name":"Winky","steam_id":76561199059450243,"connected_time":1098000000000,"state":"active","ping":45},{"user_id":302,"name":"EpicGuy4227","steam_id":76561198094132328,"connected_time":9821000000000,"state":"active","ping":54},{"user_id":441,"name":"Dark_Angel","steam_id":76561198248798154,"connected_time":252000000000,"state":"active","ping":60},{"user_id":436,"name":"rajjyboi","steam_id":76561198250874216,"connected_time":524000000000,"state":"active","ping":71},{"user_id":438,"name":"T0vex","steam_id":76561198127222589,"connected_time":440000000000,"state":"active","ping":69},{"user_id":442,"name":"hyak","steam_id":76561198175700625,"connected_time":230000000000,"state":"active","ping":90},{"user_id":385,"name":"rerard more like rebad","steam_id":76561199090168813,"connected_time":3371000000000,"state":"active","ping":46},{"user_id":423,"name":"Blazey 伊達 政宗","steam_id":76561197971082275,"connected_time":1345000000000,"state":"active","ping":121}]},{"server_id":123,"name":"Uncletopia | Sydney | 2 | All Maps","name_short":"syd-2","host":"syd-1.au.uncletopia.com","port":27025,"enabled":true,"region":"au","cc":"au","latitude":-33.865143,"longitude":151.2099,"reserved":0,"last_update":"0001-01-01T00:00:00Z","name_a2s":"Uncletopia | Sydney | 2 | All Maps","protocol":17,"map":"pl_frontier_final","folder":"tf","game":"Team Fortress","app_id":440,"player_count":24,"max_players":24,"Bots":0,"server_type":"Dedicated","server_os":"Linux","password":true,"vac":true,"version":"7708610","steam_id":85568392924470002,"keywords":["nocrits","nodmgspread","payload","uncletopia"],"game_id":440,"stv_port":27026,"stv_name":"Uncletopia | Sydney | 2 | All Maps | STV","players":[{"user_id":135,"name":"Breakfast","steam_id":76561197971620881,"connected_time":1279000000000,"state":"active","ping":53},{"user_id":126,"name":"clout","steam_id":76561198073310502,"connected_time":2313000000000,"state":"active","ping":74},{"user_id":84,"name":"Onii","steam_id":76561198973917900,"connected_time":5703000000000,"state":"active","ping":72},{"user_id":139,"name":"german doctor (german)","steam_id":76561198985044367,"connected_time":1189000000000,"state":"active","ping":68},{"user_id":118,"name":"Pompadouraus","steam_id":76561198327530525,"connected_time":3426000000000,"state":"active","ping":75},{"user_id":138,"name":"Rodman","steam_id":76561198073532116,"connected_time":1203000000000,"state":"active","ping":98},{"user_id":80,"name":"Tricka •","steam_id":76561197968440123,"connected_time":6160000000000,"state":"active","ping":46},{"user_id":137,"name":"АKii","steam_id":76561198073386111,"connected_time":1220000000000,"state":"active","ping":102},{"user_id":119,"name":"michael","steam_id":76561198052848358,"connected_time":3423000000000,"state":"active","ping":56},{"user_id":130,"name":"ุbifcheg","steam_id":76561198319806610,"connected_time":1716000000000,"state":"active","ping":65},{"user_id":144,"name":"Lachstar","steam_id":76561199137135419,"connected_time":1068000000000,"state":"active","ping":62},{"user_id":128,"name":"penis muncher","steam_id":76561198288259746,"connected_time":1782000000000,"state":"active","ping":54},{"user_id":148,"name":"GTSW1FT","steam_id":76561198315785054,"connected_time":542000000000,"state":"active","ping":78},{"user_id":145,"name":"highschool audio monster","steam_id":76561198836003115,"connected_time":1041000000000,"state":"active","ping":64},{"user_id":142,"name":"Rev","steam_id":76561198076830267,"connected_time":1156000000000,"state":"active","ping":43},{"user_id":141,"name":"floop flub","steam_id":76561198418968979,"connected_time":1173000000000,"state":"active","ping":105},{"user_id":132,"name":"Dr Barry Mundy PhD","steam_id":76561198034512686,"connected_time":1628000000000,"state":"active","ping":45},{"user_id":143,"name":"BOT Gary","steam_id":76561198376950841,"connected_time":1155000000000,"state":"active","ping":61},{"user_id":147,"name":"Gasoline","steam_id":76561198879023728,"connected_time":834000000000,"state":"active","ping":83},{"user_id":149,"name":"Rogue (Anti-fire)","steam_id":76561198055404248,"connected_time":514000000000,"state":"active","ping":49},{"user_id":104,"name":"DIY Miracle","steam_id":76561198046228152,"connected_time":4576000000000,"state":"active","ping":63},{"user_id":153,"name":"stabber","steam_id":76561198310550094,"connected_time":98000000000,"state":"active","ping":56},{"user_id":150,"name":"April","steam_id":76561198848287180,"connected_time":513000000000,"state":"active","ping":47},{"user_id":151,"name":"Big Booty Llama","steam_id":76561198074422721,"connected_time":173000000000,"state":"active","ping":67}]},{"server_id":395,"name":"Uncletopia | Sydney | 3 | All Maps","name_short":"syd-3","host":"syd-1.au.uncletopia.com","port":27035,"enabled":true,"region":"au","cc":"au","latitude":-33.865143,"longitude":151.2099,"reserved":0,"last_update":"0001-01-01T00:00:00Z","name_a2s":"Uncletopia | Sydney | 3 | All Maps","protocol":17,"map":"pl_wutville_event","folder":"tf","game":"Team Fortress","app_id":440,"player_count":6,"max_players":24,"Bots":0,"server_type":"Dedicated","server_os":"Linux","password":true,"vac":true,"version":"7708610","steam_id":85568392925194467,"keywords":["nocrits","nodmgspread","payload","uncletopia"],"game_id":440,"stv_port":27036,"stv_name":"Uncletopia | Sydney | 3 | All Maps | STV","players":[{"user_id":198,"name":"Branko","steam_id":76561199262196710,"connected_time":894000000000,"state":"active","ping":35},{"user_id":199,"name":"chewy marmot","steam_id":76561198005340350,"connected_time":818000000000,"state":"active","ping":65},{"user_id":202,"name":"CypressFluff (She/Her)","steam_id":76561198174667818,"connected_time":164000000000,"state":"active","ping":67},{"user_id":203,"name":"Elegy","steam_id":76561198140694047,"connected_time":155000000000,"state":"active","ping":278},{"user_id":204,"name":"yo mama so- XBOX LIVE!!!!!!!!!!","steam_id":76561198056813294,"connected_time":145000000000,"state":"active","ping":305},{"user_id":205,"name":"rodent","steam_id":76561198286813493,"connected_time":138000000000,"state":"active","ping":60}]},{"server_id":396,"name":"Uncletopia | Sydney | 4 | All Maps","name_short":"syd-4","host":"syd-1.au.uncletopia.com","port":27045,"enabled":true,"region":"au","cc":"au","latitude":-33.865143,"longitude":151.2099,"reserved":0,"last_update":"0001-01-01T00:00:00Z","name_a2s":"Uncletopia | Sydney | 4 | All Maps","protocol":17,"map":"pl_wutville_event","folder":"tf","game":"Team Fortress","app_id":440,"player_count":0,"max_players":24,"Bots":0,"server_type":"Dedicated","server_os":"Linux","password":true,"vac":true,"version":"7708610","steam_id":85568392925397958,"keywords":["nocrits","nodmgspread","payload","uncletopia"],"game_id":440,"stv_port":27046,"stv_name":"Uncletopia | Sydney | 4 | All Maps | STV","players":null},{"server_id":58,"name":"Uncletopia | Sydney | 5 | No Payload","name_short":"syd-5","host":"syd-1.au.uncletopia.com","port":27055,"enabled":true,"region":"au","cc":"au","latitude":-33.865143,"longitude":151.2099,"reserved":0,"last_update":"0001-01-01T00:00:00Z","name_a2s":"Uncletopia | Sydney | 5 | No Payload","protocol":17,"map":"koth_cascade","folder":"tf","game":"Team Fortress","app_id":440,"player_count":0,"max_players":24,"Bots":0,"server_type":"Dedicated","server_os":"Linux","password":true,"vac":true,"version":"7708610","steam_id":85568392925397959,"keywords":["cp","nocrits","nodmgspread","uncletopia"],"game_id":440,"stv_port":0,"stv_name":"","players":null},{"server_id":59,"name":"Uncletopia | Sydney | 6 | Community","name_short":"syd-6","host":"syd-1.au.uncletopia.com","port":27065,"enabled":true,"region":"au","cc":"au","latitude":-33.865143,"longitude":151.2099,"reserved":0,"last_update":"0001-01-01T00:00:00Z","name_a2s":"Uncletopia | Sydney | 6 | Community","protocol":17,"map":"workshop/pl_cactuscanyon_redux_rc4b.ugc2579644293","folder":"tf","game":"Team Fortress","app_id":440,"player_count":0,"max_players":24,"Bots":0,"server_type":"Dedicated","server_os":"Linux","password":true,"vac":true,"version":"7708610","steam_id":85568392925397960,"keywords":["nocrits","nodmgspread","payload","uncletopia"],"game_id":440,"stv_port":27066,"stv_name":"Uncletopia | Sydney | 6 | Community | STV","players":null},{"server_id":49,"name":"Uncletopia | Warsaw | 1 | All Maps","name_short":"waw-1","host":"waw-1.pl.uncletopia.com","port":27015,"enabled":true,"region":"eu","cc":"pl","latitude":52.2297,"longitude":21.017532,"reserved":0,"last_update":"0001-01-01T00:00:00Z","name_a2s":"Uncletopia | Warsaw | 1 | All Maps","protocol":17,"map":"cp_mountainlab","folder":"tf","game":"Team Fortress","app_id":440,"player_count":0,"max_players":24,"Bots":0,"server_type":"Dedicated","server_os":"Linux","password":true,"vac":true,"version":"7708610","steam_id":85568392925397850,"keywords":["cp","nocrits","nodmgspread","uncletopia"],"game_id":440,"stv_port":0,"stv_name":"","players":null},{"server_id":50,"name":"Uncletopia | Warsaw | 2 | All Maps","name_short":"waw-2","host":"waw-1.pl.uncletopia.com","port":27025,"enabled":true,"region":"eu","cc":"pl","latitude":52.2297,"longitude":21.017532,"reserved":0,"last_update":"0001-01-01T00:00:00Z","name_a2s":"Uncletopia | Warsaw | 2 | All Maps","protocol":17,"map":"pl_badwater","folder":"tf","game":"Team Fortress","app_id":440,"player_count":0,"max_players":24,"Bots":0,"server_type":"Dedicated","server_os":"Linux","password":true,"vac":true,"version":"7708610","steam_id":85568392925397851,"keywords":["nocrits","nodmgspread","payload","uncletopia"],"game_id":440,"stv_port":0,"stv_name":"","players":null},{"server_id":51,"name":"Uncletopia | Warsaw | 3 | All Maps","name_short":"waw-3","host":"waw-1.pl.uncletopia.com","port":27035,"enabled":true,"region":"eu","cc":"pl","latitude":52.2297,"longitude":21.017532,"reserved":0,"last_update":"0001-01-01T00:00:00Z","name_a2s":"Uncletopia | Warsaw | 3 | All Maps","protocol":17,"map":"koth_cascade","folder":"tf","game":"Team Fortress","app_id":440,"player_count":0,"max_players":24,"Bots":0,"server_type":"Dedicated","server_os":"Linux","password":true,"vac":true,"version":"7708610","steam_id":85568392925397852,"keywords":["cp","nocrits","nodmgspread","uncletopia"],"game_id":440,"stv_port":0,"stv_name":"","players":null},{"server_id":52,"name":"Uncletopia | Warsaw | 4 | All Maps","name_short":"waw-4","host":"waw-1.pl.uncletopia.com","port":27045,"enabled":true,"region":"eu","cc":"pl","latitude":52.2297,"longitude":21.017532,"reserved":0,"last_update":"0001-01-01T00:00:00Z","name_a2s":"Uncletopia | Warsaw | 4 | All Maps","protocol":17,"map":"cp_mountainlab","folder":"tf","game":"Team Fortress","app_id":440,"player_count":0,"max_players":24,"Bots":0,"server_type":"Dedicated","server_os":"Linux","password":true,"vac":true,"version":"7708610","steam_id":85568392925397853,"keywords":["cp","nocrits","nodmgspread","uncletopia"],"game_id":440,"stv_port":0,"stv_name":"","players":null},{"server_id":53,"name":"Uncletopia | Warsaw | 5 | No Payload","name_short":"waw-5","host":"waw-1.pl.uncletopia.com","port":27055,"enabled":true,"region":"eu","cc":"pl","latitude":52.2297,"longitude":21.017532,"reserved":0,"last_update":"0001-01-01T00:00:00Z","name_a2s":"Uncletopia | Warsaw | 5 | No Payload","protocol":17,"map":"cp_dustbowl","folder":"tf","game":"Team Fortress","app_id":440,"player_count":0,"max_players":24,"Bots":0,"server_type":"Dedicated","server_os":"Linux","password":true,"vac":true,"version":"7708610","steam_id":85568392925397854,"keywords":["cp","nocrits","nodmgspread","uncletopia"],"game_id":440,"stv_port":0,"stv_name":"","players":null},{"server_id":54,"name":"Uncletopia | Warsaw | 6 | Community","name_short":"waw-6","host":"waw-1.pl.uncletopia.com","port":27065,"enabled":true,"region":"eu","cc":"pl","latitude":52.2297,"longitude":21.017532,"reserved":0,"last_update":"0001-01-01T00:00:00Z","name_a2s":"Uncletopia | Warsaw | 6 | Community","protocol":17,"map":"koth_highpass","folder":"tf","game":"Team Fortress","app_id":440,"player_count":0,"max_players":24,"Bots":0,"server_type":"Dedicated","server_os":"Linux","password":true,"vac":true,"version":"7708610","steam_id":85568392925397856,"keywords":["cp","nocrits","nodmgspread","uncletopia"],"game_id":440,"stv_port":0,"stv_name":"","players":null}]}