{"status":true,"message":"","result":[{"server_id":9,"name":"Uncletopia | Atlanta | 1 | All Maps","name_short":"atl-1","host":"atl-1.us.uncletopia.com","port":27015,"enabled":true,"region":"us-east","cc":"us","latitude":33.753746,"longitude":-84.38633,"reserved":0,"last_update":"0001-01-01T00:00:00Z","name_a2s":"Uncletopia | Atlanta | 1 | All Maps","protocol":17,"map":"pl_barnblitz","folder":"tf","game":"Team Fortress","app_id":440,"player_count":24,"max_players":24,"Bots":0,"server_type":"Dedicated","server_os":"Linux","password":true,"vac":true,"version":"7742253","steam_id":85568392924469982,"keywords":["nocrits","nodmgspread","payload","uncletopia"],"game_id":440,"stv_port":27016,"stv_name":"Uncletopia | Atlanta | 1 | All Maps | STV","players":[{"user_id":82,"name":"ash","steam_id":76561198127890645,"connected_time":1823000000000,"state":"active","ping":61},{"user_id":95,"name":"shaderoses","steam_id":76561198070800500,"connected_time":426000000000,"state":"active","ping":70},{"user_id":83,"name":"Furox.","steam_id":76561198103503066,"connected_time":1144000000000,"state":"active","ping":67},{"user_id":87,"name":"hunterbunney (queer)","steam_id":76561198070672899,"connected_time":543000000000,"state":"active","ping":56},{"user_id":97,"name":"Adolf Rizzler","steam_id":76561198392407790,"connected_time":351000000000,"state":"active","ping":91},{"user_id":86,"name":"Gordon From White Castle (real)","steam_id":76561198364172677,"connected_time":877000000000,"state":"active","ping":74},{"user_id":85,"name":"Growtoupz","steam_id":76561198981400000,"connected_time":1002000000000,"state":"active","ping":132},{"user_id":54,"name":"ATL1 | Psionic Box","steam_id":76561198151019322,"connected_time":5710000000000,"state":"active","ping":74},{"user_id":92,"name":"lanoc","steam_id":76561198055415367,"connected_time":479000000000,"state":"active","ping":44},{"user_id":88,"name":"Baegel","steam_id":76561198027447051,"connected_time":539000000000,"state":"active","ping":90},{"user_id":13,"name":"Yakul","steam_id":76561198100040013,"connected_time":8649000000000,"state":"active","ping":73},{"user_id":43,"name":"ATL1 | eish","steam_id":76561198089463603,"connected_time":7600000000000,"state":"active","ping":120},{"user_id":15,"name":"Spag Hekki","steam_id":76561198207579353,"connected_time":8647000000000,"state":"active","ping":75},{"user_id":66,"name":"ATL1 | to4st","steam_id":76561198981009008,"connected_time":4627000000000,"state":"active","ping":66},{"user_id":91,"name":"sithreis","steam_id":76561198000564263,"connected_time":483000000000,"state":"active","ping":55},{"user_id":18,"name":"James","steam_id":76561198081313916,"connected_time":8646000000000,"state":"active","ping":58},{"user_id":30,"name":"Rockgraham101","steam_id":76561198171740458,"connected_time":8590000000000,"state":"active","ping":74},{"user_id":96,"name":"AlecTheNefarious","steam_id":76561198035291230,"connected_time":426000000000,"state":"active","ping":60},{"user_id":71,"name":"Rizzasaurus Rex","steam_id":76561198927517471,"connected_time":3821000000000,"state":"active","ping":52},{"user_id":63,"name":"Tue","steam_id":76561198181668501,"connected_time":4738000000000,"state":"active","ping":88},{"user_id":81,"name":"oakokakoakao","steam_id":76561198092135570,"connected_time":2412000000000,"state":"active","ping":59},{"user_id":67,"name":"mos","steam_id":76561198146126212,"connected_time":4450000000000,"state":"active","ping":59},{"user_id":94,"name":"festive jester","steam_id":76561198079609974,"connected_time":469000000000,"state":"active","ping":119},{"user_id":29,"name":"ATL6 Le4n!!!","steam_id":76561198045522596,"connected_time":8627000000000,"state":"active","ping":73}]},{"server_id":400,"name":"Uncletopia | Atlanta | 3 | Stopwatch Beta","name_short":"atl-3","host":"atl-1.us.uncletopia.com","port":27035,"enabled":true,"region":"us-east","cc":"us","latitude":33.753746,"longitude":-84.38633,"reserved":0,"last_update":"0001-01-01T00:00:00Z","name_a2s":"Uncletopia | Atlanta | 3 | Stopwatch Beta","protocol":17,"map":"pl_pier","folder":"tf","game":"Team Fortress","app_id":440,"player_count":0,"max_players":24,"Bots":0,"server_type":"Dedicated","server_os":"Linux","password":true,"vac":true,"version":"7742253","steam_id":85568392924515187,"keywords":["nocrits","nodmgspread","payload","uncletopia"],"game_id":440,"stv_port":27036,"stv_name":"Uncletopia | Atlanta | 3 | Stopwatch Beta | STV","players":null},{"server_id":401,"name":"Uncletopia | Atlanta | 4 | No Payload","name_short":"atl-4","host":"atl-1.us.uncletopia.com","port":27045,"enabled":true,"region":"us-east","cc":"us","latitude":33.753746,"longitude":-84.38633,"reserved":0,"last_update":"0001-01-01T00:00:00Z","name_a2s":"Uncletopia | Atlanta | 4 | No Payload","protocol":17,"map":"pl_pier","folder":"tf","game":"Team Fortress","app_id":440,"player_count":0,"max_players":24,"Bots":0,"server_type":"Dedicated","server_os":"Linux","password":true,"vac":true,"version":"7723704","steam_id":85568392924515188,"keywords":["nocrits","nodmgspread","payload","uncletopia"],"game_id":440,"stv_port":27046,"stv_name":"Uncletopia | Atlanta | 4 | No Payload | STV","players":null},{"server_id":2,"name":"Uncletopia | Chicago | 1 | All Maps","name_short":"chi-1","host":"chi-1.us.uncletopia.com","port":27015,"enabled":true,"region":"us-central","cc":"us","latitude":41.881832,"longitude":-87.62318,"reserved":0,"last_update":"0001-01-01T00:00:00Z","name_a2s":"Uncletopia | Chicago | 1 | All Maps","protocol":17,"map":"cp_sunshine","folder":"tf","game":"Team Fortress","app_id":440,"player_count":21,"max_players":24,"Bots":0,"server_type":"Dedicated","server_os":"Linux","password":true,"vac":true,"version":"7742253","steam_id":85568392924469984,"keywords":["cp","nocrits","nodmgspread","uncletopia"],"game_id":440,"stv_port":27016,"stv_name":"Uncletopia | Chicago | 1 | All Maps | STV","players":[{"user_id":119,"name":"Trusty","steam_id":76561198035444237,"connected_time":84000000000,"state":"active","ping":61},{"user_id":97,"name":"Thatoneguybunchanumbers","steam_id":76561198028039160,"connected_time":1995000000000,"state":"active","ping":74},{"user_id":73,"name":"IFDABOOTYFATUKNOWHEREIM@","steam_id":76561198144766439,"connected_time":3072000000000,"state":"active","ping":40},{"user_id":84,"name":"‚í∑‚ì™‚ì™‚ì£‚ì®‚ìí‚ìê‚ìö‚ìî‚ì¢","steam_id":76561198088776421,"connected_time":2450000000000,"state":"active","ping":50},{"user_id":117,"name":"Amagur","steam_id":76561198966847435,"connected_time":130000000000,"state":"active","ping":99},{"user_id":120,"name":"(Not) Count Dante","steam_id":76561199446410166,"connected_time":52000000000,"state":"active","ping":57},{"user_id":115,"name":"Captain Duh","steam_id":76561197997536279,"connected_time":182000000000,"state":"active","ping":111},{"user_id":86,"name":"iCarly Lore Expert","steam_id":76561198111902910,"connected_time":2364000000000,"state":"active","ping":90},{"user_id":68,"name":"BADBOY6996","steam_id":76561197969386201,"connected_time":3675000000000,"state":"active","ping":45},{"user_id":99,"name":"bench","steam_id":76561198055339968,"connected_time":1602000000000,"state":"active","ping":71},{"user_id":121,"name":"lagzer","steam_id":76561198029295449,"connected_time":46000000000,"state":"active","ping":146},{"user_id":111,"name":"KTB","steam_id":76561197990744614,"connected_time":297000000000,"state":"active","ping":43},{"user_id":107,"name":"Alita the Angel","steam_id":76561198034775024,"connected_time":1043000000000,"state":"active","ping":66},{"user_id":122,"name":"MayoMateo","steam_id":76561198360809933,"connected_time":28000000000,"state":"active","ping":111},{"user_id":116,"name":"Carmine","steam_id":76561199405378993,"connected_time":171000000000,"state":"active","ping":61},{"user_id":118,"name":"Militant Pacifist","steam_id":76561198290691432,"connected_time":109000000000,"state":"active","ping":82},{"user_id":106,"name":"devamar","steam_id":76561198069115467,"connected_time":1368000000000,"state":"active","ping":72},{"user_id":123,"name":"Weeb Hagrid","steam_id":76561198015156743,"connected_time":9000000000,"state":"spawning","ping":87},{"user_id":110,"name":"ae","steam_id":76561198185490827,"connected_time":450000000000,"state":"active","ping":87},{"user_id":72,"name":"truundrscr","steam_id":76561198213525809,"connected_time":3166000000000,"state":"active","ping":75},{"user_id":108,"name":"ham gaming","steam_id":76561198072592880,"connected_time":860000000000,"state":"active","ping":44}]},{"server_id":106,"name":"Uncletopia | Chicago | 2 | All Maps","name_short":"chi-2","host":"chi-1.us.uncletopia.com","port":27025,"enabled":true,"region":"us-central","cc":"us","latitude":41.881832,"longitude":-87.62318,"reserved":0,"last_update":"0001-01-01T00:00:00Z","name_a2s":"Uncletopia | Chicago | 2 | All Maps","protocol":17,"map":"pl_badwater","folder":"tf","game":"Team Fortress","app_id":440,"player_count":7,"max_players":24,"Bots":0,"server_type":"Dedicated","server_os":"Linux","password":true,"vac":true,"version":"7742253","steam_id":85568392924469985,"keywords":["nocrits","nodmgspread","payload","uncletopia"],"game_id":440,"stv_port":27026,"stv_name":"Uncletopia | Chicago | 2 | All Maps | STV","players":[{"user_id":95,"name":"Ch4rl33","steam_id":76561198037008621,"connected_time":1331000000000,"state":"active","ping":45},{"user_id":72,"name":"QueeQuey","steam_id":76561198117204064,"connected_time":3697000000000,"state":"active","ping":52},{"user_id":93,"name":"scarybroccoli","steam_id":76561198296440084,"connected_time":1792000000000,"state":"active","ping":60},{"user_id":101,"name":"cardboard","steam_id":76561198193855346,"connected_time":80000000000,"state":"active","ping":86},{"user_id":80,"name":"Ecliptica","steam_id":76561198171951333,"connected_time":3248000000000,"state":"active","ping":114},{"user_id":98,"name":"CFDv20","steam_id":76561198450073779,"connected_time":962000000000,"state":"active","ping":91},{"user_id":100,"name":"xx360noscope","steam_id":76561198018018106,"connected_time":445000000000,"state":"active","ping":70}]},{"server_id":402,"name":"Uncletopia | Chicago | 3 | All Maps","name_short":"chi-3","host":"chi-1.us.uncletopia.com","port":27035,"enabled":true,"region":"us-central","cc":"us","latitude":41.881832,"longitude":-87.62318,"reserved":0,"last_update":"0001-01-01T00:00:00Z","name_a2s":"Uncletopia | Chicago | 3 | All Maps","protocol":17,"map":"pl_badwater","folder":"tf","game":"Team Fortress","app_id":440,"player_count":0,"max_players":24,"Bots":0,"server_type":"Dedicated","server_os":"Linux","password":true,"vac":true,"version":"7742253","steam_id":85568392924515191,"keywords":["nocrits","nodmgspread","payload","uncletopia"],"game_id":440,"stv_port":27036,"stv_name":"Uncletopia | Chicago | 3 | All Maps | STV","players":null},{"server_id":403,"name":"Uncletopia | Chicago | 4 | All Maps","name_short":"chi-4","host":"chi-1.us.uncletopia.com","port":27045,"enabled":true,"region":"us-central","cc":"us","latitude":41.881832,"longitude":-87.62318,"reserved":0,"last_update":"0001-01-01T00:00:00Z","name_a2s":"Uncletopia | Chicago | 4 | All Maps","protocol":17,"map":"pl_upward","folder":"tf","game":"Team Fortress","app_id":440,"player_count":24,"max_players":24,"Bots":0,"server_type":"Dedicated","server_os":"Linux","password":true,"vac":true,"version":"7742253","steam_id":85568392924515193,"keywords":["nocrits","nodmgspread","payload","uncletopia"],"game_id":440,"stv_port":27046,"stv_name":"Uncletopia | Chicago | 4 | All Maps | STV","players":[{"user_id":107,"name":"brian eno","steam_id":76561198109901138,"connected_time":982000000000,"state":"active","ping":74},{"user_id":111,"name":"Zubats |TAOZ|","steam_id":76561198041819445,"connected_time":651000000000,"state":"active","ping":47},{"user_id":86,"name":"segway cop","steam_id":76561198225609936,"connected_time":2275000000000,"state":"active","ping":39},{"user_id":113,"name":"dw4rf","steam_id":76561198046953937,"connected_time":292000000000,"state":"active","ping":109},{"user_id":88,"name":"Dinner","steam_id":76561198067294811,"connected_time":2054000000000,"state":"active","ping":67},{"user_id":114,"name":"gonurlight","steam_id":76561198935839416,"connected_time":288000000000,"state":"active","ping":88},{"user_id":110,"name":"gangstalker","steam_id":76561198363267009,"connected_time":799000000000,"state":"active","ping":64},{"user_id":91,"name":"brain griffin","steam_id":76561198865971290,"connected_time":1754000000000,"state":"active","ping":85},{"user_id":90,"name":"Tony Hawk Underground 2 for PSP","steam_id":76561197999901620,"connected_time":1797000000000,"state":"active","ping":51},{"user_id":118,"name":"TYLERTHECREATOR","steam_id":76561198353072928,"connected_time":158000000000,"state":"active","ping":69},{"user_id":93,"name":"t","steam_id":76561198175988929,"connected_time":1666000000000,"state":"active","ping":62},{"user_id":115,"name":"Wso1123","steam_id":76561198048040111,"connected_time":274000000000,"state":"active","ping":72},{"user_id":66,"name":"DocDankDandy","steam_id":76561197999440195,"connected_time":3871000000000,"state":"active","ping":92},{"user_id":94,"name":"Squirt Reynolds","steam_id":76561197999753555,"connected_time":1663000000000,"state":"active","ping":51},{"user_id":62,"name":"Alexa, Bnuuy Witch","steam_id":76561198020696423,"connected_time":3913000000000,"state":"active","ping":83},{"user_id":95,"name":"Johnny Biscotti","steam_id":76561198000566598,"connected_time":1621000000000,"state":"active","ping":90},{"user_id":97,"name":"kametro4","steam_id":76561198835430429,"connected_time":1512000000000,"state":"active","ping":88},{"user_id":116,"name":"Professor Peppermint","steam_id":76561198184017082,"connected_time":257000000000,"state":"active","ping":48},{"user_id":117,"name":"One Shot and A Miss","steam_id":76561198124269698,"connected_time":241000000000,"state":"active","ping":65},{"user_id":102,"name":"pelicAn","steam_id":76561197963422599,"connected_time":1406000000000,"state":"active","ping":64},{"user_id":109,"name":"caption cool","steam_id":76561197990612056,"connected_time":844000000000,"state":"active","ping":46},{"user_id":106,"name":"Watt Dafuq","steam_id":76561198194402925,"connected_time":1255000000000,"state":"active","ping":96},{"user_id":104,"name":"thehornyone","steam_id":76561198265116245,"connected_time":1392000000000,"state":"active","ping":106},{"user_id":105,"name":"Anshin","steam_id":76561198018803214,"connected_time":1354000000000,"state":"active","ping":80}]},{"server_id":36,"name":"Uncletopia | Chicago | 5 | All Maps","name_short":"chi-5","host":"chi-2.us.uncletopia.com","port":27015,"enabled":true,"region":"us-central","cc":"us","latitude":41.881832,"longitude":-87.62318,"reserved":0,"last_update":"0001-01-01T00:00:00Z","name_a2s":"Uncletopia | Chicago | 5 | All Maps","protocol":17,"map":"pl_pier","folder":"tf","game":"Team Fortress","app_id":440,"player_count":24,"max_players":24,"Bots":0,"server_type":"Dedicated","server_os":"Linux","password":true,"vac":true,"version":"7742253","steam_id":85568392924866362,"keywords":["nocrits","nodmgspread","payload","uncletopia"],"game_id":440,"stv_port":27016,"stv_name":"Uncletopia | Chicago | 5 | All Maps | STV","players":[{"user_id":10,"name":"supermilk","steam_id":76561197978282744,"connected_time":8063000000000,"state":"active","ping":46},{"user_id":138,"name":"blind4545","steam_id":76561198983194317,"connected_time":590000000000,"state":"active","ping":95},{"user_id":130,"name":"ShadyP00","steam_id":76561198065308906,"connected_time":1131000000000,"state":"active","ping":83},{"user_id":107,"name":"KohlManDingo","steam_id":76561198272063537,"connected_time":2118000000000,"state":"active","ping":81},{"user_id":96,"name":"https://www.dmv.ca.gov/portal/","steam_id":76561198207253121,"connected_time":2819000000000,"state":"active","ping":100},{"user_id":137,"name":"Souper Scott","steam_id":76561198045518926,"connected_time":772000000000,"state":"active","ping":53},{"user_id":112,"name":"Do Moose go Moo?","steam_id":76561198073550620,"connected_time":1690000000000,"state":"active","ping":55},{"user_id":116,"name":"Clarence","steam_id":76561198094319173,"connected_time":1610000000000,"state":"active","ping":100},{"user_id":133,"name":"a fist sized river rock","steam_id":76561197991015780,"connected_time":1010000000000,"state":"active","ping":64},{"user_id":129,"name":"Frontier Psychiatrist","steam_id":76561198038689088,"connected_time":1164000000000,"state":"active","ping":84},{"user_id":97,"name":"cave full of snakes","steam_id":76561199084459911,"connected_time":2787000000000,"state":"active","ping":121},{"user_id":98,"name":"Goury","steam_id":76561198133999959,"connected_time":2748000000000,"state":"active","ping":132},{"user_id":119,"name":"christmas grubba","steam_id":76561198356352279,"connected_time":1461000000000,"state":"active","ping":73},{"user_id":139,"name":"GuyGoom","steam_id":76561198254522178,"connected_time":562000000000,"state":"active","ping":58},{"user_id":140,"name":"Amogous Supreme","steam_id":76561198025476774,"connected_time":528000000000,"state":"active","ping":103},{"user_id":100,"name":"John","steam_id":76561198091975252,"connected_time":2734000000000,"state":"active","ping":96},{"user_id":127,"name":"fitotutus","steam_id":76561197974993253,"connected_time":1185000000000,"state":"active","ping":88},{"user_id":141,"name":"scottvar","steam_id":76561198032776766,"connected_time":385000000000,"state":"active","ping":111},{"user_id":134,"name":"That Guy","steam_id":76561197997444126,"connected_time":1003000000000,"state":"active","ping":89},{"user_id":145,"name":"TYL‚òÅR","steam_id":76561198082995812,"connected_time":141000000000,"state":"active","ping":77},{"user_id":144,"name":"Hydroxianchaos","steam_id":76561198043786828,"connected_time":225000000000,"state":"active","ping":66},{"user_id":103,"name":"Vanny","steam_id":76561198297961039,"connected_time":2650000000000,"state":"active","ping":76},{"user_id":126,"name":"is this real?","steam_id":76561198055994134,"connected_time":1240000000000,"state":"active","ping":90},{"user_id":136,"name":"Raven57p","steam_id":76561198118992563,"connected_time":911000000000,"state":"active","ping":47}]},{"server_id":37,"name":"Uncletopia | Chicago | 6 | All Maps","name_short":"chi-6","host":"chi-2.us.uncletopia.com","port":27025,"enabled":true,"region":"us-central","cc":"us","latitude":41.881832,"longitude":-87.62318,"reserved":0,"last_update":"0001-01-01T00:00:00Z","name_a2s":"Uncletopia | Chicago | 6 | All Maps","protocol":17,"map":"cp_dustbowl","folder":"tf","game":"Team Fortress","app_id":440,"player_count":24,"max_players":24,"Bots":0,"server_type":"Dedicated","server_os":"Linux","password":true,"vac":true,"version":"7742253","steam_id":85568392924866363,"keywords":["cp","nocrits","nodmgspread","uncletopia"],"game_id":440,"stv_port":27026,"stv_name":"Uncletopia | Chicago | 6 | All Maps | STV","players":[{"user_id":110,"name":"coffee bagel","steam_id":76561198141198352,"connected_time":733000000000,"state":"active","ping":36},{"user_id":111,"name":"Ap1hw","steam_id":76561199122883466,"connected_time":700000000000,"state":"active","ping":63},{"user_id":53,"name":"pencil","steam_id":76561198104658102,"connected_time":6668000000000,"state":"active","ping":91},{"user_id":112,"name":"high as balls","steam_id":76561198812086921,"connected_time":589000000000,"state":"active","ping":62},{"user_id":113,"name":"Grape Juice","steam_id":76561198380337568,"connected_time":588000000000,"state":"active","ping":61},{"user_id":48,"name":"the222attacker","steam_id":76561198969690191,"connected_time":6820000000000,"state":"active","ping":62},{"user_id":117,"name":"fat fuck chicken joe","steam_id":76561198840876723,"connected_time":466000000000,"state":"active","ping":104},{"user_id":104,"name":"Hamster","steam_id":76561198079599992,"connected_time":1321000000000,"state":"active","ping":30},{"user_id":109,"name":"Ryan","steam_id":76561198046600383,"connected_time":908000000000,"state":"active","ping":51},{"user_id":120,"name":"AHotdogVendor","steam_id":76561199211436683,"connected_time":376000000000,"state":"active","ping":64},{"user_id":86,"name":"Jarryl97","steam_id":76561198055451373,"connected_time":3426000000000,"state":"active","ping":91},{"user_id":62,"name":"bbqjunky","steam_id":76561198016224813,"connected_time":6078000000000,"state":"active","ping":60},{"user_id":93,"name":"Scorpie Doodle","steam_id":76561198021845763,"connected_time":2255000000000,"state":"active","ping":48},{"user_id":58,"name":"turkey is nota country its food","steam_id":76561198203725631,"connected_time":6576000000000,"state":"active","ping":74},{"user_id":116,"name":"Electro.exe","steam_id":76561198963839120,"connected_time":532000000000,"state":"active","ping":57},{"user_id":95,"name":"Pizza Party","steam_id":76561198165730754,"connected_time":2075000000000,"state":"active","ping":77},{"user_id":118,"name":"hashmap","steam_id":76561198043794014,"connected_time":457000000000,"state":"active","ping":47},{"user_id":107,"name":"Wingz","steam_id":76561198135885865,"connected_time":1125000000000,"state":"active","ping":55},{"user_id":108,"name":"Ann Ziegler (No Sound)","steam_id":76561198052249401,"connected_time":1101000000000,"state":"active","ping":47},{"user_id":99,"name":"NOTWALTER","steam_id":76561198125464744,"connected_time":1921000000000,"state":"active","ping":76},{"user_id":54,"name":"Charcoal Corral","steam_id":76561198085762430,"connected_time":6661000000000,"state":"active","ping":67},{"user_id":41,"name":"Goofball","steam_id":76561198061211537,"connected_time":6983000000000,"state":"active","ping":60},{"user_id":101,"name":"viedoamegs","steam_id":76561198025295263,"connected_time":1792000000000,"state":"active","ping":74},{"user_id":119,"name":"chode","steam_id":76561198079476547,"connected_time":454000000000,"state":"active","ping":64}]},{"server_id":38,"name":"Uncletopia | Chicago | 7 | Stopwatch Beta","name_short":"chi-7","host":"chi-2.us.uncletopia.com","port":27035,"enabled":true,"region":"us-central","cc":"us","latitude":41.881832,"longitude":-87.62318,"reserved":0,"last_update":"0001-01-01T00:00:00Z","name_a2s":"Uncletopia | Chicago | 7 | Stopwatch Beta","protocol":17,"map":"pl_swiftwater_final1","folder":"tf","game":"Team Fortress","app_id":440,"player_count":0,"max_players":24,"Bots":0,"server_type":"Dedicated","server_os":"Linux","password":true,"vac":true,"version":"7742253","steam_id":85568392924866364,"keywords":["nocrits","nodmgspread","payload","uncletopia"],"game_id":440,"stv_port":27036,"stv_name":"Uncletopia | Chicago | 7 | Stopwatch Beta | STV","players":null},{"server_id":39,"name":"Uncletopia | Chicago | 8 | Community","name_short":"chi-8","host":"chi-2.us.uncletopia.com","port":27045,"enabled":true,"region":"us-central","cc":"us","latitude":41.881832,"longitude":-87.62318,"reserved":0,"last_update":"0001-01-01T00:00:00Z","name_a2s":"Uncletopia | Chicago | 8 | Community","protocol":17,"map":"koth_lakeside_final","folder":"tf","game":"Team Fortress","app_id":440,"player_count":0,"max_players":24,"Bots":0,"server_type":"Dedicated","server_os":"Linux","password":true,"vac":true,"version":"7742253","steam_id":85568392924866365,"keywords":["cp","nocrits","nodmgspread","uncletopia"],"game_id":440,"stv_port":27046,"stv_name":"Uncletopia | Chicago | 8 | Community | STV","players":null},{"server_id":8,"name":"Uncletopia | Dallas | 1 | All Maps","name_short":"dal-1","host":"dal-1.us.uncletopia.com","port":27015,"enabled":true,"region":"us-central","cc":"us","latitude":32.779167,"longitude":-96.80889,"reserved":0,"last_update":"0001-01-01T00:00:00Z","name_a2s":"Uncletopia | Dallas | 1 | All Maps","protocol":17,"map":"pl_snowycoast","folder":"tf","game":"Team Fortress","app_id":440,"player_count":22,"max_players":24,"Bots":0,"server_type":"Dedicated","server_os":"Linux","password":true,"vac":true,"version":"7742253","steam_id":85568392924469986,"keywords":["nocrits","nodmgspread","payload","uncletopia"],"game_id":440,"stv_port":27016,"stv_name":"Uncletopia | Dallas | 1 | All Maps | STV","players":[{"user_id":82,"name":"arashsmash","steam_id":76561198277649058,"connected_time":3269000000000,"state":"active","ping":81},{"user_id":124,"name":"{ST} Oxythemoron","steam_id":76561198060089965,"connected_time":211000000000,"state":"active","ping":59},{"user_id":113,"name":"Hi_barney","steam_id":76561199116792088,"connected_time":988000000000,"state":"active","ping":85},{"user_id":104,"name":"Krow","steam_id":76561198010392099,"connected_time":1401000000000,"state":"active","ping":47},{"user_id":102,"name":"Pitch Stick","steam_id":76561198800287853,"connected_time":1613000000000,"state":"active","ping":119},{"user_id":9,"name":"Reyloko","steam_id":76561198172480913,"connected_time":8641000000000,"state":"active","ping":74},{"user_id":116,"name":"-|Kappin'|- ExplosiveDiahrea","steam_id":76561198017045020,"connected_time":852000000000,"state":"active","ping":167},{"user_id":123,"name":"turnstyle","steam_id":76561199393438660,"connected_time":546000000000,"state":"active","ping":78},{"user_id":100,"name":"Mr. Skerpentine","steam_id":76561198137244892,"connected_time":1961000000000,"state":"active","ping":92},{"user_id":50,"name":"Lore","steam_id":76561198098407538,"connected_time":6018000000000,"state":"active","ping":75},{"user_id":125,"name":"peepeeroni","steam_id":76561198382877812,"connected_time":169000000000,"state":"active","ping":45},{"user_id":114,"name":"ALLOHA¬Æüòπüòπüòπ‚Ñ¢","steam_id":76561198394039817,"connected_time":964000000000,"state":"active","ping":74},{"user_id":115,"name":"JoƒÅnKisaragi‚±Ω‚Å∞","steam_id":76561199370650064,"connected_time":960000000000,"state":"active","ping":86},{"user_id":117,"name":"-|Kappin'|- Kilbo Fraggins‚Ñ¢","steam_id":76561197994725498,"connected_time":842000000000,"state":"active","ping":80},{"user_id":103,"name":"nap","steam_id":76561198162714624,"connected_time":1563000000000,"state":"active","ping":43},{"user_id":87,"name":"iluvtoust","steam_id":76561198869269207,"connected_time":2799000000000,"state":"active","ping":45},{"user_id":105,"name":"Foomfa","steam_id":76561198007033616,"connected_time":1367000000000,"state":"active","ping":48},{"user_id":129,"name":"Redeye Doppio","steam_id":76561198059999858,"connected_time":13000000000,"state":"spawning","ping":94},{"user_id":118,"name":"The Maikeru","steam_id":76561199081647852,"connected_time":837000000000,"state":"active","ping":135},{"user_id":128,"name":"Randy \"the Man\" Johnson","steam_id":76561198039124445,"connected_time":87000000000,"state":"active","ping":109},{"user_id":122,"name":"dog","steam_id":76561198263873491,"connected_time":569000000000,"state":"active","ping":62},{"user_id":121,"name":"FUNNY JOKE(pls laugh)","steam_id":76561199070877046,"connected_time":791000000000,"state":"active","ping":98}]},{"server_id":108,"name":"Uncletopia | Dallas | 2 | All Maps","name_short":"dal-2","host":"dal-1.us.uncletopia.com","port":27025,"enabled":true,"region":"us-central","cc":"us","latitude":32.779167,"longitude":-96.80889,"reserved":0,"last_update":"0001-01-01T00:00:00Z","name_a2s":"Uncletopia | Dallas | 2 | All Maps","protocol":17,"map":"cp_mercenarypark","folder":"tf","game":"Team Fortress","app_id":440,"player_count":24,"max_players":24,"Bots":0,"server_type":"Dedicated","server_os":"Linux","password":true,"vac":true,"version":"7742253","steam_id":85568392924469988,"keywords":["cp","nocrits","nodmgspread","uncletopia"],"game_id":440,"stv_port":27026,"stv_name":"Uncletopia | Dallas | 2 | All Maps | STV","players":[{"user_id":54,"name":"[Œ¥] Delta","steam_id":76561198287190116,"connected_time":6080000000000,"state":"active","ping":62},{"user_id":140,"name":"HeroicFan549","steam_id":76561198807874089,"connected_time":90000000000,"state":"active","ping":76},{"user_id":103,"name":"Adolf The Toast Jesus‚Ñ¢","steam_id":76561198024553767,"connected_time":2712000000000,"state":"active","ping":88},{"user_id":138,"name":"Barack Obama Hot Rod","steam_id":76561198034079853,"connected_time":517000000000,"state":"active","ping":57},{"user_id":14,"name":"illious","steam_id":76561198169925494,"connected_time":7861000000000,"state":"active","ping":67},{"user_id":105,"name":"Alex The Magician","steam_id":76561197981626783,"connected_time":2546000000000,"state":"active","ping":83},{"user_id":123,"name":"Dannnnnn","steam_id":76561198442700385,"connected_time":1350000000000,"state":"active","ping":168},{"user_id":61,"name":"alligator fuckhouse","steam_id":76561198119178364,"connected_time":5621000000000,"state":"active","ping":76},{"user_id":79,"name":"Weird","steam_id":76561199082362722,"connected_time":3895000000000,"state":"active","ping":129},{"user_id":111,"name":"Weeb Mane","steam_id":76561198139378320,"connected_time":2406000000000,"state":"active","ping":72},{"user_id":112,"name":"Magitrex","steam_id":76561199088811754,"connected_time":2391000000000,"state":"active","ping":60},{"user_id":80,"name":"Fluddulation","steam_id":76561198161703678,"connected_time":3888000000000,"state":"active","ping":81},{"user_id":113,"name":"A Fruit","steam_id":76561198951830050,"connected_time":2368000000000,"state":"active","ping":45},{"user_id":93,"name":"astron","steam_id":76561198058546328,"connected_time":3214000000000,"state":"active","ping":87},{"user_id":124,"name":"Shh","steam_id":76561198075865231,"connected_time":1350000000000,"state":"active","ping":95},{"user_id":125,"name":"Fancyassasin","steam_id":76561198331864258,"connected_time":1338000000000,"state":"active","ping":52},{"user_id":132,"name":"UnlimitedRune","steam_id":76561199170761237,"connected_time":965000000000,"state":"active","ping":46},{"user_id":116,"name":"ThtGyVrThr","steam_id":76561198805852870,"connected_time":2123000000000,"state":"active","ping":61},{"user_id":129,"name":"Forest_Dragon93","steam_id":76561199064900666,"connected_time":1164000000000,"state":"active","ping":89},{"user_id":136,"name":"Branos","steam_id":76561198396414319,"connected_time":697000000000,"state":"active","ping":81},{"user_id":141,"name":"Final_MarioXD","steam_id":76561199184862419,"connected_time":66000000000,"state":"active","ping":67},{"user_id":98,"name":"+","steam_id":76561198262422184,"connected_time":3148000000000,"state":"active","ping":47},{"user_id":102,"name":"SuaveFrenchman","steam_id":76561198043762683,"connected_time":2797000000000,"state":"active","ping":81}]},{"server_id":5,"name":"Uncletopia | Frankfurt | 1 | All Maps","name_short":"frk-1","host":"frk-1.de.uncletopia.com","port":27015,"enabled":true,"region":"eu","cc":"de","latitude":50.110924,"longitude":8.682127,"reserved":0,"last_update":"0001-01-01T00:00:00Z","name_a2s":"Uncletopia | Frankfurt | 1 | All Maps","protocol":17,"map":"pl_borneo","folder":"tf","game":"Team Fortress","app_id":440,"player_count":0,"max_players":24,"Bots":0,"server_type":"Dedicated","server_os":"Linux","password":true,"vac":true,"version":"7742253","steam_id":85568392924469989,"keywords":["nocrits","nodmgspread","payload","uncletopia"],"game_id":440,"stv_port":27016,"stv_name":"Uncletopia | Frankfurt | 1 | All Maps | STV","players":null},{"server_id":110,"name":"Uncletopia | Frankfurt | 2 | All Maps","name_short":"frk-2","host":"frk-1.de.uncletopia.com","port":27025,"enabled":true,"region":"eu","cc":"de","latitude":50.110924,"longitude":8.682127,"reserved":0,"last_update":"0001-01-01T00:00:00Z","name_a2s":"Uncletopia | Frankfurt | 2 | All Maps","protocol":17,"map":"pl_swiftwater_final1","folder":"tf","game":"Team Fortress","app_id":440,"player_count":0,"max_players":24,"Bots":0,"server_type":"Dedicated","server_os":"Linux","password":true,"vac":true,"version":"7742253","steam_id":85568392924469990,"keywords":["nocrits","nodmgspread","payload","uncletopia"],"game_id":440,"stv_port":27026,"stv_name":"Uncletopia | Frankfurt | 2 | All Maps | STV","players":null},{"server_id":308,"name":"Uncletopia | Frankfurt | 3 | All Maps","name_short":"frk-3","host":"frk-1.de.uncletopia.com","port":27035,"enabled":true,"region":"eu","cc":"de","latitude":50.110924,"longitude":8.682127,"reserved":0,"last_update":"0001-01-01T00:00:00Z","name_a2s":"Uncletopia | Frankfurt | 3 | All Maps","protocol":17,"map":"cp_dustbowl","folder":"tf","game":"Team Fortress","app_id":440,"player_count":0,"max_players":24,"Bots":0,"server_type":"Dedicated","server_os":"Linux","password":true,"vac":true,"version":"7742253","steam_id":85568392924504274,"keywords":["cp","nocrits","nodmgspread","uncletopia"],"game_id":440,"stv_port":27036,"stv_name":"Uncletopia | Frankfurt | 3 | All Maps | STV","players":null},{"server_id":309,"name":"Uncletopia | Frankfurt | 4 | All Maps","name_short":"frk-4","host":"frk-1.de.uncletopia.com","port":27045,"enabled":true,"region":"eu","cc":"de","latitude":50.110924,"longitude":8.682127,"reserved":0,"last_update":"0001-01-01T00:00:00Z","name_a2s":"Uncletopia | Frankfurt | 4 | All Maps","protocol":17,"map":"cp_sunshine","folder":"tf","game":"Team Fortress","app_id":440,"player_count":0,"max_players":24,"Bots":0,"server_type":"Dedicated","server_os":"Linux","password":true,"vac":true,"version":"7742253","steam_id":85568392924504275,"keywords":["cp","nocrits","nodmgspread","uncletopia"],"game_id":440,"stv_port":27046,"stv_name":"Uncletopia | Frankfurt | 4 | All Maps | STV","players":null},{"server_id":310,"name":"Uncletopia | Frankfurt | 5 | All Maps","name_short":"frk-5","host":"frk-1.de.uncletopia.com","port":27055,"enabled":true,"region":"eu","cc":"de","latitude":50.110924,"longitude":8.682127,"reserved":0,"last_update":"0001-01-01T00:00:00Z","name_a2s":"Uncletopia | Frankfurt | 5 | All Maps","protocol":17,"map":"cp_snakewater_final1","folder":"tf","game":"Team Fortress","app_id":440,"player_count":0,"max_players":24,"Bots":0,"server_type":"Dedicated","server_os":"Linux","password":true,"vac":true,"version":"7742253","steam_id":85568392924504277,"keywords":["cp","nocrits","nodmgspread","uncletopia"],"game_id":440,"stv_port":27056,"stv_name":"Uncletopia | Frankfurt | 5 | All Maps | STV","players":null},{"server_id":311,"name":"Uncletopia | Frankfurt | 6 | All Maps","name_short":"frk-6","host":"frk-1.de.uncletopia.com","port":27065,"enabled":true,"region":"eu","cc":"de","latitude":50.110924,"longitude":8.682127,"reserved":0,"last_update":"0001-01-01T00:00:00Z","name_a2s":"Uncletopia | Frankfurt | 6 | All Maps","protocol":17,"map":"koth_lakeside_final","folder":"tf","game":"Team Fortress","app_id":440,"player_count":0,"max_players":24,"Bots":0,"server_type":"Dedicated","server_os":"Linux","password":true,"vac":true,"version":"7742253","steam_id":85568392924504278,"keywords":["cp","nocrits","nodmgspread","uncletopia"],"game_id":440,"stv_port":27066,"stv_name":"Uncletopia | Frankfurt | 6 | All Maps | STV","players":null},{"server_id":23,"name":"Uncletopia | Frankfurt | 7 | Stopwatch Beta","name_short":"frk-7","host":"frk-1.de.uncletopia.com","port":27075,"enabled":true,"region":"eu","cc":"de","latitude":50.110924,"longitude":8.682127,"reserved":0,"last_update":"0001-01-01T00:00:00Z","name_a2s":"Uncletopia | Frankfurt | 7 | Stopwatch Beta","protocol":17,"map":"pl_badwater","folder":"tf","game":"Team Fortress","app_id":440,"player_count":0,"max_players":24,"Bots":0,"server_type":"Dedicated","server_os":"Linux","password":true,"vac":true,"version":"7742253","steam_id":85568392924742827,"keywords":["nocrits","nodmgspread","payload","uncletopia"],"game_id":440,"stv_port":27076,"stv_name":"Uncletopia | Frankfurt | 7 | Stopwatch Beta | STV","players":null},{"server_id":24,"name":"Uncletopia | Frankfurt | 8 | Community","name_short":"frk-8","host":"frk-1.de.uncletopia.com","port":27085,"enabled":true,"region":"eu","cc":"de","latitude":50.110924,"longitude":8.682127,"reserved":0,"last_update":"0001-01-01T00:00:00Z","name_a2s":"Uncletopia | Frankfurt | 8 | Community","protocol":17,"map":"koth_cascade","folder":"tf","game":"Team Fortress","app_id":440,"player_count":0,"max_players":24,"Bots":0,"server_type":"Dedicated","server_os":"Linux","password":true,"vac":true,"version":"7742253","steam_id":85568392924742828,"keywords":["cp","nocrits","nodmgspread","uncletopia"],"game_id":440,"stv_port":27086,"stv_name":"Uncletopia | Frankfurt | 8 | Community | STV","players":null},{"server_id":202,"name":"Uncletopia | Hong Kong | 1 | All Maps","name_short":"hgk-1","host":"hgk-1.hk.uncletopia.com","port":27015,"enabled":true,"region":"asia","cc":"hk","latitude":22.302711,"longitude":114.177216,"reserved":0,"last_update":"0001-01-01T00:00:00Z","name_a2s":"Uncletopia | Hong Kong | 1 | All Maps","protocol":17,"map":"pl_barnblitz","folder":"tf","game":"Team Fortress","app_id":440,"player_count":24,"max_players":24,"Bots":0,"server_type":"Dedicated","server_os":"Linux","password":true,"vac":true,"version":"7742253","steam_id":85568392924494504,"keywords":["nocrits","nodmgspread","payload","uncletopia"],"game_id":440,"stv_port":27016,"stv_name":"Uncletopia | Hong Kong | 1 | All Maps | STV","players":[{"user_id":105,"name":"professional esports fortnite","steam_id":76561198337887896,"connected_time":574000000000,"state":"active","ping":78},{"user_id":120,"name":"Skeptikal01","steam_id":76561199064694137,"connected_time":85000000000,"state":"active","ping":99},{"user_id":69,"name":"Wakiiiz","steam_id":76561198850134590,"connected_time":4581000000000,"state":"active","ping":46},{"user_id":78,"name":"uptriste","steam_id":76561198158666692,"connected_time":3572000000000,"state":"active","ping":40},{"user_id":7,"name":"Windmill","steam_id":76561199230997986,"connected_time":7936000000000,"state":"active","ping":71},{"user_id":8,"name":"lillalune","steam_id":76561198230213828,"connected_time":7932000000000,"state":"active","ping":71},{"user_id":44,"name":"ZUdolph, the Robo-reindeer","steam_id":76561198179320563,"connected_time":6653000000000,"state":"active","ping":66},{"user_id":75,"name":"3wfFbdrjEze5d2G","steam_id":76561198435900451,"connected_time":4045000000000,"state":"active","ping":65},{"user_id":104,"name":"Telekhine","steam_id":76561198387120618,"connected_time":597000000000,"state":"active","ping":63},{"user_id":111,"name":"sett.","steam_id":76561199010718657,"connected_time":262000000000,"state":"active","ping":78},{"user_id":100,"name":".12 Gauge rounds","steam_id":76561199013712216,"connected_time":1230000000000,"state":"active","ping":77},{"user_id":115,"name":"Â∞èÊ≥¢Â•áBocchi","steam_id":76561198162424362,"connected_time":242000000000,"state":"active","ping":72},{"user_id":98,"name":"Newbie.(cant chat)","steam_id":76561199131526926,"connected_time":1448000000000,"state":"active","ping":90},{"user_id":91,"name":"Ezylynn","steam_id":76561198388935921,"connected_time":2066000000000,"state":"active","ping":61},{"user_id":110,"name":"Vortex Morez","steam_id":76561198833527091,"connected_time":274000000000,"state":"active","ping":90},{"user_id":56,"name":"17","steam_id":76561198241530712,"connected_time":5815000000000,"state":"active","ping":62},{"user_id":95,"name":"iLikeMudrock ·óú‚Ä∏·óú","steam_id":76561199352285088,"connected_time":1542000000000,"state":"active","ping":89},{"user_id":31,"name":"Aunt Daine","steam_id":76561198447470800,"connected_time":7544000000000,"state":"active","ping":71},{"user_id":114,"name":"Ssctr","steam_id":76561199141112344,"connected_time":242000000000,"state":"active","ping":84},{"user_id":113,"name":"EAST","steam_id":76561198857299051,"connected_time":245000000000,"state":"active","ping":80},{"user_id":37,"name":"Urotsuki","steam_id":76561198074339034,"connected_time":7386000000000,"state":"active","ping":75},{"user_id":116,"name":"tuxy","steam_id":76561198996816684,"connected_time":238000000000,"state":"active","ping":110},{"user_id":121,"name":"Buttman","steam_id":76561198044693388,"connected_time":41000000000,"state":"active","ping":53},{"user_id":81,"name":"Noyour","steam_id":76561198323259830,"connected_time":3553000000000,"state":"active","ping":116}]},{"server_id":1,"name":"Uncletopia | Los Angeles | 1 | All Maps","name_short":"lax-1","host":"lax-1.us.uncletopia.com","port":27015,"enabled":true,"region":"us-west","cc":"us","latitude":33.94279,"longitude":-118.41004,"reserved":0,"last_update":"0001-01-01T00:00:00Z","name_a2s":"Uncletopia | Los Angeles | 1 | All Maps","protocol":17,"map":"cp_altitude","folder":"tf","game":"Team Fortress","app_id":440,"player_count":24,"max_players":24,"Bots":0,"server_type":"Dedicated","server_os":"Linux","password":true,"vac":true,"version":"7742253","steam_id":85568392924469991,"keywords":["cp","nocrits","nodmgspread","uncletopia"],"game_id":440,"stv_port":27016,"stv_name":"Uncletopia | Los Angeles | 1 | All Maps | STV","players":[{"user_id":95,"name":"bad spy player","steam_id":76561198873699671,"connected_time":2605000000000,"state":"spawning","ping":81},{"user_id":115,"name":"1000 Ping","steam_id":76561198098330939,"connected_time":10000000000,"state":"spawning","ping":55},{"user_id":108,"name":"The Paperwork","steam_id":76561198385887698,"connected_time":1088000000000,"state":"spawning","ping":56},{"user_id":88,"name":"Antis","steam_id":76561198055790522,"connected_time":3727000000000,"state":"spawning","ping":63},{"user_id":113,"name":"Koyota","steam_id":76561198069878114,"connected_time":320000000000,"state":"spawning","ping":101},{"user_id":59,"name":"JON","steam_id":76561198057971005,"connected_time":6466000000000,"state":"spawning","ping":70},{"user_id":96,"name":":3 | ph0va_ \u003c3 sab","steam_id":76561198309010627,"connected_time":2425000000000,"state":"spawning","ping":279},{"user_id":68,"name":"Owl_eyes","steam_id":76561198066199203,"connected_time":5379000000000,"state":"spawning","ping":55},{"user_id":100,"name":"Phishie","steam_id":76561198051778851,"connected_time":1981000000000,"state":"spawning","ping":65},{"user_id":114,"name":"Woody","steam_id":76561198055842769,"connected_time":41000000000,"state":"spawning","ping":156},{"user_id":103,"name":"Snooter","steam_id":76561198042435225,"connected_time":1915000000000,"state":"spawning","ping":77},{"user_id":89,"name":"Logan601 #savetf2","steam_id":76561198263116731,"connected_time":3725000000000,"state":"spawning","ping":63},{"user_id":105,"name":"Bedtime Stories","steam_id":76561198823083676,"connected_time":1505000000000,"state":"spawning","ping":63},{"user_id":110,"name":"Tenma","steam_id":76561198296557689,"connected_time":1055000000000,"state":"spawning","ping":52},{"user_id":90,"name":"Sergeant Sear","steam_id":76561197963477221,"connected_time":2711000000000,"state":"spawning","ping":61},{"user_id":70,"name":"Poverty's Finest","steam_id":76561198127704044,"connected_time":5358000000000,"state":"spawning","ping":100},{"user_id":111,"name":"AKKAWI","steam_id":76561198203159952,"connected_time":914000000000,"state":"spawning","ping":65},{"user_id":91,"name":"N√º√æ","steam_id":76561198043956703,"connected_time":2703000000000,"state":"spawning","ping":52},{"user_id":107,"name":"HAT-WEARING‚Ñ¢ Maggot Gamer Cat","steam_id":76561197973992705,"connected_time":1151000000000,"state":"spawning","ping":64},{"user_id":86,"name":"Evanb","steam_id":76561198042057792,"connected_time":3895000000000,"state":"spawning","ping":103},{"user_id":72,"name":"SNIPSNAP","steam_id":76561198275472683,"connected_time":5344000000000,"state":"spawning","ping":109},{"user_id":81,"name":"cam","steam_id":76561198073426718,"connected_time":4404000000000,"state":"spawning","ping":168},{"user_id":106,"name":"WalrusNyetheBonkGuy","steam_id":76561197995626774,"connected_time":1368000000000,"state":"spawning","ping":66},{"user_id":29,"name":"am","steam_id":76561198345528370,"connected_time":8557000000000,"state":"spawning","ping":63}]},{"server_id":112,"name":"Uncletopia | Los Angeles | 2 | All Maps","name_short":"lax-2","host":"lax-1.us.uncletopia.com","port":27025,"enabled":true,"region":"us-west","cc":"us","latitude":33.94279,"longitude":-118.41004,"reserved":0,"last_update":"0001-01-01T00:00:00Z","name_a2s":"Uncletopia | Los Angeles | 2 | All Maps","protocol":17,"map":"cp_process_final","folder":"tf","game":"Team Fortress","app_id":440,"player_count":23,"max_players":24,"Bots":0,"server_type":"Dedicated","server_os":"Linux","password":true,"vac":true,"version":"7742253","steam_id":85568392924469992,"keywords":["cp","nocrits","nodmgspread","uncletopia"],"game_id":440,"stv_port":27026,"stv_name":"Uncletopia | Los Angeles | 2 | All Maps | STV","players":[{"user_id":122,"name":"TheLegend27","steam_id":76561199012721121,"connected_time":1012000000000,"state":"active","ping":61},{"user_id":126,"name":"Testicular Torsion","steam_id":76561197968179862,"connected_time":132000000000,"state":"active","ping":73},{"user_id":67,"name":"goldhed","steam_id":76561198051751133,"connected_time":4984000000000,"state":"active","ping":88},{"user_id":130,"name":"gazpacho","steam_id":76561198132903078,"connected_time":0,"state":"spawning","ping":34},{"user_id":106,"name":"gerg","steam_id":76561197997127387,"connected_time":2947000000000,"state":"active","ping":56},{"user_id":107,"name":"The Population of Sweden","steam_id":76561198202201644,"connected_time":2915000000000,"state":"active","ping":72},{"user_id":103,"name":"zinnk","steam_id":76561198092081825,"connected_time":3343000000000,"state":"active","ping":55},{"user_id":99,"name":"sly1","steam_id":76561198049014977,"connected_time":3475000000000,"state":"active","ping":46},{"user_id":116,"name":"AzovStal'","steam_id":76561198081841996,"connected_time":1226000000000,"state":"active","ping":59},{"user_id":118,"name":"MantisTobboggan","steam_id":76561197969447887,"connected_time":1138000000000,"state":"active","ping":94},{"user_id":104,"name":"Crom","steam_id":76561198121232183,"connected_time":3322000000000,"state":"active","ping":49},{"user_id":113,"name":"Chiaki Nanami","steam_id":76561198164782653,"connected_time":2226000000000,"state":"active","ping":115},{"user_id":77,"name":"Brynkiwi","steam_id":76561198052177917,"connected_time":4655000000000,"state":"active","ping":66},{"user_id":124,"name":"8core","steam_id":76561198131163454,"connected_time":618000000000,"state":"active","ping":73},{"user_id":87,"name":"KritzKow","steam_id":76561198086164003,"connected_time":4245000000000,"state":"active","ping":76},{"user_id":88,"name":"Sham Cow","steam_id":76561198064556977,"connected_time":4243000000000,"state":"active","ping":91},{"user_id":125,"name":"E-Spliff","steam_id":76561199093733603,"connected_time":585000000000,"state":"active","ping":58},{"user_id":89,"name":"cirno","steam_id":76561198166081596,"connected_time":4243000000000,"state":"active","ping":58},{"user_id":109,"name":"Noxus","steam_id":76561199009820852,"connected_time":2903000000000,"state":"active","ping":108},{"user_id":90,"name":"invb","steam_id":76561197998263914,"connected_time":4217000000000,"state":"active","ping":106},{"user_id":112,"name":"social distance warrior","steam_id":76561198128992994,"connected_time":2367000000000,"state":"active","ping":74},{"user_id":92,"name":"1 Great Wooden Dad","steam_id":76561198377126974,"connected_time":4196000000000,"state":"active","ping":117},{"user_id":128,"name":"Sivinus","steam_id":76561198025589541,"connected_time":53000000000,"state":"active","ping":55}]},{"server_id":324,"name":"Uncletopia | Los Angeles | 3 | All Maps","name_short":"lax-3","host":"lax-1.us.uncletopia.com","port":27035,"enabled":true,"region":"us-west","cc":"us","latitude":33.94279,"longitude":-118.41004,"reserved":0,"last_update":"0001-01-01T00:00:00Z","name_a2s":"Uncletopia | Los Angeles | 3 | All Maps","protocol":17,"map":"pl_frontier_final","folder":"tf","game":"Team Fortress","app_id":440,"player_count":3,"max_players":24,"Bots":0,"server_type":"Dedicated","server_os":"Linux","password":true,"vac":true,"version":"7742253","steam_id":85568392924510198,"keywords":["nocrits","nodmgspread","payload","uncletopia"],"game_id":440,"stv_port":27036,"stv_name":"Uncletopia | Los Angeles | 3 | All Maps | STV","players":[{"user_id":8,"name":"Venomous Soda Monster","steam_id":76561198207958788,"connected_time":461000000000,"state":"active","ping":52},{"user_id":9,"name":"Bananwee","steam_id":76561199045802734,"connected_time":446000000000,"state":"active","ping":59},{"user_id":10,"name":"coffee enjoyer","steam_id":76561198059900288,"connected_time":337000000000,"state":"active","ping":87}]},{"server_id":25,"name":"Uncletopia | Los Angeles | 4 | Stopwatch Beta","name_short":"lax-4","host":"lax-1.us.uncletopia.com","port":27045,"enabled":true,"region":"us-west","cc":"us","latitude":33.94279,"longitude":-118.41004,"reserved":0,"last_update":"0001-01-01T00:00:00Z","name_a2s":"Uncletopia | Los Angeles | 4 | Stopwatch Beta","protocol":17,"map":"pl_borneo","folder":"tf","game":"Team Fortress","app_id":440,"player_count":0,"max_players":24,"Bots":0,"server_type":"Dedicated","server_os":"Linux","password":true,"vac":true,"version":"7742253","steam_id":85568392924510199,"keywords":["nocrits","nodmgspread","payload","uncletopia"],"game_id":440,"stv_port":27046,"stv_name":"Uncletopia | Los Angeles | 4 | Stopwatch Beta | STV","players":null},{"server_id":11,"name":"Uncletopia | London | 1 | All Maps","name_short":"lon-1","host":"lon-1.uk.uncletopia.com","port":27015,"enabled":true,"region":"eu","cc":"gb","latitude":51.509865,"longitude":-0.118092,"reserved":0,"last_update":"0001-01-01T00:00:00Z","name_a2s":"Uncletopia | London | 1 | All Maps","protocol":17,"map":"pl_swiftwater_final1","folder":"tf","game":"Team Fortress","app_id":440,"player_count":3,"max_players":24,"Bots":0,"server_type":"Dedicated","server_os":"Linux","password":true,"vac":true,"version":"7742253","steam_id":85568392924367362,"keywords":["nocrits","nodmgspread","payload","uncletopia"],"game_id":440,"stv_port":27016,"stv_name":"Uncletopia | London | 1 | All Maps | STV","players":[{"user_id":4,"name":"Guz","steam_id":76561198384689388,"connected_time":2374000000000,"state":"active","ping":44},{"user_id":5,"name":"Charcoal","steam_id":76561198268638706,"connected_time":2323000000000,"state":"active","ping":188},{"user_id":7,"name":"ciliorkun18","steam_id":76561198228942500,"connected_time":690000000000,"state":"active","ping":105}]},{"server_id":114,"name":"Uncletopia | London | 2 | All Maps","name_short":"lon-2","host":"lon-1.uk.uncletopia.com","port":27025,"enabled":true,"region":"eu","cc":"gb","latitude":51.509865,"longitude":-0.118092,"reserved":0,"last_update":"0001-01-01T00:00:00Z","name_a2s":"Uncletopia | London | 2 | All Maps","protocol":17,"map":"pl_swiftwater_final1","folder":"tf","game":"Team Fortress","app_id":440,"player_count":0,"max_players":24,"Bots":0,"server_type":"Dedicated","server_os":"Linux","password":true,"vac":true,"version":"7742253","steam_id":85568392924470941,"keywords":["nocrits","nodmgspread","payload","uncletopia"],"game_id":440,"stv_port":27026,"stv_name":"Uncletopia | London | 2 | All Maps | STV","players":null},{"server_id":320,"name":"Uncletopia | London | 3 | All Maps","name_short":"lon-3","host":"lon-1.uk.uncletopia.com","port":27035,"enabled":true,"region":"eu","cc":"gb","latitude":51.509865,"longitude":-0.118092,"reserved":0,"last_update":"0001-01-01T00:00:00Z","name_a2s":"Uncletopia | London | 3 | All Maps","protocol":17,"map":"pl_upward","folder":"tf","game":"Team Fortress","app_id":440,"player_count":0,"max_players":24,"Bots":0,"server_type":"Dedicated","server_os":"Linux","password":true,"vac":true,"version":"7742253","steam_id":85568392924510192,"keywords":["nocrits","nodmgspread","payload","uncletopia"],"game_id":440,"stv_port":27036,"stv_name":"Uncletopia | London | 3 | All Maps | STV","players":null},{"server_id":321,"name":"Uncletopia | London | 4 | All Maps","name_short":"lon-4","host":"lon-1.uk.uncletopia.com","port":27045,"enabled":true,"region":"eu","cc":"gb","latitude":51.509865,"longitude":-0.118092,"reserved":0,"last_update":"0001-01-01T00:00:00Z","name_a2s":"Uncletopia | London | 4 | All Maps","protocol":17,"map":"pl_barnblitz","folder":"tf","game":"Team Fortress","app_id":440,"player_count":18,"max_players":24,"Bots":0,"server_type":"Dedicated","server_os":"Linux","password":true,"vac":true,"version":"7742253","steam_id":85568392924510193,"keywords":["nocrits","nodmgspread","payload","uncletopia"],"game_id":440,"stv_port":27046,"stv_name":"Uncletopia | London | 4 | All Maps | STV","players":[{"user_id":48,"name":"Saken","steam_id":76561198049075295,"connected_time":14000000000,"state":"spawning","ping":59},{"user_id":46,"name":"Making Coffee","steam_id":76561198138281039,"connected_time":422000000000,"state":"active","ping":70},{"user_id":5,"name":"Borat","steam_id":76561198122226417,"connected_time":2493000000000,"state":"active","ping":44},{"user_id":6,"name":"R A S M U S","steam_id":76561198279799226,"connected_time":2492000000000,"state":"active","ping":65},{"user_id":47,"name":"Marloo","steam_id":76561198210792815,"connected_time":253000000000,"state":"active","ping":76},{"user_id":9,"name":"MONKEYBOYXD","steam_id":76561198156224952,"connected_time":2488000000000,"state":"active","ping":45},{"user_id":11,"name":"zaamnsizofren","steam_id":76561199265839834,"connected_time":2475000000000,"state":"active","ping":87},{"user_id":39,"name":"sadie","steam_id":76561198831381780,"connected_time":1161000000000,"state":"active","ping":46},{"user_id":13,"name":"marsel","steam_id":76561198116168271,"connected_time":2467000000000,"state":"active","ping":82},{"user_id":23,"name":"Kali","steam_id":76561198070745106,"connected_time":2305000000000,"state":"active","ping":43},{"user_id":37,"name":"Joe","steam_id":76561198061717026,"connected_time":1355000000000,"state":"active","ping":45},{"user_id":16,"name":"BONK","steam_id":76561199120275042,"connected_time":2431000000000,"state":"active","ping":65},{"user_id":17,"name":"te most vel√ºnk j√∂ssz","steam_id":76561198331329777,"connected_time":2423000000000,"state":"active","ping":60},{"user_id":19,"name":"–†—É–∏–Ω–µ—Ä","steam_id":76561198166980992,"connected_time":2409000000000,"state":"active","ping":109},{"user_id":33,"name":"Mr_Gamr211","steam_id":76561198960079818,"connected_time":1514000000000,"state":"active","ping":105},{"user_id":34,"name":"jaime8D","steam_id":76561197980590671,"connected_time":1425000000000,"state":"active","ping":82},{"user_id":30,"name":"Bonkers (f2p)","steam_id":76561199438106716,"connected_time":1853000000000,"state":"active","ping":166},{"user_id":41,"name":"Pingutaro","steam_id":76561198112803718,"connected_time":957000000000,"state":"active","ping":59}]},{"server_id":21,"name":"Uncletopia | London | 5 | All Maps","name_short":"lon-5","host":"lon-1.uk.uncletopia.com","port":27055,"enabled":true,"region":"eu","cc":"gb","latitude":51.509865,"longitude":-0.118092,"reserved":0,"last_update":"0001-01-01T00:00:00Z","name_a2s":"Uncletopia | London | 5 | All Maps","protocol":17,"map":"pl_frontier_final","folder":"tf","game":"Team Fortress","app_id":440,"player_count":0,"max_players":24,"Bots":0,"server_type":"Dedicated","server_os":"Linux","password":true,"vac":true,"version":"7742253","steam_id":85568392924742829,"keywords":["nocrits","nodmgspread","payload","uncletopia"],"game_id":440,"stv_port":27056,"stv_name":"Uncletopia | London | 5 | All Maps | STV","players":null},{"server_id":22,"name":"Uncletopia | London | 6 | All Maps","name_short":"lon-6","host":"lon-1.uk.uncletopia.com","port":27065,"enabled":true,"region":"eu","cc":"gb","latitude":51.509865,"longitude":-0.118092,"reserved":0,"last_update":"0001-01-01T00:00:00Z","name_a2s":"Uncletopia | London | 6 | All Maps","protocol":17,"map":"pl_borneo","folder":"tf","game":"Team Fortress","app_id":440,"player_count":0,"max_players":24,"Bots":0,"server_type":"Dedicated","server_os":"Linux","password":true,"vac":true,"version":"7742253","steam_id":85568392924742830,"keywords":["nocrits","nodmgspread","payload","uncletopia"],"game_id":440,"stv_port":27066,"stv_name":"Uncletopia | London | 6 | All Maps | STV","players":null},{"server_id":40,"name":"Uncletopia | London | 7 | No Payload","name_short":"lon-7","host":"lon-1.uk.uncletopia.com","port":27075,"enabled":true,"region":"eu","cc":"gb","latitude":51.509865,"longitude":-0.118092,"reserved":0,"last_update":"0001-01-01T00:00:00Z","name_a2s":"Uncletopia | London | 7 | No Payload","protocol":17,"map":"koth_viaduct","folder":"tf","game":"Team Fortress","app_id":440,"player_count":0,"max_players":24,"Bots":0,"server_type":"Dedicated","server_os":"Linux","password":true,"vac":true,"version":"7742253","steam_id":85568392924964314,"keywords":["cp","nocrits","nodmgspread","uncletopia"],"game_id":440,"stv_port":27076,"stv_name":"Uncletopia | London | 7 | No Payload | STV","players":null},{"server_id":41,"name":"Uncletopia | London | 8 | Community","name_short":"lon-8","host":"lon-1.uk.uncletopia.com","port":27085,"enabled":true,"region":"eu","cc":"gb","latitude":51.509865,"longitude":-0.118092,"reserved":0,"last_update":"0001-01-01T00:00:00Z","name_a2s":"Uncletopia | London | 8 | Community","protocol":17,"map":"cp_altitude","folder":"tf","game":"Team Fortress","app_id":440,"player_count":0,"max_players":24,"Bots":0,"server_type":"Dedicated","server_os":"Linux","password":true,"vac":true,"version":"7742253","steam_id":85568392924964315,"keywords":["cp","nocrits","nodmgspread","uncletopia"],"game_id":440,"stv_port":27086,"stv_name":"Uncletopia | London | 8 | Community | STV","players":null},{"server_id":300,"name":"Uncletopia | Montr√©al | 1 | All Maps","name_short":"mtl-1","host":"mtl-1.ca.uncletopia.com","port":27015,"enabled":true,"region":"us-east","cc":"ca","latitude":45.50889,"longitude":-73.56167,"reserved":0,"last_update":"0001-01-01T00:00:00Z","name_a2s":"Uncletopia | Montr√©al | 1 | All Maps","protocol":17,"map":"pl_swiftwater_final1","folder":"tf","game":"Team Fortress","app_id":440,"player_count":0,"max_players":24,"Bots":0,"server_type":"Dedicated","server_os":"Linux","password":true,"vac":true,"version":"7742253","steam_id":85568392924500087,"keywords":["nocrits","nodmgspread","payload","uncletopia"],"game_id":440,"stv_port":27016,"stv_name":"Uncletopia | Montr√©al | 1 | All Maps | STV","players":null},{"server_id":301,"name":"Uncletopia | Montr√©al | 2 | All Maps","name_short":"mtl-2","host":"mtl-1.ca.uncletopia.com","port":27025,"enabled":true,"region":"us-east","cc":"ca","latitude":45.50889,"longitude":-73.56167,"reserved":0,"last_update":"0001-01-01T00:00:00Z","name_a2s":"Uncletopia | Montr√©al | 2 | All Maps","protocol":17,"map":"koth_highpass","folder":"tf","game":"Team Fortress","app_id":440,"player_count":0,"max_players":24,"Bots":0,"server_type":"Dedicated","server_os":"Linux","password":true,"vac":true,"version":"7742253","steam_id":85568392924500088,"keywords":["cp","nocrits","nodmgspread","uncletopia"],"game_id":440,"stv_port":27026,"stv_name":"Uncletopia | Montr√©al | 2 | All Maps | STV","players":null},{"server_id":302,"name":"Uncletopia | Montr√©al | 3 | All Maps","name_short":"mtl-3","host":"mtl-1.ca.uncletopia.com","port":27035,"enabled":true,"region":"us-east","cc":"ca","latitude":45.50889,"longitude":-73.56167,"reserved":0,"last_update":"0001-01-01T00:00:00Z","name_a2s":"Uncletopia | Montr√©al | 3 | All Maps","protocol":17,"map":"cp_mountainlab","folder":"tf","game":"Team Fortress","app_id":440,"player_count":0,"max_players":24,"Bots":0,"server_type":"Dedicated","server_os":"Linux","password":true,"vac":true,"version":"7742253","steam_id":85568392924500089,"keywords":["cp","nocrits","nodmgspread","uncletopia"],"game_id":440,"stv_port":27036,"stv_name":"Uncletopia | Montr√©al | 3 | All Maps | STV","players":null},{"server_id":303,"name":"Uncletopia | Montr√©al | 4 | No Payload","name_short":"mtl-4","host":"mtl-1.ca.uncletopia.com","port":27045,"enabled":true,"region":"us-east","cc":"ca","latitude":45.50889,"longitude":-73.56167,"reserved":0,"last_update":"0001-01-01T00:00:00Z","name_a2s":"Uncletopia | Montr√©al | 4 | No Payload","protocol":17,"map":"cp_snakewater_final1","folder":"tf","game":"Team Fortress","app_id":440,"player_count":0,"max_players":24,"Bots":0,"server_type":"Dedicated","server_os":"Linux","password":true,"vac":true,"version":"7742253","steam_id":85568392924500090,"keywords":["cp","nocrits","nodmgspread","uncletopia"],"game_id":440,"stv_port":27046,"stv_name":"Uncletopia | Montr√©al | 4 | No Payload | STV","players":null},{"server_id":13,"name":"Uncletopia | New York City | 1 | All Maps","name_short":"nyc-1","host":"nyc-1.us.uncletopia.com","port":27015,"enabled":true,"region":"us-east","cc":"us","latitude":40.73061,"longitude":-73.93524,"reserved":0,"last_update":"0001-01-01T00:00:00Z","name_a2s":"Uncletopia | New York City | 1 | All Maps","protocol":17,"map":"pl_upward","folder":"tf","game":"Team Fortress","app_id":440,"player_count":21,"max_players":24,"Bots":0,"server_type":"Dedicated","server_os":"Linux","password":true,"vac":true,"version":"7742253","steam_id":85568392924469993,"keywords":["nocrits","nodmgspread","payload","uncletopia"],"game_id":440,"stv_port":27016,"stv_name":"Uncletopia | New York City | 1 | All Maps | STV","players":[{"user_id":90,"name":"DO NOT call me BART SIMPSON!!","steam_id":76561198069113375,"connected_time":3612000000000,"state":"active","ping":59},{"user_id":128,"name":"aabbyyss","steam_id":76561198108685037,"connected_time":400000000000,"state":"active","ping":86},{"user_id":65,"name":"Fluffeline","steam_id":76561198352909489,"connected_time":5362000000000,"state":"active","ping":140},{"user_id":135,"name":"kramer","steam_id":76561198117761965,"connected_time":120000000000,"state":"active","ping":50},{"user_id":137,"name":"dzcreeper","steam_id":76561198072250723,"connected_time":63000000000,"state":"active","ping":102},{"user_id":131,"name":"monsterkill4567","steam_id":76561198272986367,"connected_time":363000000000,"state":"active","ping":109},{"user_id":136,"name":"rE_d0","steam_id":76561198975450630,"connected_time":112000000000,"state":"active","ping":110},{"user_id":107,"name":"Garbage","steam_id":76561198286796934,"connected_time":2592000000000,"state":"active","ping":49},{"user_id":108,"name":"ndvr","steam_id":76561199379200102,"connected_time":2426000000000,"state":"active","ping":46},{"user_id":112,"name":"ArwanWesley","steam_id":76561198058860087,"connected_time":2259000000000,"state":"active","ping":60},{"user_id":113,"name":"Bruce Leeroy","steam_id":76561198010708247,"connected_time":2215000000000,"state":"active","ping":66},{"user_id":120,"name":"Len","steam_id":76561199141913673,"connected_time":1866000000000,"state":"active","ping":96},{"user_id":138,"name":"B. Aware","steam_id":76561198859957747,"connected_time":55000000000,"state":"active","ping":56},{"user_id":139,"name":"chachi but high","steam_id":76561199045511890,"connected_time":11000000000,"state":"spawning","ping":59},{"user_id":123,"name":"the deadliest pyroshark","steam_id":76561198374227766,"connected_time":1471000000000,"state":"active","ping":54},{"user_id":140,"name":"sleepy","steam_id":76561198450003554,"connected_time":4000000000,"state":"spawning","ping":72},{"user_id":126,"name":"honk","steam_id":76561198050398028,"connected_time":1017000000000,"state":"active","ping":80},{"user_id":127,"name":"shephard","steam_id":76561198043367011,"connected_time":470000000000,"state":"active","ping":70},{"user_id":87,"name":"Bee_Pirate","steam_id":76561199000599111,"connected_time":3708000000000,"state":"active","ping":60},{"user_id":62,"name":"ctap2lean","steam_id":76561198068538473,"connected_time":5726000000000,"state":"active","ping":91},{"user_id":105,"name":"jingle shitmouth","steam_id":76561198055109192,"connected_time":2727000000000,"state":"active","ping":85}]},{"server_id":14,"name":"Uncletopia | New York City | 2 | All Maps","name_short":"nyc-2","host":"nyc-1.us.uncletopia.com","port":27025,"enabled":true,"region":"us-east","cc":"us","latitude":40.73061,"longitude":-73.93524,"reserved":0,"last_update":"0001-01-01T00:00:00Z","name_a2s":"Uncletopia | New York City | 2 | All Maps","protocol":17,"map":"pl_borneo","folder":"tf","game":"Team Fortress","app_id":440,"player_count":24,"max_players":24,"Bots":0,"server_type":"Dedicated","server_os":"Linux","password":true,"vac":true,"version":"7742253","steam_id":85568392924469994,"keywords":["nocrits","nodmgspread","payload","uncletopia"],"game_id":440,"stv_port":27026,"stv_name":"Uncletopia | New York City | 2 | All Maps | STV","players":[{"user_id":82,"name":"‚Ñ±","steam_id":76561198122735973,"connected_time":2666000000000,"state":"active","ping":51},{"user_id":81,"name":"Vaude","steam_id":76561198369187511,"connected_time":3021000000000,"state":"active","ping":49},{"user_id":83,"name":"[IA]Schr√∂dingersCat","steam_id":76561197995313389,"connected_time":2464000000000,"state":"active","ping":82},{"user_id":105,"name":"Room","steam_id":76561199174579733,"connected_time":453000000000,"state":"active","ping":55},{"user_id":89,"name":"Rat","steam_id":76561198138555648,"connected_time":1381000000000,"state":"active","ping":49},{"user_id":91,"name":"bobdragon27","steam_id":76561198065833387,"connected_time":1225000000000,"state":"active","ping":45},{"user_id":87,"name":"Mak","steam_id":76561198089197922,"connected_time":1640000000000,"state":"active","ping":120},{"user_id":79,"name":"Bashirider","steam_id":76561198260522253,"connected_time":3809000000000,"state":"active","ping":48},{"user_id":90,"name":"Snazzi","steam_id":76561198085208276,"connected_time":1248000000000,"state":"active","ping":76},{"user_id":92,"name":"febfowl","steam_id":76561198023888890,"connected_time":1210000000000,"state":"active","ping":77},{"user_id":93,"name":"3Phase","steam_id":76561197995053989,"connected_time":1204000000000,"state":"active","ping":68},{"user_id":65,"name":"Lumpy","steam_id":76561198058840585,"connected_time":5136000000000,"state":"active","ping":61},{"user_id":95,"name":"A Puppy","steam_id":76561198828184456,"connected_time":1115000000000,"state":"active","ping":48},{"user_id":98,"name":"OneFestiveCorvid","steam_id":76561199012953221,"connected_time":954000000000,"state":"active","ping":97},{"user_id":106,"name":"Tockbird","steam_id":76561199437964594,"connected_time":450000000000,"state":"active","ping":113},{"user_id":97,"name":"Heavyweapons","steam_id":76561198180706950,"connected_time":1074000000000,"state":"active","ping":74},{"user_id":99,"name":"Decot","steam_id":76561198042016967,"connected_time":912000000000,"state":"active","ping":60},{"user_id":100,"name":"craftycrafterwastaken","steam_id":76561199217624073,"connected_time":808000000000,"state":"active","ping":127},{"user_id":101,"name":"Hameas","steam_id":76561198195620918,"connected_time":781000000000,"state":"active","ping":145},{"user_id":102,"name":"u/unhinged_person","steam_id":76561198085839920,"connected_time":752000000000,"state":"active","ping":80},{"user_id":60,"name":"comet sooicidy","steam_id":76561198025173479,"connected_time":5308000000000,"state":"active","ping":79},{"user_id":54,"name":"DoodrunDoesThings","steam_id":76561198002103683,"connected_time":5448000000000,"state":"active","ping":58},{"user_id":108,"name":"Hades","steam_id":76561198134108183,"connected_time":406000000000,"state":"active","ping":69},{"user_id":104,"name":"Javaris Jamar Javarison-Lamar","steam_id":76561198146951387,"connected_time":670000000000,"state":"active","ping":60}]},{"server_id":15,"name":"Uncletopia | New York City | 3 | Stopwatch Beta","name_short":"nyc-3","host":"nyc-1.us.uncletopia.com","port":27035,"enabled":true,"region":"us-east","cc":"us","latitude":40.73061,"longitude":-73.93524,"reserved":0,"last_update":"0001-01-01T00:00:00Z","name_a2s":"Uncletopia | New York City | 3 | Stopwatch Beta","protocol":17,"map":"pl_pier","folder":"tf","game":"Team Fortress","app_id":440,"player_count":0,"max_players":24,"Bots":0,"server_type":"Dedicated","server_os":"Linux","password":true,"vac":true,"version":"7742253","steam_id":85568392924742820,"keywords":["nocrits","nodmgspread","payload","uncletopia"],"game_id":440,"stv_port":27036,"stv_name":"Uncletopia | New York City | 3 | Stopwatch Beta | STV","players":null},{"server_id":16,"name":"Uncletopia | New York City | 4 | Community","name_short":"nyc-4","host":"nyc-1.us.uncletopia.com","port":27045,"enabled":true,"region":"us-east","cc":"us","latitude":40.73061,"longitude":-73.93524,"reserved":0,"last_update":"0001-01-01T00:00:00Z","name_a2s":"Uncletopia | New York City | 4 | Community","protocol":17,"map":"koth_viaduct","folder":"tf","game":"Team Fortress","app_id":440,"player_count":0,"max_players":24,"Bots":0,"server_type":"Dedicated","server_os":"Linux","password":true,"vac":true,"version":"7742253","steam_id":85568392924742821,"keywords":["cp","nocrits","nodmgspread","uncletopia"],"game_id":440,"stv_port":27046,"stv_name":"Uncletopia | New York City | 4 | Community | STV","players":null},{"server_id":142,"name":"Uncletopia | S√£o Paulo | 1 | All Maps","name_short":"sao-1","host":"sao-1.br.uncletopia.com","port":27015,"enabled":true,"region":"sa","cc":"br","latitude":-23.533773,"longitude":-46.62529,"reserved":0,"last_update":"0001-01-01T00:00:00Z","name_a2s":"Uncletopia | S√£o Paulo | 1 | All Maps","protocol":17,"map":"koth_viaduct","folder":"tf","game":"Team Fortress","app_id":440,"player_count":0,"max_players":24,"Bots":0,"server_type":"Dedicated","server_os":"Linux","password":true,"vac":true,"version":"7742253","steam_id":85568392924469996,"keywords":["cp","nocrits","nodmgspread","uncletopia"],"game_id":440,"stv_port":27016,"stv_name":"Uncletopia | S√£o Paulo | 1 | All Maps | STV","players":null},{"server_id":143,"name":"Uncletopia | S√£o Paulo | 2 | All Maps","name_short":"sao-2","host":"sao-2.br.uncletopia.com","port":27015,"enabled":true,"region":"sa","cc":"br","latitude":-23.533773,"longitude":-46.62529,"reserved":0,"last_update":"0001-01-01T00:00:00Z","name_a2s":"Uncletopia | S√£o Paulo | 2 | All Maps","protocol":17,"map":"koth_viaduct","folder":"tf","game":"Team Fortress","app_id":440,"player_count":0,"max_players":24,"Bots":0,"server_type":"Dedicated","server_os":"Linux","password":true,"vac":true,"version":"7742253","steam_id":85568392924485349,"keywords":["cp","nocrits","nodmgspread","uncletopia"],"game_id":440,"stv_port":27016,"stv_name":"Uncletopia | S√£o Paulo | 2 | All Maps | STV","players":null},{"server_id":7,"name":"Uncletopia | Seattle | 1 | All Maps","name_short":"sea-1","host":"sea-1.us.uncletopia.com","port":27015,"enabled":true,"region":"us-west","cc":"us","latitude":47.608013,"longitude":-122.33517,"reserved":0,"last_update":"0001-01-01T00:00:00Z","name_a2s":"Uncletopia | Seattle | 1 | All Maps","protocol":17,"map":"pl_pier","folder":"tf","game":"Team Fortress","app_id":440,"player_count":24,"max_players":24,"Bots":0,"server_type":"Dedicated","server_os":"Linux","password":true,"vac":true,"version":"7742253","steam_id":85568392924469997,"keywords":["nocrits","nodmgspread","payload","uncletopia"],"game_id":440,"stv_port":27016,"stv_name":"Uncletopia | Seattle | 1 | All Maps | STV","players":[{"user_id":102,"name":"Kirbothebrony","steam_id":76561198971911330,"connected_time":1192000000000,"state":"active","ping":116},{"user_id":107,"name":"geometrically insensitive","steam_id":76561198038142791,"connected_time":463000000000,"state":"active","ping":55},{"user_id":84,"name":"ed","steam_id":76561198080475712,"connected_time":3137000000000,"state":"active","ping":69},{"user_id":101,"name":"Grill Skills","steam_id":76561198053575147,"connected_time":1210000000000,"state":"active","ping":64},{"user_id":77,"name":"cyra","steam_id":76561198025454291,"connected_time":3743000000000,"state":"active","ping":35},{"user_id":42,"name":"Arsonist Goose","steam_id":76561198147441830,"connected_time":7017000000000,"state":"active","ping":72},{"user_id":9,"name":"Mignyanne :3","steam_id":76561198048754056,"connected_time":8620000000000,"state":"active","ping":67},{"user_id":60,"name":"fadedthanaho","steam_id":76561198131166135,"connected_time":5315000000000,"state":"active","ping":41},{"user_id":80,"name":"Amadeus","steam_id":76561198160047173,"connected_time":3671000000000,"state":"active","ping":38},{"user_id":20,"name":"Aardappel","steam_id":76561198030894676,"connected_time":8602000000000,"state":"active","ping":66},{"user_id":98,"name":"An Old Lady","steam_id":76561198047480318,"connected_time":1223000000000,"state":"active","ping":69},{"user_id":108,"name":"suspiciouslyBee","steam_id":76561198165933984,"connected_time":290000000000,"state":"active","ping":45},{"user_id":100,"name":"alaska thunderfuck","steam_id":76561198017030029,"connected_time":1222000000000,"state":"active","ping":71},{"user_id":106,"name":"Erk-Kirk","steam_id":76561198288954914,"connected_time":793000000000,"state":"active","ping":92},{"user_id":109,"name":"The King of Piss World","steam_id":76561198082806956,"connected_time":274000000000,"state":"active","ping":115},{"user_id":83,"name":"Savant","steam_id":76561197969881916,"connected_time":3303000000000,"state":"active","ping":62},{"user_id":93,"name":"profile name","steam_id":76561198032625036,"connected_time":2530000000000,"state":"active","ping":62},{"user_id":47,"name":"mooney","steam_id":76561199110622484,"connected_time":6821000000000,"state":"active","ping":63},{"user_id":92,"name":"KingToaster","steam_id":76561198007903802,"connected_time":2637000000000,"state":"active","ping":43},{"user_id":24,"name":"Loo7 goonin'Ca$hual","steam_id":76561198011675372,"connected_time":8596000000000,"state":"active","ping":63},{"user_id":96,"name":"loco503","steam_id":76561198827495121,"connected_time":1986000000000,"state":"active","ping":82},{"user_id":74,"name":"Idontknow","steam_id":76561199207044048,"connected_time":4055000000000,"state":"active","ping":46},{"user_id":76,"name":"bbbbb","steam_id":76561198095480838,"connected_time":3771000000000,"state":"active","ping":45},{"user_id":97,"name":"shane","steam_id":76561198060491451,"connected_time":1984000000000,"state":"active","ping":107}]},{"server_id":119,"name":"Uncletopia | Seattle | 2 | All Maps","name_short":"sea-2","host":"sea-1.us.uncletopia.com","port":27025,"enabled":true,"region":"us-west","cc":"us","latitude":47.608013,"longitude":-122.33517,"reserved":0,"last_update":"0001-01-01T00:00:00Z","name_a2s":"Uncletopia | Seattle | 2 | All Maps","protocol":17,"map":"pl_frontier_final","folder":"tf","game":"Team Fortress","app_id":440,"player_count":24,"max_players":24,"Bots":0,"server_type":"Dedicated","server_os":"Linux","password":true,"vac":true,"version":"7742253","steam_id":85568392924469998,"keywords":["nocrits","nodmgspread","payload","uncletopia"],"game_id":440,"stv_port":27026,"stv_name":"Uncletopia | Seattle | 2 | All Maps | STV","players":[{"user_id":3,"name":"ORANGE","steam_id":76561198000401769,"connected_time":8599000000000,"state":"active","ping":57},{"user_id":83,"name":"Keth (No i)","steam_id":76561198155903648,"connected_time":1844000000000,"state":"active","ping":55},{"user_id":5,"name":"strong and healthy gamer","steam_id":76561198049489349,"connected_time":8596000000000,"state":"active","ping":59},{"user_id":82,"name":"freya!","steam_id":76561198966232220,"connected_time":2469000000000,"state":"active","ping":60},{"user_id":7,"name":"General Fisticuffs","steam_id":76561198255721392,"connected_time":8594000000000,"state":"active","ping":108},{"user_id":8,"name":"KingTinkerer","steam_id":76561198226856548,"connected_time":8580000000000,"state":"active","ping":64},{"user_id":9,"name":"chlo√©","steam_id":76561198858926895,"connected_time":8572000000000,"state":"active","ping":38},{"user_id":87,"name":"Salty.Sam","steam_id":76561198030933901,"connected_time":1762000000000,"state":"active","ping":102},{"user_id":93,"name":"notkadenk (ricky mode)","steam_id":76561198837454396,"connected_time":1069000000000,"state":"active","ping":43},{"user_id":71,"name":"mumbles","steam_id":76561197994528974,"connected_time":3935000000000,"state":"active","ping":77},{"user_id":75,"name":"mean penguin","steam_id":76561198174751517,"connected_time":3063000000000,"state":"active","ping":83},{"user_id":91,"name":"Smeagolhoss","steam_id":76561198361514063,"connected_time":1552000000000,"state":"active","ping":89},{"user_id":76,"name":"butt3r_","steam_id":76561198156374792,"connected_time":3018000000000,"state":"active","ping":47},{"user_id":77,"name":"mynameisatif1","steam_id":76561199062993493,"connected_time":2991000000000,"state":"active","ping":40},{"user_id":89,"name":"Nolan","steam_id":76561198169648081,"connected_time":1724000000000,"state":"active","ping":97},{"user_id":79,"name":"whatzhisface","steam_id":76561198127891646,"connected_time":2915000000000,"state":"active","ping":97},{"user_id":57,"name":"grey","steam_id":76561198050618142,"connected_time":5461000000000,"state":"active","ping":48},{"user_id":52,"name":"zoiboi","steam_id":76561198069598590,"connected_time":6010000000000,"state":"active","ping":79},{"user_id":24,"name":"sara","steam_id":76561198283462369,"connected_time":8460000000000,"state":"active","ping":86},{"user_id":85,"name":"Strange","steam_id":76561198310853086,"connected_time":1837000000000,"state":"active","ping":103},{"user_id":58,"name":"smollafell","steam_id":76561198061229113,"connected_time":5443000000000,"state":"active","ping":58},{"user_id":86,"name":"Robotguy9","steam_id":76561198147429617,"connected_time":1797000000000,"state":"active","ping":57},{"user_id":90,"name":"mohamy_19","steam_id":76561198075833698,"connected_time":1719000000000,"state":"active","ping":72},{"user_id":70,"name":"lili.winters","steam_id":76561199391478575,"connected_time":4556000000000,"state":"active","ping":68}]},{"server_id":406,"name":"Uncletopia | Seattle | 3 | Stopwatch Beta","name_short":"sea-3","host":"sea-1.us.uncletopia.com","port":27035,"enabled":true,"region":"us-west","cc":"us","latitude":47.608013,"longitude":-122.33517,"reserved":0,"last_update":"0001-01-01T00:00:00Z","name_a2s":"Uncletopia | Seattle | 3 | Stopwatch Beta","protocol":17,"map":"cp_granary","folder":"tf","game":"Team Fortress","app_id":440,"player_count":6,"max_players":24,"Bots":0,"server_type":"Dedicated","server_os":"Linux","password":true,"vac":true,"version":"7742253","steam_id":85568392924515217,"keywords":["cp","nocrits","nodmgspread","uncletopia"],"game_id":440,"stv_port":27036,"stv_name":"Uncletopia | Seattle | 3 | Stopwatch Beta | STV","players":[{"user_id":61,"name":"Lichy","steam_id":76561198310682841,"connected_time":428000000000,"state":"active","ping":96},{"user_id":65,"name":"NotTrunkMaster","steam_id":76561199465906631,"connected_time":109000000000,"state":"spawning","ping":2291},{"user_id":62,"name":"Surly Joe","steam_id":76561199150833796,"connected_time":410000000000,"state":"active","ping":108},{"user_id":56,"name":"mango cafe","steam_id":76561198142328193,"connected_time":900000000000,"state":"active","ping":42},{"user_id":57,"name":"Checkmate","steam_id":76561199071968894,"connected_time":848000000000,"state":"active","ping":44},{"user_id":35,"name":"Thequirka","steam_id":76561198968058652,"connected_time":2688000000000,"state":"active","ping":46}]},{"server_id":17,"name":"Uncletopia | San Francisco | 1 | All Maps","name_short":"sfo-1","host":"sfo-1.us.uncletopia.com","port":27015,"enabled":true,"region":"us-west","cc":"us","latitude":37.77397,"longitude":-122.4313,"reserved":0,"last_update":"0001-01-01T00:00:00Z","name_a2s":"Uncletopia | San Francisco | 1 | All Maps","protocol":17,"map":"cp_altitude","folder":"tf","game":"Team Fortress","app_id":440,"player_count":0,"max_players":24,"Bots":0,"server_type":"Dedicated","server_os":"Linux","password":true,"vac":true,"version":"7742253","steam_id":85568392924469999,"keywords":["cp","nocrits","nodmgspread","uncletopia"],"game_id":440,"stv_port":27016,"stv_name":"Uncletopia | San Francisco | 1 | All Maps | STV","players":null},{"server_id":18,"name":"Uncletopia | San Francisco | 2 | All Maps","name_short":"sfo-2","host":"sfo-1.us.uncletopia.com","port":27025,"enabled":true,"region":"us-west","cc":"us","latitude":37.77397,"longitude":-122.4313,"reserved":0,"last_update":"0001-01-01T00:00:00Z","name_a2s":"Uncletopia | San Francisco | 2 | All Maps","protocol":17,"map":"cp_altitude","folder":"tf","game":"Team Fortress","app_id":440,"player_count":0,"max_players":24,"Bots":0,"server_type":"Dedicated","server_os":"Linux","password":true,"vac":true,"version":"7742253","steam_id":85568392924470000,"keywords":["cp","nocrits","nodmgspread","uncletopia"],"game_id":440,"stv_port":27026,"stv_name":"Uncletopia | San Francisco | 2 | All Maps | STV","players":null},{"server_id":19,"name":"Uncletopia | San Francisco | 3 | Stopwatch Beta","name_short":"sfo-3","host":"sfo-1.us.uncletopia.com","port":27035,"enabled":true,"region":"us-west","cc":"us","latitude":37.77397,"longitude":-122.4313,"reserved":0,"last_update":"0001-01-01T00:00:00Z","name_a2s":"Uncletopia | San Francisco | 3 | Stopwatch Beta","protocol":17,"map":"cp_snakewater_final1","folder":"tf","game":"Team Fortress","app_id":440,"player_count":0,"max_players":24,"Bots":0,"server_type":"Dedicated","server_os":"Linux","password":true,"vac":true,"version":"7742253","steam_id":85568392924742824,"keywords":["cp","nocrits","nodmgspread","uncletopia"],"game_id":440,"stv_port":27036,"stv_name":"Uncletopia | San Francisco | 3 | Stopwatch Beta | STV","players":null},{"server_id":20,"name":"Uncletopia | San Francisco | 4 | Community","name_short":"sfo-4","host":"sfo-1.us.uncletopia.com","port":27045,"enabled":true,"region":"us-west","cc":"us","latitude":37.77397,"longitude":-122.4313,"reserved":0,"last_update":"0001-01-01T00:00:00Z","name_a2s":"Uncletopia | San Francisco | 4 | Community","protocol":17,"map":"cp_dustbowl","folder":"tf","game":"Team Fortress","app_id":440,"player_count":0,"max_players":24,"Bots":0,"server_type":"Dedicated","server_os":"Linux","password":true,"vac":true,"version":"7742253","steam_id":85568392924742826,"keywords":["cp","nocrits","nodmgspread","uncletopia"],"game_id":440,"stv_port":27046,"stv_name":"Uncletopia | San Francisco | 4 | Community | STV","players":null},{"server_id":141,"name":"Uncletopia | Sydney | 1 | All Maps","name_short":"syd-1","host":"syd-1.au.uncletopia.com","port":27015,"enabled":true,"region":"au","cc":"au","latitude":-33.865143,"longitude":151.2099,"reserved":0,"last_update":"0001-01-01T00:00:00Z","name_a2s":"Uncletopia | Sydney | 1 | All Maps","protocol":17,"map":"koth_highpass","folder":"tf","game":"Team Fortress","app_id":440,"player_count":23,"max_players":24,"Bots":0,"server_type":"Dedicated","server_os":"Linux","password":true,"vac":true,"version":"7742253","steam_id":85568392924470001,"keywords":["cp","nocrits","nodmgspread","uncletopia"],"game_id":440,"stv_port":27016,"stv_name":"Uncletopia | Sydney | 1 | All Maps | STV","players":[{"user_id":99,"name":"MilkMan69","steam_id":76561199194708108,"connected_time":420000000000,"state":"active","ping":63},{"user_id":73,"name":"Rant","steam_id":76561198949751771,"connected_time":1227000000000,"state":"active","ping":30},{"user_id":103,"name":"Diavolo Diablo","steam_id":76561198166295333,"connected_time":37000000000,"state":"active","ping":165},{"user_id":98,"name":"KillerBlow","steam_id":76561198930232832,"connected_time":445000000000,"state":"active","ping":75},{"user_id":83,"name":"lofty","steam_id":76561198380588357,"connected_time":828000000000,"state":"active","ping":95},{"user_id":66,"name":"Milkshake","steam_id":76561198058966015,"connected_time":1389000000000,"state":"active","ping":98},{"user_id":91,"name":"Bubbles","steam_id":76561197998937425,"connected_time":605000000000,"state":"active","ping":96},{"user_id":85,"name":"Bolzen","steam_id":76561198046093482,"connected_time":770000000000,"state":"active","ping":76},{"user_id":102,"name":"Frog Friend","steam_id":76561198054505772,"connected_time":128000000000,"state":"active","ping":63},{"user_id":36,"name":"bogan on a fence","steam_id":76561198052032702,"connected_time":2820000000000,"state":"active","ping":50},{"user_id":37,"name":"Bagetty","steam_id":76561198325088668,"connected_time":2784000000000,"state":"active","ping":55},{"user_id":62,"name":"Ms. Origami","steam_id":76561198330338645,"connected_time":1668000000000,"state":"active","ping":70},{"user_id":67,"name":"Billydog","steam_id":76561198060111437,"connected_time":1386000000000,"state":"active","ping":93},{"user_id":68,"name":"Sherpa","steam_id":76561198018913829,"connected_time":1342000000000,"state":"active","ping":55},{"user_id":69,"name":"beet","steam_id":76561198097873940,"connected_time":1341000000000,"state":"active","ping":54},{"user_id":92,"name":"Turb Durgler","steam_id":76561198055358448,"connected_time":599000000000,"state":"active","ping":73},{"user_id":101,"name":"random.","steam_id":76561198848689967,"connected_time":258000000000,"state":"active","ping":43},{"user_id":72,"name":"‚Ç±elica‚Ç¶","steam_id":76561198123827973,"connected_time":1246000000000,"state":"active","ping":90},{"user_id":93,"name":"Mr.Deathclaw","steam_id":76561198025419320,"connected_time":583000000000,"state":"active","ping":47},{"user_id":94,"name":"i have aids","steam_id":76561198061201028,"connected_time":571000000000,"state":"active","ping":47},{"user_id":84,"name":"NewChris","steam_id":76561198254754182,"connected_time":818000000000,"state":"active","ping":76},{"user_id":86,"name":"Breakfast","steam_id":76561197971620881,"connected_time":729000000000,"state":"active","ping":55},{"user_id":95,"name":"wombraider","steam_id":76561199375834537,"connected_time":566000000000,"state":"active","ping":127}]},{"server_id":123,"name":"Uncletopia | Sydney | 2 | All Maps","name_short":"syd-2","host":"syd-1.au.uncletopia.com","port":27025,"enabled":true,"region":"au","cc":"au","latitude":-33.865143,"longitude":151.2099,"reserved":0,"last_update":"0001-01-01T00:00:00Z","name_a2s":"Uncletopia | Sydney | 2 | All Maps","protocol":17,"map":"ctf_2fort","folder":"tf","game":"Team Fortress","app_id":440,"player_count":0,"max_players":24,"Bots":0,"server_type":"Dedicated","server_os":"Linux","password":true,"vac":true,"version":"7742253","steam_id":85568392924470002,"keywords":["ctf","nocrits","nodmgspread","uncletopia"],"game_id":440,"stv_port":27026,"stv_name":"Uncletopia | Sydney | 2 | All Maps | STV","players":null},{"server_id":395,"name":"Uncletopia | Sydney | 3 | All Maps","name_short":"syd-3","host":"syd-1.au.uncletopia.com","port":27035,"enabled":true,"region":"au","cc":"au","latitude":-33.865143,"longitude":151.2099,"reserved":0,"last_update":"0001-01-01T00:00:00Z","name_a2s":"Uncletopia | Sydney | 3 | All Maps","protocol":17,"map":"ctf_2fort","folder":"tf","game":"Team Fortress","app_id":440,"player_count":0,"max_players":24,"Bots":0,"server_type":"Dedicated","server_os":"Linux","password":true,"vac":true,"version":"7742253","steam_id":85568392925194467,"keywords":["ctf","nocrits","nodmgspread","uncletopia"],"game_id":440,"stv_port":27036,"stv_name":"Uncletopia | Sydney | 3 | All Maps | STV","players":null},{"server_id":396,"name":"Uncletopia | Sydney | 4 | All Maps","name_short":"syd-4","host":"syd-1.au.uncletopia.com","port":27045,"enabled":true,"region":"au","cc":"au","latitude":-33.865143,"longitude":151.2099,"reserved":0,"last_update":"0001-01-01T00:00:00Z","name_a2s":"Uncletopia | Sydney | 4 | All Maps","protocol":17,"map":"ctf_2fort","folder":"tf","game":"Team Fortress","app_id":440,"player_count":0,"max_players":24,"Bots":0,"server_type":"Dedicated","server_os":"Linux","password":true,"vac":true,"version":"7742253","steam_id":85568392925397958,"keywords":["ctf","nocrits","nodmgspread","uncletopia"],"game_id":440,"stv_port":27046,"stv_name":"Uncletopia | Sydney | 4 | All Maps | STV","players":null},{"server_id":58,"name":"Uncletopia | Sydney | 5 | Stopwatch Beta","name_short":"syd-5","host":"syd-1.au.uncletopia.com","port":27055,"enabled":true,"region":"au","cc":"au","latitude":-33.865143,"longitude":151.2099,"reserved":0,"last_update":"0001-01-01T00:00:00Z","name_a2s":"Uncletopia | Sydney | 5 | Stopwatch Beta","protocol":17,"map":"workshop/koth_bagel_rc5.ugc2514036946","folder":"tf","game":"Team Fortress","app_id":440,"player_count":0,"max_players":24,"Bots":0,"server_type":"Dedicated","server_os":"Linux","password":true,"vac":true,"version":"7742253","steam_id":85568392925397959,"keywords":["cp","nocrits","nodmgspread","uncletopia"],"game_id":440,"stv_port":27056,"stv_name":"Uncletopia | Sydney | 5 | Stopwatch Beta | STV","players":null},{"server_id":59,"name":"Uncletopia | Sydney | 6 | Community","name_short":"syd-6","host":"syd-1.au.uncletopia.com","port":27065,"enabled":true,"region":"au","cc":"au","latitude":-33.865143,"longitude":151.2099,"reserved":0,"last_update":"0001-01-01T00:00:00Z","name_a2s":"Uncletopia | Sydney | 6 | Community","protocol":17,"map":"workshop/cp_caldera_rc2.ugc2834196889","folder":"tf","game":"Team Fortress","app_id":440,"player_count":0,"max_players":24,"Bots":0,"server_type":"Dedicated","server_os":"Linux","password":true,"vac":true,"version":"7742253","steam_id":85568392925397960,"keywords":["cp","nocrits","nodmgspread","uncletopia"],"game_id":440,"stv_port":27066,"stv_name":"Uncletopia | Sydney | 6 | Community | STV","players":null},{"server_id":49,"name":"Uncletopia | Warsaw | 1 | All Maps","name_short":"waw-1","host":"waw-1.pl.uncletopia.com","port":27015,"enabled":true,"region":"eu","cc":"pl","latitude":52.2297,"longitude":21.017532,"reserved":0,"last_update":"0001-01-01T00:00:00Z","name_a2s":"","protocol":0,"map":"","folder":"","game":"","app_id":0,"player_count":0,"max_players":0,"Bots":0,"server_type":"","server_os":"","password":false,"vac":false,"version":"","steam_id":0,"keywords":null,"game_id":0,"stv_port":0,"stv_name":"","players":null},{"server_id":50,"name":"Uncletopia | Warsaw | 2 | All Maps","name_short":"waw-2","host":"waw-1.pl.uncletopia.com","port":27025,"enabled":true,"region":"eu","cc":"pl","latitude":52.2297,"longitude":21.017532,"reserved":0,"last_update":"0001-01-01T00:00:00Z","name_a2s":"Uncletopia | Warsaw | 2 | All Maps","protocol":17,"map":"pl_borneo","folder":"tf","game":"Team Fortress","app_id":440,"player_count":0,"max_players":24,"Bots":0,"server_type":"Dedicated","server_os":"Linux","password":true,"vac":true,"version":"7742253","steam_id":85568392925397851,"keywords":["nocrits","nodmgspread","payload","uncletopia"],"game_id":440,"stv_port":27026,"stv_name":"Uncletopia | Warsaw | 2 | All Maps | STV","players":null},{"server_id":51,"name":"Uncletopia | Warsaw | 3 | All Maps","name_short":"waw-3","host":"waw-1.pl.uncletopia.com","port":27035,"enabled":true,"region":"eu","cc":"pl","latitude":52.2297,"longitude":21.017532,"reserved":0,"last_update":"0001-01-01T00:00:00Z","name_a2s":"Uncletopia | Warsaw | 3 | All Maps","protocol":17,"map":"koth_lakeside_final","folder":"tf","game":"Team Fortress","app_id":440,"player_count":0,"max_players":24,"Bots":0,"server_type":"Dedicated","server_os":"Linux","password":true,"vac":true,"version":"7742253","steam_id":85568392925397852,"keywords":["cp","nocrits","nodmgspread","uncletopia"],"game_id":440,"stv_port":27036,"stv_name":"Uncletopia | Warsaw | 3 | All Maps | STV","players":null},{"server_id":52,"name":"Uncletopia | Warsaw | 4 | All Maps","name_short":"waw-4","host":"waw-1.pl.uncletopia.com","port":27045,"enabled":true,"region":"eu","cc":"pl","latitude":52.2297,"longitude":21.017532,"reserved":0,"last_update":"0001-01-01T00:00:00Z","name_a2s":"Uncletopia | Warsaw | 4 | All Maps","protocol":17,"map":"pl_upward","folder":"tf","game":"Team Fortress","app_id":440,"player_count":0,"max_players":24,"Bots":0,"server_type":"Dedicated","server_os":"Linux","password":true,"vac":true,"version":"7742253","steam_id":85568392925397853,"keywords":["nocrits","nodmgspread","payload","uncletopia"],"game_id":440,"stv_port":27046,"stv_name":"Uncletopia | Warsaw | 4 | All Maps | STV","players":null},{"server_id":53,"name":"Uncletopia | Warsaw | 5 | Stopwatch Beta","name_short":"waw-5","host":"waw-1.pl.uncletopia.com","port":27055,"enabled":true,"region":"eu","cc":"pl","latitude":52.2297,"longitude":21.017532,"reserved":0,"last_update":"0001-01-01T00:00:00Z","name_a2s":"Uncletopia | Warsaw | 5 | Stopwatch Beta","protocol":17,"map":"pl_swiftwater_final1","folder":"tf","game":"Team Fortress","app_id":440,"player_count":0,"max_players":24,"Bots":0,"server_type":"Dedicated","server_os":"Linux","password":true,"vac":true,"version":"7742253","steam_id":85568392925397854,"keywords":["nocrits","nodmgspread","payload","uncletopia"],"game_id":440,"stv_port":27056,"stv_name":"Uncletopia | Warsaw | 5 | Stopwatch Beta | STV","players":null},{"server_id":54,"name":"Uncletopia | Warsaw | 6 | Community","name_short":"waw-6","host":"waw-1.pl.uncletopia.com","port":27065,"enabled":true,"region":"eu","cc":"pl","latitude":52.2297,"longitude":21.017532,"reserved":0,"last_update":"0001-01-01T00:00:00Z","name_a2s":"Uncletopia | Warsaw | 6 | Community","protocol":17,"map":"koth_highpass","folder":"tf","game":"Team Fortress","app_id":440,"player_count":0,"max_players":24,"Bots":0,"server_type":"Dedicated","server_os":"Linux","password":true,"vac":true,"version":"7742253","steam_id":85568392925397856,"keywords":["cp","nocrits","nodmgspread","uncletopia"],"game_id":440,"stv_port":27066,"stv_name":"Uncletopia | Warsaw | 6 | Community | STV","players":null}]}