{"status":true,"message":"","result":[{"server_id":9,"name":"Uncletopia | Atlanta | 1 | All Maps","name_short":"atl-1","host":"atl-1.us.uncletopia.com","port":27015,"enabled":true,"region":"us-east","cc":"us","latitude":33.753746,"longitude":-84.38633,"reserved":0,"last_update":"0001-01-01T00:00:00Z","name_a2s":"Uncletopia | Atlanta | 1 | All Maps","protocol":17,"map":"pl_frontier_final","folder":"tf","game":"Team Fortress","app_id":440,"player_count":24,"max_players":24,"Bots":0,"server_type":"Dedicated","server_os":"Linux","password":true,"vac":true,"version":"7757534","steam_id":85568392924469982,"keywords":["nocrits","nodmgspread","payload","uncletopia"],"game_id":440,"stv_port":27016,"stv_name":"Uncletopia | Atlanta | 1 | All Maps | STV","players":[{"user_id":775,"name":"Father Jon","steam_id":76561198324730919,"connected_time":1279000000000,"state":"active","ping":81},{"user_id":782,"name":"fancy chef","steam_id":76561198063417241,"connected_time":703000000000,"state":"active","ping":70},{"user_id":747,"name":"nomad","steam_id":76561197998740399,"connected_time":7243000000000,"state":"active","ping":67},{"user_id":783,"name":"Weirdiolio","steam_id":76561198071647163,"connected_time":686000000000,"state":"active","ping":60},{"user_id":762,"name":"[txc] milk","steam_id":76561198127457787,"connected_time":4211000000000,"state":"active","ping":75},{"user_id":744,"name":"eish","steam_id":76561198089463603,"connected_time":7291000000000,"state":"active","ping":120},{"user_id":756,"name":"DFR Le4n!!!","steam_id":76561198045522596,"connected_time":5848000000000,"state":"active","ping":80},{"user_id":766,"name":"Toonice","steam_id":76561198402994885,"connected_time":3604000000000,"state":"active","ping":84},{"user_id":754,"name":"ATL1 | Lylith!!!","steam_id":76561198386687546,"connected_time":6297000000000,"state":"active","ping":52},{"user_id":666,"name":"Moonglass Kaiju","steam_id":76561198043431819,"connected_time":15722000000000,"state":"active","ping":65},{"user_id":780,"name":"PackingPeanutt :)","steam_id":76561199053229413,"connected_time":840000000000,"state":"active","ping":88},{"user_id":779,"name":"G00D G00GLY M00GLY!!","steam_id":76561199177310566,"connected_time":1193000000000,"state":"active","ping":90},{"user_id":773,"name":"st","steam_id":76561198173047169,"connected_time":1341000000000,"state":"active","ping":66},{"user_id":774,"name":"p4ka","steam_id":76561198315291317,"connected_time":1329000000000,"state":"active","ping":81},{"user_id":768,"name":"[txc] garf","steam_id":76561198083078030,"connected_time":3273000000000,"state":"active","ping":51},{"user_id":759,"name":"General Mischief","steam_id":76561198163825955,"connected_time":4874000000000,"state":"active","ping":99},{"user_id":770,"name":"Zillers","steam_id":76561198095248744,"connected_time":1359000000000,"state":"active","ping":94},{"user_id":758,"name":"Sophie","steam_id":76561198170408057,"connected_time":4937000000000,"state":"active","ping":46},{"user_id":686,"name":"Sm0ky","steam_id":76561198418262145,"connected_time":13202000000000,"state":"active","ping":106},{"user_id":642,"name":"Nox(She/They)","steam_id":76561198141950842,"connected_time":18556000000000,"state":"active","ping":43},{"user_id":785,"name":"for the king","steam_id":76561197973488858,"connected_time":507000000000,"state":"active","ping":58},{"user_id":781,"name":"The_Stomach_Stone_Surgeon","steam_id":76561198044643725,"connected_time":837000000000,"state":"active","ping":119},{"user_id":694,"name":"Albino Jellyfish","steam_id":76561198208561097,"connected_time":12361000000000,"state":"active","ping":68},{"user_id":784,"name":"Jon Snuh","steam_id":76561198075298635,"connected_time":646000000000,"state":"active","ping":77}]},{"server_id":104,"name":"Uncletopia | Atlanta | 2 | All Maps","name_short":"atl-2","host":"atl-1.us.uncletopia.com","port":27025,"enabled":true,"region":"us-east","cc":"us","latitude":33.753746,"longitude":-84.38633,"reserved":0,"last_update":"0001-01-01T00:00:00Z","name_a2s":"Uncletopia | Atlanta | 2 | All Maps","protocol":17,"map":"pl_borneo","folder":"tf","game":"Team Fortress","app_id":440,"player_count":16,"max_players":24,"Bots":0,"server_type":"Dedicated","server_os":"Linux","password":true,"vac":true,"version":"7757534","steam_id":85568392924469983,"keywords":["nocrits","nodmgspread","payload","uncletopia"],"game_id":440,"stv_port":27026,"stv_name":"Uncletopia | Atlanta | 2 | All Maps | STV","players":[{"user_id":585,"name":"Aniz","steam_id":76561199226665024,"connected_time":5921000000000,"state":"spawning","ping":174},{"user_id":649,"name":"Victory Mann","steam_id":76561198121851970,"connected_time":231000000000,"state":"spawning","ping":182},{"user_id":636,"name":"Kunitari","steam_id":76561199291541761,"connected_time":1180000000000,"state":"active","ping":235},{"user_id":601,"name":"Dreamy Sweat from 2hu","steam_id":76561198094602446,"connected_time":3951000000000,"state":"active","ping":140},{"user_id":613,"name":"Megadesk","steam_id":76561198078219641,"connected_time":3320000000000,"state":"spawning","ping":73},{"user_id":637,"name":"PaciFiik‚Ñ¢","steam_id":76561198113368993,"connected_time":1175000000000,"state":"active","ping":52},{"user_id":652,"name":"ursa","steam_id":76561198025394298,"connected_time":15000000000,"state":"connecting","ping":86},{"user_id":639,"name":"swoog","steam_id":76561198055414073,"connected_time":1131000000000,"state":"spawning","ping":59},{"user_id":638,"name":"ARGON soweli","steam_id":76561198044363630,"connected_time":1142000000000,"state":"active","ping":165},{"user_id":646,"name":"ARGON OttoDogX","steam_id":76561198042007578,"connected_time":656000000000,"state":"spawning","ping":138},{"user_id":653,"name":"Female Gamer","steam_id":76561199366482682,"connected_time":0,"state":"spawning","ping":0},{"user_id":650,"name":"Piss Drinker","steam_id":76561198292546203,"connected_time":120000000000,"state":"spawning","ping":52},{"user_id":631,"name":"ROO!","steam_id":76561198950978067,"connected_time":1301000000000,"state":"spawning","ping":112},{"user_id":651,"name":"hsjdg0","steam_id":76561199186180034,"connected_time":54000000000,"state":"spawning","ping":159},{"user_id":620,"name":"DanHashira","steam_id":76561199477070288,"connected_time":2639000000000,"state":"spawning","ping":102},{"user_id":645,"name":"Minos Prime Enthusiast","steam_id":76561198118929194,"connected_time":949000000000,"state":"active","ping":271}]},{"server_id":400,"name":"Uncletopia | Atlanta | 3 | Community","name_short":"atl-3","host":"atl-1.us.uncletopia.com","port":27035,"enabled":true,"region":"us-east","cc":"us","latitude":33.753746,"longitude":-84.38633,"reserved":0,"last_update":"0001-01-01T00:00:00Z","name_a2s":"Uncletopia | Atlanta | 3 | Community","protocol":17,"map":"workshop/cp_sulfur_rc2.ugc619869471","folder":"tf","game":"Team Fortress","app_id":440,"player_count":0,"max_players":24,"Bots":0,"server_type":"Dedicated","server_os":"Linux","password":true,"vac":true,"version":"7757534","steam_id":85568392924515187,"keywords":["cp","nocrits","nodmgspread","uncletopia"],"game_id":440,"stv_port":27036,"stv_name":"Uncletopia | Atlanta | 3 | Community | STV","players":null},{"server_id":401,"name":"Uncletopia | Atlanta | 4 | No Payload","name_short":"atl-4","host":"atl-1.us.uncletopia.com","port":27045,"enabled":true,"region":"us-east","cc":"us","latitude":33.753746,"longitude":-84.38633,"reserved":0,"last_update":"0001-01-01T00:00:00Z","name_a2s":"","protocol":0,"map":"","folder":"","game":"","app_id":0,"player_count":0,"max_players":0,"Bots":0,"server_type":"","server_os":"","password":false,"vac":false,"version":"","steam_id":0,"keywords":null,"game_id":0,"stv_port":0,"stv_name":"","players":null},{"server_id":2,"name":"Uncletopia | Chicago | 1 | All Maps","name_short":"chi-1","host":"chi-1.us.uncletopia.com","port":27015,"enabled":true,"region":"us-central","cc":"us","latitude":41.881832,"longitude":-87.62318,"reserved":0,"last_update":"0001-01-01T00:00:00Z","name_a2s":"Uncletopia | Chicago | 1 | All Maps","protocol":17,"map":"pl_badwater","folder":"tf","game":"Team Fortress","app_id":440,"player_count":7,"max_players":24,"Bots":0,"server_type":"Dedicated","server_os":"Linux","password":true,"vac":true,"version":"7757534","steam_id":85568392924469984,"keywords":["nocrits","nodmgspread","payload","uncletopia"],"game_id":440,"stv_port":27016,"stv_name":"Uncletopia | Chicago | 1 | All Maps | STV","players":[{"user_id":912,"name":"Tommy Pickles (Very Cool)","steam_id":76561198391261463,"connected_time":153000000000,"state":"active","ping":74},{"user_id":910,"name":"Cool Cool Mountain","steam_id":76561199004839490,"connected_time":479000000000,"state":"active","ping":59},{"user_id":895,"name":"frank","steam_id":76561198137777483,"connected_time":2109000000000,"state":"active","ping":71},{"user_id":896,"name":"PocketTieAMPLFY","steam_id":76561199080485881,"connected_time":2092000000000,"state":"active","ping":105},{"user_id":909,"name":"raidlps","steam_id":76561199208003679,"connected_time":847000000000,"state":"active","ping":70},{"user_id":888,"name":"boy from the rafters","steam_id":76561198042926224,"connected_time":3199000000000,"state":"active","ping":89},{"user_id":804,"name":"23‚Ñ¢","steam_id":76561198314951185,"connected_time":8672000000000,"state":"active","ping":104}]},{"server_id":106,"name":"Uncletopia | Chicago | 2 | All Maps","name_short":"chi-2","host":"chi-1.us.uncletopia.com","port":27025,"enabled":true,"region":"us-central","cc":"us","latitude":41.881832,"longitude":-87.62318,"reserved":0,"last_update":"0001-01-01T00:00:00Z","name_a2s":"Uncletopia | Chicago | 2 | All Maps","protocol":17,"map":"pl_upward","folder":"tf","game":"Team Fortress","app_id":440,"player_count":0,"max_players":24,"Bots":0,"server_type":"Dedicated","server_os":"Linux","password":true,"vac":true,"version":"7757534","steam_id":85568392924469985,"keywords":["nocrits","nodmgspread","payload","uncletopia"],"game_id":440,"stv_port":27026,"stv_name":"Uncletopia | Chicago | 2 | All Maps | STV","players":null},{"server_id":402,"name":"Uncletopia | Chicago | 3 | All Maps","name_short":"chi-3","host":"chi-1.us.uncletopia.com","port":27035,"enabled":true,"region":"us-central","cc":"us","latitude":41.881832,"longitude":-87.62318,"reserved":0,"last_update":"0001-01-01T00:00:00Z","name_a2s":"Uncletopia | Chicago | 3 | All Maps","protocol":17,"map":"koth_king","folder":"tf","game":"Team Fortress","app_id":440,"player_count":0,"max_players":24,"Bots":0,"server_type":"Dedicated","server_os":"Linux","password":true,"vac":true,"version":"7757534","steam_id":85568392924515191,"keywords":["cp","nocrits","nodmgspread","uncletopia"],"game_id":440,"stv_port":27036,"stv_name":"Uncletopia | Chicago | 3 | All Maps | STV","players":null},{"server_id":403,"name":"Uncletopia | Chicago | 4 | All Maps","name_short":"chi-4","host":"chi-1.us.uncletopia.com","port":27045,"enabled":true,"region":"us-central","cc":"us","latitude":41.881832,"longitude":-87.62318,"reserved":0,"last_update":"0001-01-01T00:00:00Z","name_a2s":"Uncletopia | Chicago | 4 | All Maps","protocol":17,"map":"pl_barnblitz","folder":"tf","game":"Team Fortress","app_id":440,"player_count":12,"max_players":24,"Bots":0,"server_type":"Dedicated","server_os":"Linux","password":true,"vac":true,"version":"7757534","steam_id":85568392924515193,"keywords":["nocrits","nodmgspread","payload","uncletopia"],"game_id":440,"stv_port":27046,"stv_name":"Uncletopia | Chicago | 4 | All Maps | STV","players":[{"user_id":333,"name":"LovingKindne2z","steam_id":76561199064932372,"connected_time":238000000000,"state":"active","ping":93},{"user_id":328,"name":"Jezzus","steam_id":76561199289676387,"connected_time":837000000000,"state":"active","ping":78},{"user_id":335,"name":"Weebmcgee","steam_id":76561198081231557,"connected_time":10000000000,"state":"active","ping":67},{"user_id":334,"name":"Bony","steam_id":76561199001748822,"connected_time":130000000000,"state":"active","ping":84},{"user_id":310,"name":"Natsuki the Scunt","steam_id":76561199175922684,"connected_time":1758000000000,"state":"active","ping":120},{"user_id":329,"name":"B)","steam_id":76561198093921290,"connected_time":614000000000,"state":"active","ping":46},{"user_id":316,"name":"Pohnut","steam_id":76561198087831690,"connected_time":1500000000000,"state":"active","ping":124},{"user_id":325,"name":"smartphOWNED.com","steam_id":76561198114107570,"connected_time":1105000000000,"state":"active","ping":59},{"user_id":319,"name":"{FITH}‚Ñ¢ Tnega Libram","steam_id":76561197997973526,"connected_time":1392000000000,"state":"active","ping":69},{"user_id":321,"name":"PeopleOrderOurPatties","steam_id":76561198323144922,"connected_time":1335000000000,"state":"active","ping":58},{"user_id":330,"name":"im the beef","steam_id":76561198069506128,"connected_time":536000000000,"state":"active","ping":45},{"user_id":275,"name":"TweetTweet17","steam_id":76561198994956859,"connected_time":4431000000000,"state":"active","ping":85}]},{"server_id":36,"name":"Uncletopia | Chicago | 5 | All Maps","name_short":"chi-5","host":"chi-2.us.uncletopia.com","port":27015,"enabled":true,"region":"us-central","cc":"us","latitude":41.881832,"longitude":-87.62318,"reserved":0,"last_update":"0001-01-01T00:00:00Z","name_a2s":"Uncletopia | Chicago | 5 | All Maps","protocol":17,"map":"koth_cascade","folder":"tf","game":"Team Fortress","app_id":440,"player_count":0,"max_players":24,"Bots":0,"server_type":"Dedicated","server_os":"Linux","password":true,"vac":true,"version":"7757534","steam_id":85568392924866362,"keywords":["cp","nocrits","nodmgspread","uncletopia"],"game_id":440,"stv_port":27016,"stv_name":"Uncletopia | Chicago | 5 | All Maps | STV","players":null},{"server_id":37,"name":"Uncletopia | Chicago | 6 | All Maps","name_short":"chi-6","host":"chi-2.us.uncletopia.com","port":27025,"enabled":true,"region":"us-central","cc":"us","latitude":41.881832,"longitude":-87.62318,"reserved":0,"last_update":"0001-01-01T00:00:00Z","name_a2s":"Uncletopia | Chicago | 6 | All Maps","protocol":17,"map":"pl_frontier_final","folder":"tf","game":"Team Fortress","app_id":440,"player_count":0,"max_players":24,"Bots":0,"server_type":"Dedicated","server_os":"Linux","password":true,"vac":true,"version":"7757534","steam_id":85568392924866363,"keywords":["nocrits","nodmgspread","payload","uncletopia"],"game_id":440,"stv_port":27026,"stv_name":"Uncletopia | Chicago | 6 | All Maps | STV","players":null},{"server_id":38,"name":"Uncletopia | Chicago | 7 | Stopwatch Beta","name_short":"chi-7","host":"chi-2.us.uncletopia.com","port":27035,"enabled":true,"region":"us-central","cc":"us","latitude":41.881832,"longitude":-87.62318,"reserved":0,"last_update":"0001-01-01T00:00:00Z","name_a2s":"Uncletopia | Chicago | 7 | Stopwatch Beta","protocol":17,"map":"workshop/koth_ramjam_rc1.ugc459778887","folder":"tf","game":"Team Fortress","app_id":440,"player_count":0,"max_players":24,"Bots":0,"server_type":"Dedicated","server_os":"Linux","password":true,"vac":true,"version":"7757534","steam_id":85568392924866364,"keywords":["cp","nocrits","nodmgspread","uncletopia"],"game_id":440,"stv_port":27036,"stv_name":"Uncletopia | Chicago | 7 | Stopwatch Beta | STV","players":null},{"server_id":39,"name":"Uncletopia | Chicago | 8 | Community","name_short":"chi-8","host":"chi-2.us.uncletopia.com","port":27045,"enabled":true,"region":"us-central","cc":"us","latitude":41.881832,"longitude":-87.62318,"reserved":0,"last_update":"0001-01-01T00:00:00Z","name_a2s":"Uncletopia | Chicago | 8 | Community","protocol":17,"map":"workshop/cp_croissant_final.ugc458840209","folder":"tf","game":"Team Fortress","app_id":440,"player_count":23,"max_players":24,"Bots":0,"server_type":"Dedicated","server_os":"Linux","password":true,"vac":true,"version":"7757534","steam_id":85568392924866365,"keywords":["cp","nocrits","nodmgspread","uncletopia"],"game_id":440,"stv_port":27046,"stv_name":"Uncletopia | Chicago | 8 | Community | STV","players":[{"user_id":391,"name":"Unc4nny","steam_id":76561198131507408,"connected_time":589000000000,"state":"active","ping":46},{"user_id":322,"name":"Underqualified Gunman","steam_id":76561198111061367,"connected_time":7911000000000,"state":"active","ping":62},{"user_id":358,"name":"Kered13","steam_id":76561197985666167,"connected_time":4082000000000,"state":"active","ping":58},{"user_id":286,"name":"Bryguy","steam_id":76561198092096120,"connected_time":10044000000000,"state":"active","ping":39},{"user_id":393,"name":"Metal Mouse","steam_id":76561198271975696,"connected_time":468000000000,"state":"active","ping":91},{"user_id":392,"name":"Garden Rake Gaming","steam_id":76561198993470397,"connected_time":473000000000,"state":"active","ping":81},{"user_id":372,"name":"The Pepsi¬Æ Superbowl¬Æ!","steam_id":76561198080828981,"connected_time":2634000000000,"state":"active","ping":88},{"user_id":399,"name":"dozy","steam_id":76561199470933385,"connected_time":95000000000,"state":"active","ping":62},{"user_id":356,"name":"J O S H¬≥¬≤","steam_id":76561198122603779,"connected_time":4672000000000,"state":"active","ping":90},{"user_id":385,"name":"Johnny wouldn't die","steam_id":76561199350870177,"connected_time":1062000000000,"state":"active","ping":58},{"user_id":357,"name":"robot with human hair","steam_id":76561198018691308,"connected_time":4641000000000,"state":"active","ping":74},{"user_id":172,"name":"The Pencil Cunts","steam_id":76561198272606252,"connected_time":18304000000000,"state":"active","ping":61},{"user_id":361,"name":"üÖúüÖîüÖîüÖöüÖ¢üÖ£üÖî\ufffd\ufffd\ufffd","steam_id":76561197999748343,"connected_time":3706000000000,"state":"active","ping":61},{"user_id":295,"name":"Le0901","steam_id":76561198372891244,"connected_time":9501000000000,"state":"active","ping":58},{"user_id":397,"name":"Utsuho Reiuji","steam_id":76561198367281334,"connected_time":366000000000,"state":"active","ping":46},{"user_id":390,"name":"Nick the melon","steam_id":76561198798907871,"connected_time":594000000000,"state":"active","ping":112},{"user_id":386,"name":"suburbanite","steam_id":76561199086054093,"connected_time":1048000000000,"state":"active","ping":94},{"user_id":377,"name":"Reaper","steam_id":76561198435826103,"connected_time":2028000000000,"state":"active","ping":70},{"user_id":378,"name":"Front Facing Magikarp","steam_id":76561198085888959,"connected_time":2017000000000,"state":"active","ping":59},{"user_id":398,"name":"Zquiddo (400 Chess ELO GOAT)","steam_id":76561198798931344,"connected_time":355000000000,"state":"active","ping":81},{"user_id":382,"name":"uncle 'ardboss","steam_id":76561198055490732,"connected_time":1521000000000,"state":"active","ping":105},{"user_id":383,"name":"Jeddef","steam_id":76561198040012616,"connected_time":1360000000000,"state":"active","ping":147},{"user_id":389,"name":"8Ball","steam_id":76561198168881494,"connected_time":955000000000,"state":"active","ping":128}]},{"server_id":8,"name":"Uncletopia | Dallas | 1 | All Maps","name_short":"dal-1","host":"dal-1.us.uncletopia.com","port":27015,"enabled":true,"region":"us-central","cc":"us","latitude":32.779167,"longitude":-96.80889,"reserved":0,"last_update":"0001-01-01T00:00:00Z","name_a2s":"Uncletopia | Dallas | 1 | All Maps","protocol":17,"map":"pl_borneo","folder":"tf","game":"Team Fortress","app_id":440,"player_count":24,"max_players":24,"Bots":0,"server_type":"Dedicated","server_os":"Linux","password":true,"vac":true,"version":"7757534","steam_id":85568392924469986,"keywords":["nocrits","nodmgspread","payload","uncletopia"],"game_id":440,"stv_port":27016,"stv_name":"Uncletopia | Dallas | 1 | All Maps | STV","players":[{"user_id":863,"name":"Ms Chatmen","steam_id":76561198309567814,"connected_time":5222000000000,"state":"active","ping":44},{"user_id":841,"name":"QueenPinharam","steam_id":76561199015626409,"connected_time":6168000000000,"state":"active","ping":65},{"user_id":843,"name":"Kohaku","steam_id":76561198358814557,"connected_time":6123000000000,"state":"active","ping":67},{"user_id":909,"name":"[rat] RaviRavioli","steam_id":76561198968636443,"connected_time":817000000000,"state":"active","ping":57},{"user_id":899,"name":"DannyM","steam_id":76561198351165570,"connected_time":1930000000000,"state":"active","ping":42},{"user_id":916,"name":"Salt","steam_id":76561198418001135,"connected_time":531000000000,"state":"active","ping":65},{"user_id":888,"name":"ÁßÅ„ÅØ‰∏çÊ≠£Ë°åÁÇ∫„Çí„Åó„Å¶„ÅÑ","steam_id":76561199465653959,"connected_time":2800000000000,"state":"active","ping":143},{"user_id":901,"name":"ThePumpkin","steam_id":76561199366987664,"connected_time":1797000000000,"state":"active","ping":123},{"user_id":917,"name":"Nezzie","steam_id":76561198208259219,"connected_time":506000000000,"state":"active","ping":95},{"user_id":886,"name":"Quomples","steam_id":76561198140996628,"connected_time":3328000000000,"state":"active","ping":60},{"user_id":915,"name":"Tamanegi_TTR","steam_id":76561198090538085,"connected_time":542000000000,"state":"active","ping":115},{"user_id":918,"name":"Riko","steam_id":76561198028097118,"connected_time":454000000000,"state":"active","ping":72},{"user_id":919,"name":"Sevfront","steam_id":76561198249207818,"connected_time":374000000000,"state":"active","ping":90},{"user_id":925,"name":"Alice in Rubberland","steam_id":76561198087328346,"connected_time":34000000000,"state":"active","ping":68},{"user_id":912,"name":"Bzamo","steam_id":76561198039883392,"connected_time":599000000000,"state":"active","ping":83},{"user_id":910,"name":"ElTioHitMalo","steam_id":76561198284789657,"connected_time":813000000000,"state":"active","ping":75},{"user_id":922,"name":"back to that guy","steam_id":76561198381199862,"connected_time":272000000000,"state":"active","ping":75},{"user_id":882,"name":"plink","steam_id":76561198057829889,"connected_time":3625000000000,"state":"active","ping":77},{"user_id":914,"name":"Vem","steam_id":76561198117273112,"connected_time":586000000000,"state":"active","ping":96},{"user_id":892,"name":"vertice","steam_id":76561199117182718,"connected_time":2275000000000,"state":"active","ping":77},{"user_id":924,"name":"clenZORZ","steam_id":76561198835570628,"connected_time":205000000000,"state":"active","ping":60},{"user_id":907,"name":"Saulen","steam_id":76561198150726407,"connected_time":1449000000000,"state":"active","ping":61},{"user_id":923,"name":"vintage","steam_id":76561198179249054,"connected_time":218000000000,"state":"active","ping":85},{"user_id":908,"name":"Koiba","steam_id":76561198114470376,"connected_time":1434000000000,"state":"active","ping":105}]},{"server_id":108,"name":"Uncletopia | Dallas | 2 | All Maps","name_short":"dal-2","host":"dal-1.us.uncletopia.com","port":27025,"enabled":true,"region":"us-central","cc":"us","latitude":32.779167,"longitude":-96.80889,"reserved":0,"last_update":"0001-01-01T00:00:00Z","name_a2s":"Uncletopia | Dallas | 2 | All Maps","protocol":17,"map":"pl_snowycoast","folder":"tf","game":"Team Fortress","app_id":440,"player_count":24,"max_players":24,"Bots":0,"server_type":"Dedicated","server_os":"Linux","password":true,"vac":true,"version":"7757534","steam_id":85568392924469988,"keywords":["nocrits","nodmgspread","payload","uncletopia"],"game_id":440,"stv_port":27026,"stv_name":"Uncletopia | Dallas | 2 | All Maps | STV","players":[{"user_id":422,"name":"Emperor Dankatine","steam_id":76561198044741086,"connected_time":3700000000000,"state":"active","ping":155},{"user_id":405,"name":"catface","steam_id":76561198096347625,"connected_time":4994000000000,"state":"active","ping":75},{"user_id":456,"name":"mr.edderkopper","steam_id":76561198152614478,"connected_time":1194000000000,"state":"active","ping":72},{"user_id":455,"name":"meps","steam_id":76561198080430008,"connected_time":1275000000000,"state":"active","ping":45},{"user_id":442,"name":"dekapon","steam_id":76561198069523062,"connected_time":2098000000000,"state":"active","ping":80},{"user_id":435,"name":"CHIKN","steam_id":76561198277792665,"connected_time":2821000000000,"state":"active","ping":82},{"user_id":457,"name":"Genius Meme","steam_id":76561198162911254,"connected_time":1092000000000,"state":"active","ping":86},{"user_id":408,"name":"Burny Sanders","steam_id":76561197961879048,"connected_time":4825000000000,"state":"active","ping":42},{"user_id":462,"name":"A Little Guy","steam_id":76561198142464684,"connected_time":265000000000,"state":"active","ping":135},{"user_id":464,"name":"minty","steam_id":76561198062821894,"connected_time":192000000000,"state":"active","ping":48},{"user_id":426,"name":"Eden Hazard","steam_id":76561198089241053,"connected_time":3459000000000,"state":"active","ping":77},{"user_id":466,"name":"FullMetalHanson","steam_id":76561198149565623,"connected_time":82000000000,"state":"active","ping":76},{"user_id":461,"name":"Xubs (‚óïœâ‚óï‚úø)","steam_id":76561197999170933,"connected_time":362000000000,"state":"active","ping":77},{"user_id":452,"name":"squid","steam_id":76561198070236972,"connected_time":1638000000000,"state":"active","ping":82},{"user_id":458,"name":"DjBallBag","steam_id":76561198118551080,"connected_time":835000000000,"state":"active","ping":69},{"user_id":453,"name":"evril vvizard miku","steam_id":76561198164445414,"connected_time":1538000000000,"state":"active","ping":115},{"user_id":445,"name":"girl smell","steam_id":76561198118962168,"connected_time":2030000000000,"state":"active","ping":71},{"user_id":446,"name":"Elena Manetta","steam_id":76561197998344054,"connected_time":2007000000000,"state":"active","ping":75},{"user_id":447,"name":"illegal alien","steam_id":76561198840484105,"connected_time":1912000000000,"state":"active","ping":69},{"user_id":465,"name":"MoonWolf","steam_id":76561198095735033,"connected_time":147000000000,"state":"active","ping":71},{"user_id":450,"name":"fredpimpstone","steam_id":76561198201872929,"connected_time":1741000000000,"state":"active","ping":73},{"user_id":438,"name":"ElMencho","steam_id":76561198968776936,"connected_time":2552000000000,"state":"active","ping":57},{"user_id":439,"name":"MISTERMANY2006","steam_id":76561199242174891,"connected_time":2380000000000,"state":"active","ping":79},{"user_id":451,"name":"Swiggs","steam_id":76561198135015291,"connected_time":1727000000000,"state":"active","ping":64}]},{"server_id":5,"name":"Uncletopia | Frankfurt | 1 | All Maps","name_short":"frk-1","host":"frk-1.de.uncletopia.com","port":27015,"enabled":true,"region":"eu","cc":"de","latitude":50.110924,"longitude":8.682127,"reserved":0,"last_update":"0001-01-01T00:00:00Z","name_a2s":"Uncletopia | Frankfurt | 1 | All Maps","protocol":17,"map":"cp_mountainlab","folder":"tf","game":"Team Fortress","app_id":440,"player_count":0,"max_players":24,"Bots":0,"server_type":"Dedicated","server_os":"Linux","password":true,"vac":true,"version":"7757534","steam_id":85568392924469989,"keywords":["cp","nocrits","nodmgspread","uncletopia"],"game_id":440,"stv_port":27016,"stv_name":"Uncletopia | Frankfurt | 1 | All Maps | STV","players":null},{"server_id":110,"name":"Uncletopia | Frankfurt | 2 | All Maps","name_short":"frk-2","host":"frk-1.de.uncletopia.com","port":27025,"enabled":true,"region":"eu","cc":"de","latitude":50.110924,"longitude":8.682127,"reserved":0,"last_update":"0001-01-01T00:00:00Z","name_a2s":"Uncletopia | Frankfurt | 2 | All Maps","protocol":17,"map":"cp_snakewater_final1","folder":"tf","game":"Team Fortress","app_id":440,"player_count":0,"max_players":24,"Bots":0,"server_type":"Dedicated","server_os":"Linux","password":true,"vac":true,"version":"7757534","steam_id":85568392924469990,"keywords":["cp","nocrits","nodmgspread","uncletopia"],"game_id":440,"stv_port":27026,"stv_name":"Uncletopia | Frankfurt | 2 | All Maps | STV","players":null},{"server_id":308,"name":"Uncletopia | Frankfurt | 3 | All Maps","name_short":"frk-3","host":"frk-1.de.uncletopia.com","port":27035,"enabled":true,"region":"eu","cc":"de","latitude":50.110924,"longitude":8.682127,"reserved":0,"last_update":"0001-01-01T00:00:00Z","name_a2s":"Uncletopia | Frankfurt | 3 | All Maps","protocol":17,"map":"pl_swiftwater_final1","folder":"tf","game":"Team Fortress","app_id":440,"player_count":0,"max_players":24,"Bots":0,"server_type":"Dedicated","server_os":"Linux","password":true,"vac":true,"version":"7757534","steam_id":85568392924504274,"keywords":["nocrits","nodmgspread","payload","uncletopia"],"game_id":440,"stv_port":27036,"stv_name":"Uncletopia | Frankfurt | 3 | All Maps | STV","players":null},{"server_id":309,"name":"Uncletopia | Frankfurt | 4 | All Maps","name_short":"frk-4","host":"frk-1.de.uncletopia.com","port":27045,"enabled":true,"region":"eu","cc":"de","latitude":50.110924,"longitude":8.682127,"reserved":0,"last_update":"0001-01-01T00:00:00Z","name_a2s":"Uncletopia | Frankfurt | 4 | All Maps","protocol":17,"map":"pl_enclosure_final","folder":"tf","game":"Team Fortress","app_id":440,"player_count":23,"max_players":24,"Bots":0,"server_type":"Dedicated","server_os":"Linux","password":true,"vac":true,"version":"7757534","steam_id":85568392924504275,"keywords":["nocrits","nodmgspread","payload","uncletopia"],"game_id":440,"stv_port":27046,"stv_name":"Uncletopia | Frankfurt | 4 | All Maps | STV","players":[{"user_id":76,"name":"¬øquieres?","steam_id":76561198062699350,"connected_time":1310000000000,"state":"active","ping":56},{"user_id":58,"name":"Hardworking_Spaceman","steam_id":76561198127662867,"connected_time":2693000000000,"state":"active","ping":65},{"user_id":60,"name":"Xx_EpicGaymer_xX","steam_id":76561198846784757,"connected_time":2405000000000,"state":"active","ping":69},{"user_id":93,"name":"tismo","steam_id":76561198114789993,"connected_time":237000000000,"state":"active","ping":139},{"user_id":63,"name":"man-made horrors","steam_id":76561199480942903,"connected_time":2069000000000,"state":"active","ping":63},{"user_id":94,"name":"Gushy Bussy w/ the Brown Juices","steam_id":76561198084222254,"connected_time":101000000000,"state":"active","ping":167},{"user_id":85,"name":"big naked bruh","steam_id":76561199179040672,"connected_time":787000000000,"state":"active","ping":65},{"user_id":77,"name":".::[SerafeTTiN]::.","steam_id":76561198009471724,"connected_time":1242000000000,"state":"active","ping":91},{"user_id":91,"name":"Battle Engineer","steam_id":76561198866730509,"connected_time":353000000000,"state":"active","ping":99},{"user_id":92,"name":"FoxyTheFish","steam_id":76561199074190919,"connected_time":339000000000,"state":"active","ping":61},{"user_id":78,"name":"weed fairy","steam_id":76561197998843096,"connected_time":1175000000000,"state":"active","ping":72},{"user_id":67,"name":"no1-","steam_id":76561198067524060,"connected_time":1678000000000,"state":"active","ping":93},{"user_id":86,"name":"–¢—Ä—É–ø –í–æ–ª–æ–¥—è","steam_id":76561198035718457,"connected_time":778000000000,"state":"active","ping":85},{"user_id":68,"name":"Lyzz","steam_id":76561198103622650,"connected_time":1654000000000,"state":"active","ping":66},{"user_id":72,"name":"duplicated","steam_id":76561198344952248,"connected_time":1419000000000,"state":"active","ping":65},{"user_id":95,"name":"Squash Banana","steam_id":76561198055480280,"connected_time":90000000000,"state":"active","ping":81},{"user_id":38,"name":"MINUS-","steam_id":76561199000623263,"connected_time":4464000000000,"state":"active","ping":138},{"user_id":96,"name":"DreadAngel","steam_id":76561198049357836,"connected_time":60000000000,"state":"spawning","ping":59},{"user_id":97,"name":"killerlove050505","steam_id":76561198853637474,"connected_time":47000000000,"state":"active","ping":101},{"user_id":87,"name":"Least sadistic healer main","steam_id":76561198114164702,"connected_time":712000000000,"state":"active","ping":64},{"user_id":52,"name":"pain train tf2","steam_id":76561198111568728,"connected_time":2749000000000,"state":"active","ping":46},{"user_id":89,"name":"–£—Ç–∏–ª–∏–∑–∞—Ç–æ—Ä","steam_id":76561198001490104,"connected_time":623000000000,"state":"active","ping":96},{"user_id":57,"name":"Pan Pan","steam_id":76561199074670515,"connected_time":2722000000000,"state":"active","ping":101}]},{"server_id":310,"name":"Uncletopia | Frankfurt | 5 | All Maps","name_short":"frk-5","host":"frk-1.de.uncletopia.com","port":27055,"enabled":true,"region":"eu","cc":"de","latitude":50.110924,"longitude":8.682127,"reserved":0,"last_update":"0001-01-01T00:00:00Z","name_a2s":"Uncletopia | Frankfurt | 5 | All Maps","protocol":17,"map":"koth_lakeside_final","folder":"tf","game":"Team Fortress","app_id":440,"player_count":0,"max_players":24,"Bots":0,"server_type":"Dedicated","server_os":"Linux","password":true,"vac":true,"version":"7757534","steam_id":85568392924504277,"keywords":["cp","nocrits","nodmgspread","uncletopia"],"game_id":440,"stv_port":27056,"stv_name":"Uncletopia | Frankfurt | 5 | All Maps | STV","players":null},{"server_id":311,"name":"Uncletopia | Frankfurt | 6 | All Maps","name_short":"frk-6","host":"frk-1.de.uncletopia.com","port":27065,"enabled":true,"region":"eu","cc":"de","latitude":50.110924,"longitude":8.682127,"reserved":0,"last_update":"0001-01-01T00:00:00Z","name_a2s":"Uncletopia | Frankfurt | 6 | All Maps","protocol":17,"map":"pl_frontier_final","folder":"tf","game":"Team Fortress","app_id":440,"player_count":0,"max_players":24,"Bots":0,"server_type":"Dedicated","server_os":"Linux","password":true,"vac":true,"version":"7757534","steam_id":85568392924504278,"keywords":["nocrits","nodmgspread","payload","uncletopia"],"game_id":440,"stv_port":27066,"stv_name":"Uncletopia | Frankfurt | 6 | All Maps | STV","players":null},{"server_id":23,"name":"Uncletopia | Frankfurt | 7 | Stopwatch Beta","name_short":"frk-7","host":"frk-1.de.uncletopia.com","port":27075,"enabled":true,"region":"eu","cc":"de","latitude":50.110924,"longitude":8.682127,"reserved":0,"last_update":"0001-01-01T00:00:00Z","name_a2s":"Uncletopia | Frankfurt | 7 | Stopwatch Beta","protocol":17,"map":"cp_sunshine","folder":"tf","game":"Team Fortress","app_id":440,"player_count":0,"max_players":24,"Bots":0,"server_type":"Dedicated","server_os":"Linux","password":true,"vac":true,"version":"7757534","steam_id":85568392924742827,"keywords":["cp","nocrits","nodmgspread","uncletopia"],"game_id":440,"stv_port":27076,"stv_name":"Uncletopia | Frankfurt | 7 | Stopwatch Beta | STV","players":null},{"server_id":24,"name":"Uncletopia | Frankfurt | 8 | Community","name_short":"frk-8","host":"frk-1.de.uncletopia.com","port":27085,"enabled":true,"region":"eu","cc":"de","latitude":50.110924,"longitude":8.682127,"reserved":0,"last_update":"0001-01-01T00:00:00Z","name_a2s":"Uncletopia | Frankfurt | 8 | Community","protocol":17,"map":"koth_lakeside_final","folder":"tf","game":"Team Fortress","app_id":440,"player_count":0,"max_players":24,"Bots":0,"server_type":"Dedicated","server_os":"Linux","password":true,"vac":true,"version":"7757534","steam_id":85568392924742828,"keywords":["cp","nocrits","nodmgspread","uncletopia"],"game_id":440,"stv_port":27086,"stv_name":"Uncletopia | Frankfurt | 8 | Community | STV","players":null},{"server_id":202,"name":"Uncletopia | Hong Kong | 1 | All Maps","name_short":"hgk-1","host":"hgk-1.hk.uncletopia.com","port":27015,"enabled":true,"region":"asia","cc":"hk","latitude":22.302711,"longitude":114.177216,"reserved":0,"last_update":"0001-01-01T00:00:00Z","name_a2s":"Uncletopia | Hong Kong | 1 | All Maps","protocol":17,"map":"koth_viaduct","folder":"tf","game":"Team Fortress","app_id":440,"player_count":0,"max_players":24,"Bots":0,"server_type":"Dedicated","server_os":"Linux","password":true,"vac":true,"version":"7757534","steam_id":85568392924494504,"keywords":["cp","nocrits","nodmgspread","uncletopia"],"game_id":440,"stv_port":27016,"stv_name":"Uncletopia | Hong Kong | 1 | All Maps | STV","players":null},{"server_id":1,"name":"Uncletopia | Los Angeles | 1 | All Maps","name_short":"lax-1","host":"lax-1.us.uncletopia.com","port":27015,"enabled":true,"region":"us-west","cc":"us","latitude":33.94279,"longitude":-118.41004,"reserved":0,"last_update":"0001-01-01T00:00:00Z","name_a2s":"Uncletopia | Los Angeles | 1 | All Maps","protocol":17,"map":"cp_dustbowl","folder":"tf","game":"Team Fortress","app_id":440,"player_count":0,"max_players":24,"Bots":0,"server_type":"Dedicated","server_os":"Linux","password":true,"vac":true,"version":"7757534","steam_id":85568392924469991,"keywords":["cp","nocrits","nodmgspread","uncletopia"],"game_id":440,"stv_port":27016,"stv_name":"Uncletopia | Los Angeles | 1 | All Maps | STV","players":null},{"server_id":112,"name":"Uncletopia | Los Angeles | 2 | All Maps","name_short":"lax-2","host":"lax-1.us.uncletopia.com","port":27025,"enabled":true,"region":"us-west","cc":"us","latitude":33.94279,"longitude":-118.41004,"reserved":0,"last_update":"0001-01-01T00:00:00Z","name_a2s":"Uncletopia | Los Angeles | 2 | All Maps","protocol":17,"map":"pl_badwater","folder":"tf","game":"Team Fortress","app_id":440,"player_count":17,"max_players":24,"Bots":0,"server_type":"Dedicated","server_os":"Linux","password":true,"vac":true,"version":"7757534","steam_id":85568392924469992,"keywords":["nocrits","nodmgspread","payload","uncletopia"],"game_id":440,"stv_port":27026,"stv_name":"Uncletopia | Los Angeles | 2 | All Maps | STV","players":[{"user_id":476,"name":"MightyRectangle","steam_id":76561198094236144,"connected_time":2295000000000,"state":"active","ping":43},{"user_id":487,"name":"rimbl","steam_id":76561198150137369,"connected_time":84000000000,"state":"active","ping":44},{"user_id":488,"name":"pooping.peter.2009","steam_id":76561198171368867,"connected_time":72000000000,"state":"active","ping":45},{"user_id":481,"name":"Clagger","steam_id":76561198066701092,"connected_time":1984000000000,"state":"active","ping":60},{"user_id":484,"name":"HeartAttack","steam_id":76561198135833968,"connected_time":1505000000000,"state":"active","ping":61},{"user_id":462,"name":"party tim","steam_id":76561198034876389,"connected_time":4027000000000,"state":"active","ping":44},{"user_id":479,"name":"Lambchop","steam_id":76561198043900363,"connected_time":2106000000000,"state":"active","ping":60},{"user_id":480,"name":"cheeseburger with no pickles","steam_id":76561198406114836,"connected_time":2086000000000,"state":"active","ping":96},{"user_id":486,"name":"cream team","steam_id":76561198139043953,"connected_time":789000000000,"state":"active","ping":71},{"user_id":482,"name":"Can You Feel It Mr.Krabs","steam_id":76561198128302414,"connected_time":1840000000000,"state":"active","ping":47},{"user_id":483,"name":"bad spy player","steam_id":76561198873699671,"connected_time":1670000000000,"state":"active","ping":75},{"user_id":432,"name":"Jules","steam_id":76561198044358370,"connected_time":7312000000000,"state":"active","ping":107},{"user_id":485,"name":"GlossyBat","steam_id":76561198929313869,"connected_time":1246000000000,"state":"active","ping":61},{"user_id":474,"name":"bLank","steam_id":76561198972087444,"connected_time":2971000000000,"state":"active","ping":91},{"user_id":404,"name":"LeBron James Ferraro","steam_id":76561197995200743,"connected_time":8737000000000,"state":"active","ping":42},{"user_id":386,"name":"bigman1","steam_id":76561198050225055,"connected_time":10579000000000,"state":"active","ping":44},{"user_id":440,"name":"Thunder","steam_id":76561198795676044,"connected_time":5692000000000,"state":"active","ping":45}]},{"server_id":324,"name":"Uncletopia | Los Angeles | 3 | All Maps","name_short":"lax-3","host":"lax-1.us.uncletopia.com","port":27035,"enabled":true,"region":"us-west","cc":"us","latitude":33.94279,"longitude":-118.41004,"reserved":0,"last_update":"0001-01-01T00:00:00Z","name_a2s":"Uncletopia | Los Angeles | 3 | All Maps","protocol":17,"map":"plr_bananabay","folder":"tf","game":"Team Fortress","app_id":440,"player_count":23,"max_players":24,"Bots":0,"server_type":"Dedicated","server_os":"Linux","password":true,"vac":true,"version":"7757534","steam_id":85568392924510198,"keywords":["nocrits","nodmgspread","payload","uncletopia"],"game_id":440,"stv_port":27036,"stv_name":"Uncletopia | Los Angeles | 3 | All Maps | STV","players":[{"user_id":248,"name":"Nugakku","steam_id":76561198082346219,"connected_time":3700000000000,"state":"active","ping":59},{"user_id":282,"name":"the sludge?!","steam_id":76561198094575882,"connected_time":1356000000000,"state":"active","ping":75},{"user_id":195,"name":"a chicken","steam_id":76561198313121580,"connected_time":8129000000000,"state":"active","ping":45},{"user_id":291,"name":"Srattinee","steam_id":76561198199840395,"connected_time":798000000000,"state":"active","ping":109},{"user_id":304,"name":"anipe10","steam_id":76561199084698417,"connected_time":96000000000,"state":"active","ping":58},{"user_id":244,"name":"[PINGU‚Ñ¢] Tiny Tuna","steam_id":76561198193611579,"connected_time":4119000000000,"state":"active","ping":108},{"user_id":298,"name":"‚ô•Cat in a Tub‚ô•","steam_id":76561198170443243,"connected_time":483000000000,"state":"active","ping":60},{"user_id":279,"name":"Drakon","steam_id":76561198078210822,"connected_time":1514000000000,"state":"active","ping":64},{"user_id":293,"name":"Shaw Han","steam_id":76561198204259015,"connected_time":783000000000,"state":"active","ping":114},{"user_id":278,"name":"GruncleRick","steam_id":76561198044783898,"connected_time":1597000000000,"state":"active","ping":104},{"user_id":297,"name":"Skelloton","steam_id":76561198012298599,"connected_time":528000000000,"state":"active","ping":55},{"user_id":280,"name":"bonk schnoffer","steam_id":76561198301598124,"connected_time":1499000000000,"state":"active","ping":88},{"user_id":294,"name":"Team Fartpiss Poo","steam_id":76561199163591880,"connected_time":782000000000,"state":"active","ping":115},{"user_id":283,"name":"One Horned Bitch Destroyer","steam_id":76561198045810191,"connected_time":1352000000000,"state":"active","ping":74},{"user_id":300,"name":"Big Jon","steam_id":76561198402285099,"connected_time":275000000000,"state":"active","ping":71},{"user_id":284,"name":"Vespen","steam_id":76561198259984019,"connected_time":1314000000000,"state":"active","ping":54},{"user_id":285,"name":"Noodle","steam_id":76561199156137868,"connected_time":1313000000000,"state":"active","ping":96},{"user_id":286,"name":"The Doctorfox1","steam_id":76561198997969471,"connected_time":1309000000000,"state":"active","ping":69},{"user_id":155,"name":"nathanxbox2","steam_id":76561198046874088,"connected_time":10986000000000,"state":"active","ping":94},{"user_id":289,"name":"Bludgeon","steam_id":76561198272009412,"connected_time":1172000000000,"state":"active","ping":55},{"user_id":287,"name":"Oscar Peltzer","steam_id":76561199427911242,"connected_time":1300000000000,"state":"active","ping":93},{"user_id":247,"name":"HAT-WEARING‚Ñ¢ Maggot Gamer Cat","steam_id":76561197973992705,"connected_time":3708000000000,"state":"active","ping":69},{"user_id":303,"name":"Yonkerbonk‡πá","steam_id":76561199185404144,"connected_time":162000000000,"state":"active","ping":58}]},{"server_id":25,"name":"Uncletopia | Los Angeles | 4 | Stopwatch Beta","name_short":"lax-4","host":"lax-1.us.uncletopia.com","port":27045,"enabled":true,"region":"us-west","cc":"us","latitude":33.94279,"longitude":-118.41004,"reserved":0,"last_update":"0001-01-01T00:00:00Z","name_a2s":"Uncletopia | Los Angeles | 4 | Stopwatch Beta","protocol":17,"map":"workshop/pl_barnblitz_pro7.ugc582280235","folder":"tf","game":"Team Fortress","app_id":440,"player_count":0,"max_players":24,"Bots":0,"server_type":"Dedicated","server_os":"Linux","password":true,"vac":true,"version":"7757534","steam_id":85568392924510199,"keywords":["nocrits","nodmgspread","payload","uncletopia"],"game_id":440,"stv_port":27046,"stv_name":"Uncletopia | Los Angeles | 4 | Stopwatch Beta | STV","players":null},{"server_id":11,"name":"Uncletopia | London | 1 | All Maps","name_short":"lon-1","host":"lon-1.uk.uncletopia.com","port":27015,"enabled":true,"region":"eu","cc":"gb","latitude":51.509865,"longitude":-0.118092,"reserved":0,"last_update":"0001-01-01T00:00:00Z","name_a2s":"Uncletopia | London | 1 | All Maps","protocol":17,"map":"koth_highpass","folder":"tf","game":"Team Fortress","app_id":440,"player_count":8,"max_players":24,"Bots":0,"server_type":"Dedicated","server_os":"Linux","password":true,"vac":true,"version":"7757534","steam_id":85568392924367362,"keywords":["cp","nocrits","nodmgspread","uncletopia"],"game_id":440,"stv_port":27016,"stv_name":"Uncletopia | London | 1 | All Maps | STV","players":[{"user_id":13,"name":"Westlyroots","steam_id":76561198170431198,"connected_time":284000000000,"state":"active","ping":135},{"user_id":4,"name":"fried","steam_id":76561198307522022,"connected_time":1428000000000,"state":"active","ping":46},{"user_id":7,"name":"Bada Bing!","steam_id":76561198073332036,"connected_time":658000000000,"state":"active","ping":110},{"user_id":8,"name":"Supersimon508","steam_id":76561198179737191,"connected_time":656000000000,"state":"active","ping":65},{"user_id":9,"name":"DarkWra1th","steam_id":76561199081266709,"connected_time":655000000000,"state":"active","ping":73},{"user_id":10,"name":"ja","steam_id":76561199228540618,"connected_time":613000000000,"state":"active","ping":85},{"user_id":11,"name":"ciliorkun18","steam_id":76561198228942500,"connected_time":503000000000,"state":"active","ping":90},{"user_id":14,"name":"Chaffy2125","steam_id":76561198232839260,"connected_time":240000000000,"state":"active","ping":55}]},{"server_id":114,"name":"Uncletopia | London | 2 | All Maps","name_short":"lon-2","host":"lon-1.uk.uncletopia.com","port":27025,"enabled":true,"region":"eu","cc":"gb","latitude":51.509865,"longitude":-0.118092,"reserved":0,"last_update":"0001-01-01T00:00:00Z","name_a2s":"Uncletopia | London | 2 | All Maps","protocol":17,"map":"koth_viaduct","folder":"tf","game":"Team Fortress","app_id":440,"player_count":0,"max_players":24,"Bots":0,"server_type":"Dedicated","server_os":"Linux","password":true,"vac":true,"version":"7757534","steam_id":85568392924470941,"keywords":["cp","nocrits","nodmgspread","uncletopia"],"game_id":440,"stv_port":27026,"stv_name":"Uncletopia | London | 2 | All Maps | STV","players":null},{"server_id":320,"name":"Uncletopia | London | 3 | All Maps","name_short":"lon-3","host":"lon-1.uk.uncletopia.com","port":27035,"enabled":true,"region":"eu","cc":"gb","latitude":51.509865,"longitude":-0.118092,"reserved":0,"last_update":"0001-01-01T00:00:00Z","name_a2s":"Uncletopia | London | 3 | All Maps","protocol":17,"map":"cp_dustbowl","folder":"tf","game":"Team Fortress","app_id":440,"player_count":0,"max_players":24,"Bots":0,"server_type":"Dedicated","server_os":"Linux","password":true,"vac":true,"version":"7757534","steam_id":85568392924510192,"keywords":["cp","nocrits","nodmgspread","uncletopia"],"game_id":440,"stv_port":27036,"stv_name":"Uncletopia | London | 3 | All Maps | STV","players":null},{"server_id":321,"name":"Uncletopia | London | 4 | All Maps","name_short":"lon-4","host":"lon-1.uk.uncletopia.com","port":27045,"enabled":true,"region":"eu","cc":"gb","latitude":51.509865,"longitude":-0.118092,"reserved":0,"last_update":"0001-01-01T00:00:00Z","name_a2s":"Uncletopia | London | 4 | All Maps","protocol":17,"map":"cp_dustbowl","folder":"tf","game":"Team Fortress","app_id":440,"player_count":0,"max_players":24,"Bots":0,"server_type":"Dedicated","server_os":"Linux","password":true,"vac":true,"version":"7757534","steam_id":85568392924510193,"keywords":["cp","nocrits","nodmgspread","uncletopia"],"game_id":440,"stv_port":27046,"stv_name":"Uncletopia | London | 4 | All Maps | STV","players":null},{"server_id":21,"name":"Uncletopia | London | 5 | All Maps","name_short":"lon-5","host":"lon-1.uk.uncletopia.com","port":27055,"enabled":true,"region":"eu","cc":"gb","latitude":51.509865,"longitude":-0.118092,"reserved":0,"last_update":"0001-01-01T00:00:00Z","name_a2s":"Uncletopia | London | 5 | All Maps","protocol":17,"map":"cp_altitude","folder":"tf","game":"Team Fortress","app_id":440,"player_count":0,"max_players":24,"Bots":0,"server_type":"Dedicated","server_os":"Linux","password":true,"vac":true,"version":"7757534","steam_id":85568392924742829,"keywords":["cp","nocrits","nodmgspread","uncletopia"],"game_id":440,"stv_port":27056,"stv_name":"Uncletopia | London | 5 | All Maps | STV","players":null},{"server_id":22,"name":"Uncletopia | London | 6 | All Maps","name_short":"lon-6","host":"lon-1.uk.uncletopia.com","port":27065,"enabled":true,"region":"eu","cc":"gb","latitude":51.509865,"longitude":-0.118092,"reserved":0,"last_update":"0001-01-01T00:00:00Z","name_a2s":"Uncletopia | London | 6 | All Maps","protocol":17,"map":"cp_mountainlab","folder":"tf","game":"Team Fortress","app_id":440,"player_count":0,"max_players":24,"Bots":0,"server_type":"Dedicated","server_os":"Linux","password":true,"vac":true,"version":"7757534","steam_id":85568392924742830,"keywords":["cp","nocrits","nodmgspread","uncletopia"],"game_id":440,"stv_port":27066,"stv_name":"Uncletopia | London | 6 | All Maps | STV","players":null},{"server_id":40,"name":"Uncletopia | London | 7 | No Payload","name_short":"lon-7","host":"lon-1.uk.uncletopia.com","port":27075,"enabled":true,"region":"eu","cc":"gb","latitude":51.509865,"longitude":-0.118092,"reserved":0,"last_update":"0001-01-01T00:00:00Z","name_a2s":"Uncletopia | London | 7 | No Payload","protocol":17,"map":"pl_badwater","folder":"tf","game":"Team Fortress","app_id":440,"player_count":0,"max_players":24,"Bots":0,"server_type":"Dedicated","server_os":"Linux","password":true,"vac":true,"version":"7757534","steam_id":85568392924964314,"keywords":["nocrits","nodmgspread","payload","uncletopia"],"game_id":440,"stv_port":27076,"stv_name":"Uncletopia | London | 7 | No Payload | STV","players":null},{"server_id":41,"name":"Uncletopia | London | 8 | Community","name_short":"lon-8","host":"lon-1.uk.uncletopia.com","port":27085,"enabled":true,"region":"eu","cc":"gb","latitude":51.509865,"longitude":-0.118092,"reserved":0,"last_update":"0001-01-01T00:00:00Z","name_a2s":"Uncletopia | London | 8 | Community","protocol":17,"map":"pl_barnblitz","folder":"tf","game":"Team Fortress","app_id":440,"player_count":0,"max_players":24,"Bots":0,"server_type":"Dedicated","server_os":"Linux","password":true,"vac":true,"version":"7757534","steam_id":85568392924964315,"keywords":["nocrits","nodmgspread","payload","uncletopia"],"game_id":440,"stv_port":27086,"stv_name":"Uncletopia | London | 8 | Community | STV","players":null},{"server_id":300,"name":"Uncletopia | Montr√©al | 1 | All Maps","name_short":"mtl-1","host":"mtl-1.ca.uncletopia.com","port":27015,"enabled":true,"region":"us-east","cc":"ca","latitude":45.50889,"longitude":-73.56167,"reserved":0,"last_update":"0001-01-01T00:00:00Z","name_a2s":"Uncletopia | Montr√©al | 1 | All Maps","protocol":17,"map":"cp_dustbowl","folder":"tf","game":"Team Fortress","app_id":440,"player_count":0,"max_players":24,"Bots":0,"server_type":"Dedicated","server_os":"Linux","password":true,"vac":true,"version":"7757534","steam_id":85568392924500087,"keywords":["cp","nocrits","nodmgspread","uncletopia"],"game_id":440,"stv_port":27016,"stv_name":"Uncletopia | Montr√©al | 1 | All Maps | STV","players":null},{"server_id":301,"name":"Uncletopia | Montr√©al | 2 | All Maps","name_short":"mtl-2","host":"mtl-1.ca.uncletopia.com","port":27025,"enabled":true,"region":"us-east","cc":"ca","latitude":45.50889,"longitude":-73.56167,"reserved":0,"last_update":"0001-01-01T00:00:00Z","name_a2s":"Uncletopia | Montr√©al | 2 | All Maps","protocol":17,"map":"cp_process_final","folder":"tf","game":"Team Fortress","app_id":440,"player_count":0,"max_players":24,"Bots":0,"server_type":"Dedicated","server_os":"Linux","password":true,"vac":true,"version":"7757534","steam_id":85568392924500088,"keywords":["cp","nocrits","nodmgspread","uncletopia"],"game_id":440,"stv_port":27026,"stv_name":"Uncletopia | Montr√©al | 2 | All Maps | STV","players":null},{"server_id":302,"name":"Uncletopia | Montr√©al | 3 | All Maps","name_short":"mtl-3","host":"mtl-1.ca.uncletopia.com","port":27035,"enabled":true,"region":"us-east","cc":"ca","latitude":45.50889,"longitude":-73.56167,"reserved":0,"last_update":"0001-01-01T00:00:00Z","name_a2s":"Uncletopia | Montr√©al | 3 | All Maps","protocol":17,"map":"pl_borneo","folder":"tf","game":"Team Fortress","app_id":440,"player_count":0,"max_players":24,"Bots":0,"server_type":"Dedicated","server_os":"Linux","password":true,"vac":true,"version":"7757534","steam_id":85568392924500089,"keywords":["nocrits","nodmgspread","payload","uncletopia"],"game_id":440,"stv_port":27036,"stv_name":"Uncletopia | Montr√©al | 3 | All Maps | STV","players":null},{"server_id":303,"name":"Uncletopia | Montr√©al | 4 | No Payload","name_short":"mtl-4","host":"mtl-1.ca.uncletopia.com","port":27045,"enabled":true,"region":"us-east","cc":"ca","latitude":45.50889,"longitude":-73.56167,"reserved":0,"last_update":"0001-01-01T00:00:00Z","name_a2s":"Uncletopia | Montr√©al | 4 | No Payload","protocol":17,"map":"koth_harvest_final","folder":"tf","game":"Team Fortress","app_id":440,"player_count":0,"max_players":24,"Bots":0,"server_type":"Dedicated","server_os":"Linux","password":true,"vac":true,"version":"7757534","steam_id":85568392924500090,"keywords":["cp","nocrits","nodmgspread","uncletopia"],"game_id":440,"stv_port":27046,"stv_name":"Uncletopia | Montr√©al | 4 | No Payload | STV","players":null},{"server_id":13,"name":"Uncletopia | New York City | 1 | All Maps","name_short":"nyc-1","host":"nyc-1.us.uncletopia.com","port":27015,"enabled":true,"region":"us-east","cc":"us","latitude":40.73061,"longitude":-73.93524,"reserved":0,"last_update":"0001-01-01T00:00:00Z","name_a2s":"Uncletopia | New York City | 1 | All Maps","protocol":17,"map":"pl_barnblitz","folder":"tf","game":"Team Fortress","app_id":440,"player_count":0,"max_players":24,"Bots":0,"server_type":"Dedicated","server_os":"Linux","password":true,"vac":true,"version":"7757534","steam_id":85568392924469993,"keywords":["nocrits","nodmgspread","payload","uncletopia"],"game_id":440,"stv_port":27016,"stv_name":"Uncletopia | New York City | 1 | All Maps | STV","players":null},{"server_id":14,"name":"Uncletopia | New York City | 2 | All Maps","name_short":"nyc-2","host":"nyc-1.us.uncletopia.com","port":27025,"enabled":true,"region":"us-east","cc":"us","latitude":40.73061,"longitude":-73.93524,"reserved":0,"last_update":"0001-01-01T00:00:00Z","name_a2s":"Uncletopia | New York City | 2 | All Maps","protocol":17,"map":"pl_upward","folder":"tf","game":"Team Fortress","app_id":440,"player_count":24,"max_players":24,"Bots":0,"server_type":"Dedicated","server_os":"Linux","password":true,"vac":true,"version":"7757534","steam_id":85568392924469994,"keywords":["nocrits","nodmgspread","payload","uncletopia"],"game_id":440,"stv_port":27026,"stv_name":"Uncletopia | New York City | 2 | All Maps | STV","players":[{"user_id":553,"name":"Kirbs","steam_id":76561198970654800,"connected_time":2027000000000,"state":"active","ping":44},{"user_id":557,"name":"Nimdok","steam_id":76561198052213644,"connected_time":1640000000000,"state":"active","ping":61},{"user_id":575,"name":"toilethumor","steam_id":76561197962028780,"connected_time":759000000000,"state":"active","ping":60},{"user_id":554,"name":"Chillin Turt","steam_id":76561198025796849,"connected_time":1827000000000,"state":"active","ping":70},{"user_id":583,"name":"mogan","steam_id":76561198071700821,"connected_time":557000000000,"state":"active","ping":57},{"user_id":576,"name":"JustAWisp","steam_id":76561198311924005,"connected_time":613000000000,"state":"active","ping":77},{"user_id":584,"name":"The Angel of Death","steam_id":76561198026079349,"connected_time":326000000000,"state":"active","ping":119},{"user_id":556,"name":"Ludcmorais","steam_id":76561198359217809,"connected_time":1790000000000,"state":"active","ping":170},{"user_id":459,"name":"Horrizan","steam_id":76561197965028480,"connected_time":9081000000000,"state":"active","ping":85},{"user_id":566,"name":"Barry","steam_id":76561198983866005,"connected_time":1339000000000,"state":"active","ping":71},{"user_id":528,"name":"Yoshimelon","steam_id":76561198253054325,"connected_time":3244000000000,"state":"active","ping":75},{"user_id":529,"name":"arii","steam_id":76561198047026002,"connected_time":3193000000000,"state":"active","ping":76},{"user_id":574,"name":"quint","steam_id":76561198046797995,"connected_time":796000000000,"state":"active","ping":67},{"user_id":577,"name":"Bizcocho","steam_id":76561198086236897,"connected_time":606000000000,"state":"active","ping":40},{"user_id":550,"name":"KBoneski ‚ô°","steam_id":76561198307409065,"connected_time":2313000000000,"state":"active","ping":80},{"user_id":568,"name":"gt","steam_id":76561198033033884,"connected_time":1207000000000,"state":"active","ping":58},{"user_id":578,"name":"sonic1394","steam_id":76561198054636788,"connected_time":603000000000,"state":"active","ping":70},{"user_id":579,"name":"m-Seq","steam_id":76561198114922735,"connected_time":600000000000,"state":"active","ping":40},{"user_id":540,"name":"p4lly","steam_id":76561198078400787,"connected_time":2885000000000,"state":"active","ping":46},{"user_id":585,"name":"DD_440","steam_id":76561199135978082,"connected_time":273000000000,"state":"active","ping":51},{"user_id":580,"name":"CRAZY engineer","steam_id":76561198887937902,"connected_time":596000000000,"state":"active","ping":48},{"user_id":581,"name":"Colonel Chikara","steam_id":76561198010021087,"connected_time":576000000000,"state":"active","ping":113},{"user_id":586,"name":"ü§®","steam_id":76561199365672047,"connected_time":268000000000,"state":"active","ping":58},{"user_id":573,"name":"Lore","steam_id":76561198098407538,"connected_time":868000000000,"state":"active","ping":64}]},{"server_id":15,"name":"Uncletopia | New York City | 3 | Stopwatch Beta","name_short":"nyc-3","host":"nyc-1.us.uncletopia.com","port":27035,"enabled":true,"region":"us-east","cc":"us","latitude":40.73061,"longitude":-73.93524,"reserved":0,"last_update":"0001-01-01T00:00:00Z","name_a2s":"Uncletopia | New York City | 3 | Stopwatch Beta","protocol":17,"map":"cp_metalworks","folder":"tf","game":"Team Fortress","app_id":440,"player_count":0,"max_players":24,"Bots":0,"server_type":"Dedicated","server_os":"Linux","password":true,"vac":true,"version":"7757534","steam_id":85568392924742820,"keywords":["cp","nocrits","nodmgspread","uncletopia"],"game_id":440,"stv_port":27036,"stv_name":"Uncletopia | New York City | 3 | Stopwatch Beta | STV","players":null},{"server_id":16,"name":"Uncletopia | New York City | 4 | Community","name_short":"nyc-4","host":"nyc-1.us.uncletopia.com","port":27045,"enabled":true,"region":"us-east","cc":"us","latitude":40.73061,"longitude":-73.93524,"reserved":0,"last_update":"0001-01-01T00:00:00Z","name_a2s":"Uncletopia | New York City | 4 | Community","protocol":17,"map":"workshop/cp_glacier_rc6.ugc2905735376","folder":"tf","game":"Team Fortress","app_id":440,"player_count":0,"max_players":24,"Bots":0,"server_type":"Dedicated","server_os":"Linux","password":true,"vac":true,"version":"7757534","steam_id":85568392924742821,"keywords":["cp","nocrits","nodmgspread","uncletopia"],"game_id":440,"stv_port":27046,"stv_name":"Uncletopia | New York City | 4 | Community | STV","players":null},{"server_id":142,"name":"Uncletopia | S√£o Paulo | 1 | All Maps","name_short":"sao-1","host":"sao-1.br.uncletopia.com","port":27015,"enabled":true,"region":"sa","cc":"br","latitude":-23.533773,"longitude":-46.62529,"reserved":0,"last_update":"0001-01-01T00:00:00Z","name_a2s":"Uncletopia | S√£o Paulo | 1 | All Maps","protocol":17,"map":"koth_highpass","folder":"tf","game":"Team Fortress","app_id":440,"player_count":0,"max_players":24,"Bots":0,"server_type":"Dedicated","server_os":"Linux","password":true,"vac":true,"version":"7757534","steam_id":85568392924469996,"keywords":["cp","nocrits","nodmgspread","uncletopia"],"game_id":440,"stv_port":27016,"stv_name":"Uncletopia | S√£o Paulo | 1 | All Maps | STV","players":null},{"server_id":143,"name":"Uncletopia | S√£o Paulo | 2 | All Maps","name_short":"sao-2","host":"sao-2.br.uncletopia.com","port":27015,"enabled":true,"region":"sa","cc":"br","latitude":-23.533773,"longitude":-46.62529,"reserved":0,"last_update":"0001-01-01T00:00:00Z","name_a2s":"Uncletopia | S√£o Paulo | 2 | All Maps","protocol":17,"map":"koth_viaduct","folder":"tf","game":"Team Fortress","app_id":440,"player_count":0,"max_players":24,"Bots":0,"server_type":"Dedicated","server_os":"Linux","password":true,"vac":true,"version":"7757534","steam_id":85568392924485349,"keywords":["cp","nocrits","nodmgspread","uncletopia"],"game_id":440,"stv_port":27016,"stv_name":"Uncletopia | S√£o Paulo | 2 | All Maps | STV","players":null},{"server_id":7,"name":"Uncletopia | Seattle | 1 | All Maps","name_short":"sea-1","host":"sea-1.us.uncletopia.com","port":27015,"enabled":true,"region":"us-west","cc":"us","latitude":47.608013,"longitude":-122.33517,"reserved":0,"last_update":"0001-01-01T00:00:00Z","name_a2s":"Uncletopia | Seattle | 1 | All Maps","protocol":17,"map":"pl_upward","folder":"tf","game":"Team Fortress","app_id":440,"player_count":24,"max_players":24,"Bots":0,"server_type":"Dedicated","server_os":"Linux","password":true,"vac":true,"version":"7757534","steam_id":85568392924469997,"keywords":["nocrits","nodmgspread","payload","uncletopia"],"game_id":440,"stv_port":27016,"stv_name":"Uncletopia | Seattle | 1 | All Maps | STV","players":[{"user_id":720,"name":"soup","steam_id":76561198043209046,"connected_time":2389000000000,"state":"active","ping":83},{"user_id":736,"name":"Peppy","steam_id":76561198866629645,"connected_time":1058000000000,"state":"active","ping":62},{"user_id":728,"name":"TheOnlyThing","steam_id":76561198184637101,"connected_time":1552000000000,"state":"active","ping":81},{"user_id":721,"name":"Arsonist Goose","steam_id":76561198147441830,"connected_time":2377000000000,"state":"active","ping":72},{"user_id":691,"name":"Cheezbeargur","steam_id":76561198164702899,"connected_time":5141000000000,"state":"active","ping":63},{"user_id":729,"name":"vermin4pres","steam_id":76561198046073848,"connected_time":1539000000000,"state":"active","ping":46},{"user_id":714,"name":"Classic Muzz","steam_id":76561198835514043,"connected_time":3135000000000,"state":"active","ping":81},{"user_id":730,"name":"American Dad Funny Moments #32","steam_id":76561198254874328,"connected_time":1529000000000,"state":"active","ping":58},{"user_id":722,"name":"pudding","steam_id":76561199089788373,"connected_time":2352000000000,"state":"active","ping":116},{"user_id":737,"name":"gorlab","steam_id":76561198025089694,"connected_time":549000000000,"state":"active","ping":64},{"user_id":735,"name":"Pave_low","steam_id":76561198044001061,"connected_time":1075000000000,"state":"active","ping":77},{"user_id":706,"name":"Lazy-assed Prophet","steam_id":76561198214400452,"connected_time":3681000000000,"state":"active","ping":67},{"user_id":708,"name":"Thexx ‚ù§","steam_id":76561198113823050,"connected_time":3599000000000,"state":"active","ping":54},{"user_id":715,"name":"i am ethan","steam_id":76561198128868891,"connected_time":2869000000000,"state":"active","ping":69},{"user_id":723,"name":"Gingie","steam_id":76561198258981931,"connected_time":2350000000000,"state":"active","ping":94},{"user_id":716,"name":"Reaint","steam_id":76561199060677900,"connected_time":2847000000000,"state":"active","ping":66},{"user_id":697,"name":"‚ô•haunti","steam_id":76561199235580556,"connected_time":4618000000000,"state":"active","ping":47},{"user_id":726,"name":"forest","steam_id":76561198157960257,"connected_time":1924000000000,"state":"active","ping":38},{"user_id":732,"name":"SvicidalBug","steam_id":76561198221390504,"connected_time":1312000000000,"state":"active","ping":64},{"user_id":727,"name":"PerKnuckleChuckle","steam_id":76561198023221596,"connected_time":1720000000000,"state":"active","ping":86},{"user_id":640,"name":"smeasly","steam_id":76561198028718812,"connected_time":9301000000000,"state":"active","ping":43},{"user_id":683,"name":"Luca","steam_id":76561198125087140,"connected_time":6127000000000,"state":"active","ping":51},{"user_id":713,"name":"REEL","steam_id":76561198044432732,"connected_time":3151000000000,"state":"active","ping":85},{"user_id":724,"name":"SanitysEdge","steam_id":76561198130732813,"connected_time":2307000000000,"state":"active","ping":74}]},{"server_id":119,"name":"Uncletopia | Seattle | 2 | All Maps","name_short":"sea-2","host":"sea-1.us.uncletopia.com","port":27025,"enabled":true,"region":"us-west","cc":"us","latitude":47.608013,"longitude":-122.33517,"reserved":0,"last_update":"0001-01-01T00:00:00Z","name_a2s":"Uncletopia | Seattle | 2 | All Maps","protocol":17,"map":"pl_upward","folder":"tf","game":"Team Fortress","app_id":440,"player_count":24,"max_players":24,"Bots":0,"server_type":"Dedicated","server_os":"Linux","password":true,"vac":true,"version":"7757534","steam_id":85568392924469998,"keywords":["nocrits","nodmgspread","payload","uncletopia"],"game_id":440,"stv_port":27026,"stv_name":"Uncletopia | Seattle | 2 | All Maps | STV","players":[{"user_id":639,"name":"Orange","steam_id":76561198284737450,"connected_time":1347000000000,"state":"active","ping":87},{"user_id":667,"name":"Spaceman","steam_id":76561198349305249,"connected_time":69000000000,"state":"active","ping":62},{"user_id":657,"name":"squash","steam_id":76561198150281353,"connected_time":637000000000,"state":"active","ping":57},{"user_id":588,"name":"Astroa","steam_id":76561199190565830,"connected_time":3092000000000,"state":"active","ping":166},{"user_id":641,"name":"Mom","steam_id":76561198207936000,"connected_time":1178000000000,"state":"active","ping":60},{"user_id":664,"name":"TGGHaze gaming","steam_id":76561199134730784,"connected_time":368000000000,"state":"active","ping":133},{"user_id":658,"name":"gunnarrevel","steam_id":76561198842854582,"connected_time":551000000000,"state":"active","ping":63},{"user_id":567,"name":"Sir Nope (TSS)","steam_id":76561198035935649,"connected_time":3835000000000,"state":"active","ping":76},{"user_id":651,"name":"Locksteel","steam_id":76561198050679036,"connected_time":866000000000,"state":"active","ping":82},{"user_id":642,"name":"awesomebrololo","steam_id":76561198374283489,"connected_time":1139000000000,"state":"active","ping":78},{"user_id":590,"name":"Xaleist","steam_id":76561199090274838,"connected_time":3075000000000,"state":"active","ping":122},{"user_id":656,"name":"CTOAN","steam_id":76561198958617680,"connected_time":747000000000,"state":"active","ping":98},{"user_id":643,"name":"chaychaypae","steam_id":76561198357563566,"connected_time":1136000000000,"state":"active","ping":79},{"user_id":644,"name":"HeySan","steam_id":76561198184567366,"connected_time":1116000000000,"state":"active","ping":75},{"user_id":665,"name":"{907}DarkestFury","steam_id":76561198103662458,"connected_time":364000000000,"state":"active","ping":75},{"user_id":632,"name":"BucketofIce","steam_id":76561199108563726,"connected_time":1569000000000,"state":"active","ping":84},{"user_id":648,"name":"HOG RIDER","steam_id":76561198298589502,"connected_time":985000000000,"state":"active","ping":78},{"user_id":666,"name":"Lord Krit","steam_id":76561198014819670,"connected_time":113000000000,"state":"active","ping":73},{"user_id":554,"name":"laggy mcstab","steam_id":76561198106379962,"connected_time":4473000000000,"state":"active","ping":60},{"user_id":660,"name":"C U Next Tuesday","steam_id":76561198058493492,"connected_time":490000000000,"state":"active","ping":53},{"user_id":633,"name":"reclaim gaming","steam_id":76561198301019618,"connected_time":1548000000000,"state":"active","ping":84},{"user_id":662,"name":"OH JIMMY I'M HOME #SaveTf2","steam_id":76561198396658806,"connected_time":428000000000,"state":"active","ping":89},{"user_id":627,"name":"JayLatne","steam_id":76561198258221077,"connected_time":1856000000000,"state":"active","ping":54},{"user_id":669,"name":"lol","steam_id":76561198040670868,"connected_time":18000000000,"state":"spawning","ping":44}]},{"server_id":406,"name":"Uncletopia | Seattle | 3 | Stopwatch Beta","name_short":"sea-3","host":"sea-1.us.uncletopia.com","port":27035,"enabled":true,"region":"us-west","cc":"us","latitude":47.608013,"longitude":-122.33517,"reserved":0,"last_update":"0001-01-01T00:00:00Z","name_a2s":"Uncletopia | Seattle | 3 | Stopwatch Beta","protocol":17,"map":"koth_lakeside_final","folder":"tf","game":"Team Fortress","app_id":440,"player_count":0,"max_players":24,"Bots":0,"server_type":"Dedicated","server_os":"Linux","password":true,"vac":true,"version":"7757534","steam_id":85568392924515217,"keywords":["cp","nocrits","nodmgspread","uncletopia"],"game_id":440,"stv_port":27036,"stv_name":"Uncletopia | Seattle | 3 | Stopwatch Beta | STV","players":null},{"server_id":17,"name":"Uncletopia | San Francisco | 1 | All Maps","name_short":"sfo-1","host":"sfo-1.us.uncletopia.com","port":27015,"enabled":true,"region":"us-west","cc":"us","latitude":37.77397,"longitude":-122.4313,"reserved":0,"last_update":"0001-01-01T00:00:00Z","name_a2s":"Uncletopia | San Francisco | 1 | All Maps","protocol":17,"map":"pl_pier","folder":"tf","game":"Team Fortress","app_id":440,"player_count":19,"max_players":24,"Bots":0,"server_type":"Dedicated","server_os":"Linux","password":true,"vac":true,"version":"7757534","steam_id":85568392924469999,"keywords":["nocrits","nodmgspread","payload","uncletopia"],"game_id":440,"stv_port":27016,"stv_name":"Uncletopia | San Francisco | 1 | All Maps | STV","players":[{"user_id":574,"name":"ttv/californjoe","steam_id":76561197965047795,"connected_time":5939000000000,"state":"spawning","ping":64},{"user_id":606,"name":"Cleaver Scout","steam_id":76561198140517330,"connected_time":2773000000000,"state":"spawning","ping":74},{"user_id":630,"name":"Maid 'n' China","steam_id":76561198423392976,"connected_time":25000000000,"state":"spawning","ping":30},{"user_id":622,"name":"Livin' Like Larry","steam_id":76561198313360974,"connected_time":1790000000000,"state":"spawning","ping":44},{"user_id":628,"name":"GRAPE","steam_id":76561198150447896,"connected_time":1152000000000,"state":"spawning","ping":46},{"user_id":621,"name":"SpringIvan","steam_id":76561199133179509,"connected_time":1802000000000,"state":"spawning","ping":47},{"user_id":629,"name":"Ewan","steam_id":76561198817585729,"connected_time":863000000000,"state":"spawning","ping":112},{"user_id":551,"name":"perc 10","steam_id":76561198116471653,"connected_time":7612000000000,"state":"spawning","ping":52},{"user_id":577,"name":"Summer's Snowman","steam_id":76561198057140854,"connected_time":5706000000000,"state":"spawning","ping":71},{"user_id":627,"name":"kleeflord","steam_id":76561198798952432,"connected_time":1306000000000,"state":"spawning","ping":35},{"user_id":595,"name":"YungRichJr","steam_id":76561198250810964,"connected_time":4413000000000,"state":"spawning","ping":49},{"user_id":616,"name":"Ian","steam_id":76561198159334435,"connected_time":2386000000000,"state":"spawning","ping":171},{"user_id":602,"name":"Squirrel","steam_id":76561198010113101,"connected_time":3602000000000,"state":"spawning","ping":47},{"user_id":611,"name":"Cap","steam_id":76561198072870415,"connected_time":2622000000000,"state":"spawning","ping":66},{"user_id":598,"name":"noellehound","steam_id":76561198108844158,"connected_time":3759000000000,"state":"spawning","ping":51},{"user_id":619,"name":"neurotic","steam_id":76561198081545480,"connected_time":1814000000000,"state":"spawning","ping":86},{"user_id":612,"name":"Rafl","steam_id":76561198055222756,"connected_time":2608000000000,"state":"spawning","ping":68},{"user_id":626,"name":"Carte","steam_id":76561198077424488,"connected_time":1424000000000,"state":"spawning","ping":51},{"user_id":625,"name":"BBL Sponsor","steam_id":76561199093733603,"connected_time":1563000000000,"state":"spawning","ping":64}]},{"server_id":18,"name":"Uncletopia | San Francisco | 2 | All Maps","name_short":"sfo-2","host":"sfo-1.us.uncletopia.com","port":27025,"enabled":true,"region":"us-west","cc":"us","latitude":37.77397,"longitude":-122.4313,"reserved":0,"last_update":"0001-01-01T00:00:00Z","name_a2s":"Uncletopia | San Francisco | 2 | All Maps","protocol":17,"map":"koth_cascade","folder":"tf","game":"Team Fortress","app_id":440,"player_count":0,"max_players":24,"Bots":0,"server_type":"Dedicated","server_os":"Linux","password":true,"vac":true,"version":"7757534","steam_id":85568392924470000,"keywords":["cp","nocrits","nodmgspread","uncletopia"],"game_id":440,"stv_port":27026,"stv_name":"Uncletopia | San Francisco | 2 | All Maps | STV","players":null},{"server_id":19,"name":"Uncletopia | San Francisco | 3 | Stopwatch Beta","name_short":"sfo-3","host":"sfo-1.us.uncletopia.com","port":27035,"enabled":true,"region":"us-west","cc":"us","latitude":37.77397,"longitude":-122.4313,"reserved":0,"last_update":"0001-01-01T00:00:00Z","name_a2s":"Uncletopia | San Francisco | 3 | Stopwatch Beta","protocol":17,"map":"pl_swiftwater_final1","folder":"tf","game":"Team Fortress","app_id":440,"player_count":0,"max_players":24,"Bots":0,"server_type":"Dedicated","server_os":"Linux","password":true,"vac":true,"version":"7757534","steam_id":85568392924742824,"keywords":["nocrits","nodmgspread","payload","uncletopia"],"game_id":440,"stv_port":27036,"stv_name":"Uncletopia | San Francisco | 3 | Stopwatch Beta | STV","players":null},{"server_id":20,"name":"Uncletopia | San Francisco | 4 | Community","name_short":"sfo-4","host":"sfo-1.us.uncletopia.com","port":27045,"enabled":true,"region":"us-west","cc":"us","latitude":37.77397,"longitude":-122.4313,"reserved":0,"last_update":"0001-01-01T00:00:00Z","name_a2s":"Uncletopia | San Francisco | 4 | Community","protocol":17,"map":"workshop/rd_asteroid_redux_b1.ugc2154902912","folder":"tf","game":"Team Fortress","app_id":440,"player_count":0,"max_players":24,"Bots":0,"server_type":"Dedicated","server_os":"Linux","password":true,"vac":true,"version":"7757534","steam_id":85568392924742826,"keywords":["beta","nocrits","nodmgspread","rd","uncletopia"],"game_id":440,"stv_port":27046,"stv_name":"Uncletopia | San Francisco | 4 | Community | STV","players":null},{"server_id":141,"name":"Uncletopia | Sydney | 1 | All Maps","name_short":"syd-1","host":"syd-1.au.uncletopia.com","port":27015,"enabled":true,"region":"au","cc":"au","latitude":-33.865143,"longitude":151.2099,"reserved":0,"last_update":"0001-01-01T00:00:00Z","name_a2s":"Uncletopia | Sydney | 1 | All Maps","protocol":17,"map":"cp_sunshine","folder":"tf","game":"Team Fortress","app_id":440,"player_count":3,"max_players":24,"Bots":0,"server_type":"Dedicated","server_os":"Linux","password":true,"vac":true,"version":"7757534","steam_id":85568392924470001,"keywords":["cp","nocrits","nodmgspread","uncletopia"],"game_id":440,"stv_port":27016,"stv_name":"Uncletopia | Sydney | 1 | All Maps | STV","players":[{"user_id":26,"name":"Branko","steam_id":76561199262196710,"connected_time":756000000000,"state":"active","ping":42},{"user_id":24,"name":"Lancer","steam_id":76561198122813810,"connected_time":1014000000000,"state":"active","ping":111},{"user_id":25,"name":"cimpact","steam_id":76561198452258917,"connected_time":1010000000000,"state":"active","ping":140}]},{"server_id":123,"name":"Uncletopia | Sydney | 2 | All Maps","name_short":"syd-2","host":"syd-1.au.uncletopia.com","port":27025,"enabled":true,"region":"au","cc":"au","latitude":-33.865143,"longitude":151.2099,"reserved":0,"last_update":"0001-01-01T00:00:00Z","name_a2s":"Uncletopia | Sydney | 2 | All Maps","protocol":17,"map":"pl_upward","folder":"tf","game":"Team Fortress","app_id":440,"player_count":24,"max_players":24,"Bots":0,"server_type":"Dedicated","server_os":"Linux","password":true,"vac":true,"version":"7757534","steam_id":85568392924470002,"keywords":["nocrits","nodmgspread","payload","uncletopia"],"game_id":440,"stv_port":27026,"stv_name":"Uncletopia | Sydney | 2 | All Maps | STV","players":[{"user_id":93,"name":"Jodelk√∂nig Franzl Lang","steam_id":76561198007667830,"connected_time":9184000000000,"state":"active","ping":56},{"user_id":116,"name":"CypressFluff (She/Her)","steam_id":76561198174667818,"connected_time":6962000000000,"state":"active","ping":66},{"user_id":49,"name":"Rashid Of The Dank Memes","steam_id":76561198281398078,"connected_time":11721000000000,"state":"active","ping":50},{"user_id":171,"name":"Krispy Kreme","steam_id":76561197997362731,"connected_time":1795000000000,"state":"active","ping":44},{"user_id":183,"name":"WogBat","steam_id":76561198151221055,"connected_time":185000000000,"state":"active","ping":54},{"user_id":176,"name":"Natebox","steam_id":76561198027457443,"connected_time":1230000000000,"state":"active","ping":89},{"user_id":179,"name":"electro599","steam_id":76561198058148858,"connected_time":777000000000,"state":"active","ping":58},{"user_id":175,"name":"Fonzi","steam_id":76561198023266882,"connected_time":1363000000000,"state":"active","ping":44},{"user_id":86,"name":"Atner","steam_id":76561198442934454,"connected_time":9400000000000,"state":"active","ping":91},{"user_id":182,"name":"cakey","steam_id":76561198173746761,"connected_time":412000000000,"state":"active","ping":47},{"user_id":132,"name":"sf/k","steam_id":76561198047758776,"connected_time":5017000000000,"state":"active","ping":38},{"user_id":139,"name":"old chunk of coal","steam_id":76561197990537324,"connected_time":3919000000000,"state":"active","ping":105},{"user_id":162,"name":"Tentacle","steam_id":76561197994320010,"connected_time":2738000000000,"state":"active","ping":52},{"user_id":122,"name":"Zoey","steam_id":76561198126153554,"connected_time":6405000000000,"state":"active","ping":84},{"user_id":150,"name":"saudi ambassador messi","steam_id":76561198031293430,"connected_time":3514000000000,"state":"active","ping":89},{"user_id":123,"name":"Matt","steam_id":76561198006791420,"connected_time":6279000000000,"state":"active","ping":95},{"user_id":169,"name":"Chiral","steam_id":76561197970873039,"connected_time":1870000000000,"state":"active","ping":58},{"user_id":152,"name":"goob","steam_id":76561199480479443,"connected_time":3385000000000,"state":"active","ping":91},{"user_id":153,"name":"TwilightJericho","steam_id":76561198044875117,"connected_time":3363000000000,"state":"active","ping":74},{"user_id":163,"name":"Lv 9 Reborn Nubblet","steam_id":76561198069483103,"connected_time":2634000000000,"state":"active","ping":89},{"user_id":177,"name":"whiteshaq","steam_id":76561198131988811,"connected_time":1227000000000,"state":"active","ping":47},{"user_id":178,"name":"forced gollification","steam_id":76561198831069486,"connected_time":1200000000000,"state":"active","ping":46},{"user_id":166,"name":"BruceWillis235","steam_id":76561198884324029,"connected_time":2305000000000,"state":"active","ping":87},{"user_id":128,"name":"AzureFox","steam_id":76561198108179408,"connected_time":5600000000000,"state":"active","ping":84}]},{"server_id":395,"name":"Uncletopia | Sydney | 3 | All Maps","name_short":"syd-3","host":"syd-1.au.uncletopia.com","port":27035,"enabled":true,"region":"au","cc":"au","latitude":-33.865143,"longitude":151.2099,"reserved":0,"last_update":"0001-01-01T00:00:00Z","name_a2s":"Uncletopia | Sydney | 3 | All Maps","protocol":17,"map":"pl_borneo","folder":"tf","game":"Team Fortress","app_id":440,"player_count":0,"max_players":24,"Bots":0,"server_type":"Dedicated","server_os":"Linux","password":true,"vac":true,"version":"7757534","steam_id":85568392925194467,"keywords":["nocrits","nodmgspread","payload","uncletopia"],"game_id":440,"stv_port":27036,"stv_name":"Uncletopia | Sydney | 3 | All Maps | STV","players":null},{"server_id":396,"name":"Uncletopia | Sydney | 4 | All Maps","name_short":"syd-4","host":"syd-1.au.uncletopia.com","port":27045,"enabled":true,"region":"au","cc":"au","latitude":-33.865143,"longitude":151.2099,"reserved":0,"last_update":"0001-01-01T00:00:00Z","name_a2s":"Uncletopia | Sydney | 4 | All Maps","protocol":17,"map":"koth_highpass","folder":"tf","game":"Team Fortress","app_id":440,"player_count":0,"max_players":24,"Bots":0,"server_type":"Dedicated","server_os":"Linux","password":true,"vac":true,"version":"7757534","steam_id":85568392925397958,"keywords":["cp","nocrits","nodmgspread","uncletopia"],"game_id":440,"stv_port":27046,"stv_name":"Uncletopia | Sydney | 4 | All Maps | STV","players":null},{"server_id":58,"name":"Uncletopia | Sydney | 5 | Stopwatch Beta","name_short":"syd-5","host":"syd-1.au.uncletopia.com","port":27055,"enabled":true,"region":"au","cc":"au","latitude":-33.865143,"longitude":151.2099,"reserved":0,"last_update":"0001-01-01T00:00:00Z","name_a2s":"Uncletopia | Sydney | 5 | Stopwatch Beta","protocol":17,"map":"koth_cascade","folder":"tf","game":"Team Fortress","app_id":440,"player_count":0,"max_players":24,"Bots":0,"server_type":"Dedicated","server_os":"Linux","password":true,"vac":true,"version":"7757534","steam_id":85568392925397959,"keywords":["cp","nocrits","nodmgspread","uncletopia"],"game_id":440,"stv_port":27056,"stv_name":"Uncletopia | Sydney | 5 | Stopwatch Beta | STV","players":null},{"server_id":59,"name":"Uncletopia | Sydney | 6 | Community","name_short":"syd-6","host":"syd-1.au.uncletopia.com","port":27065,"enabled":true,"region":"au","cc":"au","latitude":-33.865143,"longitude":151.2099,"reserved":0,"last_update":"0001-01-01T00:00:00Z","name_a2s":"Uncletopia | Sydney | 6 | Community","protocol":17,"map":"workshop/pl_vigil_rc9.ugc1266210012","folder":"tf","game":"Team Fortress","app_id":440,"player_count":0,"max_players":24,"Bots":0,"server_type":"Dedicated","server_os":"Linux","password":true,"vac":true,"version":"7757534","steam_id":85568392925397960,"keywords":["nocrits","nodmgspread","payload","uncletopia"],"game_id":440,"stv_port":27066,"stv_name":"Uncletopia | Sydney | 6 | Community | STV","players":null},{"server_id":49,"name":"Uncletopia | Warsaw | 1 | All Maps","name_short":"waw-1","host":"waw-1.pl.uncletopia.com","port":27015,"enabled":true,"region":"eu","cc":"pl","latitude":52.2297,"longitude":21.017532,"reserved":0,"last_update":"0001-01-01T00:00:00Z","name_a2s":"","protocol":0,"map":"","folder":"","game":"","app_id":0,"player_count":0,"max_players":0,"Bots":0,"server_type":"","server_os":"","password":false,"vac":false,"version":"","steam_id":0,"keywords":null,"game_id":0,"stv_port":0,"stv_name":"","players":null},{"server_id":50,"name":"Uncletopia | Warsaw | 2 | All Maps","name_short":"waw-2","host":"waw-1.pl.uncletopia.com","port":27025,"enabled":true,"region":"eu","cc":"pl","latitude":52.2297,"longitude":21.017532,"reserved":0,"last_update":"0001-01-01T00:00:00Z","name_a2s":"Uncletopia | Warsaw | 2 | All Maps","protocol":17,"map":"koth_viaduct","folder":"tf","game":"Team Fortress","app_id":440,"player_count":0,"max_players":24,"Bots":0,"server_type":"Dedicated","server_os":"Linux","password":true,"vac":true,"version":"7757534","steam_id":85568392925397851,"keywords":["cp","nocrits","nodmgspread","uncletopia"],"game_id":440,"stv_port":27026,"stv_name":"Uncletopia | Warsaw | 2 | All Maps | STV","players":null},{"server_id":51,"name":"Uncletopia | Warsaw | 3 | All Maps","name_short":"waw-3","host":"waw-1.pl.uncletopia.com","port":27035,"enabled":true,"region":"eu","cc":"pl","latitude":52.2297,"longitude":21.017532,"reserved":0,"last_update":"0001-01-01T00:00:00Z","name_a2s":"Uncletopia | Warsaw | 3 | All Maps","protocol":17,"map":"pl_badwater","folder":"tf","game":"Team Fortress","app_id":440,"player_count":0,"max_players":24,"Bots":0,"server_type":"Dedicated","server_os":"Linux","password":true,"vac":true,"version":"7757534","steam_id":85568392925397852,"keywords":["nocrits","nodmgspread","payload","uncletopia"],"game_id":440,"stv_port":27036,"stv_name":"Uncletopia | Warsaw | 3 | All Maps | STV","players":null},{"server_id":52,"name":"Uncletopia | Warsaw | 4 | All Maps","name_short":"waw-4","host":"waw-1.pl.uncletopia.com","port":27045,"enabled":true,"region":"eu","cc":"pl","latitude":52.2297,"longitude":21.017532,"reserved":0,"last_update":"0001-01-01T00:00:00Z","name_a2s":"Uncletopia | Warsaw | 4 | All Maps","protocol":17,"map":"koth_lakeside_final","folder":"tf","game":"Team Fortress","app_id":440,"player_count":0,"max_players":24,"Bots":0,"server_type":"Dedicated","server_os":"Linux","password":true,"vac":true,"version":"7757534","steam_id":85568392925397853,"keywords":["cp","nocrits","nodmgspread","uncletopia"],"game_id":440,"stv_port":27046,"stv_name":"Uncletopia | Warsaw | 4 | All Maps | STV","players":null},{"server_id":53,"name":"Uncletopia | Warsaw | 5 | Stopwatch Beta","name_short":"waw-5","host":"waw-1.pl.uncletopia.com","port":27055,"enabled":true,"region":"eu","cc":"pl","latitude":52.2297,"longitude":21.017532,"reserved":0,"last_update":"0001-01-01T00:00:00Z","name_a2s":"Uncletopia | Warsaw | 5 | Stopwatch Beta","protocol":17,"map":"pl_borneo","folder":"tf","game":"Team Fortress","app_id":440,"player_count":0,"max_players":24,"Bots":0,"server_type":"Dedicated","server_os":"Linux","password":true,"vac":true,"version":"7757534","steam_id":85568392925397854,"keywords":["nocrits","nodmgspread","payload","uncletopia"],"game_id":440,"stv_port":27056,"stv_name":"Uncletopia | Warsaw | 5 | Stopwatch Beta | STV","players":null},{"server_id":54,"name":"Uncletopia | Warsaw | 6 | Community","name_short":"waw-6","host":"waw-1.pl.uncletopia.com","port":27065,"enabled":true,"region":"eu","cc":"pl","latitude":52.2297,"longitude":21.017532,"reserved":0,"last_update":"0001-01-01T00:00:00Z","name_a2s":"Uncletopia | Warsaw | 6 | Community","protocol":17,"map":"koth_lakeside_final","folder":"tf","game":"Team Fortress","app_id":440,"player_count":0,"max_players":24,"Bots":0,"server_type":"Dedicated","server_os":"Linux","password":true,"vac":true,"version":"7757534","steam_id":85568392925397856,"keywords":["cp","nocrits","nodmgspread","uncletopia"],"game_id":440,"stv_port":27066,"stv_name":"Uncletopia | Warsaw | 6 | Community | STV","players":null}]}