{"status":true,"message":"","result":[{"server_id":9,"name":"Uncletopia | Atlanta | 1 | All Maps","name_short":"atl-1","host":"atl-1.us.uncletopia.com","port":27015,"enabled":true,"region":"us-east","cc":"us","latitude":33.753746,"longitude":-84.38633,"reserved":0,"last_update":"0001-01-01T00:00:00Z","name_a2s":"Uncletopia | Atlanta | 1 | All Maps","protocol":17,"map":"pl_badwater","folder":"tf","game":"Team Fortress","app_id":440,"player_count":24,"max_players":24,"Bots":0,"server_type":"Dedicated","server_os":"Linux","password":true,"vac":true,"version":"7757534","steam_id":85568392924469982,"keywords":["nocrits","nodmgspread","payload","uncletopia"],"game_id":440,"stv_port":27016,"stv_name":"Uncletopia | Atlanta | 1 | All Maps | STV","players":[{"user_id":456,"name":"Red1 | Pharaxer‚Ñ¢","steam_id":76561198051236069,"connected_time":900000000000,"state":"active","ping":155},{"user_id":444,"name":"Potato Masher","steam_id":76561198056712845,"connected_time":2019000000000,"state":"active","ping":44},{"user_id":447,"name":"WillieMakit","steam_id":76561197985391684,"connected_time":1548000000000,"state":"active","ping":109},{"user_id":382,"name":"Mage","steam_id":76561198285026879,"connected_time":9103000000000,"state":"active","ping":80},{"user_id":458,"name":"heimdall","steam_id":76561198069380992,"connected_time":887000000000,"state":"active","ping":76},{"user_id":453,"name":"Sol","steam_id":76561199008085020,"connected_time":1200000000000,"state":"active","ping":60},{"user_id":454,"name":"VnZ","steam_id":76561198123675820,"connected_time":1071000000000,"state":"active","ping":63},{"user_id":431,"name":"Captain Tuxedo Terrorist","steam_id":76561198261025556,"connected_time":2981000000000,"state":"active","ping":119},{"user_id":399,"name":"Genetic Komodo","steam_id":76561198174806758,"connected_time":6176000000000,"state":"active","ping":55},{"user_id":455,"name":"Tman","steam_id":76561198118515559,"connected_time":908000000000,"state":"active","ping":46},{"user_id":465,"name":"SeaBass","steam_id":76561198278914206,"connected_time":418000000000,"state":"active","ping":62},{"user_id":460,"name":"Jailbreak","steam_id":76561198802085218,"connected_time":836000000000,"state":"active","ping":98},{"user_id":452,"name":"bogginwater","steam_id":76561198155547142,"connected_time":1253000000000,"state":"active","ping":67},{"user_id":457,"name":"RED1 | snoops","steam_id":76561197986760351,"connected_time":897000000000,"state":"active","ping":75},{"user_id":422,"name":"FreonAddict9x19","steam_id":76561198060010824,"connected_time":4019000000000,"state":"active","ping":70},{"user_id":396,"name":"The Professor","steam_id":76561198113760863,"connected_time":6362000000000,"state":"active","ping":61},{"user_id":461,"name":"YASAI JUICE","steam_id":76561198131971992,"connected_time":830000000000,"state":"active","ping":56},{"user_id":389,"name":"floofy","steam_id":76561198389769098,"connected_time":7664000000000,"state":"active","ping":88},{"user_id":441,"name":"El Chapo","steam_id":76561198018182763,"connected_time":2185000000000,"state":"active","ping":94},{"user_id":378,"name":"Anna","steam_id":76561197999657118,"connected_time":9193000000000,"state":"active","ping":98},{"user_id":466,"name":"Chef","steam_id":76561198086523798,"connected_time":385000000000,"state":"active","ping":55},{"user_id":443,"name":"Mr. Dr. PhD Expert","steam_id":76561198151253061,"connected_time":2152000000000,"state":"active","ping":61},{"user_id":468,"name":"‚ô•Bunny‚ô•Slut‚ô•","steam_id":76561198206376851,"connected_time":220000000000,"state":"active","ping":185},{"user_id":463,"name":"Zhenaj","steam_id":76561199209016136,"connected_time":808000000000,"state":"active","ping":84}]},{"server_id":400,"name":"Uncletopia | Atlanta | 3 | Community","name_short":"atl-3","host":"atl-1.us.uncletopia.com","port":27035,"enabled":true,"region":"us-east","cc":"us","latitude":33.753746,"longitude":-84.38633,"reserved":0,"last_update":"0001-01-01T00:00:00Z","name_a2s":"Uncletopia | Atlanta | 3 | Community","protocol":17,"map":"workshop/pl_badwater_pro_v12.ugc2142942074","folder":"tf","game":"Team Fortress","app_id":440,"player_count":22,"max_players":32,"Bots":0,"server_type":"Dedicated","server_os":"Linux","password":true,"vac":true,"version":"7757534","steam_id":85568392924515187,"keywords":["increased_maxplayers","nocrits","nodmgspread","payload","uncletopia"],"game_id":440,"stv_port":27036,"stv_name":"Uncletopia | Atlanta | 3 | Community | STV","players":[{"user_id":676,"name":"land0","steam_id":76561198321264704,"connected_time":204000000000,"state":"active","ping":103},{"user_id":648,"name":"Silvercoat's Stargazer","steam_id":76561198399525329,"connected_time":1271000000000,"state":"active","ping":75},{"user_id":616,"name":"giura","steam_id":76561197986794525,"connected_time":2090000000000,"state":"active","ping":99},{"user_id":632,"name":"The Mann of Hecc","steam_id":76561199090553975,"connected_time":1696000000000,"state":"active","ping":91},{"user_id":630,"name":"Tomoko2001","steam_id":76561198047117990,"connected_time":1796000000000,"state":"active","ping":93},{"user_id":613,"name":"Clippopotamus","steam_id":76561199064713608,"connected_time":2264000000000,"state":"active","ping":74},{"user_id":646,"name":"snuppy","steam_id":76561199157666657,"connected_time":1283000000000,"state":"active","ping":85},{"user_id":658,"name":"Your Local Jester","steam_id":76561199120223717,"connected_time":899000000000,"state":"active","ping":72},{"user_id":681,"name":"Baumber191","steam_id":76561198208612705,"connected_time":43000000000,"state":"active","ping":115},{"user_id":594,"name":"The Winter Medic","steam_id":76561198197112922,"connected_time":2870000000000,"state":"active","ping":78},{"user_id":675,"name":"Foxtrot Uniform‚Ñ¢","steam_id":76561199236576844,"connected_time":235000000000,"state":"active","ping":85},{"user_id":667,"name":"HAZE","steam_id":76561199122452602,"connected_time":668000000000,"state":"spawning","ping":201},{"user_id":666,"name":"Black Chan","steam_id":76561198053355299,"connected_time":743000000000,"state":"active","ping":139},{"user_id":647,"name":"Joseph \"Biden\" Stalin","steam_id":76561198213863907,"connected_time":1276000000000,"state":"active","ping":172},{"user_id":573,"name":"foot pricess","steam_id":76561198090412935,"connected_time":3673000000000,"state":"active","ping":80},{"user_id":637,"name":"DaÃµksuki","steam_id":76561198084127751,"connected_time":1468000000000,"state":"active","ping":79},{"user_id":678,"name":"Ground Control to Majortom","steam_id":76561198065589126,"connected_time":97000000000,"state":"active","ping":64},{"user_id":576,"name":"BobSoup89","steam_id":76561198908566221,"connected_time":3617000000000,"state":"active","ping":76},{"user_id":650,"name":"Red","steam_id":76561198031865869,"connected_time":1214000000000,"state":"active","ping":76},{"user_id":661,"name":"rollypollyolie","steam_id":76561198039539380,"connected_time":840000000000,"state":"active","ping":128},{"user_id":611,"name":"Sea raider","steam_id":76561199223358782,"connected_time":2296000000000,"state":"active","ping":111},{"user_id":655,"name":"PLATYPUS","steam_id":76561198255796625,"connected_time":1132000000000,"state":"active","ping":118}]},{"server_id":401,"name":"Uncletopia | Atlanta | 4 | No Payload","name_short":"atl-4","host":"atl-1.us.uncletopia.com","port":27045,"enabled":true,"region":"us-east","cc":"us","latitude":33.753746,"longitude":-84.38633,"reserved":0,"last_update":"0001-01-01T00:00:00Z","name_a2s":"","protocol":0,"map":"","folder":"","game":"","app_id":0,"player_count":0,"max_players":0,"Bots":0,"server_type":"","server_os":"","password":false,"vac":false,"version":"","steam_id":0,"keywords":null,"game_id":0,"stv_port":0,"stv_name":"","players":null},{"server_id":2,"name":"Uncletopia | Chicago | 1 | All Maps","name_short":"chi-1","host":"chi-1.us.uncletopia.com","port":27015,"enabled":true,"region":"us-central","cc":"us","latitude":41.881832,"longitude":-87.62318,"reserved":0,"last_update":"0001-01-01T00:00:00Z","name_a2s":"Uncletopia | Chicago | 1 | All Maps","protocol":17,"map":"pl_pier","folder":"tf","game":"Team Fortress","app_id":440,"player_count":24,"max_players":24,"Bots":0,"server_type":"Dedicated","server_os":"Linux","password":true,"vac":true,"version":"7757534","steam_id":85568392924469984,"keywords":["nocrits","nodmgspread","payload","uncletopia"],"game_id":440,"stv_port":27016,"stv_name":"Uncletopia | Chicago | 1 | All Maps | STV","players":[{"user_id":358,"name":"Frajer","steam_id":76561198059129680,"connected_time":40000000000,"state":"active","ping":172},{"user_id":350,"name":"I bomb atomically","steam_id":76561198009818412,"connected_time":635000000000,"state":"active","ping":152},{"user_id":359,"name":"macironi and chesse","steam_id":76561199098060805,"connected_time":30000000000,"state":"active","ping":49},{"user_id":331,"name":"Fever Dreams","steam_id":76561198116614620,"connected_time":1559000000000,"state":"spawning","ping":56},{"user_id":241,"name":"PKBEAST_7","steam_id":76561198177136537,"connected_time":8222000000000,"state":"spawning","ping":144},{"user_id":347,"name":"Chromatic Bliss","steam_id":76561198252604816,"connected_time":723000000000,"state":"spawning","ping":59},{"user_id":318,"name":"Ademar","steam_id":76561199391802581,"connected_time":2184000000000,"state":"spawning","ping":55},{"user_id":351,"name":"The Don","steam_id":76561198016807790,"connected_time":547000000000,"state":"active","ping":124},{"user_id":324,"name":"Gabinator32","steam_id":76561198872467183,"connected_time":1861000000000,"state":"active","ping":46},{"user_id":291,"name":"Cousin Corn on the Cob","steam_id":76561198049837377,"connected_time":4428000000000,"state":"spawning","ping":52},{"user_id":354,"name":"Bungalow Bill","steam_id":76561198033536404,"connected_time":452000000000,"state":"spawning","ping":368},{"user_id":297,"name":"travis cheese","steam_id":76561198193405221,"connected_time":3535000000000,"state":"active","ping":24},{"user_id":353,"name":"Big Phony","steam_id":76561199092395311,"connected_time":473000000000,"state":"spawning","ping":47},{"user_id":356,"name":"Thatoneguybunchanumbers","steam_id":76561198028039160,"connected_time":163000000000,"state":"active","ping":321},{"user_id":361,"name":"simpsons capitalist","steam_id":76561198054731676,"connected_time":11000000000,"state":"spawning","ping":67},{"user_id":355,"name":"pat fusty","steam_id":76561198117181511,"connected_time":394000000000,"state":"active","ping":91},{"user_id":282,"name":"the bulldozer","steam_id":76561198800334545,"connected_time":5202000000000,"state":"spawning","ping":108},{"user_id":334,"name":"Captain Buggy","steam_id":76561198024444448,"connected_time":1307000000000,"state":"spawning","ping":94},{"user_id":322,"name":"fuckterry","steam_id":76561198271957738,"connected_time":1957000000000,"state":"spawning","ping":65},{"user_id":362,"name":"aaron","steam_id":76561198308883028,"connected_time":8000000000,"state":"spawning","ping":76},{"user_id":327,"name":"super","steam_id":76561198800358844,"connected_time":1813000000000,"state":"spawning","ping":62},{"user_id":341,"name":"bonk","steam_id":76561198004823930,"connected_time":949000000000,"state":"spawning","ping":57},{"user_id":332,"name":"Jojoba üêπ","steam_id":76561198262218456,"connected_time":1523000000000,"state":"active","ping":61},{"user_id":330,"name":"‚òÇBliffenstimmers‚òÇ","steam_id":76561198059984896,"connected_time":1767000000000,"state":"spawning","ping":67}]},{"server_id":106,"name":"Uncletopia | Chicago | 2 | All Maps","name_short":"chi-2","host":"chi-1.us.uncletopia.com","port":27025,"enabled":true,"region":"us-central","cc":"us","latitude":41.881832,"longitude":-87.62318,"reserved":0,"last_update":"0001-01-01T00:00:00Z","name_a2s":"Uncletopia | Chicago | 2 | All Maps","protocol":17,"map":"pl_pier","folder":"tf","game":"Team Fortress","app_id":440,"player_count":24,"max_players":24,"Bots":0,"server_type":"Dedicated","server_os":"Linux","password":true,"vac":true,"version":"7757534","steam_id":85568392924469985,"keywords":["nocrits","nodmgspread","payload","uncletopia"],"game_id":440,"stv_port":27026,"stv_name":"Uncletopia | Chicago | 2 | All Maps | STV","players":[{"user_id":272,"name":"SirCleric","steam_id":76561198353556457,"connected_time":434000000000,"state":"active","ping":71},{"user_id":261,"name":"„ãõ countblanc","steam_id":76561197993171771,"connected_time":1274000000000,"state":"active","ping":45},{"user_id":229,"name":"Big Philly","steam_id":76561198104682999,"connected_time":2314000000000,"state":"active","ping":69},{"user_id":235,"name":"DBearDConqueror","steam_id":76561198084775659,"connected_time":2078000000000,"state":"active","ping":70},{"user_id":226,"name":"that one guy","steam_id":76561198081689582,"connected_time":2350000000000,"state":"active","ping":66},{"user_id":269,"name":"üéÉBunnyüéÉ","steam_id":76561198074872531,"connected_time":665000000000,"state":"active","ping":70},{"user_id":240,"name":"Shaquille Oatmeal","steam_id":76561198283213819,"connected_time":1818000000000,"state":"active","ping":74},{"user_id":241,"name":"Tatermytots","steam_id":76561198309634514,"connected_time":1786000000000,"state":"active","ping":148},{"user_id":273,"name":"TheFallenFox","steam_id":76561199074190919,"connected_time":78000000000,"state":"active","ping":138},{"user_id":276,"name":"CherryYeti","steam_id":76561199221441151,"connected_time":43000000000,"state":"active","ping":101},{"user_id":255,"name":"chiswola","steam_id":76561198046920142,"connected_time":1491000000000,"state":"active","ping":72},{"user_id":268,"name":"MoonWolf","steam_id":76561198095735033,"connected_time":816000000000,"state":"active","ping":83},{"user_id":263,"name":"Kapreesi","steam_id":76561198163361200,"connected_time":1162000000000,"state":"active","ping":73},{"user_id":264,"name":"Rock Kickass","steam_id":76561198450510841,"connected_time":1159000000000,"state":"active","ping":124},{"user_id":275,"name":"a crazy hobo","steam_id":76561198289650060,"connected_time":44000000000,"state":"active","ping":91},{"user_id":277,"name":"DFR DeezNoodlez","steam_id":76561198246700372,"connected_time":41000000000,"state":"active","ping":74},{"user_id":278,"name":"Huge","steam_id":76561199030987614,"connected_time":34000000000,"state":"active","ping":83},{"user_id":257,"name":"Space‚≠êTaffy","steam_id":76561198002271720,"connected_time":1360000000000,"state":"active","ping":60},{"user_id":160,"name":"Congo","steam_id":76561198219267845,"connected_time":7778000000000,"state":"active","ping":90},{"user_id":270,"name":"brake pipe","steam_id":76561198056330171,"connected_time":658000000000,"state":"active","ping":64},{"user_id":259,"name":"jackhillard83","steam_id":76561199057098390,"connected_time":1337000000000,"state":"active","ping":84},{"user_id":267,"name":"Cliff Uppercut","steam_id":76561197999439391,"connected_time":947000000000,"state":"active","ping":81},{"user_id":251,"name":"Purplest","steam_id":76561198093523277,"connected_time":1560000000000,"state":"active","ping":45},{"user_id":260,"name":"bojack from the show bojack hor","steam_id":76561198053006712,"connected_time":1321000000000,"state":"active","ping":56}]},{"server_id":402,"name":"Uncletopia | Chicago | 3 | All Maps","name_short":"chi-3","host":"chi-1.us.uncletopia.com","port":27035,"enabled":true,"region":"us-central","cc":"us","latitude":41.881832,"longitude":-87.62318,"reserved":0,"last_update":"0001-01-01T00:00:00Z","name_a2s":"Uncletopia | Chicago | 3 | All Maps","protocol":17,"map":"plr_bananabay","folder":"tf","game":"Team Fortress","app_id":440,"player_count":20,"max_players":24,"Bots":0,"server_type":"Dedicated","server_os":"Linux","password":true,"vac":true,"version":"7757534","steam_id":85568392924515191,"keywords":["nocrits","nodmgspread","payload","uncletopia"],"game_id":440,"stv_port":27036,"stv_name":"Uncletopia | Chicago | 3 | All Maps | STV","players":[{"user_id":634,"name":"Chicken Chicken Chicken Chicken","steam_id":76561198384238790,"connected_time":168000000000,"state":"active","ping":60},{"user_id":633,"name":"Toottoot","steam_id":76561197992404836,"connected_time":177000000000,"state":"active","ping":46},{"user_id":604,"name":"Balerion the Black Dread","steam_id":76561198003728369,"connected_time":2180000000000,"state":"active","ping":65},{"user_id":635,"name":"barker bill","steam_id":76561198018451994,"connected_time":53000000000,"state":"active","ping":78},{"user_id":575,"name":"Sydney","steam_id":76561198797603297,"connected_time":4262000000000,"state":"active","ping":59},{"user_id":614,"name":"Resentment, swallower of souls.","steam_id":76561198103503066,"connected_time":1683000000000,"state":"active","ping":85},{"user_id":636,"name":"Zesty Jesus","steam_id":76561198052431073,"connected_time":42000000000,"state":"active","ping":61},{"user_id":582,"name":"KEEN","steam_id":76561197988436984,"connected_time":4001000000000,"state":"active","ping":59},{"user_id":631,"name":"Johnny Foodlover","steam_id":76561198257872736,"connected_time":419000000000,"state":"active","ping":62},{"user_id":637,"name":"Ironaka","steam_id":76561198029993183,"connected_time":27000000000,"state":"active","ping":83},{"user_id":609,"name":"StripeStooge","steam_id":76561198101144808,"connected_time":1893000000000,"state":"active","ping":51},{"user_id":530,"name":"Yam Jazzy Jim","steam_id":76561198000788950,"connected_time":7547000000000,"state":"active","ping":59},{"user_id":551,"name":"ShitsandGiggles‚Ñ¢","steam_id":76561198058708019,"connected_time":6246000000000,"state":"active","ping":54},{"user_id":611,"name":"Jerma985 fan","steam_id":76561198094812010,"connected_time":1821000000000,"state":"active","ping":46},{"user_id":510,"name":"an inebriated newt fancier","steam_id":76561197985428155,"connected_time":9096000000000,"state":"active","ping":59},{"user_id":613,"name":"Giovanni Battista Bugatti","steam_id":76561198158285796,"connected_time":1739000000000,"state":"active","ping":85},{"user_id":579,"name":"Wug","steam_id":76561198084112264,"connected_time":4096000000000,"state":"active","ping":74},{"user_id":626,"name":"Theodore Roosevelt","steam_id":76561197993295656,"connected_time":1117000000000,"state":"active","ping":45},{"user_id":630,"name":"Joseph Stalin","steam_id":76561198126234142,"connected_time":538000000000,"state":"active","ping":77},{"user_id":586,"name":"CJDGuy","steam_id":76561198213009545,"connected_time":3938000000000,"state":"active","ping":85}]},{"server_id":403,"name":"Uncletopia | Chicago | 4 | All Maps","name_short":"chi-4","host":"chi-1.us.uncletopia.com","port":27045,"enabled":true,"region":"us-central","cc":"us","latitude":41.881832,"longitude":-87.62318,"reserved":0,"last_update":"0001-01-01T00:00:00Z","name_a2s":"Uncletopia | Chicago | 4 | All Maps","protocol":17,"map":"pl_goldrush","folder":"tf","game":"Team Fortress","app_id":440,"player_count":25,"max_players":24,"Bots":0,"server_type":"Dedicated","server_os":"Linux","password":true,"vac":true,"version":"7757534","steam_id":85568392924515193,"keywords":["nocrits","nodmgspread","payload","uncletopia"],"game_id":440,"stv_port":27046,"stv_name":"Uncletopia | Chicago | 4 | All Maps | STV","players":[{"user_id":647,"name":"Horrizan","steam_id":76561197965028480,"connected_time":2428000000000,"state":"active","ping":74},{"user_id":648,"name":"djdinosaur","steam_id":76561197961629382,"connected_time":2342000000000,"state":"active","ping":74},{"user_id":712,"name":"Soto101","steam_id":76561198141538280,"connected_time":539000000000,"state":"active","ping":55},{"user_id":713,"name":"Moist Marauder","steam_id":76561198127097781,"connected_time":536000000000,"state":"active","ping":57},{"user_id":711,"name":"RedBatman","steam_id":76561198064252016,"connected_time":600000000000,"state":"active","ping":84},{"user_id":622,"name":"The Sydney Sleeper Itself","steam_id":76561198180251763,"connected_time":2877000000000,"state":"active","ping":66},{"user_id":671,"name":"Brian","steam_id":76561198144650969,"connected_time":1656000000000,"state":"active","ping":85},{"user_id":692,"name":"‚ù§‚ô°ÔΩ•ÔæüBubblesÔΩ•Ôæü‚ô°‚ù§","steam_id":76561198041057042,"connected_time":1035000000000,"state":"active","ping":73},{"user_id":743,"name":"kezia","steam_id":76561198059815894,"connected_time":16000000000,"state":"active","ping":45},{"user_id":744,"name":"MrhobbitRequiem","steam_id":76561198976215013,"connected_time":9000000000,"state":"spawning","ping":65},{"user_id":693,"name":"bash -lc ./asshat.sh","steam_id":76561198004584315,"connected_time":1019000000000,"state":"active","ping":68},{"user_id":714,"name":"Sharper Spoon","steam_id":76561198877130687,"connected_time":527000000000,"state":"active","ping":67},{"user_id":652,"name":"Limasio","steam_id":76561198198176191,"connected_time":2323000000000,"state":"active","ping":67},{"user_id":632,"name":"Piyono","steam_id":76561197962188504,"connected_time":2752000000000,"state":"active","ping":71},{"user_id":634,"name":"Universe Man","steam_id":76561197997710655,"connected_time":2723000000000,"state":"active","ping":85},{"user_id":567,"name":"Bozanimal","steam_id":76561198044096897,"connected_time":7686000000000,"state":"active","ping":72},{"user_id":691,"name":"noelle","steam_id":76561198842577534,"connected_time":1068000000000,"state":"active","ping":112},{"user_id":715,"name":"\u003cDET\u003e Zetsyuk","steam_id":76561197979474818,"connected_time":508000000000,"state":"active","ping":67},{"user_id":694,"name":"Pongallow","steam_id":76561198146876078,"connected_time":1018000000000,"state":"active","ping":45},{"user_id":678,"name":"jibby","steam_id":76561198046872382,"connected_time":1361000000000,"state":"active","ping":55},{"user_id":614,"name":"Dundramino","steam_id":76561198196976154,"connected_time":3815000000000,"state":"active","ping":80},{"user_id":676,"name":"ogre confrontation","steam_id":76561198192654455,"connected_time":1424000000000,"state":"active","ping":75},{"user_id":726,"name":" ï‚Ä¢·¥•‚Ä¢ î the bear","steam_id":76561197989591976,"connected_time":313000000000,"state":"active","ping":77},{"user_id":745,"name":"Reisen","steam_id":76561199174579733,"connected_time":1000000000,"state":"spawning","ping":74},{"user_id":658,"name":"hashmap","steam_id":76561198043794014,"connected_time":2278000000000,"state":"active","ping":47}]},{"server_id":36,"name":"Uncletopia | Chicago | 5 | All Maps","name_short":"chi-5","host":"chi-2.us.uncletopia.com","port":27015,"enabled":true,"region":"us-central","cc":"us","latitude":41.881832,"longitude":-87.62318,"reserved":0,"last_update":"0001-01-01T00:00:00Z","name_a2s":"Uncletopia | Chicago | 5 | All Maps","protocol":17,"map":"koth_cascade","folder":"tf","game":"Team Fortress","app_id":440,"player_count":23,"max_players":24,"Bots":0,"server_type":"Dedicated","server_os":"Linux","password":true,"vac":true,"version":"7757534","steam_id":85568392924866362,"keywords":["cp","nocrits","nodmgspread","uncletopia"],"game_id":440,"stv_port":27016,"stv_name":"Uncletopia | Chicago | 5 | All Maps | STV","players":[{"user_id":183,"name":"Monkey","steam_id":76561198031015186,"connected_time":1003000000000,"state":"active","ping":77},{"user_id":186,"name":"GoofyAhGamingGuy","steam_id":76561199331315881,"connected_time":391000000000,"state":"active","ping":83},{"user_id":152,"name":"Sychke","steam_id":76561198067144055,"connected_time":3153000000000,"state":"active","ping":41},{"user_id":189,"name":"Vivi","steam_id":76561198402450455,"connected_time":313000000000,"state":"active","ping":100},{"user_id":188,"name":"Uttergerth000","steam_id":76561198035776269,"connected_time":349000000000,"state":"active","ping":63},{"user_id":166,"name":"PandaStick","steam_id":76561198005613207,"connected_time":2235000000000,"state":"active","ping":71},{"user_id":179,"name":"The Hamburglar!","steam_id":76561198080334371,"connected_time":1614000000000,"state":"active","ping":84},{"user_id":178,"name":"garbage (very bad)","steam_id":76561198172454407,"connected_time":1633000000000,"state":"active","ping":82},{"user_id":190,"name":"john","steam_id":76561198850447852,"connected_time":298000000000,"state":"active","ping":75},{"user_id":159,"name":"shadowjango","steam_id":76561198001475833,"connected_time":2777000000000,"state":"active","ping":60},{"user_id":194,"name":"StraySheep","steam_id":76561198256003811,"connected_time":234000000000,"state":"active","ping":69},{"user_id":191,"name":"Robotigan","steam_id":76561198039652254,"connected_time":263000000000,"state":"active","ping":57},{"user_id":193,"name":"Rifter","steam_id":76561198077430698,"connected_time":249000000000,"state":"active","ping":67},{"user_id":195,"name":"totally not a pile of beans","steam_id":76561198119851931,"connected_time":225000000000,"state":"active","ping":82},{"user_id":175,"name":"C4K3","steam_id":76561197996963285,"connected_time":1725000000000,"state":"active","ping":80},{"user_id":171,"name":"Antifa Alligator","steam_id":76561197988170816,"connected_time":2009000000000,"state":"active","ping":66},{"user_id":198,"name":"TruffShuff","steam_id":76561198055869160,"connected_time":188000000000,"state":"active","ping":51},{"user_id":200,"name":"Punkin","steam_id":76561198334301755,"connected_time":120000000000,"state":"active","ping":70},{"user_id":201,"name":"Frongus","steam_id":76561197979056451,"connected_time":100000000000,"state":"active","ping":103},{"user_id":157,"name":"Pusieeeeeee!!!!!!!!!!!!!!!!!","steam_id":76561198083175190,"connected_time":2829000000000,"state":"active","ping":76},{"user_id":42,"name":"3713biggest:bug:FEAR:IT","steam_id":76561198126386686,"connected_time":10915000000000,"state":"active","ping":56},{"user_id":133,"name":"cornshot","steam_id":76561198043496387,"connected_time":3918000000000,"state":"active","ping":106},{"user_id":182,"name":"Wendigo","steam_id":76561199010582245,"connected_time":1532000000000,"state":"active","ping":65}]},{"server_id":37,"name":"Uncletopia | Chicago | 6 | All Maps","name_short":"chi-6","host":"chi-2.us.uncletopia.com","port":27025,"enabled":true,"region":"us-central","cc":"us","latitude":41.881832,"longitude":-87.62318,"reserved":0,"last_update":"0001-01-01T00:00:00Z","name_a2s":"Uncletopia | Chicago | 6 | All Maps","protocol":17,"map":"pl_upward","folder":"tf","game":"Team Fortress","app_id":440,"player_count":24,"max_players":24,"Bots":0,"server_type":"Dedicated","server_os":"Linux","password":true,"vac":true,"version":"7757534","steam_id":85568392924866363,"keywords":["nocrits","nodmgspread","payload","uncletopia"],"game_id":440,"stv_port":27026,"stv_name":"Uncletopia | Chicago | 6 | All Maps | STV","players":[{"user_id":330,"name":"James","steam_id":76561198055687973,"connected_time":585000000000,"state":"active","ping":72},{"user_id":187,"name":"Cool Bird Facts","steam_id":76561198105613110,"connected_time":11856000000000,"state":"active","ping":63},{"user_id":340,"name":"Mr. Tickle","steam_id":76561198126684647,"connected_time":40000000000,"state":"active","ping":60},{"user_id":331,"name":"narc","steam_id":76561197966003311,"connected_time":564000000000,"state":"active","ping":87},{"user_id":332,"name":"Lore","steam_id":76561198098407538,"connected_time":498000000000,"state":"active","ping":54},{"user_id":333,"name":"[DEEP] Roz257","steam_id":76561198842844532,"connected_time":491000000000,"state":"active","ping":59},{"user_id":324,"name":"watchfull","steam_id":76561198433266742,"connected_time":733000000000,"state":"active","ping":120},{"user_id":310,"name":"Meet The Amazing Bret","steam_id":76561198137326099,"connected_time":1596000000000,"state":"active","ping":104},{"user_id":339,"name":"MinusSoup918","steam_id":76561198060902773,"connected_time":128000000000,"state":"active","ping":121},{"user_id":307,"name":"IMPACT!","steam_id":76561198131458027,"connected_time":1788000000000,"state":"active","ping":73},{"user_id":308,"name":"potty trained","steam_id":76561198141557766,"connected_time":1704000000000,"state":"active","ping":78},{"user_id":314,"name":"SSBM Pelican","steam_id":76561198040697907,"connected_time":1535000000000,"state":"active","ping":76},{"user_id":313,"name":"Soap Man","steam_id":76561198000490235,"connected_time":1551000000000,"state":"active","ping":122},{"user_id":325,"name":"SE X","steam_id":76561198094525829,"connected_time":729000000000,"state":"active","ping":80},{"user_id":322,"name":"No Step on Snek","steam_id":76561198296084765,"connected_time":1135000000000,"state":"active","ping":66},{"user_id":326,"name":"dr cock","steam_id":76561198124810219,"connected_time":713000000000,"state":"active","ping":84},{"user_id":317,"name":"Wiccaa","steam_id":76561199209580985,"connected_time":1487000000000,"state":"active","ping":71},{"user_id":334,"name":"The Pill","steam_id":76561198164782423,"connected_time":488000000000,"state":"active","ping":67},{"user_id":193,"name":"Cool Lobster Facts","steam_id":76561198247484514,"connected_time":11823000000000,"state":"active","ping":83},{"user_id":329,"name":"[ ¬£≈∏,ƒê ] Not AirmanBlueJay","steam_id":76561198030901346,"connected_time":613000000000,"state":"active","ping":87},{"user_id":337,"name":"Grundle Thunder","steam_id":76561197960790338,"connected_time":270000000000,"state":"active","ping":85},{"user_id":268,"name":"Vladikr1","steam_id":76561198401495362,"connected_time":5754000000000,"state":"active","ping":67},{"user_id":338,"name":"CRHalby","steam_id":76561198060522701,"connected_time":199000000000,"state":"active","ping":74},{"user_id":319,"name":"deskmedic","steam_id":76561198295640486,"connected_time":1476000000000,"state":"active","ping":102}]},{"server_id":38,"name":"Uncletopia | Chicago | 7 | Stopwatch Beta","name_short":"chi-7","host":"chi-2.us.uncletopia.com","port":27035,"enabled":true,"region":"us-central","cc":"us","latitude":41.881832,"longitude":-87.62318,"reserved":0,"last_update":"0001-01-01T00:00:00Z","name_a2s":"Uncletopia | Chicago | 7 | Stopwatch Beta","protocol":17,"map":"cp_process_final","folder":"tf","game":"Team Fortress","app_id":440,"player_count":23,"max_players":24,"Bots":0,"server_type":"Dedicated","server_os":"Linux","password":true,"vac":true,"version":"7757534","steam_id":85568392924866364,"keywords":["cp","nocrits","nodmgspread","uncletopia"],"game_id":440,"stv_port":27036,"stv_name":"Uncletopia | Chicago | 7 | Stopwatch Beta | STV","players":[{"user_id":154,"name":"Willy","steam_id":76561198046508940,"connected_time":1243000000000,"state":"active","ping":72},{"user_id":161,"name":"teadove","steam_id":76561198211308328,"connected_time":1169000000000,"state":"active","ping":58},{"user_id":172,"name":"Miniaturebubble","steam_id":76561198315832200,"connected_time":706000000000,"state":"active","ping":73},{"user_id":13,"name":"X_Sniper7","steam_id":76561198081097640,"connected_time":10259000000000,"state":"active","ping":73},{"user_id":149,"name":"Viokik","steam_id":76561198408846602,"connected_time":2011000000000,"state":"active","ping":62},{"user_id":156,"name":"Matella","steam_id":76561198097427947,"connected_time":1204000000000,"state":"active","ping":148},{"user_id":153,"name":"Living Leaf","steam_id":76561198307324983,"connected_time":1265000000000,"state":"active","ping":64},{"user_id":165,"name":"checkswing","steam_id":76561198999816132,"connected_time":1030000000000,"state":"active","ping":61},{"user_id":20,"name":"leonardo doujinshi","steam_id":76561198025810326,"connected_time":9156000000000,"state":"active","ping":58},{"user_id":166,"name":"ohms","steam_id":76561198868600487,"connected_time":1019000000000,"state":"active","ping":163},{"user_id":137,"name":"Infineable","steam_id":76561198358100698,"connected_time":2935000000000,"state":"active","ping":69},{"user_id":159,"name":"matkaster","steam_id":76561197998546486,"connected_time":1184000000000,"state":"active","ping":60},{"user_id":160,"name":"Park Ranger Maxie","steam_id":76561197962607364,"connected_time":1181000000000,"state":"active","ping":68},{"user_id":147,"name":"warewarewa","steam_id":76561197965022076,"connected_time":2207000000000,"state":"active","ping":55},{"user_id":173,"name":"dawg","steam_id":76561198019444443,"connected_time":623000000000,"state":"active","ping":90},{"user_id":168,"name":"blockchain culture","steam_id":76561198040996386,"connected_time":903000000000,"state":"active","ping":75},{"user_id":134,"name":"DAN DONGUS","steam_id":76561198374045865,"connected_time":2997000000000,"state":"active","ping":45},{"user_id":163,"name":"i feel nauseous","steam_id":76561198128363064,"connected_time":1152000000000,"state":"active","ping":55},{"user_id":164,"name":"The Bone Zone","steam_id":76561199110815433,"connected_time":1139000000000,"state":"active","ping":141},{"user_id":122,"name":"doozy","steam_id":76561198033106776,"connected_time":3927000000000,"state":"active","ping":135},{"user_id":123,"name":"Ember The Femboy","steam_id":76561198139630565,"connected_time":3912000000000,"state":"active","ping":135},{"user_id":170,"name":"jumpoutthehousejumpouttheho","steam_id":76561198143132686,"connected_time":785000000000,"state":"active","ping":90},{"user_id":175,"name":"[DATS‚û°] Sugar Meowth","steam_id":76561197995251793,"connected_time":270000000000,"state":"active","ping":100}]},{"server_id":39,"name":"Uncletopia | Chicago | 8 | Community","name_short":"chi-8","host":"chi-2.us.uncletopia.com","port":27045,"enabled":true,"region":"us-central","cc":"us","latitude":41.881832,"longitude":-87.62318,"reserved":0,"last_update":"0001-01-01T00:00:00Z","name_a2s":"Uncletopia | Chicago | 8 | Community","protocol":17,"map":"workshop/cp_sulfur_rc2.ugc619869471","folder":"tf","game":"Team Fortress","app_id":440,"player_count":0,"max_players":24,"Bots":0,"server_type":"Dedicated","server_os":"Linux","password":true,"vac":true,"version":"7757534","steam_id":85568392924866365,"keywords":["cp","nocrits","nodmgspread","uncletopia"],"game_id":440,"stv_port":27046,"stv_name":"Uncletopia | Chicago | 8 | Community | STV","players":null},{"server_id":8,"name":"Uncletopia | Dallas | 1 | All Maps","name_short":"dal-1","host":"dal-1.us.uncletopia.com","port":27015,"enabled":true,"region":"us-central","cc":"us","latitude":32.779167,"longitude":-96.80889,"reserved":0,"last_update":"0001-01-01T00:00:00Z","name_a2s":"Uncletopia | Dallas | 1 | All Maps","protocol":17,"map":"cp_dustbowl","folder":"tf","game":"Team Fortress","app_id":440,"player_count":12,"max_players":24,"Bots":0,"server_type":"Dedicated","server_os":"Linux","password":true,"vac":true,"version":"7757534","steam_id":85568392924469986,"keywords":["cp","nocrits","nodmgspread","uncletopia"],"game_id":440,"stv_port":27016,"stv_name":"Uncletopia | Dallas | 1 | All Maps | STV","players":[{"user_id":782,"name":"·ö£·ö≥·õä·ö∏","steam_id":76561198103507176,"connected_time":21000000000,"state":"spawning","ping":78},{"user_id":779,"name":"karbomb","steam_id":76561198120744480,"connected_time":70000000000,"state":"active","ping":31},{"user_id":744,"name":"Hulkworm","steam_id":76561198263964808,"connected_time":3840000000000,"state":"active","ping":56},{"user_id":775,"name":"An Inordinate Amount of Beans","steam_id":76561198022758805,"connected_time":800000000000,"state":"active","ping":53},{"user_id":717,"name":"DeckofDragons","steam_id":76561198057398213,"connected_time":6258000000000,"state":"active","ping":69},{"user_id":723,"name":"ya boi","steam_id":76561198420218460,"connected_time":5308000000000,"state":"active","ping":50},{"user_id":780,"name":"FearTheJynx","steam_id":76561198136487957,"connected_time":62000000000,"state":"active","ping":67},{"user_id":683,"name":"Local Talent","steam_id":76561199053290637,"connected_time":8504000000000,"state":"active","ping":78},{"user_id":778,"name":"greg","steam_id":76561198051075489,"connected_time":182000000000,"state":"active","ping":49},{"user_id":770,"name":"cup","steam_id":76561198121245586,"connected_time":1331000000000,"state":"active","ping":66},{"user_id":757,"name":"tj3002rocks","steam_id":76561199017921546,"connected_time":3082000000000,"state":"active","ping":50},{"user_id":774,"name":"Alchemist","steam_id":76561198094238189,"connected_time":836000000000,"state":"active","ping":72}]},{"server_id":108,"name":"Uncletopia | Dallas | 2 | All Maps","name_short":"dal-2","host":"dal-1.us.uncletopia.com","port":27025,"enabled":true,"region":"us-central","cc":"us","latitude":32.779167,"longitude":-96.80889,"reserved":0,"last_update":"0001-01-01T00:00:00Z","name_a2s":"Uncletopia | Dallas | 2 | All Maps","protocol":17,"map":"pl_borneo","folder":"tf","game":"Team Fortress","app_id":440,"player_count":24,"max_players":24,"Bots":0,"server_type":"Dedicated","server_os":"Linux","password":true,"vac":true,"version":"7757534","steam_id":85568392924469988,"keywords":["nocrits","nodmgspread","payload","uncletopia"],"game_id":440,"stv_port":27026,"stv_name":"Uncletopia | Dallas | 2 | All Maps | STV","players":[{"user_id":474,"name":"Jetmeme Sam","steam_id":76561198093994707,"connected_time":364000000000,"state":"active","ping":44},{"user_id":461,"name":"Burny Sanders","steam_id":76561197961879048,"connected_time":1062000000000,"state":"active","ping":42},{"user_id":411,"name":"Genius Meme","steam_id":76561198162911254,"connected_time":4062000000000,"state":"active","ping":86},{"user_id":375,"name":"Dragons\u003eEverything","steam_id":76561199140784635,"connected_time":7314000000000,"state":"active","ping":66},{"user_id":470,"name":"landon","steam_id":76561198854364921,"connected_time":1052000000000,"state":"active","ping":82},{"user_id":464,"name":"xMystic_Fire","steam_id":76561198189961543,"connected_time":1057000000000,"state":"active","ping":56},{"user_id":428,"name":"bolainassr0","steam_id":76561199079078845,"connected_time":2995000000000,"state":"active","ping":104},{"user_id":414,"name":"NGsterson","steam_id":76561198162108154,"connected_time":3985000000000,"state":"active","ping":95},{"user_id":442,"name":"TartMeringue","steam_id":76561198986757576,"connected_time":2732000000000,"state":"active","ping":60},{"user_id":430,"name":"t h e n a","steam_id":76561198169736062,"connected_time":2962000000000,"state":"active","ping":69},{"user_id":443,"name":"schnedwob","steam_id":76561197999146588,"connected_time":2609000000000,"state":"active","ping":56},{"user_id":432,"name":"golf (backspin edition)","steam_id":76561198007464245,"connected_time":2925000000000,"state":"active","ping":78},{"user_id":460,"name":"inzang","steam_id":76561198088318074,"connected_time":1084000000000,"state":"active","ping":59},{"user_id":451,"name":"Frodo T Baggins","steam_id":76561198048090297,"connected_time":2477000000000,"state":"active","ping":97},{"user_id":441,"name":"Dat Dere Kirby","steam_id":76561198084054568,"connected_time":2750000000000,"state":"active","ping":93},{"user_id":456,"name":"InvaderAlex","steam_id":76561198039232451,"connected_time":1844000000000,"state":"active","ping":66},{"user_id":437,"name":"DiabetesMan","steam_id":76561198075668940,"connected_time":2798000000000,"state":"active","ping":88},{"user_id":438,"name":"derdds","steam_id":76561198034339940,"connected_time":2797000000000,"state":"active","ping":75},{"user_id":459,"name":"Bronze Age GRINDSET","steam_id":76561198859118263,"connected_time":1241000000000,"state":"active","ping":91},{"user_id":455,"name":"Zigadox","steam_id":76561198079813479,"connected_time":1921000000000,"state":"active","ping":90},{"user_id":447,"name":"Warriorbuilds3","steam_id":76561199214713674,"connected_time":2545000000000,"state":"active","ping":95},{"user_id":448,"name":"Spring Beans","steam_id":76561197978546259,"connected_time":2523000000000,"state":"active","ping":32},{"user_id":476,"name":"Miami","steam_id":76561198316753540,"connected_time":176000000000,"state":"active","ping":37},{"user_id":473,"name":"Jelpo","steam_id":76561198406920072,"connected_time":420000000000,"state":"active","ping":69}]},{"server_id":5,"name":"Uncletopia | Frankfurt | 1 | All Maps","name_short":"frk-1","host":"frk-1.de.uncletopia.com","port":27015,"enabled":true,"region":"eu","cc":"de","latitude":50.110924,"longitude":8.682127,"reserved":0,"last_update":"0001-01-01T00:00:00Z","name_a2s":"Uncletopia | Frankfurt | 1 | All Maps","protocol":17,"map":"cp_mountainlab","folder":"tf","game":"Team Fortress","app_id":440,"player_count":0,"max_players":24,"Bots":0,"server_type":"Dedicated","server_os":"Linux","password":true,"vac":true,"version":"7757534","steam_id":85568392924469989,"keywords":["cp","nocrits","nodmgspread","uncletopia"],"game_id":440,"stv_port":27016,"stv_name":"Uncletopia | Frankfurt | 1 | All Maps | STV","players":null},{"server_id":110,"name":"Uncletopia | Frankfurt | 2 | All Maps","name_short":"frk-2","host":"frk-1.de.uncletopia.com","port":27025,"enabled":true,"region":"eu","cc":"de","latitude":50.110924,"longitude":8.682127,"reserved":0,"last_update":"0001-01-01T00:00:00Z","name_a2s":"Uncletopia | Frankfurt | 2 | All Maps","protocol":17,"map":"cp_mountainlab","folder":"tf","game":"Team Fortress","app_id":440,"player_count":5,"max_players":24,"Bots":0,"server_type":"Dedicated","server_os":"Linux","password":true,"vac":true,"version":"7757534","steam_id":85568392924469990,"keywords":["cp","nocrits","nodmgspread","uncletopia"],"game_id":440,"stv_port":27026,"stv_name":"Uncletopia | Frankfurt | 2 | All Maps | STV","players":[{"user_id":487,"name":"spotted richard","steam_id":76561197988802856,"connected_time":1958000000000,"state":"active","ping":47},{"user_id":493,"name":"cslevi","steam_id":76561198142858923,"connected_time":242000000000,"state":"active","ping":68},{"user_id":489,"name":"trustable","steam_id":76561198894574244,"connected_time":1488000000000,"state":"active","ping":179},{"user_id":491,"name":"bonus ducks","steam_id":76561199133093829,"connected_time":716000000000,"state":"active","ping":144},{"user_id":385,"name":"Zero","steam_id":76561199383267408,"connected_time":14010000000000,"state":"active","ping":175}]},{"server_id":308,"name":"Uncletopia | Frankfurt | 3 | All Maps","name_short":"frk-3","host":"frk-1.de.uncletopia.com","port":27035,"enabled":true,"region":"eu","cc":"de","latitude":50.110924,"longitude":8.682127,"reserved":0,"last_update":"0001-01-01T00:00:00Z","name_a2s":"Uncletopia | Frankfurt | 3 | All Maps","protocol":17,"map":"cp_mountainlab","folder":"tf","game":"Team Fortress","app_id":440,"player_count":0,"max_players":24,"Bots":0,"server_type":"Dedicated","server_os":"Linux","password":true,"vac":true,"version":"7757534","steam_id":85568392924504274,"keywords":["cp","nocrits","nodmgspread","uncletopia"],"game_id":440,"stv_port":27036,"stv_name":"Uncletopia | Frankfurt | 3 | All Maps | STV","players":null},{"server_id":309,"name":"Uncletopia | Frankfurt | 4 | All Maps","name_short":"frk-4","host":"frk-1.de.uncletopia.com","port":27045,"enabled":true,"region":"eu","cc":"de","latitude":50.110924,"longitude":8.682127,"reserved":0,"last_update":"0001-01-01T00:00:00Z","name_a2s":"Uncletopia | Frankfurt | 4 | All Maps","protocol":17,"map":"koth_highpass","folder":"tf","game":"Team Fortress","app_id":440,"player_count":0,"max_players":24,"Bots":0,"server_type":"Dedicated","server_os":"Linux","password":true,"vac":true,"version":"7757534","steam_id":85568392924504275,"keywords":["cp","nocrits","nodmgspread","uncletopia"],"game_id":440,"stv_port":27046,"stv_name":"Uncletopia | Frankfurt | 4 | All Maps | STV","players":null},{"server_id":310,"name":"Uncletopia | Frankfurt | 5 | All Maps","name_short":"frk-5","host":"frk-1.de.uncletopia.com","port":27055,"enabled":true,"region":"eu","cc":"de","latitude":50.110924,"longitude":8.682127,"reserved":0,"last_update":"0001-01-01T00:00:00Z","name_a2s":"Uncletopia | Frankfurt | 5 | All Maps","protocol":17,"map":"koth_viaduct","folder":"tf","game":"Team Fortress","app_id":440,"player_count":0,"max_players":24,"Bots":0,"server_type":"Dedicated","server_os":"Linux","password":true,"vac":true,"version":"7757534","steam_id":85568392924504277,"keywords":["cp","nocrits","nodmgspread","uncletopia"],"game_id":440,"stv_port":27056,"stv_name":"Uncletopia | Frankfurt | 5 | All Maps | STV","players":null},{"server_id":311,"name":"Uncletopia | Frankfurt | 6 | All Maps","name_short":"frk-6","host":"frk-1.de.uncletopia.com","port":27065,"enabled":true,"region":"eu","cc":"de","latitude":50.110924,"longitude":8.682127,"reserved":0,"last_update":"0001-01-01T00:00:00Z","name_a2s":"Uncletopia | Frankfurt | 6 | All Maps","protocol":17,"map":"koth_viaduct","folder":"tf","game":"Team Fortress","app_id":440,"player_count":0,"max_players":24,"Bots":0,"server_type":"Dedicated","server_os":"Linux","password":true,"vac":true,"version":"7757534","steam_id":85568392924504278,"keywords":["cp","nocrits","nodmgspread","uncletopia"],"game_id":440,"stv_port":27066,"stv_name":"Uncletopia | Frankfurt | 6 | All Maps | STV","players":null},{"server_id":23,"name":"Uncletopia | Frankfurt | 7 | Stopwatch Beta","name_short":"frk-7","host":"frk-1.de.uncletopia.com","port":27075,"enabled":true,"region":"eu","cc":"de","latitude":50.110924,"longitude":8.682127,"reserved":0,"last_update":"0001-01-01T00:00:00Z","name_a2s":"Uncletopia | Frankfurt | 7 | Stopwatch Beta","protocol":17,"map":"workshop/koth_ramjam_rc1.ugc459778887","folder":"tf","game":"Team Fortress","app_id":440,"player_count":0,"max_players":24,"Bots":0,"server_type":"Dedicated","server_os":"Linux","password":true,"vac":true,"version":"7757534","steam_id":85568392924742827,"keywords":["cp","nocrits","nodmgspread","uncletopia"],"game_id":440,"stv_port":27076,"stv_name":"Uncletopia | Frankfurt | 7 | Stopwatch Beta | STV","players":null},{"server_id":24,"name":"Uncletopia | Frankfurt | 8 | Community","name_short":"frk-8","host":"frk-1.de.uncletopia.com","port":27085,"enabled":true,"region":"eu","cc":"de","latitude":50.110924,"longitude":8.682127,"reserved":0,"last_update":"0001-01-01T00:00:00Z","name_a2s":"Uncletopia | Frankfurt | 8 | Community","protocol":17,"map":"workshop/pl_shoreleave_rc1.ugc1238849347","folder":"tf","game":"Team Fortress","app_id":440,"player_count":0,"max_players":24,"Bots":0,"server_type":"Dedicated","server_os":"Linux","password":true,"vac":true,"version":"7757534","steam_id":85568392924742828,"keywords":["nocrits","nodmgspread","payload","uncletopia"],"game_id":440,"stv_port":27086,"stv_name":"Uncletopia | Frankfurt | 8 | Community | STV","players":null},{"server_id":202,"name":"Uncletopia | Hong Kong | 1 | All Maps","name_short":"hgk-1","host":"hgk-1.hk.uncletopia.com","port":27015,"enabled":true,"region":"asia","cc":"hk","latitude":22.302711,"longitude":114.177216,"reserved":0,"last_update":"0001-01-01T00:00:00Z","name_a2s":"Uncletopia | Hong Kong | 1 | All Maps","protocol":17,"map":"plr_hightower","folder":"tf","game":"Team Fortress","app_id":440,"player_count":3,"max_players":24,"Bots":0,"server_type":"Dedicated","server_os":"Linux","password":true,"vac":true,"version":"7757534","steam_id":85568392924494504,"keywords":["nocrits","nodmgspread","payload","uncletopia"],"game_id":440,"stv_port":27016,"stv_name":"Uncletopia | Hong Kong | 1 | All Maps | STV","players":[{"user_id":26,"name":"ÂñÑËâØ„ÅÆÂ¢®","steam_id":76561199102754539,"connected_time":852000000000,"state":"active","ping":80},{"user_id":27,"name":"VAVcut","steam_id":76561199160900469,"connected_time":794000000000,"state":"active","ping":84},{"user_id":28,"name":"an idiot","steam_id":76561199245124028,"connected_time":574000000000,"state":"active","ping":108}]},{"server_id":1,"name":"Uncletopia | Los Angeles | 1 | All Maps","name_short":"lax-1","host":"lax-1.us.uncletopia.com","port":27015,"enabled":true,"region":"us-west","cc":"us","latitude":33.94279,"longitude":-118.41004,"reserved":0,"last_update":"0001-01-01T00:00:00Z","name_a2s":"Uncletopia | Los Angeles | 1 | All Maps","protocol":17,"map":"pl_snowycoast","folder":"tf","game":"Team Fortress","app_id":440,"player_count":24,"max_players":24,"Bots":0,"server_type":"Dedicated","server_os":"Linux","password":true,"vac":true,"version":"7757534","steam_id":85568392924469991,"keywords":["nocrits","nodmgspread","payload","uncletopia"],"game_id":440,"stv_port":27016,"stv_name":"Uncletopia | Los Angeles | 1 | All Maps | STV","players":[{"user_id":472,"name":"Mycelius","steam_id":76561198324811385,"connected_time":781000000000,"state":"active","ping":54},{"user_id":473,"name":"Spam man","steam_id":76561199176168235,"connected_time":726000000000,"state":"active","ping":47},{"user_id":384,"name":"Type Three Dabeetus","steam_id":76561198062710038,"connected_time":5279000000000,"state":"active","ping":58},{"user_id":474,"name":"the goblin","steam_id":76561198097721532,"connected_time":707000000000,"state":"active","ping":49},{"user_id":421,"name":"biofio","steam_id":76561198019094571,"connected_time":2450000000000,"state":"active","ping":62},{"user_id":449,"name":"Divine Kitty","steam_id":76561198293490689,"connected_time":1413000000000,"state":"active","ping":99},{"user_id":370,"name":"Tako","steam_id":76561199264073138,"connected_time":5744000000000,"state":"active","ping":32},{"user_id":357,"name":"bigman1","steam_id":76561198050225055,"connected_time":7203000000000,"state":"active","ping":45},{"user_id":475,"name":"Phantom","steam_id":76561198434128945,"connected_time":696000000000,"state":"active","ping":131},{"user_id":407,"name":"Empyrean","steam_id":76561198116398716,"connected_time":3280000000000,"state":"active","ping":57},{"user_id":410,"name":"jayzak24","steam_id":76561198354267509,"connected_time":3127000000000,"state":"active","ping":56},{"user_id":455,"name":"Unknown2Me","steam_id":76561199049192464,"connected_time":1272000000000,"state":"active","ping":67},{"user_id":480,"name":"SpiderPyro [COMM CLOSED]","steam_id":76561198041100592,"connected_time":502000000000,"state":"active","ping":88},{"user_id":477,"name":"Duncle Frazzle","steam_id":76561198145596626,"connected_time":596000000000,"state":"active","ping":69},{"user_id":478,"name":"BrightOrangeMango","steam_id":76561198023144607,"connected_time":523000000000,"state":"active","ping":62},{"user_id":479,"name":"satch","steam_id":76561198285645501,"connected_time":508000000000,"state":"active","ping":105},{"user_id":396,"name":"Esue Ijae","steam_id":76561199268519057,"connected_time":4460000000000,"state":"active","ping":53},{"user_id":481,"name":"hoopswoop9","steam_id":76561199203050556,"connected_time":465000000000,"state":"active","ping":58},{"user_id":363,"name":"Len","steam_id":76561199141913673,"connected_time":6442000000000,"state":"active","ping":31},{"user_id":482,"name":"Razer","steam_id":76561198065611105,"connected_time":449000000000,"state":"active","ping":53},{"user_id":417,"name":"the hottest to ever do it","steam_id":76561198145669711,"connected_time":2855000000000,"state":"active","ping":38},{"user_id":483,"name":"diymo","steam_id":76561198017600790,"connected_time":433000000000,"state":"active","ping":74},{"user_id":429,"name":"yoshi from da hood","steam_id":76561199102371298,"connected_time":1962000000000,"state":"active","ping":70},{"user_id":432,"name":"Stacks to the Ceiling Fan","steam_id":76561198011675372,"connected_time":1900000000000,"state":"active","ping":85}]},{"server_id":112,"name":"Uncletopia | Los Angeles | 2 | All Maps","name_short":"lax-2","host":"lax-1.us.uncletopia.com","port":27025,"enabled":true,"region":"us-west","cc":"us","latitude":33.94279,"longitude":-118.41004,"reserved":0,"last_update":"0001-01-01T00:00:00Z","name_a2s":"Uncletopia | Los Angeles | 2 | All Maps","protocol":17,"map":"koth_cascade","folder":"tf","game":"Team Fortress","app_id":440,"player_count":0,"max_players":24,"Bots":0,"server_type":"Dedicated","server_os":"Linux","password":true,"vac":true,"version":"7757534","steam_id":85568392924469992,"keywords":["cp","nocrits","nodmgspread","uncletopia"],"game_id":440,"stv_port":27026,"stv_name":"Uncletopia | Los Angeles | 2 | All Maps | STV","players":null},{"server_id":324,"name":"Uncletopia | Los Angeles | 3 | All Maps","name_short":"lax-3","host":"lax-1.us.uncletopia.com","port":27035,"enabled":true,"region":"us-west","cc":"us","latitude":33.94279,"longitude":-118.41004,"reserved":0,"last_update":"0001-01-01T00:00:00Z","name_a2s":"Uncletopia | Los Angeles | 3 | All Maps","protocol":17,"map":"pl_upward","folder":"tf","game":"Team Fortress","app_id":440,"player_count":23,"max_players":24,"Bots":0,"server_type":"Dedicated","server_os":"Linux","password":true,"vac":true,"version":"7757534","steam_id":85568392924510198,"keywords":["nocrits","nodmgspread","payload","uncletopia"],"game_id":440,"stv_port":27036,"stv_name":"Uncletopia | Los Angeles | 3 | All Maps | STV","players":[{"user_id":86,"name":"ZenoeZ","steam_id":76561198073573555,"connected_time":27000000000,"state":"active","ping":92},{"user_id":13,"name":"Verily","steam_id":76561198200558318,"connected_time":3728000000000,"state":"active","ping":104},{"user_id":87,"name":"NICOLAS.","steam_id":76561198441649029,"connected_time":5000000000,"state":"spawning","ping":63},{"user_id":15,"name":"MuZe","steam_id":76561198096212604,"connected_time":3697000000000,"state":"active","ping":123},{"user_id":85,"name":"megaroboleg","steam_id":76561198844644993,"connected_time":53000000000,"state":"active","ping":60},{"user_id":22,"name":"Great Chinaman","steam_id":76561198409907417,"connected_time":2131000000000,"state":"active","ping":71},{"user_id":67,"name":"jimmy outlaw","steam_id":76561198070380402,"connected_time":590000000000,"state":"active","ping":145},{"user_id":83,"name":"MrLeftTurn","steam_id":76561198856743969,"connected_time":134000000000,"state":"active","ping":103},{"user_id":24,"name":"SuperBurgerBoy","steam_id":76561198856387197,"connected_time":2052000000000,"state":"active","ping":53},{"user_id":26,"name":"The Admiralty","steam_id":76561198839398708,"connected_time":1493000000000,"state":"active","ping":67},{"user_id":27,"name":"Meme_Man256","steam_id":76561199013740179,"connected_time":1403000000000,"state":"active","ping":69},{"user_id":28,"name":"wiseman64","steam_id":76561198079165879,"connected_time":1402000000000,"state":"active","ping":73},{"user_id":29,"name":"tie dye die guy","steam_id":76561198049845337,"connected_time":1389000000000,"state":"active","ping":58},{"user_id":30,"name":"Bignoobequalme","steam_id":76561199083816758,"connected_time":1337000000000,"state":"active","ping":67},{"user_id":88,"name":"maxresdefault","steam_id":76561198185980055,"connected_time":2000000000,"state":"spawning","ping":103},{"user_id":36,"name":"AverageCEO","steam_id":76561198341738788,"connected_time":1262000000000,"state":"active","ping":107},{"user_id":35,"name":"the","steam_id":76561198202246951,"connected_time":1267000000000,"state":"active","ping":45},{"user_id":84,"name":"Void","steam_id":76561198308290211,"connected_time":128000000000,"state":"active","ping":64},{"user_id":38,"name":"Mr. Dick‚Ñ¢","steam_id":76561198047309044,"connected_time":1221000000000,"state":"active","ping":86},{"user_id":39,"name":"Mozes","steam_id":76561198282673707,"connected_time":1214000000000,"state":"active","ping":75},{"user_id":40,"name":"Rooster Cookie","steam_id":76561198137850413,"connected_time":1203000000000,"state":"active","ping":122},{"user_id":42,"name":"Socialism Enjoyer","steam_id":76561197991817974,"connected_time":1149000000000,"state":"active","ping":54},{"user_id":44,"name":"RobotPrototype","steam_id":76561198117511091,"connected_time":1079000000000,"state":"active","ping":94}]},{"server_id":25,"name":"Uncletopia | Los Angeles | 4 | Stopwatch Beta","name_short":"lax-4","host":"lax-1.us.uncletopia.com","port":27045,"enabled":true,"region":"us-west","cc":"us","latitude":33.94279,"longitude":-118.41004,"reserved":0,"last_update":"0001-01-01T00:00:00Z","name_a2s":"Uncletopia | Los Angeles | 4 | Stopwatch Beta","protocol":17,"map":"pl_frontier_final","folder":"tf","game":"Team Fortress","app_id":440,"player_count":0,"max_players":24,"Bots":0,"server_type":"Dedicated","server_os":"Linux","password":true,"vac":true,"version":"7757534","steam_id":85568392924510199,"keywords":["nocrits","nodmgspread","payload","uncletopia"],"game_id":440,"stv_port":27046,"stv_name":"Uncletopia | Los Angeles | 4 | Stopwatch Beta | STV","players":null},{"server_id":11,"name":"Uncletopia | London | 1 | All Maps","name_short":"lon-1","host":"lon-1.uk.uncletopia.com","port":27015,"enabled":true,"region":"eu","cc":"gb","latitude":51.509865,"longitude":-0.118092,"reserved":0,"last_update":"0001-01-01T00:00:00Z","name_a2s":"Uncletopia | London | 1 | All Maps","protocol":17,"map":"koth_lakeside_final","folder":"tf","game":"Team Fortress","app_id":440,"player_count":0,"max_players":24,"Bots":0,"server_type":"Dedicated","server_os":"Linux","password":true,"vac":true,"version":"7757534","steam_id":85568392924367362,"keywords":["cp","nocrits","nodmgspread","uncletopia"],"game_id":440,"stv_port":27016,"stv_name":"Uncletopia | London | 1 | All Maps | STV","players":null},{"server_id":114,"name":"Uncletopia | London | 2 | All Maps","name_short":"lon-2","host":"lon-1.uk.uncletopia.com","port":27025,"enabled":true,"region":"eu","cc":"gb","latitude":51.509865,"longitude":-0.118092,"reserved":0,"last_update":"0001-01-01T00:00:00Z","name_a2s":"Uncletopia | London | 2 | All Maps","protocol":17,"map":"koth_cascade","folder":"tf","game":"Team Fortress","app_id":440,"player_count":0,"max_players":24,"Bots":0,"server_type":"Dedicated","server_os":"Linux","password":true,"vac":true,"version":"7757534","steam_id":85568392924470941,"keywords":["cp","nocrits","nodmgspread","uncletopia"],"game_id":440,"stv_port":27026,"stv_name":"Uncletopia | London | 2 | All Maps | STV","players":null},{"server_id":320,"name":"Uncletopia | London | 3 | All Maps","name_short":"lon-3","host":"lon-1.uk.uncletopia.com","port":27035,"enabled":true,"region":"eu","cc":"gb","latitude":51.509865,"longitude":-0.118092,"reserved":0,"last_update":"0001-01-01T00:00:00Z","name_a2s":"Uncletopia | London | 3 | All Maps","protocol":17,"map":"pl_upward","folder":"tf","game":"Team Fortress","app_id":440,"player_count":0,"max_players":24,"Bots":0,"server_type":"Dedicated","server_os":"Linux","password":true,"vac":true,"version":"7757534","steam_id":85568392924510192,"keywords":["nocrits","nodmgspread","payload","uncletopia"],"game_id":440,"stv_port":27036,"stv_name":"Uncletopia | London | 3 | All Maps | STV","players":null},{"server_id":321,"name":"Uncletopia | London | 4 | All Maps","name_short":"lon-4","host":"lon-1.uk.uncletopia.com","port":27045,"enabled":true,"region":"eu","cc":"gb","latitude":51.509865,"longitude":-0.118092,"reserved":0,"last_update":"0001-01-01T00:00:00Z","name_a2s":"Uncletopia | London | 4 | All Maps","protocol":17,"map":"koth_highpass","folder":"tf","game":"Team Fortress","app_id":440,"player_count":0,"max_players":24,"Bots":0,"server_type":"Dedicated","server_os":"Linux","password":true,"vac":true,"version":"7757534","steam_id":85568392924510193,"keywords":["cp","nocrits","nodmgspread","uncletopia"],"game_id":440,"stv_port":27046,"stv_name":"Uncletopia | London | 4 | All Maps | STV","players":null},{"server_id":21,"name":"Uncletopia | London | 5 | All Maps","name_short":"lon-5","host":"lon-1.uk.uncletopia.com","port":27055,"enabled":true,"region":"eu","cc":"gb","latitude":51.509865,"longitude":-0.118092,"reserved":0,"last_update":"0001-01-01T00:00:00Z","name_a2s":"Uncletopia | London | 5 | All Maps","protocol":17,"map":"koth_lakeside_final","folder":"tf","game":"Team Fortress","app_id":440,"player_count":0,"max_players":24,"Bots":0,"server_type":"Dedicated","server_os":"Linux","password":true,"vac":true,"version":"7757534","steam_id":85568392924742829,"keywords":["cp","nocrits","nodmgspread","uncletopia"],"game_id":440,"stv_port":27056,"stv_name":"Uncletopia | London | 5 | All Maps | STV","players":null},{"server_id":22,"name":"Uncletopia | London | 6 | All Maps","name_short":"lon-6","host":"lon-1.uk.uncletopia.com","port":27065,"enabled":true,"region":"eu","cc":"gb","latitude":51.509865,"longitude":-0.118092,"reserved":0,"last_update":"0001-01-01T00:00:00Z","name_a2s":"Uncletopia | London | 6 | All Maps","protocol":17,"map":"cp_dustbowl","folder":"tf","game":"Team Fortress","app_id":440,"player_count":0,"max_players":24,"Bots":0,"server_type":"Dedicated","server_os":"Linux","password":true,"vac":true,"version":"7757534","steam_id":85568392924742830,"keywords":["cp","nocrits","nodmgspread","uncletopia"],"game_id":440,"stv_port":27066,"stv_name":"Uncletopia | London | 6 | All Maps | STV","players":null},{"server_id":40,"name":"Uncletopia | London | 7 | No Payload","name_short":"lon-7","host":"lon-1.uk.uncletopia.com","port":27075,"enabled":true,"region":"eu","cc":"gb","latitude":51.509865,"longitude":-0.118092,"reserved":0,"last_update":"0001-01-01T00:00:00Z","name_a2s":"Uncletopia | London | 7 | No Payload","protocol":17,"map":"koth_suijin","folder":"tf","game":"Team Fortress","app_id":440,"player_count":0,"max_players":24,"Bots":0,"server_type":"Dedicated","server_os":"Linux","password":true,"vac":true,"version":"7757534","steam_id":85568392924964314,"keywords":["cp","nocrits","nodmgspread","uncletopia"],"game_id":440,"stv_port":27076,"stv_name":"Uncletopia | London | 7 | No Payload | STV","players":null},{"server_id":41,"name":"Uncletopia | London | 8 | Community","name_short":"lon-8","host":"lon-1.uk.uncletopia.com","port":27085,"enabled":true,"region":"eu","cc":"gb","latitude":51.509865,"longitude":-0.118092,"reserved":0,"last_update":"0001-01-01T00:00:00Z","name_a2s":"Uncletopia | London | 8 | Community","protocol":17,"map":"workshop/pl_cactuscanyon_redux_rc4b.ugc2579644293","folder":"tf","game":"Team Fortress","app_id":440,"player_count":0,"max_players":24,"Bots":0,"server_type":"Dedicated","server_os":"Linux","password":true,"vac":true,"version":"7757534","steam_id":85568392924964315,"keywords":["nocrits","nodmgspread","payload","uncletopia"],"game_id":440,"stv_port":27086,"stv_name":"Uncletopia | London | 8 | Community | STV","players":null},{"server_id":300,"name":"Uncletopia | Montr√©al | 1 | All Maps","name_short":"mtl-1","host":"mtl-1.ca.uncletopia.com","port":27015,"enabled":true,"region":"us-east","cc":"ca","latitude":45.50889,"longitude":-73.56167,"reserved":0,"last_update":"0001-01-01T00:00:00Z","name_a2s":"Uncletopia | Montr√©al | 1 | All Maps","protocol":17,"map":"pl_upward","folder":"tf","game":"Team Fortress","app_id":440,"player_count":14,"max_players":24,"Bots":0,"server_type":"Dedicated","server_os":"Linux","password":true,"vac":true,"version":"7757534","steam_id":85568392924500087,"keywords":["nocrits","nodmgspread","payload","uncletopia"],"game_id":440,"stv_port":27016,"stv_name":"Uncletopia | Montr√©al | 1 | All Maps | STV","players":[{"user_id":358,"name":"Futo","steam_id":76561198023185653,"connected_time":1399000000000,"state":"active","ping":68},{"user_id":339,"name":"Munchyjr","steam_id":76561198041498014,"connected_time":2527000000000,"state":"active","ping":50},{"user_id":371,"name":"carrion goat she/it","steam_id":76561198262064871,"connected_time":489000000000,"state":"active","ping":48},{"user_id":372,"name":"jootloops","steam_id":76561198155447794,"connected_time":431000000000,"state":"active","ping":51},{"user_id":349,"name":"Uhonlapjontetzika","steam_id":76561199431280503,"connected_time":2254000000000,"state":"active","ping":74},{"user_id":369,"name":"Wacky-Mo","steam_id":76561198022265991,"connected_time":755000000000,"state":"active","ping":54},{"user_id":361,"name":"ShadowEri","steam_id":76561198825799843,"connected_time":1269000000000,"state":"active","ping":57},{"user_id":341,"name":"CheddarCake","steam_id":76561198061993725,"connected_time":2521000000000,"state":"active","ping":57},{"user_id":345,"name":"YNSxii","steam_id":76561198246975252,"connected_time":2500000000000,"state":"active","ping":87},{"user_id":362,"name":"last_apoc","steam_id":76561197974910911,"connected_time":1268000000000,"state":"active","ping":46},{"user_id":344,"name":"Fanthxm177","steam_id":76561198831301188,"connected_time":2515000000000,"state":"active","ping":92},{"user_id":354,"name":"Waterzuka","steam_id":76561198254454489,"connected_time":1922000000000,"state":"active","ping":115},{"user_id":355,"name":"Numanis","steam_id":76561199229661082,"connected_time":1834000000000,"state":"active","ping":84},{"user_id":357,"name":"chloe","steam_id":76561198369849908,"connected_time":1622000000000,"state":"active","ping":52}]},{"server_id":301,"name":"Uncletopia | Montr√©al | 2 | All Maps","name_short":"mtl-2","host":"mtl-1.ca.uncletopia.com","port":27025,"enabled":true,"region":"us-east","cc":"ca","latitude":45.50889,"longitude":-73.56167,"reserved":0,"last_update":"0001-01-01T00:00:00Z","name_a2s":"Uncletopia | Montr√©al | 2 | All Maps","protocol":17,"map":"pl_frontier_final","folder":"tf","game":"Team Fortress","app_id":440,"player_count":0,"max_players":24,"Bots":0,"server_type":"Dedicated","server_os":"Linux","password":true,"vac":true,"version":"7757534","steam_id":85568392924500088,"keywords":["nocrits","nodmgspread","payload","uncletopia"],"game_id":440,"stv_port":27026,"stv_name":"Uncletopia | Montr√©al | 2 | All Maps | STV","players":null},{"server_id":302,"name":"Uncletopia | Montr√©al | 3 | All Maps","name_short":"mtl-3","host":"mtl-1.ca.uncletopia.com","port":27035,"enabled":true,"region":"us-east","cc":"ca","latitude":45.50889,"longitude":-73.56167,"reserved":0,"last_update":"0001-01-01T00:00:00Z","name_a2s":"Uncletopia | Montr√©al | 3 | All Maps","protocol":17,"map":"cp_dustbowl","folder":"tf","game":"Team Fortress","app_id":440,"player_count":0,"max_players":24,"Bots":0,"server_type":"Dedicated","server_os":"Linux","password":true,"vac":true,"version":"7757534","steam_id":85568392924500089,"keywords":["cp","nocrits","nodmgspread","uncletopia"],"game_id":440,"stv_port":27036,"stv_name":"Uncletopia | Montr√©al | 3 | All Maps | STV","players":null},{"server_id":303,"name":"Uncletopia | Montr√©al | 4 | No Payload","name_short":"mtl-4","host":"mtl-1.ca.uncletopia.com","port":27045,"enabled":true,"region":"us-east","cc":"ca","latitude":45.50889,"longitude":-73.56167,"reserved":0,"last_update":"0001-01-01T00:00:00Z","name_a2s":"Uncletopia | Montr√©al | 4 | No Payload","protocol":17,"map":"pl_borneo","folder":"tf","game":"Team Fortress","app_id":440,"player_count":0,"max_players":24,"Bots":0,"server_type":"Dedicated","server_os":"Linux","password":true,"vac":true,"version":"7757534","steam_id":85568392924500090,"keywords":["nocrits","nodmgspread","payload","uncletopia"],"game_id":440,"stv_port":27046,"stv_name":"Uncletopia | Montr√©al | 4 | No Payload | STV","players":null},{"server_id":13,"name":"Uncletopia | New York City | 1 | All Maps","name_short":"nyc-1","host":"nyc-1.us.uncletopia.com","port":27015,"enabled":true,"region":"us-east","cc":"us","latitude":40.73061,"longitude":-73.93524,"reserved":0,"last_update":"0001-01-01T00:00:00Z","name_a2s":"Uncletopia | New York City | 1 | All Maps","protocol":17,"map":"pl_snowycoast","folder":"tf","game":"Team Fortress","app_id":440,"player_count":24,"max_players":24,"Bots":0,"server_type":"Dedicated","server_os":"Linux","password":true,"vac":true,"version":"7757534","steam_id":85568392924469993,"keywords":["nocrits","nodmgspread","payload","uncletopia"],"game_id":440,"stv_port":27016,"stv_name":"Uncletopia | New York City | 1 | All Maps | STV","players":[{"user_id":602,"name":"Phoenix117","steam_id":76561198071630835,"connected_time":829000000000,"state":"active","ping":83},{"user_id":594,"name":"The Duggler","steam_id":76561199005778478,"connected_time":1643000000000,"state":"active","ping":71},{"user_id":601,"name":"Bother","steam_id":76561198336750909,"connected_time":840000000000,"state":"active","ping":46},{"user_id":593,"name":"RichSix","steam_id":76561198010325218,"connected_time":1678000000000,"state":"active","ping":30},{"user_id":548,"name":"ndvr","steam_id":76561199379200102,"connected_time":4524000000000,"state":"active","ping":52},{"user_id":603,"name":"deepwoken","steam_id":76561198055439054,"connected_time":822000000000,"state":"active","ping":58},{"user_id":600,"name":"Horse","steam_id":76561199112075552,"connected_time":890000000000,"state":"active","ping":48},{"user_id":608,"name":"Broadway Rose","steam_id":76561198046083342,"connected_time":435000000000,"state":"active","ping":40},{"user_id":586,"name":"mars.","steam_id":76561198054859869,"connected_time":2099000000000,"state":"active","ping":65},{"user_id":604,"name":"Gator","steam_id":76561198185982730,"connected_time":820000000000,"state":"active","ping":64},{"user_id":605,"name":"retinz","steam_id":76561198135563495,"connected_time":805000000000,"state":"active","ping":54},{"user_id":598,"name":"Araaksa","steam_id":76561198931153864,"connected_time":1346000000000,"state":"active","ping":62},{"user_id":606,"name":"ADHDking","steam_id":76561198116099017,"connected_time":797000000000,"state":"active","ping":45},{"user_id":567,"name":"kentuckyfriedsocks","steam_id":76561198311122883,"connected_time":3241000000000,"state":"active","ping":87},{"user_id":597,"name":"Cake","steam_id":76561198067273252,"connected_time":1469000000000,"state":"active","ping":74},{"user_id":595,"name":"IggyYT","steam_id":76561198317980567,"connected_time":1628000000000,"state":"active","ping":89},{"user_id":592,"name":"Gnilkaew","steam_id":76561198202093367,"connected_time":1727000000000,"state":"active","ping":77},{"user_id":569,"name":"niffirG reteP","steam_id":76561198070854200,"connected_time":3202000000000,"state":"active","ping":64},{"user_id":607,"name":"Dezorbo","steam_id":76561197971883897,"connected_time":785000000000,"state":"active","ping":64},{"user_id":382,"name":"Elixir","steam_id":76561198166786809,"connected_time":16564000000000,"state":"active","ping":58},{"user_id":570,"name":"egyptiangodcard","steam_id":76561198855935442,"connected_time":3200000000000,"state":"active","ping":96},{"user_id":574,"name":"DarkenedPolarity","steam_id":76561199073099596,"connected_time":3029000000000,"state":"active","ping":98},{"user_id":576,"name":"HumFreY","steam_id":76561198076639682,"connected_time":2864000000000,"state":"active","ping":52},{"user_id":599,"name":"Noided Garfield","steam_id":76561198066711838,"connected_time":1200000000000,"state":"active","ping":79}]},{"server_id":14,"name":"Uncletopia | New York City | 2 | All Maps","name_short":"nyc-2","host":"nyc-1.us.uncletopia.com","port":27025,"enabled":true,"region":"us-east","cc":"us","latitude":40.73061,"longitude":-73.93524,"reserved":0,"last_update":"0001-01-01T00:00:00Z","name_a2s":"Uncletopia | New York City | 2 | All Maps","protocol":17,"map":"pl_frontier_final","folder":"tf","game":"Team Fortress","app_id":440,"player_count":22,"max_players":24,"Bots":0,"server_type":"Dedicated","server_os":"Linux","password":true,"vac":true,"version":"7757534","steam_id":85568392924469994,"keywords":["nocrits","nodmgspread","payload","uncletopia"],"game_id":440,"stv_port":27026,"stv_name":"Uncletopia | New York City | 2 | All Maps | STV","players":[{"user_id":175,"name":"‚òÜ dj_snasofficial ‚òÜ","steam_id":76561199135158570,"connected_time":465000000000,"state":"active","ping":119},{"user_id":142,"name":"hierodule","steam_id":76561198023229665,"connected_time":2103000000000,"state":"active","ping":61},{"user_id":160,"name":"e","steam_id":76561198131245396,"connected_time":1135000000000,"state":"active","ping":70},{"user_id":174,"name":"Sim","steam_id":76561198119227922,"connected_time":770000000000,"state":"active","ping":53},{"user_id":117,"name":"Braamklauw","steam_id":76561198283287697,"connected_time":3603000000000,"state":"active","ping":150},{"user_id":173,"name":"Devoid","steam_id":76561198254039012,"connected_time":897000000000,"state":"active","ping":35},{"user_id":171,"name":"4d4","steam_id":76561198402360789,"connected_time":948000000000,"state":"active","ping":62},{"user_id":172,"name":"Super3D","steam_id":76561199297779078,"connected_time":922000000000,"state":"active","ping":92},{"user_id":127,"name":"OneFestiveCorvid","steam_id":76561199012953221,"connected_time":2495000000000,"state":"active","ping":94},{"user_id":178,"name":"British Rage","steam_id":76561198009585209,"connected_time":10000000000,"state":"spawning","ping":143},{"user_id":161,"name":"scrapheap","steam_id":76561198202407087,"connected_time":1108000000000,"state":"active","ping":88},{"user_id":153,"name":"Fishman_200","steam_id":76561198152455167,"connected_time":1867000000000,"state":"active","ping":62},{"user_id":169,"name":"Justinbk","steam_id":76561198076047549,"connected_time":1015000000000,"state":"active","ping":63},{"user_id":177,"name":"Legit_Jaxer","steam_id":76561198172234053,"connected_time":231000000000,"state":"active","ping":120},{"user_id":165,"name":"A Puppy","steam_id":76561198828184456,"connected_time":1053000000000,"state":"active","ping":47},{"user_id":157,"name":"Nobody","steam_id":76561198160544586,"connected_time":1221000000000,"state":"active","ping":81},{"user_id":164,"name":"Silverkeys","steam_id":76561197986012496,"connected_time":1069000000000,"state":"active","ping":69},{"user_id":120,"name":"Heropon","steam_id":76561198105224481,"connected_time":3057000000000,"state":"active","ping":70},{"user_id":119,"name":"Sir Quacksalot","steam_id":76561198048942777,"connected_time":3082000000000,"state":"active","ping":99},{"user_id":166,"name":"Wefflez","steam_id":76561198049110443,"connected_time":1052000000000,"state":"active","ping":74},{"user_id":168,"name":"craxyt","steam_id":76561198050192689,"connected_time":1045000000000,"state":"active","ping":108}]},{"server_id":15,"name":"Uncletopia | New York City | 3 | Stopwatch Beta","name_short":"nyc-3","host":"nyc-1.us.uncletopia.com","port":27035,"enabled":true,"region":"us-east","cc":"us","latitude":40.73061,"longitude":-73.93524,"reserved":0,"last_update":"0001-01-01T00:00:00Z","name_a2s":"Uncletopia | New York City | 3 | Stopwatch Beta","protocol":17,"map":"workshop/cp_reckoner_rc6.ugc674719999","folder":"tf","game":"Team Fortress","app_id":440,"player_count":0,"max_players":24,"Bots":0,"server_type":"Dedicated","server_os":"Linux","password":true,"vac":true,"version":"7757534","steam_id":85568392924742820,"keywords":["cp","nocrits","nodmgspread","uncletopia"],"game_id":440,"stv_port":27036,"stv_name":"Uncletopia | New York City | 3 | Stopwatch Beta | STV","players":null},{"server_id":16,"name":"Uncletopia | New York City | 4 | Community","name_short":"nyc-4","host":"nyc-1.us.uncletopia.com","port":27045,"enabled":true,"region":"us-east","cc":"us","latitude":40.73061,"longitude":-73.93524,"reserved":0,"last_update":"0001-01-01T00:00:00Z","name_a2s":"Uncletopia | New York City | 4 | Community","protocol":17,"map":"workshop/koth_product_final.ugc454272353","folder":"tf","game":"Team Fortress","app_id":440,"player_count":0,"max_players":24,"Bots":0,"server_type":"Dedicated","server_os":"Linux","password":true,"vac":true,"version":"7757534","steam_id":85568392924742821,"keywords":["cp","nocrits","nodmgspread","uncletopia"],"game_id":440,"stv_port":27046,"stv_name":"Uncletopia | New York City | 4 | Community | STV","players":null},{"server_id":142,"name":"Uncletopia | S√£o Paulo | 1 | All Maps","name_short":"sao-1","host":"sao-1.br.uncletopia.com","port":27015,"enabled":true,"region":"sa","cc":"br","latitude":-23.533773,"longitude":-46.62529,"reserved":0,"last_update":"0001-01-01T00:00:00Z","name_a2s":"Uncletopia | S√£o Paulo | 1 | All Maps","protocol":17,"map":"cp_altitude","folder":"tf","game":"Team Fortress","app_id":440,"player_count":0,"max_players":24,"Bots":0,"server_type":"Dedicated","server_os":"Linux","password":true,"vac":true,"version":"7757534","steam_id":85568392924469996,"keywords":["cp","nocrits","nodmgspread","uncletopia"],"game_id":440,"stv_port":27016,"stv_name":"Uncletopia | S√£o Paulo | 1 | All Maps | STV","players":null},{"server_id":143,"name":"Uncletopia | S√£o Paulo | 2 | All Maps","name_short":"sao-2","host":"sao-2.br.uncletopia.com","port":27015,"enabled":true,"region":"sa","cc":"br","latitude":-23.533773,"longitude":-46.62529,"reserved":0,"last_update":"0001-01-01T00:00:00Z","name_a2s":"Uncletopia | S√£o Paulo | 2 | All Maps","protocol":17,"map":"koth_viaduct","folder":"tf","game":"Team Fortress","app_id":440,"player_count":0,"max_players":24,"Bots":0,"server_type":"Dedicated","server_os":"Linux","password":true,"vac":true,"version":"7757534","steam_id":85568392924485349,"keywords":["cp","nocrits","nodmgspread","uncletopia"],"game_id":440,"stv_port":27016,"stv_name":"Uncletopia | S√£o Paulo | 2 | All Maps | STV","players":null},{"server_id":7,"name":"Uncletopia | Seattle | 1 | All Maps","name_short":"sea-1","host":"sea-1.us.uncletopia.com","port":27015,"enabled":true,"region":"us-west","cc":"us","latitude":47.608013,"longitude":-122.33517,"reserved":0,"last_update":"0001-01-01T00:00:00Z","name_a2s":"Uncletopia | Seattle | 1 | All Maps","protocol":17,"map":"pl_barnblitz","folder":"tf","game":"Team Fortress","app_id":440,"player_count":24,"max_players":24,"Bots":0,"server_type":"Dedicated","server_os":"Linux","password":true,"vac":true,"version":"7757534","steam_id":85568392924469997,"keywords":["nocrits","nodmgspread","payload","uncletopia"],"game_id":440,"stv_port":27016,"stv_name":"Uncletopia | Seattle | 1 | All Maps | STV","players":[{"user_id":293,"name":"‚ô• President Shitfart ‚ô•","steam_id":76561198141819053,"connected_time":733000000000,"state":"active","ping":64},{"user_id":269,"name":"Nobuunga","steam_id":76561198100614981,"connected_time":2694000000000,"state":"active","ping":52},{"user_id":286,"name":"Jorge_dude_2008","steam_id":76561198870649125,"connected_time":1055000000000,"state":"active","ping":84},{"user_id":272,"name":"goldhed","steam_id":76561198051751133,"connected_time":2296000000000,"state":"active","ping":50},{"user_id":236,"name":"lker","steam_id":76561197976975075,"connected_time":4901000000000,"state":"active","ping":106},{"user_id":294,"name":"royoÂΩ°","steam_id":76561198155447646,"connected_time":586000000000,"state":"active","ping":80},{"user_id":287,"name":"HaphazardHazel","steam_id":76561198316812693,"connected_time":1055000000000,"state":"active","ping":138},{"user_id":258,"name":"jpuck","steam_id":76561198025018960,"connected_time":3849000000000,"state":"active","ping":129},{"user_id":284,"name":"Sam","steam_id":76561198146472900,"connected_time":1061000000000,"state":"active","ping":65},{"user_id":248,"name":"mooney","steam_id":76561199110622484,"connected_time":4090000000000,"state":"active","ping":73},{"user_id":297,"name":"amoeba","steam_id":76561198970261784,"connected_time":195000000000,"state":"active","ping":51},{"user_id":295,"name":"iwnl monster_","steam_id":76561198059480824,"connected_time":574000000000,"state":"active","ping":71},{"user_id":288,"name":"Idontknow","steam_id":76561199207044048,"connected_time":1050000000000,"state":"active","ping":43},{"user_id":275,"name":"Sloppy John (Extra Sauce)","steam_id":76561198359703432,"connected_time":2192000000000,"state":"active","ping":78},{"user_id":267,"name":"Glue Gobbler","steam_id":76561198237034712,"connected_time":2698000000000,"state":"active","ping":48},{"user_id":296,"name":"Calypso","steam_id":76561198082939544,"connected_time":426000000000,"state":"active","ping":81},{"user_id":260,"name":"Playfiendss","steam_id":76561198026186354,"connected_time":3657000000000,"state":"active","ping":94},{"user_id":251,"name":"Themasterman75","steam_id":76561199385573293,"connected_time":4087000000000,"state":"active","ping":76},{"user_id":282,"name":"resting neutral face","steam_id":76561197999259502,"connected_time":1076000000000,"state":"active","ping":65},{"user_id":283,"name":"Tungsten","steam_id":76561198312854342,"connected_time":1076000000000,"state":"active","ping":65},{"user_id":280,"name":"Arsonist Goose","steam_id":76561198147441830,"connected_time":1353000000000,"state":"active","ping":76},{"user_id":292,"name":"Hassium","steam_id":76561198162541373,"connected_time":953000000000,"state":"active","ping":61},{"user_id":255,"name":"AmiableNebula","steam_id":76561198094306627,"connected_time":3966000000000,"state":"active","ping":76},{"user_id":268,"name":"tender mike","steam_id":76561198058821622,"connected_time":2698000000000,"state":"active","ping":104}]},{"server_id":119,"name":"Uncletopia | Seattle | 2 | All Maps","name_short":"sea-2","host":"sea-1.us.uncletopia.com","port":27025,"enabled":true,"region":"us-west","cc":"us","latitude":47.608013,"longitude":-122.33517,"reserved":0,"last_update":"0001-01-01T00:00:00Z","name_a2s":"Uncletopia | Seattle | 2 | All Maps","protocol":17,"map":"pl_pier","folder":"tf","game":"Team Fortress","app_id":440,"player_count":24,"max_players":24,"Bots":0,"server_type":"Dedicated","server_os":"Linux","password":true,"vac":true,"version":"7757534","steam_id":85568392924469998,"keywords":["nocrits","nodmgspread","payload","uncletopia"],"game_id":440,"stv_port":27026,"stv_name":"Uncletopia | Seattle | 2 | All Maps | STV","players":[{"user_id":511,"name":"Grammaring","steam_id":76561198867366139,"connected_time":4076000000000,"state":"active","ping":74},{"user_id":507,"name":"captain red","steam_id":76561198191587983,"connected_time":4342000000000,"state":"active","ping":75},{"user_id":540,"name":"The Population of Sweden","steam_id":76561198202201644,"connected_time":1062000000000,"state":"active","ping":39},{"user_id":533,"name":"Tinnitus Enjoyer","steam_id":76561198046526036,"connected_time":2039000000000,"state":"active","ping":76},{"user_id":521,"name":"Court Wizard, Sir Dr. Clydesdal","steam_id":76561198149267697,"connected_time":3280000000000,"state":"active","ping":68},{"user_id":544,"name":"John Wick's puppy","steam_id":76561198064662875,"connected_time":215000000000,"state":"active","ping":67},{"user_id":527,"name":"mountain creature","steam_id":76561198146228439,"connected_time":2325000000000,"state":"active","ping":46},{"user_id":462,"name":"Gift_Card","steam_id":76561197995405617,"connected_time":7078000000000,"state":"active","ping":110},{"user_id":536,"name":"Sticky Ethan","steam_id":76561198277211625,"connected_time":1813000000000,"state":"active","ping":75},{"user_id":522,"name":"lyraaaaaaaaaaa","steam_id":76561198259331758,"connected_time":3170000000000,"state":"active","ping":52},{"user_id":482,"name":"Tibetan Pop Star","steam_id":76561198844903984,"connected_time":5628000000000,"state":"active","ping":126},{"user_id":524,"name":"vareh","steam_id":76561197993190926,"connected_time":2454000000000,"state":"active","ping":63},{"user_id":525,"name":"PerKnuckleChuckle","steam_id":76561198023221596,"connected_time":2428000000000,"state":"active","ping":87},{"user_id":485,"name":"God","steam_id":76561198148447846,"connected_time":5544000000000,"state":"active","ping":90},{"user_id":545,"name":"ttv/wabba_doo","steam_id":76561198867130576,"connected_time":183000000000,"state":"active","ping":78},{"user_id":535,"name":"Dargoos","steam_id":76561198366212046,"connected_time":1995000000000,"state":"active","ping":70},{"user_id":473,"name":"YahYeeterson","steam_id":76561198120480906,"connected_time":6519000000000,"state":"active","ping":71},{"user_id":432,"name":"rbstat","steam_id":76561198050169034,"connected_time":8544000000000,"state":"active","ping":98},{"user_id":504,"name":"MarshallMellows","steam_id":76561198231561020,"connected_time":4493000000000,"state":"active","ping":59},{"user_id":543,"name":"S Q U I S H E  T H A T  C A T","steam_id":76561198293865429,"connected_time":331000000000,"state":"active","ping":42},{"user_id":528,"name":"ÎÑàÏóêÍ≤å ÎãøÍ∏∞Î•º","steam_id":76561198125363469,"connected_time":2095000000000,"state":"active","ping":159},{"user_id":538,"name":"Lime","steam_id":76561198080786408,"connected_time":1361000000000,"state":"active","ping":57},{"user_id":515,"name":"dirty30","steam_id":76561198021226566,"connected_time":3631000000000,"state":"active","ping":46},{"user_id":542,"name":"Major Rabbit","steam_id":76561198086047613,"connected_time":362000000000,"state":"active","ping":131}]},{"server_id":406,"name":"Uncletopia | Seattle | 3 | Stopwatch Beta","name_short":"sea-3","host":"sea-1.us.uncletopia.com","port":27035,"enabled":true,"region":"us-west","cc":"us","latitude":47.608013,"longitude":-122.33517,"reserved":0,"last_update":"0001-01-01T00:00:00Z","name_a2s":"Uncletopia | Seattle | 3 | Stopwatch Beta","protocol":17,"map":"workshop/pl_summercoast_rc8e.ugc1761528829","folder":"tf","game":"Team Fortress","app_id":440,"player_count":18,"max_players":24,"Bots":0,"server_type":"Dedicated","server_os":"Linux","password":true,"vac":true,"version":"7757534","steam_id":85568392924515217,"keywords":["nocrits","nodmgspread","payload","uncletopia"],"game_id":440,"stv_port":27036,"stv_name":"Uncletopia | Seattle | 3 | Stopwatch Beta | STV","players":[{"user_id":266,"name":"m1","steam_id":76561198004133638,"connected_time":2337000000000,"state":"active","ping":91},{"user_id":293,"name":"Bad Medic Buddy","steam_id":76561198093222632,"connected_time":463000000000,"state":"active","ping":141},{"user_id":233,"name":"ihavetapeworms","steam_id":76561198357040313,"connected_time":3629000000000,"state":"active","ping":68},{"user_id":289,"name":"PaveLow","steam_id":76561198062313698,"connected_time":621000000000,"state":"active","ping":59},{"user_id":300,"name":"Squid121","steam_id":76561198038832034,"connected_time":168000000000,"state":"active","ping":61},{"user_id":287,"name":"Annual Raffle Nemesis \"Squiggle","steam_id":76561199375501871,"connected_time":754000000000,"state":"active","ping":90},{"user_id":288,"name":"SomeFuckingGuy #SAVETF2","steam_id":76561199239165015,"connected_time":722000000000,"state":"active","ping":101},{"user_id":245,"name":"Seriously Bruh","steam_id":76561198070408485,"connected_time":3084000000000,"state":"active","ping":71},{"user_id":290,"name":"Kaiser Scoopy","steam_id":76561199122649727,"connected_time":618000000000,"state":"active","ping":73},{"user_id":295,"name":"hippiepriestburnout","steam_id":76561198067221017,"connected_time":284000000000,"state":"active","ping":57},{"user_id":249,"name":"Wackydavo","steam_id":76561197990094209,"connected_time":3006000000000,"state":"active","ping":123},{"user_id":296,"name":"Quasi","steam_id":76561198256581731,"connected_time":279000000000,"state":"active","ping":79},{"user_id":298,"name":"Theory-ZaZa","steam_id":76561198116419931,"connected_time":240000000000,"state":"active","ping":66},{"user_id":277,"name":"SmallErection","steam_id":76561198071770147,"connected_time":1610000000000,"state":"active","ping":67},{"user_id":299,"name":"Bedrock Insane Obama","steam_id":76561198004847013,"connected_time":216000000000,"state":"active","ping":122},{"user_id":272,"name":"Jkbh1","steam_id":76561198093449670,"connected_time":1987000000000,"state":"active","ping":78},{"user_id":279,"name":"non menthol newport","steam_id":76561198041907345,"connected_time":1534000000000,"state":"active","ping":96}]},{"server_id":17,"name":"Uncletopia | San Francisco | 1 | All Maps","name_short":"sfo-1","host":"sfo-1.us.uncletopia.com","port":27015,"enabled":true,"region":"us-west","cc":"us","latitude":37.77397,"longitude":-122.4313,"reserved":0,"last_update":"0001-01-01T00:00:00Z","name_a2s":"Uncletopia | San Francisco | 1 | All Maps","protocol":17,"map":"koth_highpass","folder":"tf","game":"Team Fortress","app_id":440,"player_count":13,"max_players":24,"Bots":0,"server_type":"Dedicated","server_os":"Linux","password":true,"vac":true,"version":"7757534","steam_id":85568392924469999,"keywords":["cp","nocrits","nodmgspread","uncletopia"],"game_id":440,"stv_port":27016,"stv_name":"Uncletopia | San Francisco | 1 | All Maps | STV","players":[{"user_id":15,"name":"TheMilkMan","steam_id":76561199068930228,"connected_time":1995000000000,"state":"active","ping":101},{"user_id":16,"name":"KingDingaling","steam_id":76561198119363542,"connected_time":1981000000000,"state":"active","ping":96},{"user_id":27,"name":"Reem0h","steam_id":76561198169848690,"connected_time":294000000000,"state":"active","ping":120},{"user_id":18,"name":"l_teri","steam_id":76561198853507579,"connected_time":1262000000000,"state":"active","ping":71},{"user_id":19,"name":"Percy","steam_id":76561198875195004,"connected_time":1142000000000,"state":"active","ping":70},{"user_id":20,"name":"MonkeyPies21","steam_id":76561199203908758,"connected_time":1121000000000,"state":"active","ping":83},{"user_id":21,"name":"THE CAPN","steam_id":76561198170210979,"connected_time":951000000000,"state":"active","ping":57},{"user_id":28,"name":"green cupcake","steam_id":76561198114030795,"connected_time":181000000000,"state":"active","ping":68},{"user_id":23,"name":"Snety Gun","steam_id":76561198862745731,"connected_time":560000000000,"state":"active","ping":86},{"user_id":24,"name":"R4 | Mr. Commissioner","steam_id":76561198101666509,"connected_time":553000000000,"state":"active","ping":71},{"user_id":25,"name":"Dangerous_Dave76","steam_id":76561199230056550,"connected_time":534000000000,"state":"active","ping":85},{"user_id":26,"name":"Owl","steam_id":76561198248266580,"connected_time":501000000000,"state":"active","ping":220},{"user_id":29,"name":"Asolator0","steam_id":76561198095809798,"connected_time":85000000000,"state":"active","ping":60}]},{"server_id":18,"name":"Uncletopia | San Francisco | 2 | All Maps","name_short":"sfo-2","host":"sfo-1.us.uncletopia.com","port":27025,"enabled":true,"region":"us-west","cc":"us","latitude":37.77397,"longitude":-122.4313,"reserved":0,"last_update":"0001-01-01T00:00:00Z","name_a2s":"Uncletopia | San Francisco | 2 | All Maps","protocol":17,"map":"pl_snowycoast","folder":"tf","game":"Team Fortress","app_id":440,"player_count":24,"max_players":24,"Bots":0,"server_type":"Dedicated","server_os":"Linux","password":true,"vac":true,"version":"7757534","steam_id":85568392924470000,"keywords":["nocrits","nodmgspread","payload","uncletopia"],"game_id":440,"stv_port":27026,"stv_name":"Uncletopia | San Francisco | 2 | All Maps | STV","players":[{"user_id":98,"name":"Stapler","steam_id":76561198099295077,"connected_time":2088000000000,"state":"active","ping":45},{"user_id":109,"name":"me","steam_id":76561199468285784,"connected_time":890000000000,"state":"active","ping":34},{"user_id":112,"name":"Amogous Supreme","steam_id":76561198025476774,"connected_time":845000000000,"state":"active","ping":55},{"user_id":117,"name":"compulsive","steam_id":76561198212421513,"connected_time":141000000000,"state":"active","ping":59},{"user_id":84,"name":"jawnymac","steam_id":76561198179529599,"connected_time":3876000000000,"state":"active","ping":54},{"user_id":25,"name":"Booty Warrior","steam_id":76561199197289548,"connected_time":6641000000000,"state":"active","ping":75},{"user_id":104,"name":"Thicc Boi","steam_id":76561199163799116,"connected_time":1843000000000,"state":"active","ping":69},{"user_id":118,"name":"Chuck Finley","steam_id":76561198027411284,"connected_time":125000000000,"state":"active","ping":91},{"user_id":102,"name":"Not a Can","steam_id":76561198064264767,"connected_time":1852000000000,"state":"active","ping":63},{"user_id":28,"name":"Milk","steam_id":76561198004362373,"connected_time":6557000000000,"state":"active","ping":74},{"user_id":103,"name":"Papa Panda","steam_id":76561198159061475,"connected_time":1849000000000,"state":"active","ping":64},{"user_id":105,"name":"Shoggoth","steam_id":76561198117892299,"connected_time":1767000000000,"state":"active","ping":85},{"user_id":111,"name":"Sykes10","steam_id":76561198279623105,"connected_time":864000000000,"state":"active","ping":55},{"user_id":91,"name":"Chrisscar","steam_id":76561198086298130,"connected_time":3345000000000,"state":"active","ping":55},{"user_id":113,"name":"el muchacho","steam_id":76561198282632562,"connected_time":827000000000,"state":"active","ping":100},{"user_id":66,"name":"G‡∂ûMER","steam_id":76561198340389876,"connected_time":4941000000000,"state":"active","ping":46},{"user_id":116,"name":"Awkward Shark","steam_id":76561198066652332,"connected_time":333000000000,"state":"active","ping":116},{"user_id":74,"name":"Scarlett (Trans)","steam_id":76561197999367029,"connected_time":4377000000000,"state":"active","ping":109},{"user_id":75,"name":"Evil Ed","steam_id":76561198020055546,"connected_time":4360000000000,"state":"active","ping":98},{"user_id":99,"name":"Sugary","steam_id":76561198088267265,"connected_time":1950000000000,"state":"active","ping":65},{"user_id":119,"name":"Rhutebeer","steam_id":76561198018302761,"connected_time":123000000000,"state":"active","ping":139},{"user_id":92,"name":"Bandit","steam_id":76561199087543553,"connected_time":3265000000000,"state":"active","ping":69},{"user_id":96,"name":"„Äê caden / karma „Äë","steam_id":76561198072276429,"connected_time":2920000000000,"state":"active","ping":121},{"user_id":108,"name":"summerof69","steam_id":76561198069049410,"connected_time":1697000000000,"state":"active","ping":95}]},{"server_id":19,"name":"Uncletopia | San Francisco | 3 | Stopwatch Beta","name_short":"sfo-3","host":"sfo-1.us.uncletopia.com","port":27035,"enabled":true,"region":"us-west","cc":"us","latitude":37.77397,"longitude":-122.4313,"reserved":0,"last_update":"0001-01-01T00:00:00Z","name_a2s":"Uncletopia | San Francisco | 3 | Stopwatch Beta","protocol":17,"map":"pl_borneo","folder":"tf","game":"Team Fortress","app_id":440,"player_count":0,"max_players":24,"Bots":0,"server_type":"Dedicated","server_os":"Linux","password":true,"vac":true,"version":"7757534","steam_id":85568392924742824,"keywords":["nocrits","nodmgspread","payload","uncletopia"],"game_id":440,"stv_port":27036,"stv_name":"Uncletopia | San Francisco | 3 | Stopwatch Beta | STV","players":null},{"server_id":20,"name":"Uncletopia | San Francisco | 4 | Community","name_short":"sfo-4","host":"sfo-1.us.uncletopia.com","port":27045,"enabled":true,"region":"us-west","cc":"us","latitude":37.77397,"longitude":-122.4313,"reserved":0,"last_update":"0001-01-01T00:00:00Z","name_a2s":"Uncletopia | San Francisco | 4 | Community","protocol":17,"map":"koth_highpass","folder":"tf","game":"Team Fortress","app_id":440,"player_count":0,"max_players":24,"Bots":0,"server_type":"Dedicated","server_os":"Linux","password":true,"vac":true,"version":"7757534","steam_id":85568392924742826,"keywords":["cp","nocrits","nodmgspread","uncletopia"],"game_id":440,"stv_port":27046,"stv_name":"Uncletopia | San Francisco | 4 | Community | STV","players":null},{"server_id":141,"name":"Uncletopia | Sydney | 1 | All Maps","name_short":"syd-1","host":"syd-1.au.uncletopia.com","port":27015,"enabled":true,"region":"au","cc":"au","latitude":-33.865143,"longitude":151.2099,"reserved":0,"last_update":"0001-01-01T00:00:00Z","name_a2s":"Uncletopia | Sydney | 1 | All Maps","protocol":17,"map":"cp_mountainlab","folder":"tf","game":"Team Fortress","app_id":440,"player_count":2,"max_players":24,"Bots":0,"server_type":"Dedicated","server_os":"Linux","password":true,"vac":true,"version":"7757534","steam_id":85568392924470001,"keywords":["cp","nocrits","nodmgspread","uncletopia"],"game_id":440,"stv_port":27016,"stv_name":"Uncletopia | Sydney | 1 | All Maps | STV","players":[{"user_id":13,"name":"zeaphg","steam_id":76561199014878539,"connected_time":538000000000,"state":"active","ping":84},{"user_id":14,"name":"‰∏≠ÊñáÂçïËØç","steam_id":76561199017211623,"connected_time":531000000000,"state":"active","ping":74}]},{"server_id":123,"name":"Uncletopia | Sydney | 2 | All Maps","name_short":"syd-2","host":"syd-1.au.uncletopia.com","port":27025,"enabled":true,"region":"au","cc":"au","latitude":-33.865143,"longitude":151.2099,"reserved":0,"last_update":"0001-01-01T00:00:00Z","name_a2s":"Uncletopia | Sydney | 2 | All Maps","protocol":17,"map":"pl_barnblitz","folder":"tf","game":"Team Fortress","app_id":440,"player_count":24,"max_players":24,"Bots":0,"server_type":"Dedicated","server_os":"Linux","password":true,"vac":true,"version":"7757534","steam_id":85568392924470002,"keywords":["nocrits","nodmgspread","payload","uncletopia"],"game_id":440,"stv_port":27026,"stv_name":"Uncletopia | Sydney | 2 | All Maps | STV","players":[{"user_id":33,"name":"CrowPBS1 PC","steam_id":76561198943274401,"connected_time":6212000000000,"state":"active","ping":88},{"user_id":89,"name":"Fresh Produce Gaming","steam_id":76561198358483352,"connected_time":3532000000000,"state":"active","ping":66},{"user_id":119,"name":"HornHook44","steam_id":76561199443068966,"connected_time":1430000000000,"state":"active","ping":46},{"user_id":98,"name":"wombraider","steam_id":76561199375834537,"connected_time":3144000000000,"state":"active","ping":125},{"user_id":130,"name":"Rarity the Fabulous","steam_id":76561198077653287,"connected_time":5000000000,"state":"spawning","ping":33},{"user_id":21,"name":"Wake'n'Bake'n'Make'n'Bacon","steam_id":76561198061960926,"connected_time":7310000000000,"state":"active","ping":91},{"user_id":109,"name":"lavanderpumpernickle","steam_id":76561199093611800,"connected_time":2417000000000,"state":"active","ping":59},{"user_id":120,"name":"Moms against √úberCharge","steam_id":76561198105820742,"connected_time":1371000000000,"state":"active","ping":72},{"user_id":129,"name":"Mase","steam_id":76561198797093795,"connected_time":192000000000,"state":"active","ping":50},{"user_id":122,"name":"‚ÇÆ…Ü‚Ç¥‚ÇÆ≈Ç‚Çµ…Ñ‚±†√ò‚±§…Ñ‚Ç•","steam_id":76561199349964541,"connected_time":1278000000000,"state":"active","ping":65},{"user_id":125,"name":"blortzoing","steam_id":76561198063481761,"connected_time":1003000000000,"state":"active","ping":44},{"user_id":32,"name":"Cofwee","steam_id":76561198072414195,"connected_time":6244000000000,"state":"active","ping":80},{"user_id":34,"name":"AquaticPanda","steam_id":76561198130836308,"connected_time":6204000000000,"state":"active","ping":60},{"user_id":121,"name":"The Impractical Engineer","steam_id":76561198114782628,"connected_time":1317000000000,"state":"active","ping":62},{"user_id":115,"name":"Turbo_dip","steam_id":76561198446508846,"connected_time":1929000000000,"state":"active","ping":73},{"user_id":118,"name":"electro599","steam_id":76561198058148858,"connected_time":1501000000000,"state":"active","ping":60},{"user_id":123,"name":"‡πá‡πá ‡πá‡πá","steam_id":76561198241303512,"connected_time":1269000000000,"state":"active","ping":56},{"user_id":62,"name":"Sover blw.tf","steam_id":76561198136347837,"connected_time":4830000000000,"state":"active","ping":131},{"user_id":128,"name":"Pirate Arr","steam_id":76561198011944697,"connected_time":464000000000,"state":"active","ping":53},{"user_id":114,"name":"Blazey ‰ºäÈÅî ÊîøÂÆó","steam_id":76561197971082275,"connected_time":2266000000000,"state":"active","ping":198},{"user_id":124,"name":"vaportime","steam_id":76561198133490050,"connected_time":1242000000000,"state":"active","ping":111},{"user_id":102,"name":"58","steam_id":76561198045125531,"connected_time":3009000000000,"state":"active","ping":62},{"user_id":117,"name":"Glockenspe (She/Her)","steam_id":76561199184115241,"connected_time":1502000000000,"state":"active","ping":53},{"user_id":126,"name":"saudi ambassador messi","steam_id":76561198031293430,"connected_time":874000000000,"state":"active","ping":85}]},{"server_id":395,"name":"Uncletopia | Sydney | 3 | All Maps","name_short":"syd-3","host":"syd-1.au.uncletopia.com","port":27035,"enabled":true,"region":"au","cc":"au","latitude":-33.865143,"longitude":151.2099,"reserved":0,"last_update":"0001-01-01T00:00:00Z","name_a2s":"Uncletopia | Sydney | 3 | All Maps","protocol":17,"map":"pl_upward","folder":"tf","game":"Team Fortress","app_id":440,"player_count":0,"max_players":24,"Bots":0,"server_type":"Dedicated","server_os":"Linux","password":true,"vac":true,"version":"7757534","steam_id":85568392925194467,"keywords":["nocrits","nodmgspread","payload","uncletopia"],"game_id":440,"stv_port":27036,"stv_name":"Uncletopia | Sydney | 3 | All Maps | STV","players":null},{"server_id":396,"name":"Uncletopia | Sydney | 4 | All Maps","name_short":"syd-4","host":"syd-1.au.uncletopia.com","port":27045,"enabled":true,"region":"au","cc":"au","latitude":-33.865143,"longitude":151.2099,"reserved":0,"last_update":"0001-01-01T00:00:00Z","name_a2s":"Uncletopia | Sydney | 4 | All Maps","protocol":17,"map":"cp_sunshine","folder":"tf","game":"Team Fortress","app_id":440,"player_count":0,"max_players":24,"Bots":0,"server_type":"Dedicated","server_os":"Linux","password":true,"vac":true,"version":"7757534","steam_id":85568392925397958,"keywords":["cp","nocrits","nodmgspread","uncletopia"],"game_id":440,"stv_port":27046,"stv_name":"Uncletopia | Sydney | 4 | All Maps | STV","players":null},{"server_id":58,"name":"Uncletopia | Sydney | 5 | Stopwatch Beta","name_short":"syd-5","host":"syd-1.au.uncletopia.com","port":27055,"enabled":true,"region":"au","cc":"au","latitude":-33.865143,"longitude":151.2099,"reserved":0,"last_update":"0001-01-01T00:00:00Z","name_a2s":"Uncletopia | Sydney | 5 | Stopwatch Beta","protocol":17,"map":"koth_highpass","folder":"tf","game":"Team Fortress","app_id":440,"player_count":0,"max_players":24,"Bots":0,"server_type":"Dedicated","server_os":"Linux","password":true,"vac":true,"version":"7757534","steam_id":85568392925397959,"keywords":["cp","nocrits","nodmgspread","uncletopia"],"game_id":440,"stv_port":27056,"stv_name":"Uncletopia | Sydney | 5 | Stopwatch Beta | STV","players":null},{"server_id":59,"name":"Uncletopia | Sydney | 6 | Community","name_short":"syd-6","host":"syd-1.au.uncletopia.com","port":27065,"enabled":true,"region":"au","cc":"au","latitude":-33.865143,"longitude":151.2099,"reserved":0,"last_update":"0001-01-01T00:00:00Z","name_a2s":"Uncletopia | Sydney | 6 | Community","protocol":17,"map":"cp_sunshine","folder":"tf","game":"Team Fortress","app_id":440,"player_count":0,"max_players":24,"Bots":0,"server_type":"Dedicated","server_os":"Linux","password":true,"vac":true,"version":"7757534","steam_id":85568392925397960,"keywords":["cp","nocrits","nodmgspread","uncletopia"],"game_id":440,"stv_port":27066,"stv_name":"Uncletopia | Sydney | 6 | Community | STV","players":null},{"server_id":49,"name":"Uncletopia | Warsaw | 1 | All Maps","name_short":"waw-1","host":"waw-1.pl.uncletopia.com","port":27015,"enabled":true,"region":"eu","cc":"pl","latitude":52.2297,"longitude":21.017532,"reserved":0,"last_update":"0001-01-01T00:00:00Z","name_a2s":"","protocol":0,"map":"","folder":"","game":"","app_id":0,"player_count":0,"max_players":0,"Bots":0,"server_type":"","server_os":"","password":false,"vac":false,"version":"","steam_id":0,"keywords":null,"game_id":0,"stv_port":0,"stv_name":"","players":null},{"server_id":50,"name":"Uncletopia | Warsaw | 2 | All Maps","name_short":"waw-2","host":"waw-1.pl.uncletopia.com","port":27025,"enabled":true,"region":"eu","cc":"pl","latitude":52.2297,"longitude":21.017532,"reserved":0,"last_update":"0001-01-01T00:00:00Z","name_a2s":"Uncletopia | Warsaw | 2 | All Maps","protocol":17,"map":"koth_lakeside_final","folder":"tf","game":"Team Fortress","app_id":440,"player_count":0,"max_players":24,"Bots":0,"server_type":"Dedicated","server_os":"Linux","password":true,"vac":true,"version":"7757534","steam_id":85568392925397851,"keywords":["cp","nocrits","nodmgspread","uncletopia"],"game_id":440,"stv_port":27026,"stv_name":"Uncletopia | Warsaw | 2 | All Maps | STV","players":null},{"server_id":51,"name":"Uncletopia | Warsaw | 3 | All Maps","name_short":"waw-3","host":"waw-1.pl.uncletopia.com","port":27035,"enabled":true,"region":"eu","cc":"pl","latitude":52.2297,"longitude":21.017532,"reserved":0,"last_update":"0001-01-01T00:00:00Z","name_a2s":"Uncletopia | Warsaw | 3 | All Maps","protocol":17,"map":"cp_dustbowl","folder":"tf","game":"Team Fortress","app_id":440,"player_count":0,"max_players":24,"Bots":0,"server_type":"Dedicated","server_os":"Linux","password":true,"vac":true,"version":"7757534","steam_id":85568392925397852,"keywords":["cp","nocrits","nodmgspread","uncletopia"],"game_id":440,"stv_port":27036,"stv_name":"Uncletopia | Warsaw | 3 | All Maps | STV","players":null},{"server_id":52,"name":"Uncletopia | Warsaw | 4 | All Maps","name_short":"waw-4","host":"waw-1.pl.uncletopia.com","port":27045,"enabled":true,"region":"eu","cc":"pl","latitude":52.2297,"longitude":21.017532,"reserved":0,"last_update":"0001-01-01T00:00:00Z","name_a2s":"Uncletopia | Warsaw | 4 | All Maps","protocol":17,"map":"pl_snowycoast","folder":"tf","game":"Team Fortress","app_id":440,"player_count":0,"max_players":24,"Bots":0,"server_type":"Dedicated","server_os":"Linux","password":true,"vac":true,"version":"7757534","steam_id":85568392925397853,"keywords":["nocrits","nodmgspread","payload","uncletopia"],"game_id":440,"stv_port":27046,"stv_name":"Uncletopia | Warsaw | 4 | All Maps | STV","players":null},{"server_id":53,"name":"Uncletopia | Warsaw | 5 | Stopwatch Beta","name_short":"waw-5","host":"waw-1.pl.uncletopia.com","port":27055,"enabled":true,"region":"eu","cc":"pl","latitude":52.2297,"longitude":21.017532,"reserved":0,"last_update":"0001-01-01T00:00:00Z","name_a2s":"Uncletopia | Warsaw | 5 | Stopwatch Beta","protocol":17,"map":"pl_barnblitz","folder":"tf","game":"Team Fortress","app_id":440,"player_count":0,"max_players":24,"Bots":0,"server_type":"Dedicated","server_os":"Linux","password":true,"vac":true,"version":"7757534","steam_id":85568392925397854,"keywords":["nocrits","nodmgspread","payload","uncletopia"],"game_id":440,"stv_port":27056,"stv_name":"Uncletopia | Warsaw | 5 | Stopwatch Beta | STV","players":null},{"server_id":54,"name":"Uncletopia | Warsaw | 6 | Community","name_short":"waw-6","host":"waw-1.pl.uncletopia.com","port":27065,"enabled":true,"region":"eu","cc":"pl","latitude":52.2297,"longitude":21.017532,"reserved":0,"last_update":"0001-01-01T00:00:00Z","name_a2s":"Uncletopia | Warsaw | 6 | Community","protocol":17,"map":"workshop/cp_sulfur_rc2.ugc619869471","folder":"tf","game":"Team Fortress","app_id":440,"player_count":0,"max_players":24,"Bots":0,"server_type":"Dedicated","server_os":"Linux","password":true,"vac":true,"version":"7757534","steam_id":85568392925397856,"keywords":["cp","nocrits","nodmgspread","uncletopia"],"game_id":440,"stv_port":27066,"stv_name":"Uncletopia | Warsaw | 6 | Community | STV","players":null}]}