{"status":true,"message":"","result":[{"server_id":9,"name":"Uncletopia | Atlanta | 1 | All Maps","name_short":"atl-1","host":"atl-1.us.uncletopia.com","port":27015,"enabled":true,"region":"us-east","cc":"us","latitude":33.753746,"longitude":-84.38633,"reserved":0,"last_update":"0001-01-01T00:00:00Z","name_a2s":"Uncletopia | Atlanta | 1 | All Maps","protocol":17,"map":"pl_badwater","folder":"tf","game":"Team Fortress","app_id":440,"player_count":21,"max_players":24,"Bots":0,"server_type":"Dedicated","server_os":"Linux","password":true,"vac":true,"version":"7961495","steam_id":85568392924469982,"keywords":["nocrits","nodmgspread","payload","uncletopia"],"game_id":440,"stv_port":27016,"stv_name":"Uncletopia | Atlanta | 1 | All Maps | STV","players":[{"user_id":697,"name":"terrytennisball418","steam_id":76561198048882285,"connected_time":7231000000000,"state":"active","ping":74},{"user_id":758,"name":"Vlad","steam_id":76561198150626637,"connected_time":337000000000,"state":"active","ping":56},{"user_id":701,"name":"Tay1Qr","steam_id":76561198082809935,"connected_time":6812000000000,"state":"active","ping":61},{"user_id":762,"name":"Legit_Jaxer","steam_id":76561198172234053,"connected_time":261000000000,"state":"active","ping":105},{"user_id":763,"name":"Team Fartpiss Poo","steam_id":76561199163591880,"connected_time":247000000000,"state":"active","ping":77},{"user_id":767,"name":"Moth Beam","steam_id":76561198005069202,"connected_time":140000000000,"state":"active","ping":69},{"user_id":714,"name":"no lie snare","steam_id":76561198143132686,"connected_time":6129000000000,"state":"active","ping":104},{"user_id":741,"name":"Luigi4tl","steam_id":76561198051862389,"connected_time":3452000000000,"state":"active","ping":64},{"user_id":764,"name":"local man","steam_id":76561198074946673,"connected_time":242000000000,"state":"active","ping":60},{"user_id":766,"name":"The Assistant loser","steam_id":76561199221484936,"connected_time":176000000000,"state":"active","ping":116},{"user_id":743,"name":"paetho YT","steam_id":76561198152690003,"connected_time":3220000000000,"state":"active","ping":83},{"user_id":769,"name":"Drink My Viscera","steam_id":76561198164782653,"connected_time":5000000000,"state":"spawning","ping":73},{"user_id":759,"name":"zonc","steam_id":76561198322104962,"connected_time":305000000000,"state":"active","ping":100},{"user_id":770,"name":"gerg","steam_id":76561197997127387,"connected_time":5000000000,"state":"spawning","ping":104},{"user_id":647,"name":"ash","steam_id":76561198127890645,"connected_time":12586000000000,"state":"active","ping":60},{"user_id":734,"name":"Le4n!!!","steam_id":76561198045522596,"connected_time":4323000000000,"state":"active","ping":67},{"user_id":739,"name":"broomy","steam_id":76561198066089504,"connected_time":3794000000000,"state":"active","ping":42},{"user_id":757,"name":"Yes!","steam_id":76561198084208477,"connected_time":557000000000,"state":"active","ping":61},{"user_id":747,"name":"joshuatheSAVAGE2007","steam_id":76561198184900753,"connected_time":2559000000000,"state":"active","ping":72},{"user_id":760,"name":"oppenheimer style","steam_id":76561198026664629,"connected_time":305000000000,"state":"active","ping":59},{"user_id":761,"name":"BotchyAlarm8","steam_id":76561198092682129,"connected_time":304000000000,"state":"active","ping":74}]},{"server_id":104,"name":"Uncletopia | Atlanta | 2 | All Maps","name_short":"atl-2","host":"atl-1.us.uncletopia.com","port":27025,"enabled":true,"region":"us-east","cc":"us","latitude":33.753746,"longitude":-84.38633,"reserved":0,"last_update":"0001-01-01T00:00:00Z","name_a2s":"Uncletopia | Atlanta | 2 | All Maps","protocol":17,"map":"pl_badwater","folder":"tf","game":"Team Fortress","app_id":440,"player_count":23,"max_players":24,"Bots":0,"server_type":"Dedicated","server_os":"Linux","password":true,"vac":true,"version":"7961495","steam_id":85568392924469983,"keywords":["nocrits","nodmgspread","payload","uncletopia"],"game_id":440,"stv_port":27026,"stv_name":"Uncletopia | Atlanta | 2 | All Maps | STV","players":[{"user_id":391,"name":"ball'd-out fist [NGW]","steam_id":76561199071209640,"connected_time":2826000000000,"state":"active","ping":96},{"user_id":420,"name":"PaD_Ding","steam_id":76561198831202965,"connected_time":165000000000,"state":"connecting","ping":159},{"user_id":396,"name":"Yakozi","steam_id":76561198052802465,"connected_time":2201000000000,"state":"active","ping":87},{"user_id":423,"name":"uthgarthegiant","steam_id":76561198348616230,"connected_time":10000000000,"state":"spawning","ping":82},{"user_id":424,"name":"elso","steam_id":76561198058209902,"connected_time":4000000000,"state":"spawning","ping":72},{"user_id":398,"name":"Rex","steam_id":76561198138365053,"connected_time":2021000000000,"state":"active","ping":117},{"user_id":399,"name":"Black_chestnut","steam_id":76561198155524915,"connected_time":2014000000000,"state":"active","ping":91},{"user_id":419,"name":"Oopsie Daisy ❋","steam_id":76561198042144492,"connected_time":345000000000,"state":"active","ping":46},{"user_id":421,"name":"Varveer","steam_id":76561198218897383,"connected_time":160000000000,"state":"active","ping":86},{"user_id":400,"name":"McDonald","steam_id":76561199028533497,"connected_time":2012000000000,"state":"active","ping":88},{"user_id":416,"name":"Nathan Yeet","steam_id":76561198883966591,"connected_time":953000000000,"state":"active","ping":75},{"user_id":422,"name":"Pop","steam_id":76561199012562851,"connected_time":97000000000,"state":"active","ping":74},{"user_id":415,"name":"PickleHater13","steam_id":76561198259380127,"connected_time":991000000000,"state":"active","ping":74},{"user_id":412,"name":"29palms","steam_id":76561198095104925,"connected_time":1270000000000,"state":"active","ping":73},{"user_id":418,"name":"Waff00","steam_id":76561198848377100,"connected_time":430000000000,"state":"active","ping":78},{"user_id":413,"name":"Angrod","steam_id":76561198007447333,"connected_time":1268000000000,"state":"active","ping":113},{"user_id":405,"name":"Synchro","steam_id":76561198077865959,"connected_time":1908000000000,"state":"active","ping":98},{"user_id":338,"name":"tunaa","steam_id":76561198362763159,"connected_time":8516000000000,"state":"active","ping":102},{"user_id":414,"name":"baunter","steam_id":76561198024311871,"connected_time":1218000000000,"state":"active","ping":89},{"user_id":351,"name":"Just Juanito","steam_id":76561198241446874,"connected_time":7831000000000,"state":"active","ping":107},{"user_id":417,"name":"AceWhite","steam_id":76561198289345761,"connected_time":668000000000,"state":"active","ping":87},{"user_id":408,"name":"Blood Fart 3D","steam_id":76561197991366857,"connected_time":1809000000000,"state":"active","ping":77},{"user_id":410,"name":"Hobo Shanker","steam_id":76561198001785187,"connected_time":1499000000000,"state":"active","ping":68}]},{"server_id":400,"name":"Uncletopia | Atlanta | 3 | Stopwatch","name_short":"atl-3","host":"atl-1.us.uncletopia.com","port":27035,"enabled":true,"region":"us-east","cc":"us","latitude":33.753746,"longitude":-84.38633,"reserved":0,"last_update":"0001-01-01T00:00:00Z","name_a2s":"Uncletopia | Atlanta | 3 | Stopwatch","protocol":17,"map":"cp_metalworks","folder":"tf","game":"Team Fortress","app_id":440,"player_count":6,"max_players":24,"Bots":0,"server_type":"Dedicated","server_os":"Linux","password":true,"vac":true,"version":"7961495","steam_id":85568392924515187,"keywords":["cp","nocrits","nodmgspread","uncletopia"],"game_id":440,"stv_port":27036,"stv_name":"Uncletopia | Atlanta | 3 | Stopwatch | STV","players":[{"user_id":231,"name":"orangedino","steam_id":76561199026688029,"connected_time":77000000000,"state":"active","ping":48},{"user_id":230,"name":"Shrebbie","steam_id":76561198875230824,"connected_time":952000000000,"state":"active","ping":55},{"user_id":171,"name":"kaputon","steam_id":76561198146299782,"connected_time":5610000000000,"state":"active","ping":62},{"user_id":227,"name":"ZzPips","steam_id":76561198035131832,"connected_time":1119000000000,"state":"active","ping":62},{"user_id":212,"name":"a pan furry","steam_id":76561199445662628,"connected_time":2586000000000,"state":"active","ping":144}]},{"server_id":401,"name":"Uncletopia | Atlanta | 4 | Community","name_short":"atl-4","host":"atl-1.us.uncletopia.com","port":27045,"enabled":true,"region":"us-east","cc":"us","latitude":33.753746,"longitude":-84.38633,"reserved":0,"last_update":"0001-01-01T00:00:00Z","name_a2s":"Uncletopia | Atlanta | 4 | Community","protocol":17,"map":"workshop/cp_logjam_rc12.ugc454812035","folder":"tf","game":"Team Fortress","app_id":440,"player_count":0,"max_players":24,"Bots":0,"server_type":"Dedicated","server_os":"Linux","password":true,"vac":true,"version":"7961495","steam_id":85568392924515188,"keywords":["cp","nocrits","nodmgspread","uncletopia"],"game_id":440,"stv_port":27046,"stv_name":"Uncletopia | Atlanta | 4 | Community | STV","players":null},{"server_id":2,"name":"Uncletopia | Chicago | 1 | All Maps","name_short":"chi-1","host":"chi-1.us.uncletopia.com","port":27015,"enabled":true,"region":"us-central","cc":"us","latitude":41.881832,"longitude":-87.62318,"reserved":0,"last_update":"0001-01-01T00:00:00Z","name_a2s":"Uncletopia | Chicago | 1 | All Maps","protocol":17,"map":"cp_mountainlab","folder":"tf","game":"Team Fortress","app_id":440,"player_count":0,"max_players":24,"Bots":0,"server_type":"Dedicated","server_os":"Linux","password":true,"vac":true,"version":"7961495","steam_id":85568392924469984,"keywords":["cp","nocrits","nodmgspread","uncletopia"],"game_id":440,"stv_port":27016,"stv_name":"Uncletopia | Chicago | 1 | All Maps | STV","players":null},{"server_id":106,"name":"Uncletopia | Chicago | 2 | All Maps","name_short":"chi-2","host":"chi-1.us.uncletopia.com","port":27025,"enabled":true,"region":"us-central","cc":"us","latitude":41.881832,"longitude":-87.62318,"reserved":0,"last_update":"0001-01-01T00:00:00Z","name_a2s":"Uncletopia | Chicago | 2 | All Maps","protocol":17,"map":"pl_badwater","folder":"tf","game":"Team Fortress","app_id":440,"player_count":24,"max_players":24,"Bots":0,"server_type":"Dedicated","server_os":"Linux","password":true,"vac":true,"version":"7961495","steam_id":85568392924469985,"keywords":["nocrits","nodmgspread","payload","uncletopia"],"game_id":440,"stv_port":27026,"stv_name":"Uncletopia | Chicago | 2 | All Maps | STV","players":[{"user_id":833,"name":"Cornelius","steam_id":76561198123447388,"connected_time":7243000000000,"state":"active","ping":45},{"user_id":935,"name":"Popeyes Employee","steam_id":76561198157341489,"connected_time":623000000000,"state":"active","ping":107},{"user_id":929,"name":"Just washed","steam_id":76561199030160932,"connected_time":744000000000,"state":"active","ping":75},{"user_id":912,"name":"Weird Round","steam_id":76561197969205852,"connected_time":2602000000000,"state":"active","ping":78},{"user_id":924,"name":"Yummy Kabobz","steam_id":76561198067661705,"connected_time":832000000000,"state":"active","ping":60},{"user_id":921,"name":"Satori Komeiji","steam_id":76561198158211423,"connected_time":1000000000000,"state":"active","ping":92},{"user_id":945,"name":"BANDIDO","steam_id":76561199509676031,"connected_time":57000000000,"state":"active","ping":49},{"user_id":942,"name":"Fumohuxi Viriphyto","steam_id":76561198369395636,"connected_time":289000000000,"state":"active","ping":90},{"user_id":837,"name":"IsolateWolf","steam_id":76561198449684254,"connected_time":7155000000000,"state":"active","ping":83},{"user_id":922,"name":"9gon Danmar33","steam_id":76561198056453091,"connected_time":970000000000,"state":"active","ping":46},{"user_id":923,"name":"The Rumble Fish","steam_id":76561198074493665,"connected_time":954000000000,"state":"active","ping":61},{"user_id":925,"name":"xFactr","steam_id":76561198129007422,"connected_time":824000000000,"state":"active","ping":61},{"user_id":926,"name":"for the king","steam_id":76561197973488858,"connected_time":806000000000,"state":"active","ping":55},{"user_id":944,"name":"LVL","steam_id":76561198334403617,"connected_time":121000000000,"state":"active","ping":53},{"user_id":943,"name":"Gwuf","steam_id":76561198091503282,"connected_time":280000000000,"state":"active","ping":132},{"user_id":930,"name":"Dung Eater zz","steam_id":76561198206523304,"connected_time":730000000000,"state":"active","ping":90},{"user_id":938,"name":"Amish Robot","steam_id":76561198041156065,"connected_time":545000000000,"state":"active","ping":73},{"user_id":946,"name":"AgreeableMoose1991","steam_id":76561198173921691,"connected_time":38000000000,"state":"active","ping":90},{"user_id":947,"name":"Rode hard, put away wet","steam_id":76561198062764039,"connected_time":34000000000,"state":"active","ping":66},{"user_id":932,"name":"Scorcho","steam_id":76561198071413833,"connected_time":707000000000,"state":"active","ping":104},{"user_id":913,"name":"Rox","steam_id":76561198105833981,"connected_time":1709000000000,"state":"active","ping":136},{"user_id":936,"name":"Fish","steam_id":76561199016308078,"connected_time":561000000000,"state":"active","ping":91},{"user_id":934,"name":"Jab 2","steam_id":76561198059675999,"connected_time":666000000000,"state":"active","ping":71},{"user_id":937,"name":"Alcohol Enema","steam_id":76561198246001174,"connected_time":552000000000,"state":"active","ping":110}]},{"server_id":402,"name":"Uncletopia | Chicago | 3 | All Maps","name_short":"chi-3","host":"chi-1.us.uncletopia.com","port":27035,"enabled":true,"region":"us-central","cc":"us","latitude":41.881832,"longitude":-87.62318,"reserved":0,"last_update":"0001-01-01T00:00:00Z","name_a2s":"Uncletopia | Chicago | 3 | All Maps","protocol":17,"map":"pl_badwater","folder":"tf","game":"Team Fortress","app_id":440,"player_count":0,"max_players":24,"Bots":0,"server_type":"Dedicated","server_os":"Linux","password":true,"vac":true,"version":"7961495","steam_id":85568392924515191,"keywords":["nocrits","nodmgspread","payload","uncletopia"],"game_id":440,"stv_port":27036,"stv_name":"Uncletopia | Chicago | 3 | All Maps | STV","players":null},{"server_id":403,"name":"Uncletopia | Chicago | 4 | All Maps","name_short":"chi-4","host":"chi-1.us.uncletopia.com","port":27045,"enabled":true,"region":"us-central","cc":"us","latitude":41.881832,"longitude":-87.62318,"reserved":0,"last_update":"0001-01-01T00:00:00Z","name_a2s":"Uncletopia | Chicago | 4 | All Maps","protocol":17,"map":"pl_pier","folder":"tf","game":"Team Fortress","app_id":440,"player_count":18,"max_players":24,"Bots":0,"server_type":"Dedicated","server_os":"Linux","password":true,"vac":true,"version":"7961495","steam_id":85568392924515193,"keywords":["nocrits","nodmgspread","payload","uncletopia"],"game_id":440,"stv_port":27046,"stv_name":"Uncletopia | Chicago | 4 | All Maps | STV","players":[{"user_id":767,"name":"None of that $9.99 bullshit","steam_id":76561198116169903,"connected_time":55000000000,"state":"active","ping":38},{"user_id":764,"name":"oh hi im a huge splooging guy","steam_id":76561198074678273,"connected_time":96000000000,"state":"active","ping":49},{"user_id":765,"name":"GreenKnight","steam_id":76561198105058158,"connected_time":88000000000,"state":"active","ping":82},{"user_id":766,"name":"Bigfoot ate my ass","steam_id":76561198071605190,"connected_time":82000000000,"state":"active","ping":73},{"user_id":689,"name":"goodypiggy","steam_id":76561198434705310,"connected_time":6040000000000,"state":"active","ping":88},{"user_id":755,"name":"Ninjoth","steam_id":76561198038611753,"connected_time":540000000000,"state":"active","ping":79},{"user_id":733,"name":"BushMann","steam_id":76561198143283556,"connected_time":2070000000000,"state":"active","ping":114},{"user_id":741,"name":"SQU1DDY","steam_id":76561198027757551,"connected_time":1706000000000,"state":"active","ping":93},{"user_id":674,"name":"bocchi the fool","steam_id":76561198259650356,"connected_time":6750000000000,"state":"active","ping":110},{"user_id":715,"name":"augs","steam_id":76561199120607417,"connected_time":3144000000000,"state":"active","ping":60},{"user_id":759,"name":"Cole","steam_id":76561198343817300,"connected_time":497000000000,"state":"active","ping":98},{"user_id":743,"name":"W1CKEDY","steam_id":76561198353447602,"connected_time":1696000000000,"state":"active","ping":64},{"user_id":744,"name":"shroom.","steam_id":76561198140792282,"connected_time":1673000000000,"state":"active","ping":64},{"user_id":695,"name":"nrvvs","steam_id":76561199134714492,"connected_time":5116000000000,"state":"active","ping":96},{"user_id":711,"name":"bongwaterdrinker69","steam_id":76561198260722699,"connected_time":3926000000000,"state":"active","ping":59},{"user_id":714,"name":"Jeshiie","steam_id":76561198344339322,"connected_time":3795000000000,"state":"active","ping":78},{"user_id":747,"name":"Daruke","steam_id":76561198300686262,"connected_time":1601000000000,"state":"active","ping":55},{"user_id":761,"name":"chickenenthusiast427","steam_id":76561198909415646,"connected_time":461000000000,"state":"active","ping":79}]},{"server_id":36,"name":"Uncletopia | Chicago | 5 | All Maps","name_short":"chi-5","host":"chi-2.us.uncletopia.com","port":27015,"enabled":true,"region":"us-central","cc":"us","latitude":41.881832,"longitude":-87.62318,"reserved":0,"last_update":"0001-01-01T00:00:00Z","name_a2s":"Uncletopia | Chicago | 5 | All Maps","protocol":17,"map":"cp_sunshine","folder":"tf","game":"Team Fortress","app_id":440,"player_count":0,"max_players":24,"Bots":0,"server_type":"Dedicated","server_os":"Linux","password":true,"vac":true,"version":"7961495","steam_id":85568392924866362,"keywords":["cp","nocrits","nodmgspread","uncletopia"],"game_id":440,"stv_port":27016,"stv_name":"Uncletopia | Chicago | 5 | All Maps | STV","players":null},{"server_id":37,"name":"Uncletopia | Chicago | 6 | All Maps","name_short":"chi-6","host":"chi-2.us.uncletopia.com","port":27025,"enabled":true,"region":"us-central","cc":"us","latitude":41.881832,"longitude":-87.62318,"reserved":0,"last_update":"0001-01-01T00:00:00Z","name_a2s":"Uncletopia | Chicago | 6 | All Maps","protocol":17,"map":"pl_hoodoo_final","folder":"tf","game":"Team Fortress","app_id":440,"player_count":13,"max_players":24,"Bots":0,"server_type":"Dedicated","server_os":"Linux","password":true,"vac":true,"version":"7961495","steam_id":85568392924866363,"keywords":["nocrits","nodmgspread","payload","uncletopia"],"game_id":440,"stv_port":27026,"stv_name":"Uncletopia | Chicago | 6 | All Maps | STV","players":[{"user_id":617,"name":"Bug","steam_id":76561198279239047,"connected_time":824000000000,"state":"active","ping":65},{"user_id":493,"name":"Tony Hawk Underground 2 for PSP","steam_id":76561197999901620,"connected_time":10254000000000,"state":"active","ping":56},{"user_id":624,"name":"Teriyaki Dick","steam_id":76561198067917216,"connected_time":426000000000,"state":"active","ping":75},{"user_id":620,"name":"Blingo Bloingo","steam_id":76561198275250936,"connected_time":752000000000,"state":"active","ping":72},{"user_id":626,"name":"orange gatorade","steam_id":76561199091762246,"connected_time":297000000000,"state":"active","ping":78},{"user_id":619,"name":"Byan","steam_id":76561198319090131,"connected_time":789000000000,"state":"active","ping":60},{"user_id":623,"name":"Reeder Rabbit","steam_id":76561198042675927,"connected_time":484000000000,"state":"active","ping":64},{"user_id":627,"name":"Timmy","steam_id":76561198153493306,"connected_time":194000000000,"state":"active","ping":148},{"user_id":511,"name":"Enron Hubbard","steam_id":76561198012951411,"connected_time":8575000000000,"state":"active","ping":52},{"user_id":595,"name":"Sketchdude","steam_id":76561198428554205,"connected_time":2349000000000,"state":"active","ping":81},{"user_id":562,"name":"Bring Me Pictures of Spider-Cum","steam_id":76561197999753555,"connected_time":5262000000000,"state":"active","ping":57},{"user_id":580,"name":"Miserable Little Pile of Secret","steam_id":76561198007696932,"connected_time":3265000000000,"state":"active","ping":93},{"user_id":612,"name":"IDK_LIZORD","steam_id":76561199244260952,"connected_time":1148000000000,"state":"active","ping":139}]},{"server_id":38,"name":"Uncletopia | Chicago | 7 | Stopwatch","name_short":"chi-7","host":"chi-2.us.uncletopia.com","port":27035,"enabled":true,"region":"us-central","cc":"us","latitude":41.881832,"longitude":-87.62318,"reserved":0,"last_update":"0001-01-01T00:00:00Z","name_a2s":"Uncletopia | Chicago | 7 | Stopwatch","protocol":17,"map":"workshop/koth_product_final.ugc454272353","folder":"tf","game":"Team Fortress","app_id":440,"player_count":0,"max_players":24,"Bots":0,"server_type":"Dedicated","server_os":"Linux","password":true,"vac":true,"version":"7961495","steam_id":85568392924866364,"keywords":["cp","nocrits","nodmgspread","uncletopia"],"game_id":440,"stv_port":27036,"stv_name":"Uncletopia | Chicago | 7 | Stopwatch | STV","players":null},{"server_id":39,"name":"Uncletopia | Chicago | 8 | Community","name_short":"chi-8","host":"chi-2.us.uncletopia.com","port":27045,"enabled":true,"region":"us-central","cc":"us","latitude":41.881832,"longitude":-87.62318,"reserved":0,"last_update":"0001-01-01T00:00:00Z","name_a2s":"Uncletopia | Chicago | 8 | Community","protocol":17,"map":"workshop/cp_caldera_rc3.ugc2834196889","folder":"tf","game":"Team Fortress","app_id":440,"player_count":0,"max_players":24,"Bots":0,"server_type":"Dedicated","server_os":"Linux","password":true,"vac":true,"version":"7961495","steam_id":85568392924866365,"keywords":["cp","nocrits","nodmgspread","uncletopia"],"game_id":440,"stv_port":27046,"stv_name":"Uncletopia | Chicago | 8 | Community | STV","players":null},{"server_id":8,"name":"Uncletopia | Dallas | 1 | All Maps","name_short":"dal-1","host":"dal-1.us.uncletopia.com","port":27015,"enabled":true,"region":"us-central","cc":"us","latitude":32.779167,"longitude":-96.80889,"reserved":0,"last_update":"0001-01-01T00:00:00Z","name_a2s":"Uncletopia | Dallas | 1 | All Maps","protocol":17,"map":"pl_borneo","folder":"tf","game":"Team Fortress","app_id":440,"player_count":23,"max_players":24,"Bots":0,"server_type":"Dedicated","server_os":"Linux","password":true,"vac":true,"version":"7961495","steam_id":85568392924469986,"keywords":["nocrits","nodmgspread","payload","uncletopia"],"game_id":440,"stv_port":27016,"stv_name":"Uncletopia | Dallas | 1 | All Maps | STV","players":[{"user_id":767,"name":"velcro_shoes","steam_id":76561197981869155,"connected_time":3415000000000,"state":"active","ping":84},{"user_id":700,"name":"SAGE(सगे*)","steam_id":76561198811114074,"connected_time":9105000000000,"state":"active","ping":54},{"user_id":783,"name":"sniffy","steam_id":76561198184933255,"connected_time":689000000000,"state":"active","ping":92},{"user_id":781,"name":"CeLeb144","steam_id":76561199089907740,"connected_time":1352000000000,"state":"active","ping":68},{"user_id":784,"name":"playguy carter","steam_id":76561198080679337,"connected_time":644000000000,"state":"active","ping":76},{"user_id":777,"name":"Junebouvier","steam_id":76561198154395780,"connected_time":2607000000000,"state":"active","ping":72},{"user_id":753,"name":"errant","steam_id":76561197961758410,"connected_time":5728000000000,"state":"active","ping":43},{"user_id":761,"name":"Greenland Shark","steam_id":76561198046274386,"connected_time":3849000000000,"state":"active","ping":83},{"user_id":787,"name":"imma let my nuts hang","steam_id":76561198097544038,"connected_time":62000000000,"state":"active","ping":68},{"user_id":757,"name":"summerlis","steam_id":76561198165324438,"connected_time":5158000000000,"state":"active","ping":70},{"user_id":710,"name":"Bond","steam_id":76561198089262776,"connected_time":8566000000000,"state":"active","ping":55},{"user_id":665,"name":"ਹੁੱਡ ਕਾਉਬੌਏ","steam_id":76561198021308963,"connected_time":11227000000000,"state":"active","ping":61},{"user_id":770,"name":"Lee?","steam_id":76561199060892634,"connected_time":3341000000000,"state":"active","ping":60},{"user_id":786,"name":"iluvtoust","steam_id":76561198869269207,"connected_time":187000000000,"state":"active","ping":53},{"user_id":711,"name":"pl_crackmoneyrealm","steam_id":76561198040675606,"connected_time":8559000000000,"state":"active","ping":48},{"user_id":758,"name":"Mobs","steam_id":76561198092639381,"connected_time":5129000000000,"state":"active","ping":62},{"user_id":771,"name":"Pistol Engie Monday","steam_id":76561198409907417,"connected_time":3304000000000,"state":"active","ping":77},{"user_id":778,"name":"ihave80hp","steam_id":76561199251621911,"connected_time":2596000000000,"state":"active","ping":63},{"user_id":765,"name":"Spare(8)Ball","steam_id":76561197982432995,"connected_time":3473000000000,"state":"active","ping":91},{"user_id":779,"name":"bangy","steam_id":76561198043889301,"connected_time":2568000000000,"state":"active","ping":55},{"user_id":773,"name":"Taser! Taser!","steam_id":76561198068113347,"connected_time":3096000000000,"state":"active","ping":81},{"user_id":772,"name":"Kot","steam_id":76561198380050451,"connected_time":3300000000000,"state":"active","ping":89},{"user_id":785,"name":"goblin","steam_id":76561199004451589,"connected_time":588000000000,"state":"active","ping":55}]},{"server_id":108,"name":"Uncletopia | Dallas | 2 | All Maps","name_short":"dal-2","host":"dal-1.us.uncletopia.com","port":27025,"enabled":true,"region":"us-central","cc":"us","latitude":32.779167,"longitude":-96.80889,"reserved":0,"last_update":"0001-01-01T00:00:00Z","name_a2s":"Uncletopia | Dallas | 2 | All Maps","protocol":17,"map":"cp_altitude","folder":"tf","game":"Team Fortress","app_id":440,"player_count":18,"max_players":24,"Bots":0,"server_type":"Dedicated","server_os":"Linux","password":true,"vac":true,"version":"7961495","steam_id":85568392924469988,"keywords":["cp","nocrits","nodmgspread","uncletopia"],"game_id":440,"stv_port":27026,"stv_name":"Uncletopia | Dallas | 2 | All Maps | STV","players":[{"user_id":559,"name":"Dwebus","steam_id":76561198086559045,"connected_time":1828000000000,"state":"active","ping":67},{"user_id":572,"name":"Barack Obama Gaming","steam_id":76561198129242016,"connected_time":1139000000000,"state":"active","ping":116},{"user_id":577,"name":"MineOpal","steam_id":76561198044716407,"connected_time":60000000000,"state":"active","ping":64},{"user_id":557,"name":"stuffedidiot","steam_id":76561199181513019,"connected_time":1853000000000,"state":"active","ping":120},{"user_id":578,"name":"Congcrab","steam_id":76561198078687685,"connected_time":20000000000,"state":"active","ping":79},{"user_id":576,"name":"Mocha Josie","steam_id":76561198066452726,"connected_time":99000000000,"state":"active","ping":75},{"user_id":573,"name":"Furious George","steam_id":76561198405111646,"connected_time":1116000000000,"state":"active","ping":79},{"user_id":570,"name":"Sueño","steam_id":76561198866469952,"connected_time":1178000000000,"state":"active","ping":75},{"user_id":575,"name":"Nova","steam_id":76561199068981957,"connected_time":222000000000,"state":"active","ping":69},{"user_id":556,"name":"Saucy Boy","steam_id":76561198178332031,"connected_time":2755000000000,"state":"active","ping":83},{"user_id":521,"name":"LXXVII","steam_id":76561199435288545,"connected_time":6146000000000,"state":"active","ping":62},{"user_id":544,"name":"Rat Smacker","steam_id":76561198043629646,"connected_time":3458000000000,"state":"active","ping":54},{"user_id":549,"name":"HumbDoe","steam_id":76561198065556553,"connected_time":3147000000000,"state":"active","ping":83},{"user_id":558,"name":"Drinkable Milk","steam_id":76561199418706430,"connected_time":1852000000000,"state":"active","ping":58},{"user_id":565,"name":"tsz","steam_id":76561199246231090,"connected_time":1608000000000,"state":"active","ping":76},{"user_id":569,"name":"TheDieeg","steam_id":76561199443116996,"connected_time":1258000000000,"state":"active","ping":77},{"user_id":542,"name":"The Final Terminus","steam_id":76561197964985183,"connected_time":4008000000000,"state":"active","ping":75},{"user_id":546,"name":"Nails","steam_id":76561198399261089,"connected_time":3380000000000,"state":"active","ping":75}]},{"server_id":404,"name":"Uncletopia | Dallas | 3 | All Maps","name_short":"dal-3","host":"dal-1.us.uncletopia.com","port":27035,"enabled":true,"region":"us-central","cc":"us","latitude":32.779167,"longitude":-96.80889,"reserved":0,"last_update":"0001-01-01T00:00:00Z","name_a2s":"Uncletopia | Dallas | 3 | All Maps","protocol":17,"map":"pl_frontier_final","folder":"tf","game":"Team Fortress","app_id":440,"player_count":14,"max_players":24,"Bots":0,"server_type":"Dedicated","server_os":"Linux","password":true,"vac":true,"version":"7961495","steam_id":85568392924515219,"keywords":["nocrits","nodmgspread","payload","uncletopia"],"game_id":440,"stv_port":27036,"stv_name":"Uncletopia | Dallas | 3 | All Maps | STV","players":[{"user_id":651,"name":"Junowo","steam_id":76561199136179696,"connected_time":447000000000,"state":"active","ping":67},{"user_id":619,"name":"sleepyhead","steam_id":76561198070859040,"connected_time":4338000000000,"state":"active","ping":61},{"user_id":623,"name":"Real Neanderthal Shit","steam_id":76561198086991324,"connected_time":4166000000000,"state":"active","ping":86},{"user_id":644,"name":"GoldtoothFour","steam_id":76561198055529332,"connected_time":1357000000000,"state":"active","ping":67},{"user_id":652,"name":"The Horselords and Animal Gods","steam_id":76561197975094050,"connected_time":414000000000,"state":"active","ping":83},{"user_id":649,"name":"wetto","steam_id":76561198224811504,"connected_time":478000000000,"state":"active","ping":60},{"user_id":653,"name":"{ᴄᴇʀᴘ} shullers","steam_id":76561198889997809,"connected_time":404000000000,"state":"active","ping":87},{"user_id":654,"name":"Skip Hop Doo Bop","steam_id":76561199161571849,"connected_time":348000000000,"state":"active","ping":83},{"user_id":647,"name":"GuyGoom","steam_id":76561198254522178,"connected_time":877000000000,"state":"active","ping":78},{"user_id":643,"name":"JSN","steam_id":76561198138876827,"connected_time":1650000000000,"state":"active","ping":93},{"user_id":605,"name":"wajanta","steam_id":76561199040280852,"connected_time":5443000000000,"state":"active","ping":60},{"user_id":648,"name":"The Grim Heaper","steam_id":76561197987759101,"connected_time":862000000000,"state":"active","ping":112},{"user_id":621,"name":"Joe, Banana","steam_id":76561198077551754,"connected_time":4255000000000,"state":"active","ping":68},{"user_id":616,"name":"Burny Sanders","steam_id":76561197961879048,"connected_time":5052000000000,"state":"active","ping":45}]},{"server_id":405,"name":"Uncletopia | Dallas | 4 | Community","name_short":"dal-4","host":"dal-1.us.uncletopia.com","port":27045,"enabled":true,"region":"us-central","cc":"us","latitude":32.779167,"longitude":-96.80889,"reserved":0,"last_update":"0001-01-01T00:00:00Z","name_a2s":"Uncletopia | Dallas | 4 | Community","protocol":17,"map":"workshop/koth_kemptown_rc1.ugc767410655","folder":"tf","game":"Team Fortress","app_id":440,"player_count":0,"max_players":24,"Bots":0,"server_type":"Dedicated","server_os":"Linux","password":true,"vac":true,"version":"7961495","steam_id":85568392924515220,"keywords":["cp","nocrits","nodmgspread","uncletopia"],"game_id":440,"stv_port":27046,"stv_name":"Uncletopia | Dallas | 4 | Community | STV","players":null},{"server_id":5,"name":"Uncletopia | Frankfurt | 1 | All Maps","name_short":"frk-1","host":"frk-1.de.uncletopia.com","port":27015,"enabled":true,"region":"eu","cc":"de","latitude":50.110924,"longitude":8.682127,"reserved":0,"last_update":"0001-01-01T00:00:00Z","name_a2s":"Uncletopia | Frankfurt | 1 | All Maps","protocol":17,"map":"ctf_doublecross","folder":"tf","game":"Team Fortress","app_id":440,"player_count":0,"max_players":24,"Bots":0,"server_type":"Dedicated","server_os":"Linux","password":true,"vac":true,"version":"7961495","steam_id":85568392924469989,"keywords":["ctf","nocrits","nodmgspread","uncletopia"],"game_id":440,"stv_port":27016,"stv_name":"Uncletopia | Frankfurt | 1 | All Maps | STV","players":null},{"server_id":110,"name":"Uncletopia | Frankfurt | 2 | All Maps","name_short":"frk-2","host":"frk-1.de.uncletopia.com","port":27025,"enabled":true,"region":"eu","cc":"de","latitude":50.110924,"longitude":8.682127,"reserved":0,"last_update":"0001-01-01T00:00:00Z","name_a2s":"Uncletopia | Frankfurt | 2 | All Maps","protocol":17,"map":"cp_coldfront","folder":"tf","game":"Team Fortress","app_id":440,"player_count":0,"max_players":24,"Bots":0,"server_type":"Dedicated","server_os":"Linux","password":true,"vac":true,"version":"7961495","steam_id":85568392924469990,"keywords":["cp","nocrits","nodmgspread","uncletopia"],"game_id":440,"stv_port":27026,"stv_name":"Uncletopia | Frankfurt | 2 | All Maps | STV","players":null},{"server_id":308,"name":"Uncletopia | Frankfurt | 3 | All Maps","name_short":"frk-3","host":"frk-1.de.uncletopia.com","port":27035,"enabled":true,"region":"eu","cc":"de","latitude":50.110924,"longitude":8.682127,"reserved":0,"last_update":"0001-01-01T00:00:00Z","name_a2s":"Uncletopia | Frankfurt | 3 | All Maps","protocol":17,"map":"plr_pipeline","folder":"tf","game":"Team Fortress","app_id":440,"player_count":0,"max_players":24,"Bots":0,"server_type":"Dedicated","server_os":"Linux","password":true,"vac":true,"version":"7961495","steam_id":85568392924504274,"keywords":["nocrits","nodmgspread","payload","uncletopia"],"game_id":440,"stv_port":27036,"stv_name":"Uncletopia | Frankfurt | 3 | All Maps | STV","players":null},{"server_id":309,"name":"Uncletopia | Frankfurt | 4 | All Maps","name_short":"frk-4","host":"frk-1.de.uncletopia.com","port":27045,"enabled":true,"region":"eu","cc":"de","latitude":50.110924,"longitude":8.682127,"reserved":0,"last_update":"0001-01-01T00:00:00Z","name_a2s":"Uncletopia | Frankfurt | 4 | All Maps","protocol":17,"map":"koth_lakeside_final","folder":"tf","game":"Team Fortress","app_id":440,"player_count":0,"max_players":24,"Bots":0,"server_type":"Dedicated","server_os":"Linux","password":true,"vac":true,"version":"7961495","steam_id":85568392924504275,"keywords":["cp","nocrits","nodmgspread","uncletopia"],"game_id":440,"stv_port":27046,"stv_name":"Uncletopia | Frankfurt | 4 | All Maps | STV","players":null},{"server_id":310,"name":"Uncletopia | Frankfurt | 5 | All Maps","name_short":"frk-5","host":"frk-1.de.uncletopia.com","port":27055,"enabled":true,"region":"eu","cc":"de","latitude":50.110924,"longitude":8.682127,"reserved":0,"last_update":"0001-01-01T00:00:00Z","name_a2s":"Uncletopia | Frankfurt | 5 | All Maps","protocol":17,"map":"ctf_landfall","folder":"tf","game":"Team Fortress","app_id":440,"player_count":0,"max_players":24,"Bots":0,"server_type":"Dedicated","server_os":"Linux","password":true,"vac":true,"version":"7961495","steam_id":85568392924504277,"keywords":["ctf","nocrits","nodmgspread","uncletopia"],"game_id":440,"stv_port":27056,"stv_name":"Uncletopia | Frankfurt | 5 | All Maps | STV","players":null},{"server_id":311,"name":"Uncletopia | Frankfurt | 6 | All Maps","name_short":"frk-6","host":"frk-1.de.uncletopia.com","port":27065,"enabled":true,"region":"eu","cc":"de","latitude":50.110924,"longitude":8.682127,"reserved":0,"last_update":"0001-01-01T00:00:00Z","name_a2s":"Uncletopia | Frankfurt | 6 | All Maps","protocol":17,"map":"cp_steel","folder":"tf","game":"Team Fortress","app_id":440,"player_count":0,"max_players":24,"Bots":0,"server_type":"Dedicated","server_os":"Linux","password":true,"vac":true,"version":"7961495","steam_id":85568392924504278,"keywords":["cp","nocrits","nodmgspread","uncletopia"],"game_id":440,"stv_port":27066,"stv_name":"Uncletopia | Frankfurt | 6 | All Maps | STV","players":null},{"server_id":23,"name":"Uncletopia | Frankfurt | 7 | Stopwatch","name_short":"frk-7","host":"frk-1.de.uncletopia.com","port":27075,"enabled":true,"region":"eu","cc":"de","latitude":50.110924,"longitude":8.682127,"reserved":0,"last_update":"0001-01-01T00:00:00Z","name_a2s":"Uncletopia | Frankfurt | 7 | Stopwatch","protocol":17,"map":"koth_highpass","folder":"tf","game":"Team Fortress","app_id":440,"player_count":0,"max_players":24,"Bots":0,"server_type":"Dedicated","server_os":"Linux","password":true,"vac":true,"version":"7961495","steam_id":85568392924742827,"keywords":["cp","nocrits","nodmgspread","uncletopia"],"game_id":440,"stv_port":27076,"stv_name":"Uncletopia | Frankfurt | 7 | Stopwatch | STV","players":null},{"server_id":24,"name":"Uncletopia | Frankfurt | 8 | Community","name_short":"frk-8","host":"frk-1.de.uncletopia.com","port":27085,"enabled":true,"region":"eu","cc":"de","latitude":50.110924,"longitude":8.682127,"reserved":0,"last_update":"0001-01-01T00:00:00Z","name_a2s":"Uncletopia | Frankfurt | 8 | Community","protocol":17,"map":"workshop/pl_stallberg_rc3.ugc1849111469","folder":"tf","game":"Team Fortress","app_id":440,"player_count":0,"max_players":24,"Bots":0,"server_type":"Dedicated","server_os":"Linux","password":true,"vac":true,"version":"7961495","steam_id":85568392924742828,"keywords":["nocrits","nodmgspread","payload","uncletopia"],"game_id":440,"stv_port":27086,"stv_name":"Uncletopia | Frankfurt | 8 | Community | STV","players":null},{"server_id":202,"name":"Uncletopia | Hong Kong | 1 | All Maps","name_short":"hgk-1","host":"hgk-1.hk.uncletopia.com","port":27015,"enabled":true,"region":"asia","cc":"hk","latitude":22.302711,"longitude":114.177216,"reserved":0,"last_update":"0001-01-01T00:00:00Z","name_a2s":"Uncletopia | Hong Kong | 1 | All Maps","protocol":17,"map":"ctf_turbine","folder":"tf","game":"Team Fortress","app_id":440,"player_count":0,"max_players":24,"Bots":0,"server_type":"Dedicated","server_os":"Linux","password":true,"vac":true,"version":"7961495","steam_id":85568392924494504,"keywords":["ctf","nocrits","nodmgspread","uncletopia"],"game_id":440,"stv_port":27016,"stv_name":"Uncletopia | Hong Kong | 1 | All Maps | STV","players":null},{"server_id":1,"name":"Uncletopia | Los Angeles | 1 | All Maps","name_short":"lax-1","host":"lax-1.us.uncletopia.com","port":27015,"enabled":true,"region":"us-west","cc":"us","latitude":33.94279,"longitude":-118.41004,"reserved":0,"last_update":"0001-01-01T00:00:00Z","name_a2s":"Uncletopia | Los Angeles | 1 | All Maps","protocol":17,"map":"pl_borneo","folder":"tf","game":"Team Fortress","app_id":440,"player_count":24,"max_players":24,"Bots":0,"server_type":"Dedicated","server_os":"Linux","password":true,"vac":true,"version":"7961495","steam_id":85568392924469991,"keywords":["nocrits","nodmgspread","payload","uncletopia"],"game_id":440,"stv_port":27016,"stv_name":"Uncletopia | Los Angeles | 1 | All Maps | STV","players":[{"user_id":422,"name":"sparkle on :)","steam_id":76561197995357497,"connected_time":6149000000000,"state":"active","ping":65},{"user_id":487,"name":"Eden","steam_id":76561198081284664,"connected_time":915000000000,"state":"active","ping":56},{"user_id":458,"name":"Bitmap","steam_id":76561198285964424,"connected_time":3801000000000,"state":"active","ping":62},{"user_id":439,"name":"Seshreb","steam_id":76561198846614634,"connected_time":5084000000000,"state":"active","ping":60},{"user_id":460,"name":"Squigzy_","steam_id":76561198061696667,"connected_time":3710000000000,"state":"active","ping":118},{"user_id":412,"name":"TeeVeeGee","steam_id":76561198009869685,"connected_time":7452000000000,"state":"active","ping":55},{"user_id":474,"name":"Mr.Rogers","steam_id":76561198043878683,"connected_time":2545000000000,"state":"active","ping":61},{"user_id":467,"name":"selvhat","steam_id":76561198114225509,"connected_time":3003000000000,"state":"active","ping":61},{"user_id":462,"name":"folly","steam_id":76561198133933158,"connected_time":3118000000000,"state":"active","ping":55},{"user_id":489,"name":"Igrium","steam_id":76561198119549811,"connected_time":230000000000,"state":"active","ping":63},{"user_id":495,"name":"moewa","steam_id":76561198338739253,"connected_time":169000000000,"state":"active","ping":53},{"user_id":478,"name":"a chicken","steam_id":76561198313121580,"connected_time":2235000000000,"state":"active","ping":50},{"user_id":414,"name":"Rascallyyy","steam_id":76561198184552369,"connected_time":7427000000000,"state":"active","ping":47},{"user_id":463,"name":"blobmasterer","steam_id":76561198001131403,"connected_time":3042000000000,"state":"active","ping":48},{"user_id":488,"name":"Fami","steam_id":76561198193580105,"connected_time":851000000000,"state":"active","ping":52},{"user_id":454,"name":"Attrition","steam_id":76561197969881916,"connected_time":4067000000000,"state":"active","ping":86},{"user_id":485,"name":"FROYO b4nny","steam_id":76561197970669109,"connected_time":1306000000000,"state":"active","ping":47},{"user_id":493,"name":"glock41982","steam_id":76561198025107915,"connected_time":202000000000,"state":"active","ping":66},{"user_id":494,"name":"An00bis","steam_id":76561198044084508,"connected_time":201000000000,"state":"active","ping":56},{"user_id":492,"name":"BABABOOEY","steam_id":76561198843892068,"connected_time":225000000000,"state":"active","ping":72},{"user_id":496,"name":"waffles con leche","steam_id":76561198246934872,"connected_time":157000000000,"state":"active","ping":68},{"user_id":379,"name":"Dr Gregory House, MD","steam_id":76561198986281248,"connected_time":9806000000000,"state":"active","ping":118},{"user_id":476,"name":"Sinn","steam_id":76561199013434543,"connected_time":2383000000000,"state":"active","ping":94},{"user_id":482,"name":"HAT-WEARING™ Maggot Gamer Cat","steam_id":76561197973992705,"connected_time":2060000000000,"state":"active","ping":69}]},{"server_id":112,"name":"Uncletopia | Los Angeles | 2 | All Maps","name_short":"lax-2","host":"lax-1.us.uncletopia.com","port":27025,"enabled":true,"region":"us-west","cc":"us","latitude":33.94279,"longitude":-118.41004,"reserved":0,"last_update":"0001-01-01T00:00:00Z","name_a2s":"Uncletopia | Los Angeles | 2 | All Maps","protocol":17,"map":"koth_lakeside_final","folder":"tf","game":"Team Fortress","app_id":440,"player_count":0,"max_players":24,"Bots":0,"server_type":"Dedicated","server_os":"Linux","password":true,"vac":true,"version":"7961495","steam_id":85568392924469992,"keywords":["cp","nocrits","nodmgspread","uncletopia"],"game_id":440,"stv_port":27026,"stv_name":"Uncletopia | Los Angeles | 2 | All Maps | STV","players":null},{"server_id":324,"name":"Uncletopia | Los Angeles | 3 | All Maps","name_short":"lax-3","host":"lax-1.us.uncletopia.com","port":27035,"enabled":true,"region":"us-west","cc":"us","latitude":33.94279,"longitude":-118.41004,"reserved":0,"last_update":"0001-01-01T00:00:00Z","name_a2s":"Uncletopia | Los Angeles | 3 | All Maps","protocol":17,"map":"cp_dustbowl","folder":"tf","game":"Team Fortress","app_id":440,"player_count":4,"max_players":24,"Bots":0,"server_type":"Dedicated","server_os":"Linux","password":true,"vac":true,"version":"7961495","steam_id":85568392924510198,"keywords":["cp","nocrits","nodmgspread","uncletopia"],"game_id":440,"stv_port":27036,"stv_name":"Uncletopia | Los Angeles | 3 | All Maps | STV","players":[{"user_id":586,"name":"Hooded","steam_id":76561199099181833,"connected_time":199000000000,"state":"active","ping":125},{"user_id":587,"name":"FlexTape","steam_id":76561198871834867,"connected_time":87000000000,"state":"active","ping":60},{"user_id":588,"name":"Cowboyfos","steam_id":76561199055740230,"connected_time":58000000000,"state":"active","ping":50},{"user_id":567,"name":"[El Fail] MR.BadassMCLee","steam_id":76561198043787818,"connected_time":2098000000000,"state":"active","ping":63}]},{"server_id":25,"name":"Uncletopia | Los Angeles | 4 | Stopwatch","name_short":"lax-4","host":"lax-1.us.uncletopia.com","port":27045,"enabled":true,"region":"us-west","cc":"us","latitude":33.94279,"longitude":-118.41004,"reserved":0,"last_update":"0001-01-01T00:00:00Z","name_a2s":"Uncletopia | Los Angeles | 4 | Stopwatch","protocol":17,"map":"workshop/koth_product_final.ugc454272353","folder":"tf","game":"Team Fortress","app_id":440,"player_count":0,"max_players":24,"Bots":0,"server_type":"Dedicated","server_os":"Linux","password":true,"vac":true,"version":"7961495","steam_id":85568392924510199,"keywords":["cp","nocrits","nodmgspread","uncletopia"],"game_id":440,"stv_port":27046,"stv_name":"Uncletopia | Los Angeles | 4 | Stopwatch | STV","players":null},{"server_id":11,"name":"Uncletopia | London | 1 | All Maps","name_short":"lon-1","host":"lon-1.uk.uncletopia.com","port":27015,"enabled":true,"region":"eu","cc":"gb","latitude":51.509865,"longitude":-0.118092,"reserved":0,"last_update":"0001-01-01T00:00:00Z","name_a2s":"Uncletopia | London | 1 | All Maps","protocol":17,"map":"pl_upward","folder":"tf","game":"Team Fortress","app_id":440,"player_count":23,"max_players":24,"Bots":0,"server_type":"Dedicated","server_os":"Linux","password":true,"vac":true,"version":"7961495","steam_id":85568392924367362,"keywords":["nocrits","nodmgspread","payload","uncletopia"],"game_id":440,"stv_port":27016,"stv_name":"Uncletopia | London | 1 | All Maps | STV","players":[{"user_id":63,"name":"/⸌.ꞈ.⸍\\","steam_id":76561199510137941,"connected_time":66000000000,"state":"active","ping":150},{"user_id":57,"name":"soar","steam_id":76561198010662796,"connected_time":420000000000,"state":"active","ping":40},{"user_id":52,"name":"Vidrox","steam_id":76561199217854983,"connected_time":809000000000,"state":"active","ping":103},{"user_id":46,"name":"Siegmeyer","steam_id":76561198328543549,"connected_time":1717000000000,"state":"active","ping":92},{"user_id":45,"name":"CreepyYellowDuck","steam_id":76561198000479387,"connected_time":1892000000000,"state":"active","ping":34},{"user_id":28,"name":"ballsack","steam_id":76561198973232202,"connected_time":3143000000000,"state":"active","ping":96},{"user_id":61,"name":"Blake shae","steam_id":76561199002352354,"connected_time":156000000000,"state":"active","ping":159},{"user_id":35,"name":"Rocket Queen's consort","steam_id":76561198092995429,"connected_time":2366000000000,"state":"active","ping":132},{"user_id":56,"name":"Fish","steam_id":76561198152128484,"connected_time":539000000000,"state":"active","ping":49},{"user_id":47,"name":"Loudladdy","steam_id":76561198095271834,"connected_time":1478000000000,"state":"active","ping":45},{"user_id":14,"name":"Chaffy2125","steam_id":76561198232839260,"connected_time":4600000000000,"state":"active","ping":40},{"user_id":48,"name":"Overseer Boots","steam_id":76561199115636221,"connected_time":1378000000000,"state":"active","ping":60},{"user_id":39,"name":"PP_master69420","steam_id":76561199019913910,"connected_time":2063000000000,"state":"active","ping":88},{"user_id":40,"name":"alwayshornywhiteboy[BWC]","steam_id":76561199510082827,"connected_time":2060000000000,"state":"active","ping":115},{"user_id":64,"name":"Mali","steam_id":76561198051799618,"connected_time":27000000000,"state":"active","ping":64},{"user_id":59,"name":"dedsec","steam_id":76561198848433723,"connected_time":335000000000,"state":"active","ping":58},{"user_id":44,"name":"Carrot (real)","steam_id":76561198139404261,"connected_time":1965000000000,"state":"active","ping":44},{"user_id":49,"name":"Volodya","steam_id":76561198124484658,"connected_time":1354000000000,"state":"active","ping":112},{"user_id":53,"name":"pulsar","steam_id":76561198842123868,"connected_time":731000000000,"state":"active","ping":103},{"user_id":54,"name":"Struix","steam_id":76561199413463591,"connected_time":649000000000,"state":"active","ping":80},{"user_id":58,"name":"zelo","steam_id":76561198084799925,"connected_time":408000000000,"state":"active","ping":60},{"user_id":60,"name":"Kitty","steam_id":76561198171073057,"connected_time":331000000000,"state":"active","ping":39},{"user_id":62,"name":"Potato","steam_id":76561198125454730,"connected_time":119000000000,"state":"active","ping":77}]},{"server_id":114,"name":"Uncletopia | London | 2 | All Maps","name_short":"lon-2","host":"lon-1.uk.uncletopia.com","port":27025,"enabled":true,"region":"eu","cc":"gb","latitude":51.509865,"longitude":-0.118092,"reserved":0,"last_update":"0001-01-01T00:00:00Z","name_a2s":"Uncletopia | London | 2 | All Maps","protocol":17,"map":"cp_mountainlab","folder":"tf","game":"Team Fortress","app_id":440,"player_count":0,"max_players":24,"Bots":0,"server_type":"Dedicated","server_os":"Linux","password":true,"vac":true,"version":"7961495","steam_id":85568392924470941,"keywords":["cp","nocrits","nodmgspread","uncletopia"],"game_id":440,"stv_port":27026,"stv_name":"Uncletopia | London | 2 | All Maps | STV","players":null},{"server_id":320,"name":"Uncletopia | London | 3 | All Maps","name_short":"lon-3","host":"lon-1.uk.uncletopia.com","port":27035,"enabled":true,"region":"eu","cc":"gb","latitude":51.509865,"longitude":-0.118092,"reserved":0,"last_update":"0001-01-01T00:00:00Z","name_a2s":"Uncletopia | London | 3 | All Maps","protocol":17,"map":"cp_mountainlab","folder":"tf","game":"Team Fortress","app_id":440,"player_count":0,"max_players":24,"Bots":0,"server_type":"Dedicated","server_os":"Linux","password":true,"vac":true,"version":"7961495","steam_id":85568392924510192,"keywords":["cp","nocrits","nodmgspread","uncletopia"],"game_id":440,"stv_port":27036,"stv_name":"Uncletopia | London | 3 | All Maps | STV","players":null},{"server_id":321,"name":"Uncletopia | London | 4 | All Maps","name_short":"lon-4","host":"lon-1.uk.uncletopia.com","port":27045,"enabled":true,"region":"eu","cc":"gb","latitude":51.509865,"longitude":-0.118092,"reserved":0,"last_update":"0001-01-01T00:00:00Z","name_a2s":"Uncletopia | London | 4 | All Maps","protocol":17,"map":"pl_badwater","folder":"tf","game":"Team Fortress","app_id":440,"player_count":0,"max_players":24,"Bots":0,"server_type":"Dedicated","server_os":"Linux","password":true,"vac":true,"version":"7961495","steam_id":85568392924510193,"keywords":["nocrits","nodmgspread","payload","uncletopia"],"game_id":440,"stv_port":27046,"stv_name":"Uncletopia | London | 4 | All Maps | STV","players":null},{"server_id":21,"name":"Uncletopia | London | 5 | All Maps","name_short":"lon-5","host":"lon-1.uk.uncletopia.com","port":27055,"enabled":true,"region":"eu","cc":"gb","latitude":51.509865,"longitude":-0.118092,"reserved":0,"last_update":"0001-01-01T00:00:00Z","name_a2s":"Uncletopia | London | 5 | All Maps","protocol":17,"map":"koth_suijin","folder":"tf","game":"Team Fortress","app_id":440,"player_count":0,"max_players":24,"Bots":0,"server_type":"Dedicated","server_os":"Linux","password":true,"vac":true,"version":"7961495","steam_id":85568392924742829,"keywords":["cp","nocrits","nodmgspread","uncletopia"],"game_id":440,"stv_port":27056,"stv_name":"Uncletopia | London | 5 | All Maps | STV","players":null},{"server_id":22,"name":"Uncletopia | London | 6 | All Maps","name_short":"lon-6","host":"lon-1.uk.uncletopia.com","port":27065,"enabled":true,"region":"eu","cc":"gb","latitude":51.509865,"longitude":-0.118092,"reserved":0,"last_update":"0001-01-01T00:00:00Z","name_a2s":"Uncletopia | London | 6 | All Maps","protocol":17,"map":"cp_dustbowl","folder":"tf","game":"Team Fortress","app_id":440,"player_count":0,"max_players":24,"Bots":0,"server_type":"Dedicated","server_os":"Linux","password":true,"vac":true,"version":"7961495","steam_id":85568392924742830,"keywords":["cp","nocrits","nodmgspread","uncletopia"],"game_id":440,"stv_port":27066,"stv_name":"Uncletopia | London | 6 | All Maps | STV","players":null},{"server_id":40,"name":"Uncletopia | London | 7 | Stopwatch","name_short":"lon-7","host":"lon-1.uk.uncletopia.com","port":27075,"enabled":true,"region":"eu","cc":"gb","latitude":51.509865,"longitude":-0.118092,"reserved":0,"last_update":"0001-01-01T00:00:00Z","name_a2s":"Uncletopia | London | 7 | Stopwatch","protocol":17,"map":"pl_swiftwater_final1","folder":"tf","game":"Team Fortress","app_id":440,"player_count":0,"max_players":24,"Bots":0,"server_type":"Dedicated","server_os":"Linux","password":true,"vac":true,"version":"7961495","steam_id":85568392924964314,"keywords":["nocrits","nodmgspread","payload","uncletopia"],"game_id":440,"stv_port":27076,"stv_name":"Uncletopia | London | 7 | Stopwatch | STV","players":null},{"server_id":41,"name":"Uncletopia | London | 8 | Community","name_short":"lon-8","host":"lon-1.uk.uncletopia.com","port":27085,"enabled":true,"region":"eu","cc":"gb","latitude":51.509865,"longitude":-0.118092,"reserved":0,"last_update":"0001-01-01T00:00:00Z","name_a2s":"Uncletopia | London | 8 | Community","protocol":17,"map":"workshop/cp_propaganda_b18.ugc1603743849","folder":"tf","game":"Team Fortress","app_id":440,"player_count":0,"max_players":24,"Bots":0,"server_type":"Dedicated","server_os":"Linux","password":true,"vac":true,"version":"7961495","steam_id":85568392924964315,"keywords":["cp","nocrits","nodmgspread","uncletopia"],"game_id":440,"stv_port":27086,"stv_name":"Uncletopia | London | 8 | Community | STV","players":null},{"server_id":300,"name":"Uncletopia | Montréal | 1 | One Thousand Uncles","name_short":"mtl-1","host":"mtl-1.ca.uncletopia.com","port":27015,"enabled":true,"region":"us-east","cc":"ca","latitude":45.50889,"longitude":-73.56167,"reserved":0,"last_update":"0001-01-01T00:00:00Z","name_a2s":"Uncletopia | Montréal | 1 | One Thousand Uncles","protocol":17,"map":"cp_altitude","folder":"tf","game":"Team Fortress","app_id":440,"player_count":25,"max_players":32,"Bots":20,"server_type":"Dedicated","server_os":"Linux","password":true,"vac":true,"version":"7961495","steam_id":85568392924500087,"keywords":["alltalk","bots","cp","danepve","increased_maxplayers","norespawntime","uncletopia"],"game_id":440,"stv_port":0,"stv_name":"","players":[{"user_id":557,"name":"The Mug Man","steam_id":76561198283468122,"connected_time":3430000000000,"state":"active","ping":60},{"user_id":556,"name":"MagikarpEX","steam_id":76561198166172279,"connected_time":3513000000000,"state":"active","ping":66},{"user_id":580,"name":"crazybear129","steam_id":76561199266097660,"connected_time":1137000000000,"state":"active","ping":109},{"user_id":559,"name":"DarkVenom","steam_id":76561199263074469,"connected_time":2545000000000,"state":"active","ping":264},{"user_id":522,"name":"Witicka Dot Com","steam_id":76561198050361870,"connected_time":7194000000000,"state":"active","ping":46}]},{"server_id":301,"name":"Uncletopia | Montréal | 2 | One Thousand Uncles","name_short":"mtl-2","host":"mtl-1.ca.uncletopia.com","port":27025,"enabled":true,"region":"us-east","cc":"ca","latitude":45.50889,"longitude":-73.56167,"reserved":0,"last_update":"0001-01-01T00:00:00Z","name_a2s":"Uncletopia | Montréal | 2 | One Thousand Uncles","protocol":17,"map":"cp_mossrock","folder":"tf","game":"Team Fortress","app_id":440,"player_count":0,"max_players":32,"Bots":0,"server_type":"Dedicated","server_os":"Linux","password":true,"vac":true,"version":"7961495","steam_id":85568392924500088,"keywords":["alltalk","cp","danepve","increased_maxplayers","norespawntime","uncletopia"],"game_id":440,"stv_port":0,"stv_name":"","players":null},{"server_id":302,"name":"Uncletopia | Montréal | 3 | One Thousand Uncles","name_short":"mtl-3","host":"mtl-1.ca.uncletopia.com","port":27035,"enabled":true,"region":"us-east","cc":"ca","latitude":45.50889,"longitude":-73.56167,"reserved":0,"last_update":"0001-01-01T00:00:00Z","name_a2s":"Uncletopia | Montréal | 3 | One Thousand Uncles","protocol":17,"map":"pl_upward","folder":"tf","game":"Team Fortress","app_id":440,"player_count":0,"max_players":32,"Bots":0,"server_type":"Dedicated","server_os":"Linux","password":true,"vac":true,"version":"7961495","steam_id":85568392924500089,"keywords":["alltalk","danepve","increased_maxplayers","norespawntime","payload","uncletopia"],"game_id":440,"stv_port":0,"stv_name":"","players":null},{"server_id":13,"name":"Uncletopia | New York City | 1 | All Maps","name_short":"nyc-1","host":"nyc-1.us.uncletopia.com","port":27015,"enabled":true,"region":"us-east","cc":"us","latitude":40.73061,"longitude":-73.93524,"reserved":0,"last_update":"0001-01-01T00:00:00Z","name_a2s":"Uncletopia | New York City | 1 | All Maps","protocol":17,"map":"pl_barnblitz","folder":"tf","game":"Team Fortress","app_id":440,"player_count":22,"max_players":24,"Bots":0,"server_type":"Dedicated","server_os":"Linux","password":true,"vac":true,"version":"7961495","steam_id":85568392924469993,"keywords":["nocrits","nodmgspread","payload","uncletopia"],"game_id":440,"stv_port":27016,"stv_name":"Uncletopia | New York City | 1 | All Maps | STV","players":[{"user_id":828,"name":"Bearegard","steam_id":76561198061926542,"connected_time":6494000000000,"state":"active","ping":64},{"user_id":894,"name":"Bendi","steam_id":76561198448129425,"connected_time":176000000000,"state":"active","ping":77},{"user_id":895,"name":"TheREAL$wizz1eTTV","steam_id":76561198051666604,"connected_time":124000000000,"state":"active","ping":77},{"user_id":857,"name":"C Papi","steam_id":76561198027779564,"connected_time":3964000000000,"state":"active","ping":54},{"user_id":892,"name":"TheoLynwood","steam_id":76561198079596878,"connected_time":240000000000,"state":"active","ping":51},{"user_id":893,"name":"Dravenation","steam_id":76561198012411483,"connected_time":237000000000,"state":"active","ping":107},{"user_id":896,"name":"Tsuki","steam_id":76561198169233358,"connected_time":40000000000,"state":"active","ping":84},{"user_id":869,"name":"chance01_","steam_id":76561198083840477,"connected_time":1947000000000,"state":"active","ping":60},{"user_id":897,"name":"vibes","steam_id":76561198050561115,"connected_time":28000000000,"state":"active","ping":115},{"user_id":845,"name":"zpalmtree","steam_id":76561198134307620,"connected_time":4957000000000,"state":"active","ping":64},{"user_id":877,"name":"ttv/Everfrost Samoyed","steam_id":76561198072580699,"connected_time":1731000000000,"state":"active","ping":53},{"user_id":866,"name":"Bee_Pirate","steam_id":76561199000599111,"connected_time":2875000000000,"state":"active","ping":60},{"user_id":862,"name":"wrongthink","steam_id":76561198830293087,"connected_time":3124000000000,"state":"active","ping":59},{"user_id":887,"name":"Ludcmorais","steam_id":76561198359217809,"connected_time":1081000000000,"state":"active","ping":180},{"user_id":872,"name":"shoota","steam_id":76561198284992433,"connected_time":1921000000000,"state":"active","ping":68},{"user_id":884,"name":"Burner Brent","steam_id":76561198957996236,"connected_time":1216000000000,"state":"active","ping":71},{"user_id":878,"name":"Specty","steam_id":76561198301264312,"connected_time":1646000000000,"state":"active","ping":75},{"user_id":885,"name":"jek","steam_id":76561198097816136,"connected_time":1195000000000,"state":"active","ping":62},{"user_id":868,"name":"FiuffyDaisy!","steam_id":76561198241732704,"connected_time":2729000000000,"state":"active","ping":120},{"user_id":875,"name":"Mufalito","steam_id":76561198951889482,"connected_time":1852000000000,"state":"active","ping":134},{"user_id":890,"name":"Firecrotch Fredo","steam_id":76561198099658220,"connected_time":864000000000,"state":"active","ping":82},{"user_id":891,"name":"Marks the Spot","steam_id":76561198039775939,"connected_time":379000000000,"state":"active","ping":105}]},{"server_id":14,"name":"Uncletopia | New York City | 2 | All Maps","name_short":"nyc-2","host":"nyc-1.us.uncletopia.com","port":27025,"enabled":true,"region":"us-east","cc":"us","latitude":40.73061,"longitude":-73.93524,"reserved":0,"last_update":"0001-01-01T00:00:00Z","name_a2s":"Uncletopia | New York City | 2 | All Maps","protocol":17,"map":"koth_cascade","folder":"tf","game":"Team Fortress","app_id":440,"player_count":0,"max_players":24,"Bots":0,"server_type":"Dedicated","server_os":"Linux","password":true,"vac":true,"version":"7961495","steam_id":85568392924469994,"keywords":["cp","nocrits","nodmgspread","uncletopia"],"game_id":440,"stv_port":27026,"stv_name":"Uncletopia | New York City | 2 | All Maps | STV","players":null},{"server_id":15,"name":"Uncletopia | New York City | 3 | Stopwatch","name_short":"nyc-3","host":"nyc-1.us.uncletopia.com","port":27035,"enabled":true,"region":"us-east","cc":"us","latitude":40.73061,"longitude":-73.93524,"reserved":0,"last_update":"0001-01-01T00:00:00Z","name_a2s":"Uncletopia | New York City | 3 | Stopwatch","protocol":17,"map":"workshop/cp_reckoner_rc6.ugc674719999","folder":"tf","game":"Team Fortress","app_id":440,"player_count":0,"max_players":24,"Bots":0,"server_type":"Dedicated","server_os":"Linux","password":true,"vac":true,"version":"7961495","steam_id":85568392924742820,"keywords":["cp","nocrits","nodmgspread","uncletopia"],"game_id":440,"stv_port":27036,"stv_name":"Uncletopia | New York City | 3 | Stopwatch | STV","players":null},{"server_id":16,"name":"Uncletopia | New York City | 4 | Community","name_short":"nyc-4","host":"nyc-1.us.uncletopia.com","port":27045,"enabled":true,"region":"us-east","cc":"us","latitude":40.73061,"longitude":-73.93524,"reserved":0,"last_update":"0001-01-01T00:00:00Z","name_a2s":"Uncletopia | New York City | 4 | Community","protocol":17,"map":"workshop/cp_propaganda_b18.ugc1603743849","folder":"tf","game":"Team Fortress","app_id":440,"player_count":0,"max_players":24,"Bots":0,"server_type":"Dedicated","server_os":"Linux","password":true,"vac":true,"version":"7961495","steam_id":85568392924742821,"keywords":["cp","nocrits","nodmgspread","uncletopia"],"game_id":440,"stv_port":27046,"stv_name":"Uncletopia | New York City | 4 | Community | STV","players":null},{"server_id":142,"name":"Uncletopia | São Paulo | 1 | All Maps","name_short":"sao-1","host":"sao-1.br.uncletopia.com","port":27015,"enabled":true,"region":"sa","cc":"br","latitude":-23.533773,"longitude":-46.62529,"reserved":0,"last_update":"0001-01-01T00:00:00Z","name_a2s":"Uncletopia | São Paulo | 1 | All Maps","protocol":17,"map":"pl_barnblitz","folder":"tf","game":"Team Fortress","app_id":440,"player_count":0,"max_players":24,"Bots":0,"server_type":"Dedicated","server_os":"Linux","password":true,"vac":true,"version":"7961495","steam_id":85568392924469996,"keywords":["nocrits","nodmgspread","payload","uncletopia"],"game_id":440,"stv_port":27016,"stv_name":"Uncletopia | São Paulo | 1 | All Maps | STV","players":null},{"server_id":143,"name":"Uncletopia | São Paulo | 2 | Community","name_short":"sao-2","host":"sao-2.br.uncletopia.com","port":27015,"enabled":true,"region":"sa","cc":"br","latitude":-23.533773,"longitude":-46.62529,"reserved":0,"last_update":"0001-01-01T00:00:00Z","name_a2s":"Uncletopia | São Paulo | 2 | Community","protocol":17,"map":"workshop/pl_phoenix_b4a.ugc2969509359","folder":"tf","game":"Team Fortress","app_id":440,"player_count":0,"max_players":24,"Bots":0,"server_type":"Dedicated","server_os":"Linux","password":true,"vac":true,"version":"7961495","steam_id":85568392924485349,"keywords":["nocrits","nodmgspread","payload","uncletopia"],"game_id":440,"stv_port":27016,"stv_name":"Uncletopia | São Paulo | 2 | Community | STV","players":null},{"server_id":7,"name":"Uncletopia | Seattle | 1 | All Maps","name_short":"sea-1","host":"sea-1.us.uncletopia.com","port":27015,"enabled":true,"region":"us-west","cc":"us","latitude":47.608013,"longitude":-122.33517,"reserved":0,"last_update":"0001-01-01T00:00:00Z","name_a2s":"Uncletopia | Seattle | 1 | All Maps","protocol":17,"map":"cp_dustbowl","folder":"tf","game":"Team Fortress","app_id":440,"player_count":24,"max_players":24,"Bots":0,"server_type":"Dedicated","server_os":"Linux","password":true,"vac":true,"version":"7961495","steam_id":85568392924469997,"keywords":["cp","nocrits","nodmgspread","uncletopia"],"game_id":440,"stv_port":27016,"stv_name":"Uncletopia | Seattle | 1 | All Maps | STV","players":[{"user_id":477,"name":"Copy","steam_id":76561198025031590,"connected_time":3080000000000,"state":"active","ping":46},{"user_id":488,"name":"Sexy Kitten (toxic)","steam_id":76561197979056451,"connected_time":2176000000000,"state":"active","ping":48},{"user_id":451,"name":"Hawksgamer","steam_id":76561198152405941,"connected_time":5235000000000,"state":"active","ping":44},{"user_id":517,"name":"Noah","steam_id":76561198059048749,"connected_time":650000000000,"state":"active","ping":54},{"user_id":492,"name":"Sniff","steam_id":76561198010270922,"connected_time":1809000000000,"state":"active","ping":65},{"user_id":520,"name":"trackpad gaming | f2p","steam_id":76561198840414371,"connected_time":350000000000,"state":"active","ping":49},{"user_id":471,"name":"paws :3","steam_id":76561199371694361,"connected_time":3824000000000,"state":"active","ping":82},{"user_id":522,"name":"kertus","steam_id":76561198453203619,"connected_time":305000000000,"state":"active","ping":69},{"user_id":504,"name":"FlameWolf","steam_id":76561198234517204,"connected_time":1058000000000,"state":"active","ping":53},{"user_id":519,"name":"chimps and cough syrup","steam_id":76561198032625036,"connected_time":553000000000,"state":"active","ping":53},{"user_id":523,"name":"BuncusBeffer","steam_id":76561198285936616,"connected_time":298000000000,"state":"active","ping":76},{"user_id":438,"name":"The Shaq Attack","steam_id":76561198075285534,"connected_time":7422000000000,"state":"active","ping":41},{"user_id":524,"name":"Big Chad","steam_id":76561198015304658,"connected_time":294000000000,"state":"active","ping":111},{"user_id":475,"name":"dust | it/she [no mic]","steam_id":76561198045218909,"connected_time":3443000000000,"state":"active","ping":40},{"user_id":395,"name":"Zincian","steam_id":76561198055484259,"connected_time":11021000000000,"state":"active","ping":51},{"user_id":527,"name":"eminixx!","steam_id":76561198962857708,"connected_time":92000000000,"state":"active","ping":117},{"user_id":516,"name":"pIRO_AGUA","steam_id":76561199041880779,"connected_time":769000000000,"state":"active","ping":46},{"user_id":491,"name":"Mr8bittripper","steam_id":76561198133894229,"connected_time":1831000000000,"state":"active","ping":42},{"user_id":525,"name":"Robogineer","steam_id":76561198026994739,"connected_time":245000000000,"state":"active","ping":77},{"user_id":507,"name":"self sufficient kitten ♥","steam_id":76561197960592612,"connected_time":1035000000000,"state":"active","ping":56},{"user_id":526,"name":"GrimGryphon","steam_id":76561198169899963,"connected_time":181000000000,"state":"active","ping":95},{"user_id":394,"name":"Thexx [she/they]","steam_id":76561198113823050,"connected_time":11063000000000,"state":"active","ping":51},{"user_id":510,"name":"Content cop","steam_id":76561198160922113,"connected_time":940000000000,"state":"active","ping":128},{"user_id":473,"name":"blinkerton city","steam_id":76561198054270410,"connected_time":3684000000000,"state":"active","ping":57}]},{"server_id":119,"name":"Uncletopia | Seattle | 2 | All Maps","name_short":"sea-2","host":"sea-1.us.uncletopia.com","port":27025,"enabled":true,"region":"us-west","cc":"us","latitude":47.608013,"longitude":-122.33517,"reserved":0,"last_update":"0001-01-01T00:00:00Z","name_a2s":"Uncletopia | Seattle | 2 | All Maps","protocol":17,"map":"koth_lakeside_final","folder":"tf","game":"Team Fortress","app_id":440,"player_count":24,"max_players":24,"Bots":0,"server_type":"Dedicated","server_os":"Linux","password":true,"vac":true,"version":"7961495","steam_id":85568392924469998,"keywords":["cp","nocrits","nodmgspread","uncletopia"],"game_id":440,"stv_port":27026,"stv_name":"Uncletopia | Seattle | 2 | All Maps | STV","players":[{"user_id":391,"name":"chimplicity","steam_id":76561198012097062,"connected_time":697000000000,"state":"active","ping":102},{"user_id":398,"name":"Brathic","steam_id":76561198966232163,"connected_time":557000000000,"state":"active","ping":111},{"user_id":397,"name":"The Businessman","steam_id":76561198352531234,"connected_time":583000000000,"state":"active","ping":100},{"user_id":369,"name":"Batso","steam_id":76561198106589452,"connected_time":1906000000000,"state":"active","ping":81},{"user_id":359,"name":"Dogg wader","steam_id":76561199090314340,"connected_time":2909000000000,"state":"active","ping":89},{"user_id":382,"name":"1000 Ping","steam_id":76561198098330939,"connected_time":1235000000000,"state":"active","ping":94},{"user_id":399,"name":"Headmouth","steam_id":76561198019789855,"connected_time":551000000000,"state":"active","ping":165},{"user_id":363,"name":"El Gato Paranoico","steam_id":76561198116567116,"connected_time":2276000000000,"state":"active","ping":119},{"user_id":376,"name":"momus","steam_id":76561198966979196,"connected_time":1519000000000,"state":"active","ping":78},{"user_id":387,"name":"Clagger","steam_id":76561198066701092,"connected_time":889000000000,"state":"active","ping":44},{"user_id":353,"name":"Lil B (Tha Based/God)","steam_id":76561198133195238,"connected_time":3161000000000,"state":"active","ping":77},{"user_id":372,"name":"EduardoLopez2005","steam_id":76561198188481309,"connected_time":1801000000000,"state":"active","ping":68},{"user_id":386,"name":"SnareString","steam_id":76561199082119457,"connected_time":995000000000,"state":"active","ping":61},{"user_id":389,"name":"build splatoon fort","steam_id":76561198035698704,"connected_time":862000000000,"state":"active","ping":71},{"user_id":385,"name":"oothany","steam_id":76561198091041751,"connected_time":1019000000000,"state":"active","ping":91},{"user_id":374,"name":"airbudetc","steam_id":76561199125415611,"connected_time":1552000000000,"state":"active","ping":66},{"user_id":378,"name":"Sweeeeee","steam_id":76561198998446307,"connected_time":1497000000000,"state":"active","ping":68},{"user_id":379,"name":"Barbie Jeep Wrangler","steam_id":76561198378587138,"connected_time":1481000000000,"state":"active","ping":57},{"user_id":380,"name":"fungi@bowie.gg","steam_id":76561198169755734,"connected_time":1472000000000,"state":"active","ping":67},{"user_id":348,"name":"Brieg","steam_id":76561198040765748,"connected_time":3409000000000,"state":"active","ping":128},{"user_id":396,"name":"Psychcat","steam_id":76561198978665598,"connected_time":596000000000,"state":"active","ping":50},{"user_id":400,"name":"Bandit","steam_id":76561198008344745,"connected_time":528000000000,"state":"active","ping":88},{"user_id":402,"name":"Leidon","steam_id":76561198078386945,"connected_time":487000000000,"state":"active","ping":76},{"user_id":277,"name":"Mike Bean Burritos","steam_id":76561198173430607,"connected_time":8374000000000,"state":"active","ping":49}]},{"server_id":406,"name":"Uncletopia | Seattle | 3 | Stopwatch","name_short":"sea-3","host":"sea-1.us.uncletopia.com","port":27035,"enabled":true,"region":"us-west","cc":"us","latitude":47.608013,"longitude":-122.33517,"reserved":0,"last_update":"0001-01-01T00:00:00Z","name_a2s":"Uncletopia | Seattle | 3 | Stopwatch","protocol":17,"map":"workshop/koth_ashville_final.ugc2130459942","folder":"tf","game":"Team Fortress","app_id":440,"player_count":0,"max_players":24,"Bots":0,"server_type":"Dedicated","server_os":"Linux","password":true,"vac":true,"version":"7961495","steam_id":85568392924515217,"keywords":["cp","nocrits","nodmgspread","uncletopia"],"game_id":440,"stv_port":27036,"stv_name":"Uncletopia | Seattle | 3 | Stopwatch | STV","players":null},{"server_id":17,"name":"Uncletopia | San Francisco | 1 | All Maps","name_short":"sfo-1","host":"sfo-1.us.uncletopia.com","port":27015,"enabled":true,"region":"us-west","cc":"us","latitude":37.77397,"longitude":-122.4313,"reserved":0,"last_update":"0001-01-01T00:00:00Z","name_a2s":"Uncletopia | San Francisco | 1 | All Maps","protocol":17,"map":"pl_snowycoast","folder":"tf","game":"Team Fortress","app_id":440,"player_count":0,"max_players":24,"Bots":0,"server_type":"Dedicated","server_os":"Linux","password":true,"vac":true,"version":"7961495","steam_id":85568392924469999,"keywords":["nocrits","nodmgspread","payload","uncletopia"],"game_id":440,"stv_port":27016,"stv_name":"Uncletopia | San Francisco | 1 | All Maps | STV","players":null},{"server_id":18,"name":"Uncletopia | San Francisco | 2 | All Maps","name_short":"sfo-2","host":"sfo-1.us.uncletopia.com","port":27025,"enabled":true,"region":"us-west","cc":"us","latitude":37.77397,"longitude":-122.4313,"reserved":0,"last_update":"0001-01-01T00:00:00Z","name_a2s":"Uncletopia | San Francisco | 2 | All Maps","protocol":17,"map":"pl_pier","folder":"tf","game":"Team Fortress","app_id":440,"player_count":24,"max_players":24,"Bots":0,"server_type":"Dedicated","server_os":"Linux","password":true,"vac":true,"version":"7961495","steam_id":85568392924470000,"keywords":["nocrits","nodmgspread","payload","uncletopia"],"game_id":440,"stv_port":27026,"stv_name":"Uncletopia | San Francisco | 2 | All Maps | STV","players":[{"user_id":150,"name":"Scoops M'Gooch","steam_id":76561198048423812,"connected_time":1877000000000,"state":"active","ping":65},{"user_id":153,"name":"bubbles !","steam_id":76561198194782399,"connected_time":1721000000000,"state":"active","ping":65},{"user_id":167,"name":"Flapjack","steam_id":76561198060742093,"connected_time":858000000000,"state":"active","ping":78},{"user_id":177,"name":"Krispy","steam_id":76561198127005410,"connected_time":379000000000,"state":"active","ping":49},{"user_id":176,"name":"fitotutus","steam_id":76561197974993253,"connected_time":416000000000,"state":"active","ping":181},{"user_id":178,"name":"UrbudBenny","steam_id":76561198362317483,"connected_time":365000000000,"state":"active","ping":73},{"user_id":145,"name":"Prince Crow","steam_id":76561198211160740,"connected_time":2103000000000,"state":"active","ping":129},{"user_id":172,"name":"Dreamzapp","steam_id":76561199084936632,"connected_time":598000000000,"state":"active","ping":71},{"user_id":182,"name":"Lulee","steam_id":76561198044410549,"connected_time":267000000000,"state":"active","ping":60},{"user_id":184,"name":"jixeff","steam_id":76561198062884624,"connected_time":217000000000,"state":"active","ping":83},{"user_id":183,"name":"Monty","steam_id":76561197993567253,"connected_time":246000000000,"state":"active","ping":68},{"user_id":185,"name":"Kasufert","steam_id":76561198068851740,"connected_time":217000000000,"state":"active","ping":55},{"user_id":186,"name":"mangomunchermateo","steam_id":76561198391299423,"connected_time":170000000000,"state":"active","ping":63},{"user_id":154,"name":"Zombiekin","steam_id":76561199136079793,"connected_time":1717000000000,"state":"active","ping":60},{"user_id":33,"name":"Humble Learner","steam_id":76561198066091050,"connected_time":9165000000000,"state":"active","ping":67},{"user_id":34,"name":"lol","steam_id":76561198026491738,"connected_time":9153000000000,"state":"active","ping":63},{"user_id":174,"name":"Keamy","steam_id":76561199471434875,"connected_time":585000000000,"state":"active","ping":60},{"user_id":36,"name":"johnny","steam_id":76561198050225055,"connected_time":9141000000000,"state":"active","ping":59},{"user_id":187,"name":"LaloSalamanca","steam_id":76561199040341109,"connected_time":162000000000,"state":"active","ping":65},{"user_id":188,"name":"Virtellex","steam_id":76561199090243856,"connected_time":114000000000,"state":"active","ping":152},{"user_id":189,"name":"[Industrial] A_HUMBLEBUMBLED","steam_id":76561198064771878,"connected_time":31000000000,"state":"active","ping":63},{"user_id":190,"name":"Sivinus","steam_id":76561198025589541,"connected_time":30000000000,"state":"active","ping":74},{"user_id":117,"name":"hemorrhage","steam_id":76561198196527986,"connected_time":4557000000000,"state":"active","ping":51},{"user_id":119,"name":"cian","steam_id":76561198158554040,"connected_time":4526000000000,"state":"active","ping":86}]},{"server_id":19,"name":"Uncletopia | San Francisco | 3 | Stopwatch","name_short":"sfo-3","host":"sfo-1.us.uncletopia.com","port":27035,"enabled":true,"region":"us-west","cc":"us","latitude":37.77397,"longitude":-122.4313,"reserved":0,"last_update":"0001-01-01T00:00:00Z","name_a2s":"Uncletopia | San Francisco | 3 | Stopwatch","protocol":17,"map":"workshop/pl_vigil_rc10.ugc1266210012","folder":"tf","game":"Team Fortress","app_id":440,"player_count":0,"max_players":24,"Bots":0,"server_type":"Dedicated","server_os":"Linux","password":true,"vac":true,"version":"7961495","steam_id":85568392924742824,"keywords":["nocrits","nodmgspread","payload","uncletopia"],"game_id":440,"stv_port":27036,"stv_name":"Uncletopia | San Francisco | 3 | Stopwatch | STV","players":null},{"server_id":20,"name":"Uncletopia | San Francisco | 4 | Community","name_short":"sfo-4","host":"sfo-1.us.uncletopia.com","port":27045,"enabled":true,"region":"us-west","cc":"us","latitude":37.77397,"longitude":-122.4313,"reserved":0,"last_update":"0001-01-01T00:00:00Z","name_a2s":"Uncletopia | San Francisco | 4 | Community","protocol":17,"map":"workshop/cp_sultry_b8.ugc2775471508","folder":"tf","game":"Team Fortress","app_id":440,"player_count":0,"max_players":24,"Bots":0,"server_type":"Dedicated","server_os":"Linux","password":true,"vac":true,"version":"7961495","steam_id":85568392924742826,"keywords":["cp","nocrits","nodmgspread","uncletopia"],"game_id":440,"stv_port":27046,"stv_name":"Uncletopia | San Francisco | 4 | Community | STV","players":null},{"server_id":141,"name":"Uncletopia | Sydney | 1 | All Maps","name_short":"syd-1","host":"syd-1.au.uncletopia.com","port":27015,"enabled":true,"region":"au","cc":"au","latitude":-33.865143,"longitude":151.2099,"reserved":0,"last_update":"0001-01-01T00:00:00Z","name_a2s":"Uncletopia | Sydney | 1 | All Maps","protocol":17,"map":"pl_badwater","folder":"tf","game":"Team Fortress","app_id":440,"player_count":24,"max_players":24,"Bots":0,"server_type":"Dedicated","server_os":"Linux","password":true,"vac":true,"version":"7961495","steam_id":85568392924470001,"keywords":["nocrits","nodmgspread","payload","uncletopia"],"game_id":440,"stv_port":27016,"stv_name":"Uncletopia | Sydney | 1 | All Maps | STV","players":[{"user_id":40,"name":"Courier","steam_id":76561198080981482,"connected_time":2065000000000,"state":"active","ping":37},{"user_id":50,"name":"FascismSalad","steam_id":76561198262410973,"connected_time":994000000000,"state":"active","ping":50},{"user_id":46,"name":"[Z Clam] Memebatu","steam_id":76561198135976687,"connected_time":1336000000000,"state":"active","ping":57},{"user_id":51,"name":"Dog With Headphones","steam_id":76561198111076916,"connected_time":988000000000,"state":"active","ping":61},{"user_id":16,"name":"cooleverest","steam_id":76561198048004321,"connected_time":3618000000000,"state":"active","ping":55},{"user_id":43,"name":"paray","steam_id":76561198376383989,"connected_time":1733000000000,"state":"active","ping":65},{"user_id":55,"name":"Blobby","steam_id":76561198070731071,"connected_time":315000000000,"state":"active","ping":89},{"user_id":45,"name":"entradinkgle","steam_id":76561198137562689,"connected_time":1363000000000,"state":"active","ping":55},{"user_id":21,"name":"Turbo_dip","steam_id":76561198446508846,"connected_time":3189000000000,"state":"active","ping":70},{"user_id":32,"name":"[MORB] Superevilironman","steam_id":76561198065557996,"connected_time":2491000000000,"state":"active","ping":69},{"user_id":23,"name":"MINI S.","steam_id":76561198116179875,"connected_time":3087000000000,"state":"active","ping":44},{"user_id":48,"name":"Chrisy","steam_id":76561198092382473,"connected_time":1299000000000,"state":"active","ping":82},{"user_id":27,"name":"Help","steam_id":76561198065723340,"connected_time":2602000000000,"state":"active","ping":69},{"user_id":28,"name":"badmn","steam_id":76561198056462343,"connected_time":2600000000000,"state":"active","ping":53},{"user_id":53,"name":"blarglefargle zippoingus","steam_id":76561198063481761,"connected_time":579000000000,"state":"active","ping":44},{"user_id":30,"name":"The Dude97","steam_id":76561198273455996,"connected_time":2529000000000,"state":"active","ping":82},{"user_id":33,"name":"Overlold","steam_id":76561197978635495,"connected_time":2451000000000,"state":"active","ping":82},{"user_id":34,"name":"Squier","steam_id":76561198142294467,"connected_time":2436000000000,"state":"active","ping":180},{"user_id":52,"name":"Destroy Lonely","steam_id":76561198183714687,"connected_time":856000000000,"state":"active","ping":43},{"user_id":56,"name":"yoga","steam_id":76561199163801558,"connected_time":213000000000,"state":"active","ping":47},{"user_id":37,"name":"ChiBi","steam_id":76561198184194709,"connected_time":2172000000000,"state":"active","ping":65},{"user_id":38,"name":"akmon753","steam_id":76561199507989067,"connected_time":2170000000000,"state":"active","ping":70},{"user_id":44,"name":"Crucial","steam_id":76561198992582454,"connected_time":1649000000000,"state":"active","ping":44},{"user_id":42,"name":"e1fy","steam_id":76561198060462552,"connected_time":2026000000000,"state":"active","ping":69}]},{"server_id":123,"name":"Uncletopia | Sydney | 2 | All Maps","name_short":"syd-2","host":"syd-1.au.uncletopia.com","port":27025,"enabled":true,"region":"au","cc":"au","latitude":-33.865143,"longitude":151.2099,"reserved":0,"last_update":"0001-01-01T00:00:00Z","name_a2s":"Uncletopia | Sydney | 2 | All Maps","protocol":17,"map":"cp_sunshine","folder":"tf","game":"Team Fortress","app_id":440,"player_count":0,"max_players":24,"Bots":0,"server_type":"Dedicated","server_os":"Linux","password":true,"vac":true,"version":"7961495","steam_id":85568392924470002,"keywords":["cp","nocrits","nodmgspread","uncletopia"],"game_id":440,"stv_port":27026,"stv_name":"Uncletopia | Sydney | 2 | All Maps | STV","players":null},{"server_id":395,"name":"Uncletopia | Sydney | 3 | All Maps","name_short":"syd-3","host":"syd-1.au.uncletopia.com","port":27035,"enabled":true,"region":"au","cc":"au","latitude":-33.865143,"longitude":151.2099,"reserved":0,"last_update":"0001-01-01T00:00:00Z","name_a2s":"Uncletopia | Sydney | 3 | All Maps","protocol":17,"map":"koth_brazil","folder":"tf","game":"Team Fortress","app_id":440,"player_count":0,"max_players":24,"Bots":0,"server_type":"Dedicated","server_os":"Linux","password":true,"vac":true,"version":"7961495","steam_id":85568392925194467,"keywords":["cp","nocrits","nodmgspread","uncletopia"],"game_id":440,"stv_port":27036,"stv_name":"Uncletopia | Sydney | 3 | All Maps | STV","players":null},{"server_id":396,"name":"Uncletopia | Sydney | 4 | All Maps","name_short":"syd-4","host":"syd-1.au.uncletopia.com","port":27045,"enabled":true,"region":"au","cc":"au","latitude":-33.865143,"longitude":151.2099,"reserved":0,"last_update":"0001-01-01T00:00:00Z","name_a2s":"Uncletopia | Sydney | 4 | All Maps","protocol":17,"map":"cp_standin_final","folder":"tf","game":"Team Fortress","app_id":440,"player_count":0,"max_players":24,"Bots":0,"server_type":"Dedicated","server_os":"Linux","password":true,"vac":true,"version":"7961495","steam_id":85568392925397958,"keywords":["cp","nocrits","nodmgspread","uncletopia"],"game_id":440,"stv_port":27046,"stv_name":"Uncletopia | Sydney | 4 | All Maps | STV","players":null},{"server_id":58,"name":"Uncletopia | Sydney | 5 | Stopwatch","name_short":"syd-5","host":"syd-1.au.uncletopia.com","port":27055,"enabled":true,"region":"au","cc":"au","latitude":-33.865143,"longitude":151.2099,"reserved":0,"last_update":"0001-01-01T00:00:00Z","name_a2s":"Uncletopia | Sydney | 5 | Stopwatch","protocol":17,"map":"koth_highpass","folder":"tf","game":"Team Fortress","app_id":440,"player_count":0,"max_players":24,"Bots":0,"server_type":"Dedicated","server_os":"Linux","password":true,"vac":true,"version":"7961495","steam_id":85568392925397959,"keywords":["cp","nocrits","nodmgspread","uncletopia"],"game_id":440,"stv_port":27056,"stv_name":"Uncletopia | Sydney | 5 | Stopwatch | STV","players":null},{"server_id":59,"name":"Uncletopia | Sydney | 6 | Community","name_short":"syd-6","host":"syd-1.au.uncletopia.com","port":27065,"enabled":true,"region":"au","cc":"au","latitude":-33.865143,"longitude":151.2099,"reserved":0,"last_update":"0001-01-01T00:00:00Z","name_a2s":"Uncletopia | Sydney | 6 | Community","protocol":17,"map":"workshop/koth_soot_final1.ugc2969540689","folder":"tf","game":"Team Fortress","app_id":440,"player_count":0,"max_players":24,"Bots":0,"server_type":"Dedicated","server_os":"Linux","password":true,"vac":true,"version":"7961495","steam_id":85568392925397960,"keywords":["cp","nocrits","nodmgspread","uncletopia"],"game_id":440,"stv_port":27066,"stv_name":"Uncletopia | Sydney | 6 | Community | STV","players":null},{"server_id":49,"name":"Uncletopia | Warsaw | 1 | One Thousand Uncles","name_short":"waw-1","host":"waw-1.pl.uncletopia.com","port":27015,"enabled":true,"region":"eu","cc":"pl","latitude":52.2297,"longitude":21.017532,"reserved":0,"last_update":"0001-01-01T00:00:00Z","name_a2s":"Uncletopia | Warsaw | 1 | One Thousand Uncles","protocol":17,"map":"cp_egypt_final","folder":"tf","game":"Team Fortress","app_id":440,"player_count":0,"max_players":32,"Bots":0,"server_type":"Dedicated","server_os":"Linux","password":true,"vac":true,"version":"7961495","steam_id":85568392925397850,"keywords":["alltalk","cp","danepve","increased_maxplayers","norespawntime","uncletopia"],"game_id":440,"stv_port":0,"stv_name":"","players":null},{"server_id":50,"name":"Uncletopia | Warsaw | 2 | One Thousand Uncles","name_short":"waw-2","host":"waw-1.pl.uncletopia.com","port":27025,"enabled":true,"region":"eu","cc":"pl","latitude":52.2297,"longitude":21.017532,"reserved":0,"last_update":"0001-01-01T00:00:00Z","name_a2s":"Uncletopia | Warsaw | 2 | One Thousand Uncles","protocol":17,"map":"pl_pier","folder":"tf","game":"Team Fortress","app_id":440,"player_count":0,"max_players":32,"Bots":0,"server_type":"Dedicated","server_os":"Linux","password":true,"vac":true,"version":"7961495","steam_id":85568392925397851,"keywords":["alltalk","danepve","increased_maxplayers","norespawntime","payload","uncletopia"],"game_id":440,"stv_port":0,"stv_name":"","players":null},{"server_id":51,"name":"Uncletopia | Warsaw | 3 | All Maps","name_short":"waw-3","host":"waw-1.pl.uncletopia.com","port":27035,"enabled":true,"region":"eu","cc":"pl","latitude":52.2297,"longitude":21.017532,"reserved":0,"last_update":"0001-01-01T00:00:00Z","name_a2s":"Uncletopia | Warsaw | 3 | All Maps","protocol":17,"map":"pl_frontier_final","folder":"tf","game":"Team Fortress","app_id":440,"player_count":0,"max_players":24,"Bots":0,"server_type":"Dedicated","server_os":"Linux","password":true,"vac":true,"version":"7961495","steam_id":85568392925397852,"keywords":["nocrits","nodmgspread","payload","uncletopia"],"game_id":440,"stv_port":27036,"stv_name":"Uncletopia | Warsaw | 3 | All Maps | STV","players":null},{"server_id":52,"name":"Uncletopia | Warsaw | 4 | All Maps","name_short":"waw-4","host":"waw-1.pl.uncletopia.com","port":27045,"enabled":true,"region":"eu","cc":"pl","latitude":52.2297,"longitude":21.017532,"reserved":0,"last_update":"0001-01-01T00:00:00Z","name_a2s":"Uncletopia | Warsaw | 4 | All Maps","protocol":17,"map":"ctf_turbine","folder":"tf","game":"Team Fortress","app_id":440,"player_count":0,"max_players":24,"Bots":0,"server_type":"Dedicated","server_os":"Linux","password":true,"vac":true,"version":"7961495","steam_id":85568392925397853,"keywords":["ctf","nocrits","nodmgspread","uncletopia"],"game_id":440,"stv_port":27046,"stv_name":"Uncletopia | Warsaw | 4 | All Maps | STV","players":null},{"server_id":53,"name":"Uncletopia | Warsaw | 5 | Stopwatch","name_short":"waw-5","host":"waw-1.pl.uncletopia.com","port":27055,"enabled":true,"region":"eu","cc":"pl","latitude":52.2297,"longitude":21.017532,"reserved":0,"last_update":"0001-01-01T00:00:00Z","name_a2s":"Uncletopia | Warsaw | 5 | Stopwatch","protocol":17,"map":"workshop/koth_clearcut_b15.ugc2107050255","folder":"tf","game":"Team Fortress","app_id":440,"player_count":0,"max_players":24,"Bots":0,"server_type":"Dedicated","server_os":"Linux","password":true,"vac":true,"version":"7961495","steam_id":85568392925397854,"keywords":["cp","nocrits","nodmgspread","uncletopia"],"game_id":440,"stv_port":27056,"stv_name":"Uncletopia | Warsaw | 5 | Stopwatch | STV","players":null},{"server_id":54,"name":"Uncletopia | Warsaw | 6 | Community","name_short":"waw-6","host":"waw-1.pl.uncletopia.com","port":27065,"enabled":true,"region":"eu","cc":"pl","latitude":52.2297,"longitude":21.017532,"reserved":0,"last_update":"0001-01-01T00:00:00Z","name_a2s":"Uncletopia | Warsaw | 6 | Community","protocol":17,"map":"workshop/pl_highwood_b19.ugc1769496557","folder":"tf","game":"Team Fortress","app_id":440,"player_count":0,"max_players":24,"Bots":0,"server_type":"Dedicated","server_os":"Linux","password":true,"vac":true,"version":"7961495","steam_id":85568392925397856,"keywords":["nocrits","nodmgspread","payload","uncletopia"],"game_id":440,"stv_port":27066,"stv_name":"Uncletopia | Warsaw | 6 | Community | STV","players":null}]}