{"status":true,"message":"","result":[{"server_id":9,"name":"Uncletopia | Atlanta | 1 | All Maps","name_short":"atl-1","host":"atl-1.us.uncletopia.com","port":27015,"enabled":true,"region":"us-east","cc":"us","latitude":33.753746,"longitude":-84.38633,"reserved":0,"last_update":"0001-01-01T00:00:00Z","name_a2s":"Uncletopia | Atlanta | 1 | All Maps","protocol":17,"map":"koth_cascade","folder":"tf","game":"Team Fortress","app_id":440,"player_count":1,"max_players":24,"Bots":0,"server_type":"Dedicated","server_os":"Linux","password":true,"vac":true,"version":"7961495","steam_id":85568392924469982,"keywords":["cp","nocrits","nodmgspread","uncletopia"],"game_id":440,"stv_port":27016,"stv_name":"Uncletopia | Atlanta | 1 | All Maps | STV","players":null},{"server_id":104,"name":"Uncletopia | Atlanta | 2 | All Maps","name_short":"atl-2","host":"atl-1.us.uncletopia.com","port":27025,"enabled":true,"region":"us-east","cc":"us","latitude":33.753746,"longitude":-84.38633,"reserved":0,"last_update":"0001-01-01T00:00:00Z","name_a2s":"Uncletopia | Atlanta | 2 | All Maps","protocol":17,"map":"ctf_doublecross","folder":"tf","game":"Team Fortress","app_id":440,"player_count":23,"max_players":24,"Bots":0,"server_type":"Dedicated","server_os":"Linux","password":true,"vac":true,"version":"7961495","steam_id":85568392924469983,"keywords":["ctf","nocrits","nodmgspread","uncletopia"],"game_id":440,"stv_port":27026,"stv_name":"Uncletopia | Atlanta | 2 | All Maps | STV","players":null},{"server_id":400,"name":"Uncletopia | Atlanta | 3 | Stopwatch","name_short":"atl-3","host":"atl-1.us.uncletopia.com","port":27035,"enabled":true,"region":"us-east","cc":"us","latitude":33.753746,"longitude":-84.38633,"reserved":0,"last_update":"0001-01-01T00:00:00Z","name_a2s":"Uncletopia | Atlanta | 3 | Stopwatch","protocol":17,"map":"pl_badwater","folder":"tf","game":"Team Fortress","app_id":440,"player_count":0,"max_players":24,"Bots":0,"server_type":"Dedicated","server_os":"Linux","password":true,"vac":true,"version":"7961495","steam_id":85568392924515187,"keywords":["nocrits","nodmgspread","payload","uncletopia"],"game_id":440,"stv_port":27036,"stv_name":"Uncletopia | Atlanta | 3 | Stopwatch | STV","players":null},{"server_id":401,"name":"Uncletopia | Atlanta | 4 | Community","name_short":"atl-4","host":"atl-1.us.uncletopia.com","port":27045,"enabled":true,"region":"us-east","cc":"us","latitude":33.753746,"longitude":-84.38633,"reserved":0,"last_update":"0001-01-01T00:00:00Z","name_a2s":"Uncletopia | Atlanta | 4 | Community","protocol":17,"map":"cp_sunshine","folder":"tf","game":"Team Fortress","app_id":440,"player_count":0,"max_players":24,"Bots":0,"server_type":"Dedicated","server_os":"Linux","password":true,"vac":true,"version":"7961495","steam_id":85568392924515188,"keywords":["cp","nocrits","nodmgspread","uncletopia"],"game_id":440,"stv_port":27046,"stv_name":"Uncletopia | Atlanta | 4 | Community | STV","players":null},{"server_id":2,"name":"Uncletopia | Chicago | 1 | All Maps","name_short":"chi-1","host":"chi-1.us.uncletopia.com","port":27015,"enabled":true,"region":"us-central","cc":"us","latitude":41.881832,"longitude":-87.62318,"reserved":0,"last_update":"0001-01-01T00:00:00Z","name_a2s":"Uncletopia | Chicago | 1 | All Maps","protocol":17,"map":"cp_gorge","folder":"tf","game":"Team Fortress","app_id":440,"player_count":23,"max_players":24,"Bots":0,"server_type":"Dedicated","server_os":"Linux","password":true,"vac":true,"version":"7961495","steam_id":85568392924469984,"keywords":["cp","nocrits","nodmgspread","uncletopia"],"game_id":440,"stv_port":27016,"stv_name":"Uncletopia | Chicago | 1 | All Maps | STV","players":[{"user_id":298,"name":"primordialheath","steam_id":76561199386942638,"connected_time":202000000000,"state":"active","ping":54},{"user_id":237,"name":"Neon","steam_id":76561198089067907,"connected_time":4622000000000,"state":"active","ping":69},{"user_id":296,"name":"POSTERBOYOFGOODBOYS","steam_id":76561198199344313,"connected_time":231000000000,"state":"active","ping":113},{"user_id":293,"name":"Cellus","steam_id":76561198067204847,"connected_time":300000000000,"state":"active","ping":60},{"user_id":291,"name":"mastermind","steam_id":76561198127783432,"connected_time":393000000000,"state":"active","ping":66},{"user_id":297,"name":"TheSnipersHat","steam_id":76561198057684066,"connected_time":221000000000,"state":"active","ping":54},{"user_id":233,"name":"Meh","steam_id":76561198078187920,"connected_time":4796000000000,"state":"active","ping":88},{"user_id":281,"name":"asbestos","steam_id":76561198079178866,"connected_time":1601000000000,"state":"active","ping":62},{"user_id":300,"name":"SEER","steam_id":76561198075116015,"connected_time":94000000000,"state":"active","ping":65},{"user_id":175,"name":"Titus Tyrwitt","steam_id":76561197990779673,"connected_time":10276000000000,"state":"active","ping":74},{"user_id":301,"name":"evil steve","steam_id":76561198124791670,"connected_time":82000000000,"state":"active","ping":58},{"user_id":246,"name":"Silly individual","steam_id":76561198237489960,"connected_time":3999000000000,"state":"active","ping":156},{"user_id":294,"name":"sheep man shaun","steam_id":76561198994349483,"connected_time":279000000000,"state":"active","ping":96},{"user_id":290,"name":"Broken Watermelon","steam_id":76561198928684592,"connected_time":544000000000,"state":"active","ping":103},{"user_id":269,"name":"jerma but crying and lesbian","steam_id":76561198110661425,"connected_time":2727000000000,"state":"active","ping":51},{"user_id":240,"name":"stupid ape","steam_id":76561198350027075,"connected_time":4505000000000,"state":"active","ping":58},{"user_id":288,"name":"1940's Softdrink","steam_id":76561198060955244,"connected_time":897000000000,"state":"active","ping":74},{"user_id":289,"name":"Rornir","steam_id":76561198081829615,"connected_time":750000000000,"state":"active","ping":34},{"user_id":257,"name":"Ringo x Seiran","steam_id":76561198357437908,"connected_time":3757000000000,"state":"active","ping":69},{"user_id":280,"name":"Trader Yohan","steam_id":76561198048956010,"connected_time":1747000000000,"state":"active","ping":110},{"user_id":282,"name":"matthatter98","steam_id":76561198953709416,"connected_time":1584000000000,"state":"active","ping":72},{"user_id":174,"name":"TheDapperTaco","steam_id":76561199103076602,"connected_time":10311000000000,"state":"active","ping":125},{"user_id":295,"name":"Swedish Crowbar","steam_id":76561199105488936,"connected_time":261000000000,"state":"active","ping":145}]},{"server_id":106,"name":"Uncletopia | Chicago | 2 | All Maps","name_short":"chi-2","host":"chi-1.us.uncletopia.com","port":27025,"enabled":true,"region":"us-central","cc":"us","latitude":41.881832,"longitude":-87.62318,"reserved":0,"last_update":"0001-01-01T00:00:00Z","name_a2s":"Uncletopia | Chicago | 2 | All Maps","protocol":17,"map":"pl_goldrush","folder":"tf","game":"Team Fortress","app_id":440,"player_count":23,"max_players":24,"Bots":0,"server_type":"Dedicated","server_os":"Linux","password":true,"vac":true,"version":"7961495","steam_id":85568392924469985,"keywords":["nocrits","nodmgspread","payload","uncletopia"],"game_id":440,"stv_port":27026,"stv_name":"Uncletopia | Chicago | 2 | All Maps | STV","players":[{"user_id":416,"name":"LocaKola","steam_id":76561198173435430,"connected_time":484000000000,"state":"active","ping":71},{"user_id":384,"name":"Three Brown Guys","steam_id":76561199112000229,"connected_time":2607000000000,"state":"active","ping":72},{"user_id":421,"name":"The Gentrified Urge","steam_id":76561198073314154,"connected_time":72000000000,"state":"active","ping":55},{"user_id":422,"name":"victorzans","steam_id":76561198009675301,"connected_time":20000000000,"state":"active","ping":111},{"user_id":383,"name":"BeefStewLover13","steam_id":76561198076207585,"connected_time":2630000000000,"state":"active","ping":69},{"user_id":417,"name":"Juke","steam_id":76561198990031600,"connected_time":474000000000,"state":"active","ping":107},{"user_id":369,"name":"Smams","steam_id":76561198262368084,"connected_time":3432000000000,"state":"active","ping":111},{"user_id":412,"name":"Unhackable","steam_id":76561199065393323,"connected_time":1011000000000,"state":"active","ping":101},{"user_id":415,"name":"Brob Zombie","steam_id":76561198149795942,"connected_time":535000000000,"state":"active","ping":61},{"user_id":371,"name":"≈†umnik","steam_id":76561198014888042,"connected_time":3404000000000,"state":"active","ping":135},{"user_id":408,"name":"Hyperactivedimwit","steam_id":76561198134221704,"connected_time":1277000000000,"state":"active","ping":47},{"user_id":418,"name":"bobbymcbobington","steam_id":76561199089411172,"connected_time":430000000000,"state":"active","ping":116},{"user_id":393,"name":"Indigolake","steam_id":76561198202215807,"connected_time":2115000000000,"state":"active","ping":84},{"user_id":323,"name":"genius of love","steam_id":76561198282764599,"connected_time":6118000000000,"state":"active","ping":45},{"user_id":402,"name":"boys in corsets #transrights","steam_id":76561198103901723,"connected_time":1604000000000,"state":"active","ping":84},{"user_id":420,"name":"Engideer","steam_id":76561198145733164,"connected_time":275000000000,"state":"active","ping":74},{"user_id":361,"name":"i want to die","steam_id":76561198178681366,"connected_time":4445000000000,"state":"active","ping":54},{"user_id":386,"name":"Turtleball","steam_id":76561198039375711,"connected_time":2432000000000,"state":"active","ping":71},{"user_id":394,"name":"Grimace D. Drippings","steam_id":76561198050849790,"connected_time":2043000000000,"state":"active","ping":111},{"user_id":405,"name":"Xx_PercyTheSmallEngineGamer6_xX","steam_id":76561198842297041,"connected_time":1528000000000,"state":"active","ping":132},{"user_id":401,"name":"TwoBit","steam_id":76561198062437559,"connected_time":1667000000000,"state":"active","ping":75},{"user_id":395,"name":"Juzo Suzuya","steam_id":76561198055542546,"connected_time":1988000000000,"state":"active","ping":58},{"user_id":407,"name":"Kostov","steam_id":76561198362264337,"connected_time":1313000000000,"state":"active","ping":147}]},{"server_id":402,"name":"Uncletopia | Chicago | 3 | All Maps","name_short":"chi-3","host":"chi-1.us.uncletopia.com","port":27035,"enabled":true,"region":"us-central","cc":"us","latitude":41.881832,"longitude":-87.62318,"reserved":0,"last_update":"0001-01-01T00:00:00Z","name_a2s":"Uncletopia | Chicago | 3 | All Maps","protocol":17,"map":"pl_upward","folder":"tf","game":"Team Fortress","app_id":440,"player_count":24,"max_players":24,"Bots":0,"server_type":"Dedicated","server_os":"Linux","password":true,"vac":true,"version":"7961495","steam_id":85568392924515191,"keywords":["nocrits","nodmgspread","payload","uncletopia"],"game_id":440,"stv_port":27036,"stv_name":"Uncletopia | Chicago | 3 | All Maps | STV","players":[{"user_id":9,"name":"Papahemmy","steam_id":76561198155470810,"connected_time":1777000000000,"state":"active","ping":61},{"user_id":7,"name":"Professional Brohamad","steam_id":76561198824025210,"connected_time":1823000000000,"state":"active","ping":45},{"user_id":8,"name":"„Ç∏Kiloe„Ç∏","steam_id":76561199084636926,"connected_time":1816000000000,"state":"active","ping":106},{"user_id":49,"name":"Narh","steam_id":76561198025216294,"connected_time":131000000000,"state":"active","ping":69},{"user_id":11,"name":"Thequirka (regular trackpad use","steam_id":76561198968058652,"connected_time":1293000000000,"state":"active","ping":94},{"user_id":13,"name":"King De","steam_id":76561198194427422,"connected_time":1234000000000,"state":"active","ping":61},{"user_id":51,"name":"Shark Sandwich","steam_id":76561198025007938,"connected_time":58000000000,"state":"active","ping":92},{"user_id":15,"name":"Armoured Bear","steam_id":76561198081552558,"connected_time":1078000000000,"state":"active","ping":175},{"user_id":35,"name":"‡∂û","steam_id":76561199365672047,"connected_time":639000000000,"state":"active","ping":85},{"user_id":52,"name":"siggystar10","steam_id":76561199155065176,"connected_time":52000000000,"state":"active","ping":155},{"user_id":29,"name":"com lag","steam_id":76561198019019392,"connected_time":676000000000,"state":"active","ping":45},{"user_id":53,"name":"eric","steam_id":76561198237292756,"connected_time":45000000000,"state":"active","ping":61},{"user_id":20,"name":"Walruse","steam_id":76561198083844586,"connected_time":903000000000,"state":"active","ping":63},{"user_id":44,"name":"Brown_Dream","steam_id":76561198975766145,"connected_time":299000000000,"state":"active","ping":84},{"user_id":22,"name":"kryz","steam_id":76561198091439495,"connected_time":790000000000,"state":"active","ping":169},{"user_id":42,"name":"CyborgHexapus4","steam_id":76561198160335724,"connected_time":483000000000,"state":"active","ping":101},{"user_id":54,"name":"LaurTRANSFORMERS","steam_id":76561198801938678,"connected_time":41000000000,"state":"active","ping":183},{"user_id":25,"name":"Atlas","steam_id":76561198127975050,"connected_time":756000000000,"state":"active","ping":60},{"user_id":26,"name":"Eugene","steam_id":76561198192455230,"connected_time":746000000000,"state":"active","ping":114},{"user_id":33,"name":"Dreszerg","steam_id":76561198838757422,"connected_time":653000000000,"state":"active","ping":87},{"user_id":28,"name":"OrionKid","steam_id":76561198359094901,"connected_time":705000000000,"state":"active","ping":64},{"user_id":32,"name":"lpk","steam_id":76561198025478698,"connected_time":665000000000,"state":"active","ping":44},{"user_id":34,"name":"poverty gaming","steam_id":76561199177831971,"connected_time":641000000000,"state":"active","ping":81},{"user_id":38,"name":"lazily","steam_id":76561198051127715,"connected_time":544000000000,"state":"active","ping":64}]},{"server_id":403,"name":"Uncletopia | Chicago | 4 | All Maps","name_short":"chi-4","host":"chi-1.us.uncletopia.com","port":27045,"enabled":true,"region":"us-central","cc":"us","latitude":41.881832,"longitude":-87.62318,"reserved":0,"last_update":"0001-01-01T00:00:00Z","name_a2s":"Uncletopia | Chicago | 4 | All Maps","protocol":17,"map":"koth_cascade","folder":"tf","game":"Team Fortress","app_id":440,"player_count":0,"max_players":24,"Bots":0,"server_type":"Dedicated","server_os":"Linux","password":true,"vac":true,"version":"7961495","steam_id":85568392924515193,"keywords":["cp","nocrits","nodmgspread","uncletopia"],"game_id":440,"stv_port":27046,"stv_name":"Uncletopia | Chicago | 4 | All Maps | STV","players":null},{"server_id":36,"name":"Uncletopia | Chicago | 5 | All Maps","name_short":"chi-5","host":"chi-2.us.uncletopia.com","port":27015,"enabled":true,"region":"us-central","cc":"us","latitude":41.881832,"longitude":-87.62318,"reserved":0,"last_update":"0001-01-01T00:00:00Z","name_a2s":"Uncletopia | Chicago | 5 | All Maps","protocol":17,"map":"koth_viaduct","folder":"tf","game":"Team Fortress","app_id":440,"player_count":0,"max_players":24,"Bots":0,"server_type":"Dedicated","server_os":"Linux","password":true,"vac":true,"version":"7961495","steam_id":85568392924866362,"keywords":["cp","nocrits","nodmgspread","uncletopia"],"game_id":440,"stv_port":27016,"stv_name":"Uncletopia | Chicago | 5 | All Maps | STV","players":null},{"server_id":37,"name":"Uncletopia | Chicago | 6 | All Maps","name_short":"chi-6","host":"chi-2.us.uncletopia.com","port":27025,"enabled":true,"region":"us-central","cc":"us","latitude":41.881832,"longitude":-87.62318,"reserved":0,"last_update":"0001-01-01T00:00:00Z","name_a2s":"Uncletopia | Chicago | 6 | All Maps","protocol":17,"map":"pl_pier","folder":"tf","game":"Team Fortress","app_id":440,"player_count":23,"max_players":24,"Bots":0,"server_type":"Dedicated","server_os":"Linux","password":true,"vac":true,"version":"7961495","steam_id":85568392924866363,"keywords":["nocrits","nodmgspread","payload","uncletopia"],"game_id":440,"stv_port":27026,"stv_name":"Uncletopia | Chicago | 6 | All Maps | STV","players":[{"user_id":156,"name":"Kartyac","steam_id":76561197991069005,"connected_time":195000000000,"state":"active","ping":83},{"user_id":147,"name":"Switchclackback","steam_id":76561198014355417,"connected_time":297000000000,"state":"active","ping":58},{"user_id":158,"name":"AutoCon17","steam_id":76561198209977473,"connected_time":122000000000,"state":"active","ping":41},{"user_id":157,"name":"Prsm","steam_id":76561198053344995,"connected_time":178000000000,"state":"active","ping":59},{"user_id":150,"name":"K2f","steam_id":76561198049600563,"connected_time":277000000000,"state":"active","ping":103},{"user_id":142,"name":"Gloomy","steam_id":76561198053742522,"connected_time":344000000000,"state":"active","ping":126},{"user_id":115,"name":"Waffle Wannabe","steam_id":76561198064510650,"connected_time":1467000000000,"state":"active","ping":66},{"user_id":146,"name":"pump","steam_id":76561198071705442,"connected_time":308000000000,"state":"active","ping":71},{"user_id":105,"name":"Captain Demytri","steam_id":76561198097998607,"connected_time":2411000000000,"state":"active","ping":46},{"user_id":132,"name":"Ganondorf","steam_id":76561198010421059,"connected_time":662000000000,"state":"active","ping":54},{"user_id":119,"name":"GooniOoni","steam_id":76561198102154561,"connected_time":1235000000000,"state":"active","ping":46},{"user_id":155,"name":"cass","steam_id":76561198074502046,"connected_time":254000000000,"state":"active","ping":115},{"user_id":94,"name":"need a dispenser here","steam_id":76561198060912995,"connected_time":3397000000000,"state":"active","ping":51},{"user_id":141,"name":"ImStillWorking","steam_id":76561199126648834,"connected_time":472000000000,"state":"active","ping":94},{"user_id":151,"name":"Walkiing","steam_id":76561198074473413,"connected_time":276000000000,"state":"active","ping":45},{"user_id":125,"name":"John16Mark","steam_id":76561198119445407,"connected_time":1130000000000,"state":"active","ping":80},{"user_id":153,"name":"Biosock Infiknit","steam_id":76561198072693794,"connected_time":268000000000,"state":"active","ping":52},{"user_id":133,"name":"Maggie Rhee","steam_id":76561198055921722,"connected_time":660000000000,"state":"active","ping":85},{"user_id":113,"name":"je1i","steam_id":76561198268951743,"connected_time":1869000000000,"state":"active","ping":57},{"user_id":154,"name":"Urist McDwarf","steam_id":76561198164004939,"connected_time":267000000000,"state":"active","ping":126},{"user_id":139,"name":"Jasper‚Ñ¢","steam_id":76561198260018463,"connected_time":548000000000,"state":"active","ping":83},{"user_id":89,"name":"vapid","steam_id":76561198077643349,"connected_time":3605000000000,"state":"active","ping":68},{"user_id":136,"name":"Defect Slay the Spire","steam_id":76561198055855534,"connected_time":597000000000,"state":"active","ping":60}]},{"server_id":38,"name":"Uncletopia | Chicago | 7 | Stopwatch","name_short":"chi-7","host":"chi-2.us.uncletopia.com","port":27035,"enabled":true,"region":"us-central","cc":"us","latitude":41.881832,"longitude":-87.62318,"reserved":0,"last_update":"0001-01-01T00:00:00Z","name_a2s":"Uncletopia | Chicago | 7 | Stopwatch","protocol":17,"map":"cp_granary","folder":"tf","game":"Team Fortress","app_id":440,"player_count":0,"max_players":24,"Bots":0,"server_type":"Dedicated","server_os":"Linux","password":true,"vac":true,"version":"7961495","steam_id":85568392924866364,"keywords":["cp","nocrits","nodmgspread","uncletopia"],"game_id":440,"stv_port":27036,"stv_name":"Uncletopia | Chicago | 7 | Stopwatch | STV","players":null},{"server_id":39,"name":"Uncletopia | Chicago | 8 | Community","name_short":"chi-8","host":"chi-2.us.uncletopia.com","port":27045,"enabled":true,"region":"us-central","cc":"us","latitude":41.881832,"longitude":-87.62318,"reserved":0,"last_update":"0001-01-01T00:00:00Z","name_a2s":"Uncletopia | Chicago | 8 | Community","protocol":17,"map":"pl_pier","folder":"tf","game":"Team Fortress","app_id":440,"player_count":0,"max_players":24,"Bots":0,"server_type":"Dedicated","server_os":"Linux","password":true,"vac":true,"version":"7961495","steam_id":85568392924866365,"keywords":["nocrits","nodmgspread","payload","uncletopia"],"game_id":440,"stv_port":27046,"stv_name":"Uncletopia | Chicago | 8 | Community | STV","players":null},{"server_id":8,"name":"Uncletopia | Dallas | 1 | All Maps","name_short":"dal-1","host":"dal-1.us.uncletopia.com","port":27015,"enabled":true,"region":"us-central","cc":"us","latitude":32.779167,"longitude":-96.80889,"reserved":0,"last_update":"0001-01-01T00:00:00Z","name_a2s":"Uncletopia | Dallas | 1 | All Maps","protocol":17,"map":"pl_upward","folder":"tf","game":"Team Fortress","app_id":440,"player_count":22,"max_players":24,"Bots":0,"server_type":"Dedicated","server_os":"Linux","password":true,"vac":true,"version":"7961495","steam_id":85568392924469986,"keywords":["nocrits","nodmgspread","payload","uncletopia"],"game_id":440,"stv_port":27016,"stv_name":"Uncletopia | Dallas | 1 | All Maps | STV","players":[{"user_id":107,"name":"TG_16","steam_id":76561199109196768,"connected_time":126000000000,"state":"active","ping":47},{"user_id":105,"name":"Gossamer","steam_id":76561198046948498,"connected_time":184000000000,"state":"active","ping":67},{"user_id":94,"name":"webaline  =Ôºæ‚óè ‚ãè ‚óèÔºæ=","steam_id":76561199052450127,"connected_time":1271000000000,"state":"active","ping":79},{"user_id":69,"name":"3/4'' x 18'' industrial pipe","steam_id":76561198094042613,"connected_time":3850000000000,"state":"active","ping":87},{"user_id":103,"name":"Marie","steam_id":76561198056104899,"connected_time":608000000000,"state":"active","ping":88},{"user_id":106,"name":"brewkey","steam_id":76561198057896324,"connected_time":182000000000,"state":"active","ping":51},{"user_id":95,"name":"AntiCapitalist","steam_id":76561198055447355,"connected_time":1141000000000,"state":"active","ping":67},{"user_id":93,"name":"whale_lord420","steam_id":76561199014469424,"connected_time":1342000000000,"state":"active","ping":66},{"user_id":108,"name":"Dorso","steam_id":76561198380590080,"connected_time":81000000000,"state":"active","ping":72},{"user_id":97,"name":"k3ramb1t","steam_id":76561198097880352,"connected_time":1109000000000,"state":"active","ping":104},{"user_id":92,"name":"Melaza Madera","steam_id":76561199031977210,"connected_time":1426000000000,"state":"active","ping":47},{"user_id":75,"name":"soltuno","steam_id":76561198074430565,"connected_time":3182000000000,"state":"active","ping":92},{"user_id":61,"name":"Sweet Tooth","steam_id":76561198830158092,"connected_time":4116000000000,"state":"active","ping":77},{"user_id":89,"name":"Caught a Thundah","steam_id":76561198054495572,"connected_time":1805000000000,"state":"active","ping":50},{"user_id":109,"name":"uzr","steam_id":76561198799343084,"connected_time":57000000000,"state":"active","ping":78},{"user_id":83,"name":"Unaware Meat","steam_id":76561198930833101,"connected_time":2978000000000,"state":"active","ping":73},{"user_id":74,"name":"Len","steam_id":76561199141913673,"connected_time":3262000000000,"state":"active","ping":59},{"user_id":80,"name":"Fyish","steam_id":76561198127303751,"connected_time":3007000000000,"state":"active","ping":40},{"user_id":48,"name":"Phoenixüå†","steam_id":76561198081109538,"connected_time":4676000000000,"state":"active","ping":48},{"user_id":96,"name":"Rotation","steam_id":76561198865324866,"connected_time":1134000000000,"state":"active","ping":75},{"user_id":86,"name":"Anor","steam_id":76561198356139775,"connected_time":2244000000000,"state":"active","ping":81},{"user_id":99,"name":"scout gaming","steam_id":76561199314496252,"connected_time":1053000000000,"state":"active","ping":106}]},{"server_id":108,"name":"Uncletopia | Dallas | 2 | All Maps","name_short":"dal-2","host":"dal-1.us.uncletopia.com","port":27025,"enabled":true,"region":"us-central","cc":"us","latitude":32.779167,"longitude":-96.80889,"reserved":0,"last_update":"0001-01-01T00:00:00Z","name_a2s":"Uncletopia | Dallas | 2 | All Maps","protocol":17,"map":"koth_highpass","folder":"tf","game":"Team Fortress","app_id":440,"player_count":0,"max_players":24,"Bots":0,"server_type":"Dedicated","server_os":"Linux","password":true,"vac":true,"version":"7961495","steam_id":85568392924469988,"keywords":["cp","nocrits","nodmgspread","uncletopia"],"game_id":440,"stv_port":27026,"stv_name":"Uncletopia | Dallas | 2 | All Maps | STV","players":null},{"server_id":404,"name":"Uncletopia | Dallas | 3 | All Maps","name_short":"dal-3","host":"dal-1.us.uncletopia.com","port":27035,"enabled":true,"region":"us-central","cc":"us","latitude":32.779167,"longitude":-96.80889,"reserved":0,"last_update":"0001-01-01T00:00:00Z","name_a2s":"Uncletopia | Dallas | 3 | All Maps","protocol":17,"map":"pl_badwater","folder":"tf","game":"Team Fortress","app_id":440,"player_count":0,"max_players":24,"Bots":0,"server_type":"Dedicated","server_os":"Linux","password":true,"vac":true,"version":"7961495","steam_id":85568392924515219,"keywords":["nocrits","nodmgspread","payload","uncletopia"],"game_id":440,"stv_port":27036,"stv_name":"Uncletopia | Dallas | 3 | All Maps | STV","players":null},{"server_id":405,"name":"Uncletopia | Dallas | 4 | Community","name_short":"dal-4","host":"dal-1.us.uncletopia.com","port":27045,"enabled":true,"region":"us-central","cc":"us","latitude":32.779167,"longitude":-96.80889,"reserved":0,"last_update":"0001-01-01T00:00:00Z","name_a2s":"Uncletopia | Dallas | 4 | Community","protocol":17,"map":"pl_pier","folder":"tf","game":"Team Fortress","app_id":440,"player_count":0,"max_players":24,"Bots":0,"server_type":"Dedicated","server_os":"Linux","password":true,"vac":true,"version":"7961495","steam_id":85568392924515220,"keywords":["nocrits","nodmgspread","payload","uncletopia"],"game_id":440,"stv_port":27046,"stv_name":"Uncletopia | Dallas | 4 | Community | STV","players":null},{"server_id":5,"name":"Uncletopia | Frankfurt | 1 | All Maps","name_short":"frk-1","host":"frk-1.de.uncletopia.com","port":27015,"enabled":true,"region":"eu","cc":"de","latitude":50.110924,"longitude":8.682127,"reserved":0,"last_update":"0001-01-01T00:00:00Z","name_a2s":"Uncletopia | Frankfurt | 1 | All Maps","protocol":17,"map":"cp_process_final","folder":"tf","game":"Team Fortress","app_id":440,"player_count":24,"max_players":24,"Bots":0,"server_type":"Dedicated","server_os":"Linux","password":true,"vac":true,"version":"7961495","steam_id":85568392924469989,"keywords":["cp","nocrits","nodmgspread","uncletopia"],"game_id":440,"stv_port":27016,"stv_name":"Uncletopia | Frankfurt | 1 | All Maps | STV","players":[{"user_id":249,"name":"Hejko","steam_id":76561198963293449,"connected_time":441000000000,"state":"active","ping":83},{"user_id":248,"name":"Real (Real)","steam_id":76561198323425034,"connected_time":493000000000,"state":"active","ping":77},{"user_id":140,"name":"EagleDeath","steam_id":76561198282441198,"connected_time":7096000000000,"state":"active","ping":67},{"user_id":233,"name":"przksk","steam_id":76561198450284221,"connected_time":1539000000000,"state":"active","ping":67},{"user_id":242,"name":"QuaterX","steam_id":76561198416047201,"connected_time":928000000000,"state":"active","ping":76},{"user_id":250,"name":"XxX_ProHunt3r_XxX","steam_id":76561197980736364,"connected_time":432000000000,"state":"active","ping":75},{"user_id":251,"name":"Poisonguy","steam_id":76561198158568117,"connected_time":431000000000,"state":"active","ping":74},{"user_id":257,"name":"palnatoke","steam_id":76561198030909125,"connected_time":135000000000,"state":"active","ping":90},{"user_id":244,"name":"skeleton_archer_1","steam_id":76561198407636430,"connected_time":730000000000,"state":"active","ping":93},{"user_id":229,"name":"lyudmilakh","steam_id":76561198362779878,"connected_time":1808000000000,"state":"active","ping":84},{"user_id":252,"name":"The One (and only)","steam_id":76561198827193499,"connected_time":382000000000,"state":"active","ping":68},{"user_id":99,"name":"Mac Bean","steam_id":76561198133782205,"connected_time":9271000000000,"state":"active","ping":109},{"user_id":234,"name":"boi","steam_id":76561198323494379,"connected_time":1527000000000,"state":"active","ping":74},{"user_id":195,"name":"Mischail","steam_id":76561198016127010,"connected_time":3793000000000,"state":"active","ping":75},{"user_id":240,"name":"Egor Pomidor","steam_id":76561199175688390,"connected_time":971000000000,"state":"active","ping":75},{"user_id":253,"name":"DunkleG","steam_id":76561198053816186,"connected_time":344000000000,"state":"active","ping":60},{"user_id":255,"name":"madman hesus","steam_id":76561198159702599,"connected_time":337000000000,"state":"active","ping":80},{"user_id":245,"name":"Jonak","steam_id":76561198080832458,"connected_time":700000000000,"state":"active","ping":63},{"user_id":188,"name":"EtoGeek","steam_id":76561198020304242,"connected_time":4150000000000,"state":"active","ping":69},{"user_id":256,"name":"CrowbarWarrior","steam_id":76561198044077015,"connected_time":231000000000,"state":"active","ping":80},{"user_id":217,"name":"essah","steam_id":76561197985717714,"connected_time":2089000000000,"state":"active","ping":84},{"user_id":232,"name":"Darkf065","steam_id":76561199029257202,"connected_time":1724000000000,"state":"active","ping":115},{"user_id":243,"name":"Kali","steam_id":76561198796327257,"connected_time":925000000000,"state":"active","ping":59},{"user_id":214,"name":"simon","steam_id":76561197960506122,"connected_time":2297000000000,"state":"active","ping":89}]},{"server_id":110,"name":"Uncletopia | Frankfurt | 2 | All Maps","name_short":"frk-2","host":"frk-1.de.uncletopia.com","port":27025,"enabled":true,"region":"eu","cc":"de","latitude":50.110924,"longitude":8.682127,"reserved":0,"last_update":"0001-01-01T00:00:00Z","name_a2s":"Uncletopia | Frankfurt | 2 | All Maps","protocol":17,"map":"cp_sunshine","folder":"tf","game":"Team Fortress","app_id":440,"player_count":0,"max_players":24,"Bots":0,"server_type":"Dedicated","server_os":"Linux","password":true,"vac":true,"version":"7961495","steam_id":85568392924469990,"keywords":["cp","nocrits","nodmgspread","uncletopia"],"game_id":440,"stv_port":27026,"stv_name":"Uncletopia | Frankfurt | 2 | All Maps | STV","players":null},{"server_id":308,"name":"Uncletopia | Frankfurt | 3 | All Maps","name_short":"frk-3","host":"frk-1.de.uncletopia.com","port":27035,"enabled":true,"region":"eu","cc":"de","latitude":50.110924,"longitude":8.682127,"reserved":0,"last_update":"0001-01-01T00:00:00Z","name_a2s":"Uncletopia | Frankfurt | 3 | All Maps","protocol":17,"map":"pl_barnblitz","folder":"tf","game":"Team Fortress","app_id":440,"player_count":24,"max_players":24,"Bots":0,"server_type":"Dedicated","server_os":"Linux","password":true,"vac":true,"version":"7961495","steam_id":85568392924504274,"keywords":["nocrits","nodmgspread","payload","uncletopia"],"game_id":440,"stv_port":27036,"stv_name":"Uncletopia | Frankfurt | 3 | All Maps | STV","players":[{"user_id":440,"name":"GMsU | Rebikas","steam_id":76561198077053764,"connected_time":3595000000000,"state":"active","ping":41},{"user_id":401,"name":"Engie's best friend","steam_id":76561197961707932,"connected_time":5495000000000,"state":"active","ping":45},{"user_id":434,"name":"The Wolf Leader","steam_id":76561198038007462,"connected_time":3856000000000,"state":"active","ping":85},{"user_id":430,"name":"TwisteD [Robo.CEO]","steam_id":76561197968406174,"connected_time":4048000000000,"state":"active","ping":99},{"user_id":464,"name":"Piox","steam_id":76561198125689157,"connected_time":1455000000000,"state":"active","ping":69},{"user_id":471,"name":"dick cheese","steam_id":76561197996692535,"connected_time":98000000000,"state":"active","ping":67},{"user_id":468,"name":"Araganor","steam_id":76561198041988085,"connected_time":1326000000000,"state":"active","ping":184},{"user_id":444,"name":"Dr. Hannibal Erekter","steam_id":76561198256093319,"connected_time":3448000000000,"state":"active","ping":91},{"user_id":461,"name":"DelT","steam_id":76561198204007537,"connected_time":2070000000000,"state":"active","ping":48},{"user_id":460,"name":"Dyld","steam_id":76561197979603871,"connected_time":2228000000000,"state":"active","ping":59},{"user_id":466,"name":"fluffy474","steam_id":76561198375486320,"connected_time":1421000000000,"state":"active","ping":71},{"user_id":429,"name":"nevim","steam_id":76561199120843402,"connected_time":4108000000000,"state":"active","ping":57},{"user_id":467,"name":"jShroom","steam_id":76561198833885769,"connected_time":1396000000000,"state":"active","ping":63},{"user_id":450,"name":"Mr Bonkles","steam_id":76561198089122748,"connected_time":3285000000000,"state":"active","ping":102},{"user_id":438,"name":"5tv^","steam_id":76561198063129586,"connected_time":3724000000000,"state":"active","ping":68},{"user_id":459,"name":"cobblestone","steam_id":76561198079123043,"connected_time":2297000000000,"state":"active","ping":74},{"user_id":410,"name":"VEH-DEH-VEH","steam_id":76561198010978989,"connected_time":5397000000000,"state":"active","ping":64},{"user_id":421,"name":"Monkey","steam_id":76561199008411791,"connected_time":4660000000000,"state":"active","ping":61},{"user_id":439,"name":"antlionguard","steam_id":76561198072747143,"connected_time":3718000000000,"state":"active","ping":118},{"user_id":465,"name":"le'pablo","steam_id":76561199009805208,"connected_time":1447000000000,"state":"active","ping":95},{"user_id":451,"name":"Na z√°chodƒõ","steam_id":76561198383952144,"connected_time":3263000000000,"state":"active","ping":137},{"user_id":452,"name":"Turbo Hebba","steam_id":76561198044783904,"connected_time":3245000000000,"state":"active","ping":76},{"user_id":458,"name":"Oog A. Booga","steam_id":76561198079853085,"connected_time":2314000000000,"state":"active","ping":80},{"user_id":472,"name":"anders McFlanders","steam_id":76561198022811995,"connected_time":72000000000,"state":"active","ping":66}]},{"server_id":309,"name":"Uncletopia | Frankfurt | 4 | All Maps","name_short":"frk-4","host":"frk-1.de.uncletopia.com","port":27045,"enabled":true,"region":"eu","cc":"de","latitude":50.110924,"longitude":8.682127,"reserved":0,"last_update":"0001-01-01T00:00:00Z","name_a2s":"Uncletopia | Frankfurt | 4 | All Maps","protocol":17,"map":"cp_process_final","folder":"tf","game":"Team Fortress","app_id":440,"player_count":24,"max_players":24,"Bots":0,"server_type":"Dedicated","server_os":"Linux","password":true,"vac":true,"version":"7961495","steam_id":85568392924504275,"keywords":["cp","nocrits","nodmgspread","uncletopia"],"game_id":440,"stv_port":27046,"stv_name":"Uncletopia | Frankfurt | 4 | All Maps | STV","players":[{"user_id":45,"name":"Marabosha","steam_id":76561198137599173,"connected_time":4151000000000,"state":"active","ping":107},{"user_id":96,"name":"Dommy","steam_id":76561197990864747,"connected_time":979000000000,"state":"active","ping":45},{"user_id":115,"name":"Javier dorsaless","steam_id":76561198179324075,"connected_time":71000000000,"state":"active","ping":66},{"user_id":105,"name":"T–Ωunde–≥Cu–ø—Ç","steam_id":76561198135091800,"connected_time":435000000000,"state":"active","ping":48},{"user_id":84,"name":"–æ–Ω","steam_id":76561198172046813,"connected_time":2184000000000,"state":"active","ping":67},{"user_id":114,"name":"Maru","steam_id":76561198030931030,"connected_time":151000000000,"state":"active","ping":66},{"user_id":48,"name":"Conni243","steam_id":76561198900177514,"connected_time":3859000000000,"state":"active","ping":45},{"user_id":97,"name":"Max","steam_id":76561198138959361,"connected_time":969000000000,"state":"active","ping":60},{"user_id":112,"name":"Fr1Zer","steam_id":76561198357086270,"connected_time":194000000000,"state":"active","ping":92},{"user_id":73,"name":"Zerfesh","steam_id":76561198117534358,"connected_time":3018000000000,"state":"active","ping":93},{"user_id":75,"name":"‚ò≠ybercat","steam_id":76561198014070417,"connected_time":2817000000000,"state":"active","ping":65},{"user_id":116,"name":"Tower","steam_id":76561198090278447,"connected_time":50000000000,"state":"active","ping":61},{"user_id":107,"name":"pyon","steam_id":76561198821425662,"connected_time":416000000000,"state":"active","ping":60},{"user_id":108,"name":"Destinys","steam_id":76561198056132894,"connected_time":378000000000,"state":"active","ping":56},{"user_id":62,"name":"MPG(i suck tf2's b–∞lls)","steam_id":76561199131610533,"connected_time":3213000000000,"state":"active","ping":120},{"user_id":82,"name":"JC","steam_id":76561198029213352,"connected_time":2242000000000,"state":"active","ping":48},{"user_id":94,"name":"Master Of Noob","steam_id":76561198217926783,"connected_time":1094000000000,"state":"active","ping":67},{"user_id":109,"name":"Storm's Foreshadow","steam_id":76561198098462526,"connected_time":336000000000,"state":"active","ping":64},{"user_id":101,"name":"KAZAM | Tervez","steam_id":76561198045459068,"connected_time":715000000000,"state":"active","ping":75},{"user_id":110,"name":"Corvax","steam_id":76561198127439185,"connected_time":334000000000,"state":"active","ping":47},{"user_id":111,"name":"zek","steam_id":76561198862763731,"connected_time":324000000000,"state":"active","ping":55},{"user_id":117,"name":"Rambi","steam_id":76561199058078505,"connected_time":30000000000,"state":"active","ping":157},{"user_id":102,"name":"Kapitan Polska","steam_id":76561197968069413,"connected_time":554000000000,"state":"active","ping":79},{"user_id":72,"name":"ant753","steam_id":76561198103458889,"connected_time":3038000000000,"state":"active","ping":62}]},{"server_id":310,"name":"Uncletopia | Frankfurt | 5 | All Maps","name_short":"frk-5","host":"frk-1.de.uncletopia.com","port":27055,"enabled":true,"region":"eu","cc":"de","latitude":50.110924,"longitude":8.682127,"reserved":0,"last_update":"0001-01-01T00:00:00Z","name_a2s":"Uncletopia | Frankfurt | 5 | All Maps","protocol":17,"map":"cp_altitude","folder":"tf","game":"Team Fortress","app_id":440,"player_count":0,"max_players":24,"Bots":0,"server_type":"Dedicated","server_os":"Linux","password":true,"vac":true,"version":"7961495","steam_id":85568392924504277,"keywords":["cp","nocrits","nodmgspread","uncletopia"],"game_id":440,"stv_port":27056,"stv_name":"Uncletopia | Frankfurt | 5 | All Maps | STV","players":null},{"server_id":311,"name":"Uncletopia | Frankfurt | 6 | All Maps","name_short":"frk-6","host":"frk-1.de.uncletopia.com","port":27065,"enabled":true,"region":"eu","cc":"de","latitude":50.110924,"longitude":8.682127,"reserved":0,"last_update":"0001-01-01T00:00:00Z","name_a2s":"Uncletopia | Frankfurt | 6 | All Maps","protocol":17,"map":"pl_pier","folder":"tf","game":"Team Fortress","app_id":440,"player_count":0,"max_players":24,"Bots":0,"server_type":"Dedicated","server_os":"Linux","password":true,"vac":true,"version":"7961495","steam_id":85568392924504278,"keywords":["nocrits","nodmgspread","payload","uncletopia"],"game_id":440,"stv_port":27066,"stv_name":"Uncletopia | Frankfurt | 6 | All Maps | STV","players":null},{"server_id":23,"name":"Uncletopia | Frankfurt | 7 | Stopwatch","name_short":"frk-7","host":"frk-1.de.uncletopia.com","port":27075,"enabled":true,"region":"eu","cc":"de","latitude":50.110924,"longitude":8.682127,"reserved":0,"last_update":"0001-01-01T00:00:00Z","name_a2s":"Uncletopia | Frankfurt | 7 | Stopwatch","protocol":17,"map":"cp_sunshine","folder":"tf","game":"Team Fortress","app_id":440,"player_count":17,"max_players":24,"Bots":0,"server_type":"Dedicated","server_os":"Linux","password":true,"vac":true,"version":"7961495","steam_id":85568392924742827,"keywords":["cp","nocrits","nodmgspread","uncletopia"],"game_id":440,"stv_port":27076,"stv_name":"Uncletopia | Frankfurt | 7 | Stopwatch | STV","players":[{"user_id":545,"name":"wyro","steam_id":76561199176835169,"connected_time":6755000000000,"state":"spawning","ping":73},{"user_id":556,"name":"TroX","steam_id":76561197992862361,"connected_time":6256000000000,"state":"active","ping":120},{"user_id":640,"name":"Perci","steam_id":76561198097789669,"connected_time":462000000000,"state":"spawning","ping":52},{"user_id":623,"name":"BabyYodaIsMySoda","steam_id":76561198321846861,"connected_time":1367000000000,"state":"active","ping":173},{"user_id":619,"name":"yup that extream78711","steam_id":76561198106049954,"connected_time":1480000000000,"state":"spawning","ping":151},{"user_id":643,"name":"Charged","steam_id":76561199127215130,"connected_time":318000000000,"state":"spawning","ping":96},{"user_id":631,"name":"Der Herr Doktor","steam_id":76561198119476089,"connected_time":913000000000,"state":"active","ping":67},{"user_id":626,"name":"UnreformedGod","steam_id":76561198870764276,"connected_time":1087000000000,"state":"active","ping":61},{"user_id":625,"name":"wintrrs","steam_id":76561198803089656,"connected_time":1155000000000,"state":"active","ping":62},{"user_id":632,"name":"Mr.Duck","steam_id":76561197983710667,"connected_time":890000000000,"state":"active","ping":84},{"user_id":644,"name":"Cypher","steam_id":76561197996967254,"connected_time":221000000000,"state":"active","ping":69},{"user_id":622,"name":"jovi_","steam_id":76561198449280552,"connected_time":1377000000000,"state":"active","ping":48},{"user_id":557,"name":"Elliot","steam_id":76561199049205554,"connected_time":6221000000000,"state":"active","ping":74},{"user_id":536,"name":"Lyra","steam_id":76561198043601838,"connected_time":7330000000000,"state":"active","ping":60},{"user_id":627,"name":"KINGSTON G","steam_id":76561198093073758,"connected_time":1070000000000,"state":"spawning","ping":63},{"user_id":646,"name":"Wodaz","steam_id":76561198043263557,"connected_time":134000000000,"state":"active","ping":62},{"user_id":641,"name":"Dudly","steam_id":76561198163817750,"connected_time":429000000000,"state":"active","ping":66}]},{"server_id":24,"name":"Uncletopia | Frankfurt | 8 | Community","name_short":"frk-8","host":"frk-1.de.uncletopia.com","port":27085,"enabled":true,"region":"eu","cc":"de","latitude":50.110924,"longitude":8.682127,"reserved":0,"last_update":"0001-01-01T00:00:00Z","name_a2s":"Uncletopia | Frankfurt | 8 | Community","protocol":17,"map":"workshop/pl_shoreleave_rc2.ugc1238849347","folder":"tf","game":"Team Fortress","app_id":440,"player_count":22,"max_players":24,"Bots":0,"server_type":"Dedicated","server_os":"Linux","password":true,"vac":true,"version":"7961495","steam_id":85568392924742828,"keywords":["nocrits","nodmgspread","payload","uncletopia"],"game_id":440,"stv_port":27086,"stv_name":"Uncletopia | Frankfurt | 8 | Community | STV","players":[{"user_id":81,"name":"Holden","steam_id":76561198037252505,"connected_time":1397000000000,"state":"active","ping":94},{"user_id":113,"name":"orkleon1","steam_id":76561198255092913,"connected_time":48000000000,"state":"spawning","ping":280},{"user_id":106,"name":"DelaNo","steam_id":76561199125086655,"connected_time":234000000000,"state":"active","ping":55},{"user_id":88,"name":"lilac brooch...","steam_id":76561198333718916,"connected_time":1127000000000,"state":"active","ping":151},{"user_id":76,"name":"akakez","steam_id":76561198095432821,"connected_time":1749000000000,"state":"active","ping":118},{"user_id":89,"name":"Rag","steam_id":76561198162260107,"connected_time":1114000000000,"state":"active","ping":60},{"user_id":112,"name":"Tywhip","steam_id":76561199207545191,"connected_time":74000000000,"state":"active","ping":57},{"user_id":90,"name":"JJ","steam_id":76561198115405064,"connected_time":1030000000000,"state":"active","ping":157},{"user_id":96,"name":"CODSWOLOP","steam_id":76561199114598660,"connected_time":694000000000,"state":"active","ping":129},{"user_id":79,"name":"Wolframen","steam_id":76561198074103958,"connected_time":1674000000000,"state":"active","ping":69},{"user_id":29,"name":"toy elf","steam_id":76561198089655018,"connected_time":4029000000000,"state":"active","ping":86},{"user_id":98,"name":"Olufsen","steam_id":76561198009324148,"connected_time":632000000000,"state":"active","ping":100},{"user_id":99,"name":"wheelie bin","steam_id":76561198040040328,"connected_time":630000000000,"state":"active","ping":59},{"user_id":91,"name":"raiku","steam_id":76561198008959901,"connected_time":1018000000000,"state":"active","ping":60},{"user_id":114,"name":"Lukas","steam_id":76561198009118452,"connected_time":29000000000,"state":"active","ping":58},{"user_id":25,"name":"arhrhthur","steam_id":76561199199499453,"connected_time":4227000000000,"state":"active","ping":87},{"user_id":30,"name":"M2rtRa","steam_id":76561198111036466,"connected_time":4024000000000,"state":"active","ping":60},{"user_id":107,"name":"Mathieu.","steam_id":76561198039268163,"connected_time":233000000000,"state":"active","ping":66},{"user_id":115,"name":"xSamyaza","steam_id":76561198058447257,"connected_time":17000000000,"state":"spawning","ping":124},{"user_id":108,"name":"JoueurFran√ßais","steam_id":76561198108081068,"connected_time":225000000000,"state":"active","ping":67},{"user_id":110,"name":"wajo.b","steam_id":76561198125841309,"connected_time":154000000000,"state":"active","ping":58},{"user_id":111,"name":"MaccyF","steam_id":76561198039214805,"connected_time":153000000000,"state":"active","ping":52}]},{"server_id":202,"name":"Uncletopia | Hong Kong | 1 | All Maps","name_short":"hgk-1","host":"hgk-1.hk.uncletopia.com","port":27015,"enabled":true,"region":"asia","cc":"hk","latitude":22.302711,"longitude":114.177216,"reserved":0,"last_update":"0001-01-01T00:00:00Z","name_a2s":"Uncletopia | Hong Kong | 1 | All Maps","protocol":17,"map":"cp_altitude","folder":"tf","game":"Team Fortress","app_id":440,"player_count":0,"max_players":24,"Bots":0,"server_type":"Dedicated","server_os":"Linux","password":true,"vac":true,"version":"7961495","steam_id":85568392924494504,"keywords":["cp","nocrits","nodmgspread","uncletopia"],"game_id":440,"stv_port":27016,"stv_name":"Uncletopia | Hong Kong | 1 | All Maps | STV","players":null},{"server_id":1,"name":"Uncletopia | Los Angeles | 1 | All Maps","name_short":"lax-1","host":"lax-1.us.uncletopia.com","port":27015,"enabled":true,"region":"us-west","cc":"us","latitude":33.94279,"longitude":-118.41004,"reserved":0,"last_update":"0001-01-01T00:00:00Z","name_a2s":"Uncletopia | Los Angeles | 1 | All Maps","protocol":17,"map":"pl_snowycoast","folder":"tf","game":"Team Fortress","app_id":440,"player_count":0,"max_players":24,"Bots":0,"server_type":"Dedicated","server_os":"Linux","password":true,"vac":true,"version":"7961495","steam_id":85568392924469991,"keywords":["nocrits","nodmgspread","payload","uncletopia"],"game_id":440,"stv_port":27016,"stv_name":"Uncletopia | Los Angeles | 1 | All Maps | STV","players":null},{"server_id":112,"name":"Uncletopia | Los Angeles | 2 | All Maps","name_short":"lax-2","host":"lax-1.us.uncletopia.com","port":27025,"enabled":true,"region":"us-west","cc":"us","latitude":33.94279,"longitude":-118.41004,"reserved":0,"last_update":"0001-01-01T00:00:00Z","name_a2s":"Uncletopia | Los Angeles | 2 | All Maps","protocol":17,"map":"koth_highpass","folder":"tf","game":"Team Fortress","app_id":440,"player_count":0,"max_players":24,"Bots":0,"server_type":"Dedicated","server_os":"Linux","password":true,"vac":true,"version":"7961495","steam_id":85568392924469992,"keywords":["cp","nocrits","nodmgspread","uncletopia"],"game_id":440,"stv_port":27026,"stv_name":"Uncletopia | Los Angeles | 2 | All Maps | STV","players":null},{"server_id":324,"name":"Uncletopia | Los Angeles | 3 | All Maps","name_short":"lax-3","host":"lax-1.us.uncletopia.com","port":27035,"enabled":true,"region":"us-west","cc":"us","latitude":33.94279,"longitude":-118.41004,"reserved":0,"last_update":"0001-01-01T00:00:00Z","name_a2s":"Uncletopia | Los Angeles | 3 | All Maps","protocol":17,"map":"pl_frontier_final","folder":"tf","game":"Team Fortress","app_id":440,"player_count":0,"max_players":24,"Bots":0,"server_type":"Dedicated","server_os":"Linux","password":true,"vac":true,"version":"7961495","steam_id":85568392924510198,"keywords":["nocrits","nodmgspread","payload","uncletopia"],"game_id":440,"stv_port":27036,"stv_name":"Uncletopia | Los Angeles | 3 | All Maps | STV","players":null},{"server_id":25,"name":"Uncletopia | Los Angeles | 4 | Stopwatch","name_short":"lax-4","host":"lax-1.us.uncletopia.com","port":27045,"enabled":true,"region":"us-west","cc":"us","latitude":33.94279,"longitude":-118.41004,"reserved":0,"last_update":"0001-01-01T00:00:00Z","name_a2s":"Uncletopia | Los Angeles | 4 | Stopwatch","protocol":17,"map":"workshop/koth_bagel_rc6.ugc2514036946","folder":"tf","game":"Team Fortress","app_id":440,"player_count":0,"max_players":24,"Bots":0,"server_type":"Dedicated","server_os":"Linux","password":true,"vac":true,"version":"7961495","steam_id":85568392924510199,"keywords":["cp","nocrits","nodmgspread","uncletopia"],"game_id":440,"stv_port":27046,"stv_name":"Uncletopia | Los Angeles | 4 | Stopwatch | STV","players":null},{"server_id":11,"name":"Uncletopia | London | 1 | All Maps","name_short":"lon-1","host":"lon-1.uk.uncletopia.com","port":27015,"enabled":true,"region":"eu","cc":"gb","latitude":51.509865,"longitude":-0.118092,"reserved":0,"last_update":"0001-01-01T00:00:00Z","name_a2s":"Uncletopia | London | 1 | All Maps","protocol":17,"map":"cp_mountainlab","folder":"tf","game":"Team Fortress","app_id":440,"player_count":24,"max_players":24,"Bots":0,"server_type":"Dedicated","server_os":"Linux","password":true,"vac":true,"version":"7961495","steam_id":85568392924367362,"keywords":["cp","nocrits","nodmgspread","uncletopia"],"game_id":440,"stv_port":27016,"stv_name":"Uncletopia | London | 1 | All Maps | STV","players":[{"user_id":483,"name":"spy main 69420","steam_id":76561199437330739,"connected_time":2593000000000,"state":"active","ping":53},{"user_id":498,"name":"God¬¥s Cock","steam_id":76561198058947923,"connected_time":1959000000000,"state":"active","ping":60},{"user_id":481,"name":"szmen","steam_id":76561198072569764,"connected_time":2631000000000,"state":"active","ping":86},{"user_id":522,"name":"Lessoz","steam_id":76561199211572036,"connected_time":785000000000,"state":"active","ping":84},{"user_id":515,"name":"jimmy bob","steam_id":76561198319583692,"connected_time":1233000000000,"state":"active","ping":59},{"user_id":527,"name":"Archer","steam_id":76561198132860299,"connected_time":730000000000,"state":"active","ping":57},{"user_id":532,"name":"Michael Jordans Baseball Career","steam_id":76561198010755145,"connected_time":281000000000,"state":"active","ping":74},{"user_id":500,"name":"Kormit","steam_id":76561198977173160,"connected_time":1897000000000,"state":"active","ping":63},{"user_id":490,"name":"kikyeredin","steam_id":76561199058651968,"connected_time":2385000000000,"state":"active","ping":55},{"user_id":459,"name":"laza","steam_id":76561199074095198,"connected_time":4614000000000,"state":"active","ping":116},{"user_id":533,"name":"shooer!","steam_id":76561198110531281,"connected_time":133000000000,"state":"active","ping":70},{"user_id":529,"name":"alienndrago #saveTF2","steam_id":76561198815566591,"connected_time":541000000000,"state":"active","ping":59},{"user_id":505,"name":"brookie","steam_id":76561198094514515,"connected_time":1496000000000,"state":"active","ping":56},{"user_id":521,"name":"ein","steam_id":76561198152162834,"connected_time":814000000000,"state":"active","ping":100},{"user_id":507,"name":"Albert Salavan","steam_id":76561199152398906,"connected_time":1451000000000,"state":"active","ping":95},{"user_id":526,"name":"Yelowchy","steam_id":76561198199416121,"connected_time":741000000000,"state":"active","ping":74},{"user_id":491,"name":"Wattseyy","steam_id":76561198248567360,"connected_time":2322000000000,"state":"active","ping":42},{"user_id":485,"name":"TheSafestFlyingWalrus","steam_id":76561199220308414,"connected_time":2555000000000,"state":"active","ping":82},{"user_id":531,"name":"kreeekz","steam_id":76561198014431602,"connected_time":453000000000,"state":"active","ping":78},{"user_id":501,"name":"Bottom Dweller","steam_id":76561198066806674,"connected_time":1847000000000,"state":"active","ping":160},{"user_id":468,"name":"Sixie","steam_id":76561198251675360,"connected_time":4079000000000,"state":"active","ping":54},{"user_id":499,"name":"Uncle Dale","steam_id":76561199144302768,"connected_time":1949000000000,"state":"active","ping":137},{"user_id":516,"name":"AkioTohru","steam_id":76561198197606282,"connected_time":1148000000000,"state":"active","ping":37},{"user_id":519,"name":"y„Ç©wnn","steam_id":76561198088624259,"connected_time":835000000000,"state":"active","ping":61}]},{"server_id":114,"name":"Uncletopia | London | 2 | All Maps","name_short":"lon-2","host":"lon-1.uk.uncletopia.com","port":27025,"enabled":true,"region":"eu","cc":"gb","latitude":51.509865,"longitude":-0.118092,"reserved":0,"last_update":"0001-01-01T00:00:00Z","name_a2s":"Uncletopia | London | 2 | All Maps","protocol":17,"map":"cp_dustbowl","folder":"tf","game":"Team Fortress","app_id":440,"player_count":24,"max_players":24,"Bots":0,"server_type":"Dedicated","server_os":"Linux","password":true,"vac":true,"version":"7961495","steam_id":85568392924470941,"keywords":["cp","nocrits","nodmgspread","uncletopia"],"game_id":440,"stv_port":27026,"stv_name":"Uncletopia | London | 2 | All Maps | STV","players":[{"user_id":273,"name":"Head Chef","steam_id":76561198133388826,"connected_time":7855000000000,"state":"active","ping":53},{"user_id":372,"name":"Chicken pot pie","steam_id":76561198084997090,"connected_time":684000000000,"state":"active","ping":44},{"user_id":237,"name":"Tekky‚òª","steam_id":76561197990987315,"connected_time":10254000000000,"state":"active","ping":45},{"user_id":373,"name":"Exee","steam_id":76561198139574633,"connected_time":459000000000,"state":"active","ping":73},{"user_id":359,"name":"Blupgo Beurbgunha√ºr","steam_id":76561198280566565,"connected_time":1622000000000,"state":"active","ping":75},{"user_id":339,"name":"bailey","steam_id":76561198327418768,"connected_time":2671000000000,"state":"active","ping":45},{"user_id":370,"name":"Suetolog","steam_id":76561199053090212,"connected_time":699000000000,"state":"active","ping":62},{"user_id":341,"name":"–ê–¥–≤–æ–∫–∞—Ç","steam_id":76561198883195641,"connected_time":2602000000000,"state":"active","ping":88},{"user_id":278,"name":"GGabe","steam_id":76561198117199068,"connected_time":7461000000000,"state":"active","ping":72},{"user_id":364,"name":"‚ú™ Danny","steam_id":76561198104483241,"connected_time":1558000000000,"state":"active","ping":53},{"user_id":343,"name":"FantaApple","steam_id":76561198999435403,"connected_time":2331000000000,"state":"active","ping":66},{"user_id":336,"name":"chillrend_morphs_high_lod6","steam_id":76561198452963141,"connected_time":3133000000000,"state":"active","ping":89},{"user_id":375,"name":"are you dreaming ?","steam_id":76561198272166623,"connected_time":157000000000,"state":"active","ping":54},{"user_id":355,"name":"Caliban","steam_id":76561197999696839,"connected_time":1662000000000,"state":"active","ping":121},{"user_id":299,"name":"MovingIsOverRated","steam_id":76561198385633292,"connected_time":6151000000000,"state":"active","ping":154},{"user_id":347,"name":"a grilled cheese","steam_id":76561198277039351,"connected_time":1912000000000,"state":"active","ping":51},{"user_id":342,"name":"Snake-chan","steam_id":76561199044755854,"connected_time":2538000000000,"state":"active","ping":71},{"user_id":286,"name":"what's cooking good looking","steam_id":76561199470354045,"connected_time":6904000000000,"state":"active","ping":154},{"user_id":289,"name":"Dirk.van.den.Broek 2008","steam_id":76561198124226614,"connected_time":6841000000000,"state":"active","ping":45},{"user_id":368,"name":"svepitos","steam_id":76561198287351235,"connected_time":1103000000000,"state":"active","ping":66},{"user_id":367,"name":"in love with hello kitty girl","steam_id":76561198181134706,"connected_time":1166000000000,"state":"active","ping":63},{"user_id":360,"name":"thekoolest88","steam_id":76561199022415672,"connected_time":1614000000000,"state":"active","ping":145},{"user_id":363,"name":"Bob Sacamano","steam_id":76561198085610701,"connected_time":1589000000000,"state":"active","ping":95},{"user_id":272,"name":"Moobin","steam_id":76561198099999156,"connected_time":8278000000000,"state":"active","ping":66}]},{"server_id":320,"name":"Uncletopia | London | 3 | All Maps","name_short":"lon-3","host":"lon-1.uk.uncletopia.com","port":27035,"enabled":true,"region":"eu","cc":"gb","latitude":51.509865,"longitude":-0.118092,"reserved":0,"last_update":"0001-01-01T00:00:00Z","name_a2s":"Uncletopia | London | 3 | All Maps","protocol":17,"map":"pl_barnblitz","folder":"tf","game":"Team Fortress","app_id":440,"player_count":24,"max_players":24,"Bots":0,"server_type":"Dedicated","server_os":"Linux","password":true,"vac":true,"version":"7961495","steam_id":85568392924510192,"keywords":["nocrits","nodmgspread","payload","uncletopia"],"game_id":440,"stv_port":27036,"stv_name":"Uncletopia | London | 3 | All Maps | STV","players":[{"user_id":171,"name":"Jeryx","steam_id":76561197995602803,"connected_time":8385000000000,"state":"active","ping":56},{"user_id":322,"name":"Sin","steam_id":76561198975489819,"connected_time":135000000000,"state":"active","ping":61},{"user_id":265,"name":"JustaBadPlaya","steam_id":76561198408318646,"connected_time":2775000000000,"state":"active","ping":52},{"user_id":317,"name":"Plep","steam_id":76561198840259819,"connected_time":175000000000,"state":"active","ping":60},{"user_id":298,"name":"Pastoss","steam_id":76561198379098260,"connected_time":1095000000000,"state":"active","ping":62},{"user_id":325,"name":"Dolcelatte","steam_id":76561198038501770,"connected_time":69000000000,"state":"active","ping":64},{"user_id":320,"name":"Hyperion","steam_id":76561198043716162,"connected_time":141000000000,"state":"active","ping":64},{"user_id":295,"name":"Samw220506","steam_id":76561199111698718,"connected_time":1125000000000,"state":"active","ping":31},{"user_id":299,"name":"–¥–∂–µ–≥–µ–º–∏ —Ö—ç–ø–∫–∏–Ω–≥—Å","steam_id":76561198131531394,"connected_time":1055000000000,"state":"active","ping":96},{"user_id":305,"name":"Fuvuk","steam_id":76561198044458593,"connected_time":970000000000,"state":"active","ping":85},{"user_id":327,"name":"panakid","steam_id":76561198364121077,"connected_time":48000000000,"state":"active","ping":100},{"user_id":323,"name":"Mr.killer","steam_id":76561198290584189,"connected_time":111000000000,"state":"active","ping":161},{"user_id":293,"name":"Dougie","steam_id":76561198079567499,"connected_time":1249000000000,"state":"active","ping":66},{"user_id":319,"name":"Personano","steam_id":76561198994355577,"connected_time":149000000000,"state":"active","ping":57},{"user_id":306,"name":"I Love Filtered Water","steam_id":76561198016042113,"connected_time":936000000000,"state":"active","ping":84},{"user_id":275,"name":"suters05","steam_id":76561198076932174,"connected_time":2504000000000,"state":"active","ping":168},{"user_id":281,"name":"Boki","steam_id":76561198044553351,"connected_time":2033000000000,"state":"active","ping":74},{"user_id":311,"name":"mohemmedmokhter2005","steam_id":76561199197650506,"connected_time":765000000000,"state":"active","ping":114},{"user_id":294,"name":"Average meme enjoyer","steam_id":76561199087566663,"connected_time":1166000000000,"state":"active","ping":88},{"user_id":326,"name":"Le Chevalier Pingouin","steam_id":76561198221355000,"connected_time":61000000000,"state":"active","ping":40},{"user_id":328,"name":"V4ren","steam_id":76561198063138371,"connected_time":44000000000,"state":"active","ping":57},{"user_id":315,"name":"Cookies and Bakies","steam_id":76561198017442928,"connected_time":528000000000,"state":"active","ping":79},{"user_id":201,"name":"Chocolate Orange","steam_id":76561198134952872,"connected_time":6399000000000,"state":"active","ping":66},{"user_id":329,"name":"bizqwit","steam_id":76561198214426301,"connected_time":39000000000,"state":"active","ping":55}]},{"server_id":321,"name":"Uncletopia | London | 4 | All Maps","name_short":"lon-4","host":"lon-1.uk.uncletopia.com","port":27045,"enabled":true,"region":"eu","cc":"gb","latitude":51.509865,"longitude":-0.118092,"reserved":0,"last_update":"0001-01-01T00:00:00Z","name_a2s":"Uncletopia | London | 4 | All Maps","protocol":17,"map":"koth_harvest_final","folder":"tf","game":"Team Fortress","app_id":440,"player_count":23,"max_players":24,"Bots":0,"server_type":"Dedicated","server_os":"Linux","password":true,"vac":true,"version":"7961495","steam_id":85568392924510193,"keywords":["cp","nocrits","nodmgspread","uncletopia"],"game_id":440,"stv_port":27046,"stv_name":"Uncletopia | London | 4 | All Maps | STV","players":[{"user_id":343,"name":"Nozzo","steam_id":76561198012367783,"connected_time":4769000000000,"state":"active","ping":75},{"user_id":331,"name":"biohazard","steam_id":76561198162873354,"connected_time":5317000000000,"state":"active","ping":97},{"user_id":379,"name":"Khrinde","steam_id":76561198036744526,"connected_time":2114000000000,"state":"active","ping":90},{"user_id":377,"name":"I have no duck and I must quack","steam_id":76561198061920656,"connected_time":2328000000000,"state":"active","ping":71},{"user_id":380,"name":"Magirby","steam_id":76561198818777390,"connected_time":2104000000000,"state":"active","ping":109},{"user_id":388,"name":"BenteBent","steam_id":76561198297920637,"connected_time":1196000000000,"state":"active","ping":32},{"user_id":311,"name":"TomNoSocks","steam_id":76561198114071046,"connected_time":6268000000000,"state":"active","ping":65},{"user_id":397,"name":"crit hit!","steam_id":76561198112693639,"connected_time":455000000000,"state":"active","ping":53},{"user_id":353,"name":"Pootis","steam_id":76561198823265247,"connected_time":4414000000000,"state":"active","ping":81},{"user_id":375,"name":"spurdala","steam_id":76561198886546942,"connected_time":2603000000000,"state":"active","ping":50},{"user_id":389,"name":"elyo","steam_id":76561198209442489,"connected_time":1163000000000,"state":"active","ping":68},{"user_id":356,"name":"luigibros644 #savetf2","steam_id":76561199087537182,"connected_time":4302000000000,"state":"active","ping":88},{"user_id":390,"name":"$HPC skai","steam_id":76561198184881255,"connected_time":1123000000000,"state":"active","ping":73},{"user_id":396,"name":"KLAMA  ‚ù§","steam_id":76561198351549661,"connected_time":778000000000,"state":"active","ping":74},{"user_id":316,"name":"TriR–ò–å","steam_id":76561198119622375,"connected_time":6062000000000,"state":"active","ping":89},{"user_id":391,"name":"gronk","steam_id":76561199031539961,"connected_time":1121000000000,"state":"active","ping":56},{"user_id":392,"name":"Echo \u0026 The Funnymen","steam_id":76561198838282369,"connected_time":1081000000000,"state":"active","ping":143},{"user_id":383,"name":"Silver","steam_id":76561198037290739,"connected_time":2065000000000,"state":"active","ping":70},{"user_id":366,"name":"Matis","steam_id":76561198150822063,"connected_time":3908000000000,"state":"active","ping":77},{"user_id":384,"name":"Pottery Knight","steam_id":76561198094455814,"connected_time":2048000000000,"state":"active","ping":97},{"user_id":395,"name":"KermSlinger","steam_id":76561198854027069,"connected_time":1002000000000,"state":"active","ping":67},{"user_id":368,"name":"primordial soup enjoyer","steam_id":76561199163260578,"connected_time":3189000000000,"state":"active","ping":73},{"user_id":330,"name":"im tired","steam_id":76561198812159557,"connected_time":5375000000000,"state":"active","ping":84}]},{"server_id":21,"name":"Uncletopia | London | 5 | All Maps","name_short":"lon-5","host":"lon-1.uk.uncletopia.com","port":27055,"enabled":true,"region":"eu","cc":"gb","latitude":51.509865,"longitude":-0.118092,"reserved":0,"last_update":"0001-01-01T00:00:00Z","name_a2s":"Uncletopia | London | 5 | All Maps","protocol":17,"map":"cp_process_final","folder":"tf","game":"Team Fortress","app_id":440,"player_count":24,"max_players":24,"Bots":0,"server_type":"Dedicated","server_os":"Linux","password":true,"vac":true,"version":"7961495","steam_id":85568392924742829,"keywords":["cp","nocrits","nodmgspread","uncletopia"],"game_id":440,"stv_port":27056,"stv_name":"Uncletopia | London | 5 | All Maps | STV","players":[{"user_id":248,"name":"kee.wun","steam_id":76561198025293098,"connected_time":1312000000000,"state":"active","ping":58},{"user_id":262,"name":"Geist","steam_id":76561198047566695,"connected_time":775000000000,"state":"active","ping":90},{"user_id":249,"name":"ornithology 1:1","steam_id":76561198097239850,"connected_time":1309000000000,"state":"active","ping":67},{"user_id":264,"name":"The cost of living in the UK","steam_id":76561199000520747,"connected_time":473000000000,"state":"active","ping":46},{"user_id":265,"name":"hipster_doofus","steam_id":76561197970902697,"connected_time":354000000000,"state":"active","ping":55},{"user_id":242,"name":"Maddox","steam_id":76561198026419869,"connected_time":1822000000000,"state":"active","ping":80},{"user_id":207,"name":"baballe","steam_id":76561198302448192,"connected_time":4939000000000,"state":"active","ping":31},{"user_id":229,"name":"willo","steam_id":76561198034442999,"connected_time":2899000000000,"state":"active","ping":57},{"user_id":250,"name":"Dat Fat Cat","steam_id":76561198058652558,"connected_time":1298000000000,"state":"active","ping":45},{"user_id":266,"name":"Caramel","steam_id":76561198021214844,"connected_time":182000000000,"state":"active","ping":46},{"user_id":236,"name":"TMC","steam_id":76561198077956157,"connected_time":2549000000000,"state":"active","ping":41},{"user_id":251,"name":"Qdarks","steam_id":76561198013391340,"connected_time":1287000000000,"state":"active","ping":143},{"user_id":223,"name":"Sign up to give bone marrow!","steam_id":76561198055363275,"connected_time":3397000000000,"state":"active","ping":42},{"user_id":155,"name":"Penis Contortionist","steam_id":76561198073663784,"connected_time":8850000000000,"state":"active","ping":35},{"user_id":261,"name":"Freelan","steam_id":76561198056837459,"connected_time":931000000000,"state":"active","ping":56},{"user_id":253,"name":"Wario","steam_id":76561198356089255,"connected_time":1259000000000,"state":"active","ping":68},{"user_id":219,"name":"Quackers","steam_id":76561198334042273,"connected_time":3590000000000,"state":"active","ping":61},{"user_id":254,"name":"dob:cob","steam_id":76561198253323044,"connected_time":1256000000000,"state":"active","ping":82},{"user_id":259,"name":"Galex","steam_id":76561198045637579,"connected_time":1027000000000,"state":"active","ping":56},{"user_id":256,"name":"idenburg","steam_id":76561198063574956,"connected_time":1237000000000,"state":"active","ping":56},{"user_id":228,"name":"huhso","steam_id":76561198219443271,"connected_time":3144000000000,"state":"active","ping":68},{"user_id":260,"name":"ROX","steam_id":76561198272289320,"connected_time":1016000000000,"state":"active","ping":59},{"user_id":222,"name":"armadillo","steam_id":76561198324656652,"connected_time":3463000000000,"state":"active","ping":54},{"user_id":246,"name":"DryWater","steam_id":76561198260857681,"connected_time":1491000000000,"state":"active","ping":69}]},{"server_id":22,"name":"Uncletopia | London | 6 | All Maps","name_short":"lon-6","host":"lon-1.uk.uncletopia.com","port":27065,"enabled":true,"region":"eu","cc":"gb","latitude":51.509865,"longitude":-0.118092,"reserved":0,"last_update":"0001-01-01T00:00:00Z","name_a2s":"Uncletopia | London | 6 | All Maps","protocol":17,"map":"pl_borneo","folder":"tf","game":"Team Fortress","app_id":440,"player_count":24,"max_players":24,"Bots":0,"server_type":"Dedicated","server_os":"Linux","password":true,"vac":true,"version":"7961495","steam_id":85568392924742830,"keywords":["nocrits","nodmgspread","payload","uncletopia"],"game_id":440,"stv_port":27066,"stv_name":"Uncletopia | London | 6 | All Maps | STV","players":[{"user_id":8,"name":"Akkras","steam_id":76561198046004148,"connected_time":3790000000000,"state":"active","ping":87},{"user_id":73,"name":"Tort","steam_id":76561198329646769,"connected_time":223000000000,"state":"active","ping":60},{"user_id":14,"name":"Smiffee","steam_id":76561197971711683,"connected_time":2849000000000,"state":"active","ping":71},{"user_id":11,"name":"Danwise Dangee","steam_id":76561197980723749,"connected_time":3017000000000,"state":"active","ping":64},{"user_id":65,"name":"Locke","steam_id":76561198339408300,"connected_time":499000000000,"state":"active","ping":60},{"user_id":42,"name":"After8","steam_id":76561198090750865,"connected_time":1510000000000,"state":"active","ping":73},{"user_id":22,"name":"TEMZ","steam_id":76561198799288322,"connected_time":2305000000000,"state":"active","ping":49},{"user_id":71,"name":"Bonca","steam_id":76561198137503531,"connected_time":280000000000,"state":"active","ping":71},{"user_id":56,"name":"GrzMik","steam_id":76561198061951968,"connected_time":980000000000,"state":"active","ping":91},{"user_id":23,"name":"CaramelTheDeer","steam_id":76561199385982289,"connected_time":2273000000000,"state":"active","ping":68},{"user_id":49,"name":"***** ***","steam_id":76561198048037379,"connected_time":1233000000000,"state":"active","ping":94},{"user_id":51,"name":"ArtaKir","steam_id":76561198291746440,"connected_time":1183000000000,"state":"active","ping":87},{"user_id":64,"name":"etc","steam_id":76561197998394797,"connected_time":528000000000,"state":"active","ping":58},{"user_id":70,"name":"brtaba","steam_id":76561198796334790,"connected_time":345000000000,"state":"active","ping":73},{"user_id":61,"name":"Umbro","steam_id":76561198087930438,"connected_time":603000000000,"state":"active","ping":80},{"user_id":75,"name":"Mr.Twinkls","steam_id":76561197980803560,"connected_time":81000000000,"state":"active","ping":90},{"user_id":30,"name":"Gul'dan","steam_id":76561198240466940,"connected_time":2015000000000,"state":"active","ping":82},{"user_id":60,"name":"oriano","steam_id":76561198099916327,"connected_time":771000000000,"state":"active","ping":72},{"user_id":41,"name":"Halibutterhands","steam_id":76561198160361979,"connected_time":1659000000000,"state":"active","ping":121},{"user_id":72,"name":"Owie!!!","steam_id":76561198215391429,"connected_time":273000000000,"state":"active","ping":45},{"user_id":76,"name":"0xDEADBEEF","steam_id":76561199075416111,"connected_time":16000000000,"state":"active","ping":193},{"user_id":47,"name":"mob","steam_id":76561198099696876,"connected_time":1333000000000,"state":"active","ping":75},{"user_id":38,"name":"flr","steam_id":76561198249327786,"connected_time":1772000000000,"state":"active","ping":76},{"user_id":67,"name":"Special Agent Big Smoke","steam_id":76561198154468827,"connected_time":446000000000,"state":"active","ping":73}]},{"server_id":40,"name":"Uncletopia | London | 7 | Stopwatch","name_short":"lon-7","host":"lon-1.uk.uncletopia.com","port":27075,"enabled":true,"region":"eu","cc":"gb","latitude":51.509865,"longitude":-0.118092,"reserved":0,"last_update":"0001-01-01T00:00:00Z","name_a2s":"Uncletopia | London | 7 | Stopwatch","protocol":17,"map":"cp_process_final","folder":"tf","game":"Team Fortress","app_id":440,"player_count":0,"max_players":24,"Bots":0,"server_type":"Dedicated","server_os":"Linux","password":true,"vac":true,"version":"7961495","steam_id":85568392924964314,"keywords":["cp","nocrits","nodmgspread","uncletopia"],"game_id":440,"stv_port":27076,"stv_name":"Uncletopia | London | 7 | Stopwatch | STV","players":null},{"server_id":41,"name":"Uncletopia | London | 8 | Community","name_short":"lon-8","host":"lon-1.uk.uncletopia.com","port":27085,"enabled":true,"region":"eu","cc":"gb","latitude":51.509865,"longitude":-0.118092,"reserved":0,"last_update":"0001-01-01T00:00:00Z","name_a2s":"Uncletopia | London | 8 | Community","protocol":17,"map":"workshop/cp_indulge.ugc528106646","folder":"tf","game":"Team Fortress","app_id":440,"player_count":0,"max_players":24,"Bots":0,"server_type":"Dedicated","server_os":"Linux","password":true,"vac":true,"version":"7961495","steam_id":85568392924964315,"keywords":["cp","nocrits","nodmgspread","uncletopia"],"game_id":440,"stv_port":27086,"stv_name":"Uncletopia | London | 8 | Community | STV","players":null},{"server_id":300,"name":"Uncletopia | Montr√©al | 1 | All Maps","name_short":"mtl-1","host":"mtl-1.ca.uncletopia.com","port":27015,"enabled":true,"region":"us-east","cc":"ca","latitude":45.50889,"longitude":-73.56167,"reserved":0,"last_update":"0001-01-01T00:00:00Z","name_a2s":"","protocol":0,"map":"","folder":"","game":"","app_id":0,"player_count":0,"max_players":0,"Bots":0,"server_type":"","server_os":"","password":false,"vac":false,"version":"","steam_id":0,"keywords":null,"game_id":0,"stv_port":0,"stv_name":"","players":null},{"server_id":301,"name":"Uncletopia | Montr√©al | 2 | ???","name_short":"mtl-2","host":"mtl-1.ca.uncletopia.com","port":27025,"enabled":true,"region":"us-east","cc":"ca","latitude":45.50889,"longitude":-73.56167,"reserved":0,"last_update":"0001-01-01T00:00:00Z","name_a2s":"","protocol":0,"map":"","folder":"","game":"","app_id":0,"player_count":0,"max_players":0,"Bots":0,"server_type":"","server_os":"","password":false,"vac":false,"version":"","steam_id":0,"keywords":null,"game_id":0,"stv_port":0,"stv_name":"","players":null},{"server_id":302,"name":"Uncletopia | Montr√©al | 3 | All Maps","name_short":"mtl-3","host":"mtl-1.ca.uncletopia.com","port":27035,"enabled":true,"region":"us-east","cc":"ca","latitude":45.50889,"longitude":-73.56167,"reserved":0,"last_update":"0001-01-01T00:00:00Z","name_a2s":"","protocol":0,"map":"","folder":"","game":"","app_id":0,"player_count":0,"max_players":0,"Bots":0,"server_type":"","server_os":"","password":false,"vac":false,"version":"","steam_id":0,"keywords":null,"game_id":0,"stv_port":0,"stv_name":"","players":null},{"server_id":303,"name":"Uncletopia | Montr√©al | 4 | No Payload","name_short":"mtl-4","host":"mtl-1.ca.uncletopia.com","port":27045,"enabled":true,"region":"us-east","cc":"ca","latitude":45.50889,"longitude":-73.56167,"reserved":0,"last_update":"0001-01-01T00:00:00Z","name_a2s":"","protocol":0,"map":"","folder":"","game":"","app_id":0,"player_count":0,"max_players":0,"Bots":0,"server_type":"","server_os":"","password":false,"vac":false,"version":"","steam_id":0,"keywords":null,"game_id":0,"stv_port":0,"stv_name":"","players":null},{"server_id":13,"name":"Uncletopia | New York City | 1 | All Maps","name_short":"nyc-1","host":"nyc-1.us.uncletopia.com","port":27015,"enabled":true,"region":"us-east","cc":"us","latitude":40.73061,"longitude":-73.93524,"reserved":0,"last_update":"0001-01-01T00:00:00Z","name_a2s":"Uncletopia | New York City | 1 | All Maps","protocol":17,"map":"koth_cascade","folder":"tf","game":"Team Fortress","app_id":440,"player_count":0,"max_players":24,"Bots":0,"server_type":"Dedicated","server_os":"Linux","password":true,"vac":true,"version":"7961495","steam_id":85568392924469993,"keywords":["cp","nocrits","nodmgspread","uncletopia"],"game_id":440,"stv_port":27016,"stv_name":"Uncletopia | New York City | 1 | All Maps | STV","players":null},{"server_id":14,"name":"Uncletopia | New York City | 2 | All Maps","name_short":"nyc-2","host":"nyc-1.us.uncletopia.com","port":27025,"enabled":true,"region":"us-east","cc":"us","latitude":40.73061,"longitude":-73.93524,"reserved":0,"last_update":"0001-01-01T00:00:00Z","name_a2s":"Uncletopia | New York City | 2 | All Maps","protocol":17,"map":"cp_dustbowl","folder":"tf","game":"Team Fortress","app_id":440,"player_count":24,"max_players":24,"Bots":0,"server_type":"Dedicated","server_os":"Linux","password":true,"vac":true,"version":"7961495","steam_id":85568392924469994,"keywords":["cp","nocrits","nodmgspread","uncletopia"],"game_id":440,"stv_port":27026,"stv_name":"Uncletopia | New York City | 2 | All Maps | STV","players":[{"user_id":171,"name":"Pigeon","steam_id":76561199232498885,"connected_time":1639000000000,"state":"active","ping":59},{"user_id":165,"name":"A new Player(F2p)","steam_id":76561199388826335,"connected_time":1863000000000,"state":"active","ping":65},{"user_id":177,"name":"Xrath","steam_id":76561198220741860,"connected_time":1222000000000,"state":"active","ping":57},{"user_id":185,"name":"triple_range_merge","steam_id":76561198991225026,"connected_time":367000000000,"state":"active","ping":68},{"user_id":186,"name":"GrahamisGood","steam_id":76561198988396980,"connected_time":22000000000,"state":"spawning","ping":56},{"user_id":126,"name":"Nightman","steam_id":76561198089513762,"connected_time":5294000000000,"state":"active","ping":72},{"user_id":149,"name":"InchMan","steam_id":76561198272658825,"connected_time":3293000000000,"state":"active","ping":83},{"user_id":128,"name":"LevelRaisin","steam_id":76561198082924440,"connected_time":5258000000000,"state":"active","ping":60},{"user_id":156,"name":"De","steam_id":76561198206728044,"connected_time":2606000000000,"state":"active","ping":73},{"user_id":173,"name":"Bee","steam_id":76561198074681324,"connected_time":1483000000000,"state":"active","ping":48},{"user_id":172,"name":"googa","steam_id":76561198133130452,"connected_time":1532000000000,"state":"active","ping":45},{"user_id":179,"name":"Mr. Morton, CEO of Caber Corp\ufffd\ufffd","steam_id":76561198092130334,"connected_time":1013000000000,"state":"active","ping":84},{"user_id":170,"name":"The Great Eagle Scourge of 1822","steam_id":76561198325086209,"connected_time":1704000000000,"state":"active","ping":121},{"user_id":182,"name":"bloodyboorp","steam_id":76561199177105829,"connected_time":442000000000,"state":"active","ping":179},{"user_id":124,"name":"pea ttv/peabeanz","steam_id":76561198119551968,"connected_time":5364000000000,"state":"active","ping":60},{"user_id":175,"name":"Ja","steam_id":76561198396340174,"connected_time":1454000000000,"state":"active","ping":53},{"user_id":145,"name":"Sergeant Joker #savetf2","steam_id":76561198854616604,"connected_time":3386000000000,"state":"active","ping":60},{"user_id":146,"name":"zzzPoison‚ô°","steam_id":76561198302928116,"connected_time":3381000000000,"state":"active","ping":77},{"user_id":176,"name":"Wigl","steam_id":76561198019324464,"connected_time":1407000000000,"state":"active","ping":59},{"user_id":137,"name":"MR DADDY","steam_id":76561198350794663,"connected_time":3863000000000,"state":"active","ping":55},{"user_id":183,"name":"GH578","steam_id":76561199493262585,"connected_time":412000000000,"state":"active","ping":136},{"user_id":184,"name":"Poi","steam_id":76561198176914898,"connected_time":392000000000,"state":"active","ping":82},{"user_id":154,"name":"rivera","steam_id":76561198051058706,"connected_time":2930000000000,"state":"active","ping":44},{"user_id":150,"name":"Gungan","steam_id":76561198307588458,"connected_time":3278000000000,"state":"active","ping":83}]},{"server_id":15,"name":"Uncletopia | New York City | 3 | Stopwatch","name_short":"nyc-3","host":"nyc-1.us.uncletopia.com","port":27035,"enabled":true,"region":"us-east","cc":"us","latitude":40.73061,"longitude":-73.93524,"reserved":0,"last_update":"0001-01-01T00:00:00Z","name_a2s":"Uncletopia | New York City | 3 | Stopwatch","protocol":17,"map":"workshop/pl_barnblitz_pro7.ugc582280235","folder":"tf","game":"Team Fortress","app_id":440,"player_count":0,"max_players":24,"Bots":0,"server_type":"Dedicated","server_os":"Linux","password":true,"vac":true,"version":"7961495","steam_id":85568392924742820,"keywords":["nocrits","nodmgspread","payload","uncletopia"],"game_id":440,"stv_port":27036,"stv_name":"Uncletopia | New York City | 3 | Stopwatch | STV","players":null},{"server_id":16,"name":"Uncletopia | New York City | 4 | Community","name_short":"nyc-4","host":"nyc-1.us.uncletopia.com","port":27045,"enabled":true,"region":"us-east","cc":"us","latitude":40.73061,"longitude":-73.93524,"reserved":0,"last_update":"0001-01-01T00:00:00Z","name_a2s":"Uncletopia | New York City | 4 | Community","protocol":17,"map":"workshop/cp_croissant_final.ugc458840209","folder":"tf","game":"Team Fortress","app_id":440,"player_count":0,"max_players":24,"Bots":0,"server_type":"Dedicated","server_os":"Linux","password":true,"vac":true,"version":"7961495","steam_id":85568392924742821,"keywords":["cp","nocrits","nodmgspread","uncletopia"],"game_id":440,"stv_port":27046,"stv_name":"Uncletopia | New York City | 4 | Community | STV","players":null},{"server_id":142,"name":"Uncletopia | S√£o Paulo | 1 | All Maps","name_short":"sao-1","host":"sao-1.br.uncletopia.com","port":27015,"enabled":true,"region":"sa","cc":"br","latitude":-23.533773,"longitude":-46.62529,"reserved":0,"last_update":"0001-01-01T00:00:00Z","name_a2s":"Uncletopia | S√£o Paulo | 1 | All Maps","protocol":17,"map":"pl_upward","folder":"tf","game":"Team Fortress","app_id":440,"player_count":0,"max_players":24,"Bots":0,"server_type":"Dedicated","server_os":"Linux","password":true,"vac":true,"version":"7961495","steam_id":85568392924469996,"keywords":["nocrits","nodmgspread","payload","uncletopia"],"game_id":440,"stv_port":27016,"stv_name":"Uncletopia | S√£o Paulo | 1 | All Maps | STV","players":null},{"server_id":143,"name":"Uncletopia | S√£o Paulo | 2 | Community","name_short":"sao-2","host":"sao-2.br.uncletopia.com","port":27015,"enabled":true,"region":"sa","cc":"br","latitude":-23.533773,"longitude":-46.62529,"reserved":0,"last_update":"0001-01-01T00:00:00Z","name_a2s":"Uncletopia | S√£o Paulo | 2 | Community","protocol":17,"map":"workshop/koth_ramjam_rc1.ugc459778887","folder":"tf","game":"Team Fortress","app_id":440,"player_count":0,"max_players":24,"Bots":0,"server_type":"Dedicated","server_os":"Linux","password":true,"vac":true,"version":"7961495","steam_id":85568392924485349,"keywords":["cp","nocrits","nodmgspread","uncletopia"],"game_id":440,"stv_port":27016,"stv_name":"Uncletopia | S√£o Paulo | 2 | Community | STV","players":null},{"server_id":7,"name":"Uncletopia | Seattle | 1 | All Maps","name_short":"sea-1","host":"sea-1.us.uncletopia.com","port":27015,"enabled":true,"region":"us-west","cc":"us","latitude":47.608013,"longitude":-122.33517,"reserved":0,"last_update":"0001-01-01T00:00:00Z","name_a2s":"Uncletopia | Seattle | 1 | All Maps","protocol":17,"map":"pl_swiftwater_final1","folder":"tf","game":"Team Fortress","app_id":440,"player_count":24,"max_players":24,"Bots":0,"server_type":"Dedicated","server_os":"Linux","password":true,"vac":true,"version":"7961495","steam_id":85568392924469997,"keywords":["nocrits","nodmgspread","payload","uncletopia"],"game_id":440,"stv_port":27016,"stv_name":"Uncletopia | Seattle | 1 | All Maps | STV","players":[{"user_id":94,"name":"ORANGE","steam_id":76561198000401769,"connected_time":432000000000,"state":"active","ping":46},{"user_id":78,"name":"*The* Wardoug41","steam_id":76561198255780869,"connected_time":1901000000000,"state":"active","ping":136},{"user_id":61,"name":"lead poisoning","steam_id":76561198868596461,"connected_time":3485000000000,"state":"active","ping":46},{"user_id":7,"name":"SeeNik","steam_id":76561198149499817,"connected_time":6965000000000,"state":"active","ping":69},{"user_id":70,"name":"Baked Butter Beans","steam_id":76561198072222944,"connected_time":2473000000000,"state":"active","ping":54},{"user_id":72,"name":"Bon Gripper","steam_id":76561198090074621,"connected_time":2385000000000,"state":"active","ping":90},{"user_id":63,"name":"Petrivus","steam_id":76561198202152453,"connected_time":3140000000000,"state":"active","ping":53},{"user_id":29,"name":"jayeskae","steam_id":76561198144220801,"connected_time":5873000000000,"state":"active","ping":47},{"user_id":95,"name":"bottom pride burger","steam_id":76561198322247602,"connected_time":365000000000,"state":"active","ping":77},{"user_id":90,"name":"Moxxi","steam_id":76561199262193960,"connected_time":1137000000000,"state":"active","ping":66},{"user_id":84,"name":"Rusty","steam_id":76561198055585129,"connected_time":1486000000000,"state":"active","ping":50},{"user_id":91,"name":"PJROCK101","steam_id":76561198070616561,"connected_time":1089000000000,"state":"active","ping":62},{"user_id":56,"name":"Klone","steam_id":76561198854485605,"connected_time":4185000000000,"state":"active","ping":110},{"user_id":66,"name":"ROGUE-PLANET","steam_id":76561198116023052,"connected_time":2784000000000,"state":"active","ping":76},{"user_id":85,"name":"yolginmo","steam_id":76561198157985901,"connected_time":1466000000000,"state":"active","ping":55},{"user_id":54,"name":"„Åµ„Çè„Åµ„ÇèÊØõÂ∏É","steam_id":76561198088403016,"connected_time":4251000000000,"state":"active","ping":151},{"user_id":86,"name":"Five","steam_id":76561198026640473,"connected_time":1456000000000,"state":"active","ping":60},{"user_id":31,"name":"Denzel McFlurry","steam_id":76561199231296521,"connected_time":5794000000000,"state":"active","ping":128},{"user_id":79,"name":"bigfart12","steam_id":76561198311564850,"connected_time":1870000000000,"state":"active","ping":83},{"user_id":67,"name":"Nespreco","steam_id":76561198252035336,"connected_time":2771000000000,"state":"active","ping":115},{"user_id":89,"name":"Attrition","steam_id":76561197969881916,"connected_time":1222000000000,"state":"active","ping":58},{"user_id":41,"name":"DragonJimmy","steam_id":76561198272966565,"connected_time":5501000000000,"state":"active","ping":91},{"user_id":93,"name":"ImTheRadicalLeft","steam_id":76561198355324064,"connected_time":679000000000,"state":"active","ping":36},{"user_id":92,"name":"benji","steam_id":76561198084417967,"connected_time":977000000000,"state":"active","ping":65}]},{"server_id":119,"name":"Uncletopia | Seattle | 2 | All Maps","name_short":"sea-2","host":"sea-1.us.uncletopia.com","port":27025,"enabled":true,"region":"us-west","cc":"us","latitude":47.608013,"longitude":-122.33517,"reserved":0,"last_update":"0001-01-01T00:00:00Z","name_a2s":"Uncletopia | Seattle | 2 | All Maps","protocol":17,"map":"pl_frontier_final","folder":"tf","game":"Team Fortress","app_id":440,"player_count":0,"max_players":24,"Bots":0,"server_type":"Dedicated","server_os":"Linux","password":true,"vac":true,"version":"7961495","steam_id":85568392924469998,"keywords":["nocrits","nodmgspread","payload","uncletopia"],"game_id":440,"stv_port":27026,"stv_name":"Uncletopia | Seattle | 2 | All Maps | STV","players":null},{"server_id":406,"name":"Uncletopia | Seattle | 3 | Stopwatch","name_short":"sea-3","host":"sea-1.us.uncletopia.com","port":27035,"enabled":true,"region":"us-west","cc":"us","latitude":47.608013,"longitude":-122.33517,"reserved":0,"last_update":"0001-01-01T00:00:00Z","name_a2s":"Uncletopia | Seattle | 3 | Stopwatch","protocol":17,"map":"workshop/cp_process_f12.ugc2302948105","folder":"tf","game":"Team Fortress","app_id":440,"player_count":0,"max_players":24,"Bots":0,"server_type":"Dedicated","server_os":"Linux","password":true,"vac":true,"version":"7961495","steam_id":85568392924515217,"keywords":["cp","nocrits","nodmgspread","uncletopia"],"game_id":440,"stv_port":27036,"stv_name":"Uncletopia | Seattle | 3 | Stopwatch | STV","players":null},{"server_id":17,"name":"Uncletopia | San Francisco | 1 | All Maps","name_short":"sfo-1","host":"sfo-1.us.uncletopia.com","port":27015,"enabled":true,"region":"us-west","cc":"us","latitude":37.77397,"longitude":-122.4313,"reserved":0,"last_update":"0001-01-01T00:00:00Z","name_a2s":"Uncletopia | San Francisco | 1 | All Maps","protocol":17,"map":"koth_cascade","folder":"tf","game":"Team Fortress","app_id":440,"player_count":0,"max_players":24,"Bots":0,"server_type":"Dedicated","server_os":"Linux","password":true,"vac":true,"version":"7961495","steam_id":85568392924469999,"keywords":["cp","nocrits","nodmgspread","uncletopia"],"game_id":440,"stv_port":27016,"stv_name":"Uncletopia | San Francisco | 1 | All Maps | STV","players":null},{"server_id":18,"name":"Uncletopia | San Francisco | 2 | All Maps","name_short":"sfo-2","host":"sfo-1.us.uncletopia.com","port":27025,"enabled":true,"region":"us-west","cc":"us","latitude":37.77397,"longitude":-122.4313,"reserved":0,"last_update":"0001-01-01T00:00:00Z","name_a2s":"Uncletopia | San Francisco | 2 | All Maps","protocol":17,"map":"pl_frontier_final","folder":"tf","game":"Team Fortress","app_id":440,"player_count":1,"max_players":24,"Bots":0,"server_type":"Dedicated","server_os":"Linux","password":true,"vac":true,"version":"7961495","steam_id":85568392924470000,"keywords":["nocrits","nodmgspread","payload","uncletopia"],"game_id":440,"stv_port":27026,"stv_name":"Uncletopia | San Francisco | 2 | All Maps | STV","players":[{"user_id":4,"name":"Borgor Boi","steam_id":76561199061388107,"connected_time":223000000000,"state":"active","ping":57}]},{"server_id":19,"name":"Uncletopia | San Francisco | 3 | Stopwatch","name_short":"sfo-3","host":"sfo-1.us.uncletopia.com","port":27035,"enabled":true,"region":"us-west","cc":"us","latitude":37.77397,"longitude":-122.4313,"reserved":0,"last_update":"0001-01-01T00:00:00Z","name_a2s":"Uncletopia | San Francisco | 3 | Stopwatch","protocol":17,"map":"pl_pier","folder":"tf","game":"Team Fortress","app_id":440,"player_count":0,"max_players":24,"Bots":0,"server_type":"Dedicated","server_os":"Linux","password":true,"vac":true,"version":"7961495","steam_id":85568392924742824,"keywords":["nocrits","nodmgspread","payload","uncletopia"],"game_id":440,"stv_port":27036,"stv_name":"Uncletopia | San Francisco | 3 | Stopwatch | STV","players":null},{"server_id":20,"name":"Uncletopia | San Francisco | 4 | Community","name_short":"sfo-4","host":"sfo-1.us.uncletopia.com","port":27045,"enabled":true,"region":"us-west","cc":"us","latitude":37.77397,"longitude":-122.4313,"reserved":0,"last_update":"0001-01-01T00:00:00Z","name_a2s":"Uncletopia | San Francisco | 4 | Community","protocol":17,"map":"pl_pier","folder":"tf","game":"Team Fortress","app_id":440,"player_count":0,"max_players":24,"Bots":0,"server_type":"Dedicated","server_os":"Linux","password":true,"vac":true,"version":"7961495","steam_id":85568392924742826,"keywords":["nocrits","nodmgspread","payload","uncletopia"],"game_id":440,"stv_port":27046,"stv_name":"Uncletopia | San Francisco | 4 | Community | STV","players":null},{"server_id":141,"name":"Uncletopia | Sydney | 1 | All Maps","name_short":"syd-1","host":"syd-1.au.uncletopia.com","port":27015,"enabled":true,"region":"au","cc":"au","latitude":-33.865143,"longitude":151.2099,"reserved":0,"last_update":"0001-01-01T00:00:00Z","name_a2s":"Uncletopia | Sydney | 1 | All Maps","protocol":17,"map":"cp_snakewater_final1","folder":"tf","game":"Team Fortress","app_id":440,"player_count":0,"max_players":24,"Bots":0,"server_type":"Dedicated","server_os":"Linux","password":true,"vac":true,"version":"7961495","steam_id":85568392924470001,"keywords":["cp","nocrits","nodmgspread","uncletopia"],"game_id":440,"stv_port":27016,"stv_name":"Uncletopia | Sydney | 1 | All Maps | STV","players":null},{"server_id":123,"name":"Uncletopia | Sydney | 2 | All Maps","name_short":"syd-2","host":"syd-1.au.uncletopia.com","port":27025,"enabled":true,"region":"au","cc":"au","latitude":-33.865143,"longitude":151.2099,"reserved":0,"last_update":"0001-01-01T00:00:00Z","name_a2s":"Uncletopia | Sydney | 2 | All Maps","protocol":17,"map":"koth_lakeside_final","folder":"tf","game":"Team Fortress","app_id":440,"player_count":0,"max_players":24,"Bots":0,"server_type":"Dedicated","server_os":"Linux","password":true,"vac":true,"version":"7961495","steam_id":85568392924470002,"keywords":["cp","nocrits","nodmgspread","uncletopia"],"game_id":440,"stv_port":27026,"stv_name":"Uncletopia | Sydney | 2 | All Maps | STV","players":null},{"server_id":395,"name":"Uncletopia | Sydney | 3 | All Maps","name_short":"syd-3","host":"syd-1.au.uncletopia.com","port":27035,"enabled":true,"region":"au","cc":"au","latitude":-33.865143,"longitude":151.2099,"reserved":0,"last_update":"0001-01-01T00:00:00Z","name_a2s":"Uncletopia | Sydney | 3 | All Maps","protocol":17,"map":"pl_borneo","folder":"tf","game":"Team Fortress","app_id":440,"player_count":0,"max_players":24,"Bots":0,"server_type":"Dedicated","server_os":"Linux","password":true,"vac":true,"version":"7961495","steam_id":85568392925194467,"keywords":["nocrits","nodmgspread","payload","uncletopia"],"game_id":440,"stv_port":27036,"stv_name":"Uncletopia | Sydney | 3 | All Maps | STV","players":null},{"server_id":396,"name":"Uncletopia | Sydney | 4 | All Maps","name_short":"syd-4","host":"syd-1.au.uncletopia.com","port":27045,"enabled":true,"region":"au","cc":"au","latitude":-33.865143,"longitude":151.2099,"reserved":0,"last_update":"0001-01-01T00:00:00Z","name_a2s":"Uncletopia | Sydney | 4 | All Maps","protocol":17,"map":"pl_snowycoast","folder":"tf","game":"Team Fortress","app_id":440,"player_count":0,"max_players":24,"Bots":0,"server_type":"Dedicated","server_os":"Linux","password":true,"vac":true,"version":"7961495","steam_id":85568392925397958,"keywords":["nocrits","nodmgspread","payload","uncletopia"],"game_id":440,"stv_port":27046,"stv_name":"Uncletopia | Sydney | 4 | All Maps | STV","players":null},{"server_id":58,"name":"Uncletopia | Sydney | 5 | Stopwatch","name_short":"syd-5","host":"syd-1.au.uncletopia.com","port":27055,"enabled":true,"region":"au","cc":"au","latitude":-33.865143,"longitude":151.2099,"reserved":0,"last_update":"0001-01-01T00:00:00Z","name_a2s":"Uncletopia | Sydney | 5 | Stopwatch","protocol":17,"map":"workshop/koth_clearcut_b15.ugc2107050255","folder":"tf","game":"Team Fortress","app_id":440,"player_count":0,"max_players":24,"Bots":0,"server_type":"Dedicated","server_os":"Linux","password":true,"vac":true,"version":"7961495","steam_id":85568392925397959,"keywords":["cp","nocrits","nodmgspread","uncletopia"],"game_id":440,"stv_port":27056,"stv_name":"Uncletopia | Sydney | 5 | Stopwatch | STV","players":null},{"server_id":59,"name":"Uncletopia | Sydney | 6 | Community","name_short":"syd-6","host":"syd-1.au.uncletopia.com","port":27065,"enabled":true,"region":"au","cc":"au","latitude":-33.865143,"longitude":151.2099,"reserved":0,"last_update":"0001-01-01T00:00:00Z","name_a2s":"Uncletopia | Sydney | 6 | Community","protocol":17,"map":"workshop/pl_corrode_rc2.ugc546577989","folder":"tf","game":"Team Fortress","app_id":440,"player_count":0,"max_players":24,"Bots":0,"server_type":"Dedicated","server_os":"Linux","password":true,"vac":true,"version":"7961495","steam_id":85568392925397960,"keywords":["nocrits","nodmgspread","payload","uncletopia"],"game_id":440,"stv_port":27066,"stv_name":"Uncletopia | Sydney | 6 | Community | STV","players":null},{"server_id":49,"name":"Uncletopia | Warsaw | 1 | All Maps","name_short":"waw-1","host":"waw-1.pl.uncletopia.com","port":27015,"enabled":true,"region":"eu","cc":"pl","latitude":52.2297,"longitude":21.017532,"reserved":0,"last_update":"0001-01-01T00:00:00Z","name_a2s":"Uncletopia | Warsaw | 1 | All Maps","protocol":17,"map":"koth_lakeside_final","folder":"tf","game":"Team Fortress","app_id":440,"player_count":0,"max_players":24,"Bots":0,"server_type":"Dedicated","server_os":"Linux","password":true,"vac":true,"version":"7961495","steam_id":85568392925397850,"keywords":["cp","nocrits","nodmgspread","uncletopia"],"game_id":440,"stv_port":27016,"stv_name":"Uncletopia | Warsaw | 1 | All Maps | STV","players":null},{"server_id":50,"name":"Uncletopia | Warsaw | 2 | All Maps","name_short":"waw-2","host":"waw-1.pl.uncletopia.com","port":27025,"enabled":true,"region":"eu","cc":"pl","latitude":52.2297,"longitude":21.017532,"reserved":0,"last_update":"0001-01-01T00:00:00Z","name_a2s":"Uncletopia | Warsaw | 2 | All Maps","protocol":17,"map":"koth_highpass","folder":"tf","game":"Team Fortress","app_id":440,"player_count":0,"max_players":24,"Bots":0,"server_type":"Dedicated","server_os":"Linux","password":true,"vac":true,"version":"7961495","steam_id":85568392925397851,"keywords":["cp","nocrits","nodmgspread","uncletopia"],"game_id":440,"stv_port":27026,"stv_name":"Uncletopia | Warsaw | 2 | All Maps | STV","players":null},{"server_id":51,"name":"Uncletopia | Warsaw | 3 | All Maps","name_short":"waw-3","host":"waw-1.pl.uncletopia.com","port":27035,"enabled":true,"region":"eu","cc":"pl","latitude":52.2297,"longitude":21.017532,"reserved":0,"last_update":"0001-01-01T00:00:00Z","name_a2s":"Uncletopia | Warsaw | 3 | All Maps","protocol":17,"map":"koth_highpass","folder":"tf","game":"Team Fortress","app_id":440,"player_count":5,"max_players":24,"Bots":0,"server_type":"Dedicated","server_os":"Linux","password":true,"vac":true,"version":"7961495","steam_id":85568392925397852,"keywords":["cp","nocrits","nodmgspread","uncletopia"],"game_id":440,"stv_port":27036,"stv_name":"Uncletopia | Warsaw | 3 | All Maps | STV","players":[{"user_id":8,"name":"Brinier","steam_id":76561199012604288,"connected_time":2508000000000,"state":"active","ping":73},{"user_id":9,"name":"WYVRN","steam_id":76561198799153975,"connected_time":2485000000000,"state":"active","ping":86},{"user_id":22,"name":"MaTTy","steam_id":76561198154318571,"connected_time":491000000000,"state":"active","ping":70},{"user_id":23,"name":"sefalooloo","steam_id":76561198140461718,"connected_time":370000000000,"state":"active","ping":62},{"user_id":13,"name":"your local Medic GF","steam_id":76561199088845896,"connected_time":2315000000000,"state":"active","ping":130}]},{"server_id":52,"name":"Uncletopia | Warsaw | 4 | All Maps","name_short":"waw-4","host":"waw-1.pl.uncletopia.com","port":27045,"enabled":true,"region":"eu","cc":"pl","latitude":52.2297,"longitude":21.017532,"reserved":0,"last_update":"0001-01-01T00:00:00Z","name_a2s":"Uncletopia | Warsaw | 4 | All Maps","protocol":17,"map":"cp_mountainlab","folder":"tf","game":"Team Fortress","app_id":440,"player_count":0,"max_players":24,"Bots":0,"server_type":"Dedicated","server_os":"Linux","password":true,"vac":true,"version":"7961495","steam_id":85568392925397853,"keywords":["cp","nocrits","nodmgspread","uncletopia"],"game_id":440,"stv_port":27046,"stv_name":"Uncletopia | Warsaw | 4 | All Maps | STV","players":null},{"server_id":53,"name":"Uncletopia | Warsaw | 5 | Stopwatch","name_short":"waw-5","host":"waw-1.pl.uncletopia.com","port":27055,"enabled":true,"region":"eu","cc":"pl","latitude":52.2297,"longitude":21.017532,"reserved":0,"last_update":"0001-01-01T00:00:00Z","name_a2s":"Uncletopia | Warsaw | 5 | Stopwatch","protocol":17,"map":"cp_metalworks","folder":"tf","game":"Team Fortress","app_id":440,"player_count":0,"max_players":24,"Bots":0,"server_type":"Dedicated","server_os":"Linux","password":true,"vac":true,"version":"7961495","steam_id":85568392925397854,"keywords":["cp","nocrits","nodmgspread","uncletopia"],"game_id":440,"stv_port":27056,"stv_name":"Uncletopia | Warsaw | 5 | Stopwatch | STV","players":null},{"server_id":54,"name":"Uncletopia | Warsaw | 6 | Community","name_short":"waw-6","host":"waw-1.pl.uncletopia.com","port":27065,"enabled":true,"region":"eu","cc":"pl","latitude":52.2297,"longitude":21.017532,"reserved":0,"last_update":"0001-01-01T00:00:00Z","name_a2s":"Uncletopia | Warsaw | 6 | Community","protocol":17,"map":"workshop/koth_synthetic_rc6a.ugc1549817316","folder":"tf","game":"Team Fortress","app_id":440,"player_count":0,"max_players":24,"Bots":0,"server_type":"Dedicated","server_os":"Linux","password":true,"vac":true,"version":"7961495","steam_id":85568392925397856,"keywords":["cp","nocrits","nodmgspread","uncletopia"],"game_id":440,"stv_port":27066,"stv_name":"Uncletopia | Warsaw | 6 | Community | STV","players":null}]}