{"status":true,"message":"","result":[{"server_id":9,"name":"Uncletopia | Atlanta | 1 | All Maps","name_short":"atl-1","host":"atl-1.us.uncletopia.com","port":27015,"enabled":true,"region":"us-east","cc":"us","latitude":33.753746,"longitude":-84.38633,"reserved":0,"last_update":"0001-01-01T00:00:00Z","name_a2s":"Uncletopia | Atlanta | 1 | All Maps","protocol":17,"map":"pl_snowycoast","folder":"tf","game":"Team Fortress","app_id":440,"player_count":24,"max_players":24,"Bots":0,"server_type":"Dedicated","server_os":"Linux","password":true,"vac":true,"version":"7757534","steam_id":85568392924469982,"keywords":["nocrits","nodmgspread","payload","uncletopia"],"game_id":440,"stv_port":27016,"stv_name":"Uncletopia | Atlanta | 1 | All Maps | STV","players":[{"user_id":293,"name":"BIG HOG","steam_id":76561198079923652,"connected_time":7292000000000,"state":"active","ping":72},{"user_id":361,"name":"Cherry Coke Zero","steam_id":76561198178233006,"connected_time":1255000000000,"state":"active","ping":63},{"user_id":365,"name":"SkyFlyWhite","steam_id":76561198241383126,"connected_time":508000000000,"state":"active","ping":83},{"user_id":370,"name":"Styx","steam_id":76561198158334494,"connected_time":168000000000,"state":"active","ping":89},{"user_id":351,"name":"basil","steam_id":76561198075758026,"connected_time":1536000000000,"state":"active","ping":67},{"user_id":367,"name":"xX_HimboSwallower_Xx","steam_id":76561198016029965,"connected_time":227000000000,"state":"active","ping":64},{"user_id":355,"name":"Dr. drippenstein","steam_id":76561198209380493,"connected_time":1392000000000,"state":"active","ping":61},{"user_id":316,"name":"Brown_Dream","steam_id":76561198975766145,"connected_time":5193000000000,"state":"active","ping":70},{"user_id":348,"name":"V!CT!M","steam_id":76561198962721502,"connected_time":1599000000000,"state":"active","ping":86},{"user_id":331,"name":"Just PYE","steam_id":76561199439622967,"connected_time":3518000000000,"state":"active","ping":76},{"user_id":342,"name":"Im High","steam_id":76561198049954886,"connected_time":2550000000000,"state":"active","ping":72},{"user_id":358,"name":"Axities","steam_id":76561198278008225,"connected_time":1344000000000,"state":"active","ping":58},{"user_id":368,"name":"Not A Hoovy","steam_id":76561198201502681,"connected_time":195000000000,"state":"active","ping":56},{"user_id":349,"name":"Prof. Eggnog","steam_id":76561198193389166,"connected_time":1582000000000,"state":"active","ping":108},{"user_id":362,"name":"Smoke","steam_id":76561198140627349,"connected_time":830000000000,"state":"active","ping":81},{"user_id":350,"name":"Monster","steam_id":76561198189429665,"connected_time":1567000000000,"state":"active","ping":54},{"user_id":353,"name":"manbearswineflu","steam_id":76561198083945137,"connected_time":1535000000000,"state":"active","ping":85},{"user_id":357,"name":"Eden","steam_id":76561198055860134,"connected_time":1381000000000,"state":"active","ping":62},{"user_id":321,"name":"David De Bergerac","steam_id":76561198010306294,"connected_time":4837000000000,"state":"active","ping":84},{"user_id":369,"name":"DFR DeezNoodlez","steam_id":76561198246700372,"connected_time":195000000000,"state":"active","ping":59},{"user_id":364,"name":"Albino Jellyfish","steam_id":76561198208561097,"connected_time":807000000000,"state":"active","ping":69},{"user_id":305,"name":"lil hog","steam_id":76561199230929836,"connected_time":6639000000000,"state":"active","ping":83},{"user_id":278,"name":"AJsurfer","steam_id":76561198897045252,"connected_time":9165000000000,"state":"active","ping":40},{"user_id":323,"name":"Mike Hawk","steam_id":76561198277163301,"connected_time":4678000000000,"state":"active","ping":88}]},{"server_id":104,"name":"Uncletopia | Atlanta | 2 | All Maps","name_short":"atl-2","host":"atl-1.us.uncletopia.com","port":27025,"enabled":true,"region":"us-east","cc":"us","latitude":33.753746,"longitude":-84.38633,"reserved":0,"last_update":"0001-01-01T00:00:00Z","name_a2s":"Uncletopia | Atlanta | 2 | All Maps","protocol":17,"map":"pl_badwater","folder":"tf","game":"Team Fortress","app_id":440,"player_count":19,"max_players":24,"Bots":0,"server_type":"Dedicated","server_os":"Linux","password":true,"vac":true,"version":"7757534","steam_id":85568392924469983,"keywords":["nocrits","nodmgspread","payload","uncletopia"],"game_id":440,"stv_port":27026,"stv_name":"Uncletopia | Atlanta | 2 | All Maps | STV","players":[{"user_id":221,"name":"Crouching Noob Hidden Sniper","steam_id":76561197971328473,"connected_time":50000000000,"state":"connecting","ping":92},{"user_id":222,"name":"Dabbledornk","steam_id":76561198065241300,"connected_time":43000000000,"state":"active","ping":46},{"user_id":223,"name":"schizophrenic Stack stan","steam_id":76561198214370515,"connected_time":27000000000,"state":"active","ping":60},{"user_id":207,"name":"Borat Voice My Wife","steam_id":76561198020474727,"connected_time":2486000000000,"state":"active","ping":58},{"user_id":220,"name":"Regret","steam_id":76561199084088704,"connected_time":59000000000,"state":"connecting","ping":199},{"user_id":198,"name":"PackingPeanutt :)","steam_id":76561199053229413,"connected_time":2805000000000,"state":"active","ping":85},{"user_id":209,"name":"Bee","steam_id":76561198074681324,"connected_time":2468000000000,"state":"active","ping":66},{"user_id":210,"name":"kametro4","steam_id":76561198835430429,"connected_time":2460000000000,"state":"active","ping":90},{"user_id":196,"name":"Zymiren","steam_id":76561198054985471,"connected_time":3616000000000,"state":"active","ping":82},{"user_id":199,"name":"89","steam_id":76561198106308056,"connected_time":2797000000000,"state":"active","ping":91},{"user_id":156,"name":"Fresh0c0","steam_id":76561198271933283,"connected_time":6137000000000,"state":"active","ping":78},{"user_id":218,"name":"rraymondddh","steam_id":76561198006216337,"connected_time":1186000000000,"state":"active","ping":75},{"user_id":219,"name":"medic enthusiast","steam_id":76561198323031964,"connected_time":846000000000,"state":"active","ping":75},{"user_id":211,"name":"unsafequeen","steam_id":76561199088126900,"connected_time":2445000000000,"state":"active","ping":87},{"user_id":215,"name":"MasAcqua","steam_id":76561198007402503,"connected_time":2117000000000,"state":"spawning","ping":360},{"user_id":216,"name":"snapski_HJA","steam_id":76561198007052727,"connected_time":1816000000000,"state":"active","ping":56},{"user_id":214,"name":"2003 chevy malibu","steam_id":76561199075669125,"connected_time":2397000000000,"state":"active","ping":73},{"user_id":217,"name":"troll","steam_id":76561198040890252,"connected_time":1816000000000,"state":"active","ping":63},{"user_id":124,"name":"Publo","steam_id":76561198161777140,"connected_time":9293000000000,"state":"active","ping":66}]},{"server_id":400,"name":"Uncletopia | Atlanta | 3 | Community","name_short":"atl-3","host":"atl-1.us.uncletopia.com","port":27035,"enabled":true,"region":"us-east","cc":"us","latitude":33.753746,"longitude":-84.38633,"reserved":0,"last_update":"0001-01-01T00:00:00Z","name_a2s":"Uncletopia | Atlanta | 3 | Community","protocol":17,"map":"workshop/cp_glacier_rc6.ugc2905735376","folder":"tf","game":"Team Fortress","app_id":440,"player_count":0,"max_players":24,"Bots":0,"server_type":"Dedicated","server_os":"Linux","password":true,"vac":true,"version":"7757534","steam_id":85568392924515187,"keywords":["cp","nocrits","nodmgspread","uncletopia"],"game_id":440,"stv_port":27036,"stv_name":"Uncletopia | Atlanta | 3 | Community | STV","players":null},{"server_id":401,"name":"Uncletopia | Atlanta | 4 | No Payload","name_short":"atl-4","host":"atl-1.us.uncletopia.com","port":27045,"enabled":true,"region":"us-east","cc":"us","latitude":33.753746,"longitude":-84.38633,"reserved":0,"last_update":"0001-01-01T00:00:00Z","name_a2s":"","protocol":0,"map":"","folder":"","game":"","app_id":0,"player_count":0,"max_players":0,"Bots":0,"server_type":"","server_os":"","password":false,"vac":false,"version":"","steam_id":0,"keywords":null,"game_id":0,"stv_port":0,"stv_name":"","players":null},{"server_id":2,"name":"Uncletopia | Chicago | 1 | All Maps","name_short":"chi-1","host":"chi-1.us.uncletopia.com","port":27015,"enabled":true,"region":"us-central","cc":"us","latitude":41.881832,"longitude":-87.62318,"reserved":0,"last_update":"0001-01-01T00:00:00Z","name_a2s":"Uncletopia | Chicago | 1 | All Maps","protocol":17,"map":"pl_badwater","folder":"tf","game":"Team Fortress","app_id":440,"player_count":24,"max_players":24,"Bots":0,"server_type":"Dedicated","server_os":"Linux","password":true,"vac":true,"version":"7757534","steam_id":85568392924469984,"keywords":["nocrits","nodmgspread","payload","uncletopia"],"game_id":440,"stv_port":27016,"stv_name":"Uncletopia | Chicago | 1 | All Maps | STV","players":[{"user_id":439,"name":"Cosmic sR","steam_id":76561198081738675,"connected_time":3917000000000,"state":"active","ping":80},{"user_id":407,"name":"thecal","steam_id":76561198307893384,"connected_time":6813000000000,"state":"active","ping":53},{"user_id":449,"name":"steph","steam_id":76561198075834222,"connected_time":1868000000000,"state":"active","ping":57},{"user_id":470,"name":"Katy","steam_id":76561198079395814,"connected_time":971000000000,"state":"active","ping":68},{"user_id":433,"name":"Saikou!!!","steam_id":76561198044045406,"connected_time":4633000000000,"state":"active","ping":76},{"user_id":445,"name":"coodge","steam_id":76561198139080439,"connected_time":2541000000000,"state":"active","ping":87},{"user_id":450,"name":"Goat","steam_id":76561198068447650,"connected_time":1863000000000,"state":"active","ping":61},{"user_id":447,"name":"Baka!⑨⑨⑨⑨","steam_id":76561198152948254,"connected_time":1887000000000,"state":"active","ping":69},{"user_id":426,"name":"The Silkyest of Boys","steam_id":76561198320921269,"connected_time":5488000000000,"state":"active","ping":91},{"user_id":460,"name":"kite","steam_id":76561198346516392,"connected_time":1314000000000,"state":"active","ping":69},{"user_id":408,"name":"Jyggalag","steam_id":76561198014672516,"connected_time":6707000000000,"state":"active","ping":62},{"user_id":448,"name":"Omega Move","steam_id":76561198031577205,"connected_time":1886000000000,"state":"active","ping":77},{"user_id":461,"name":"Ojen","steam_id":76561197998414482,"connected_time":1304000000000,"state":"active","ping":80},{"user_id":476,"name":"toilethumor","steam_id":76561197962028780,"connected_time":83000000000,"state":"active","ping":65},{"user_id":464,"name":"Jack","steam_id":76561198079575891,"connected_time":1230000000000,"state":"active","ping":137},{"user_id":451,"name":"『 Ethereal 』","steam_id":76561199385170644,"connected_time":1826000000000,"state":"active","ping":59},{"user_id":473,"name":"Bread_Box","steam_id":76561198090419068,"connected_time":766000000000,"state":"active","ping":120},{"user_id":325,"name":"rori","steam_id":76561198021227843,"connected_time":12625000000000,"state":"active","ping":54},{"user_id":472,"name":"Patriot Pills","steam_id":76561198381647349,"connected_time":902000000000,"state":"active","ping":78},{"user_id":467,"name":"Filthy Acts at Reasonable Price","steam_id":76561198354615890,"connected_time":1164000000000,"state":"active","ping":55},{"user_id":468,"name":"forkes","steam_id":76561198130478202,"connected_time":1014000000000,"state":"active","ping":48},{"user_id":432,"name":"blob","steam_id":76561198122375328,"connected_time":4690000000000,"state":"active","ping":60},{"user_id":475,"name":"tide*･ﾟ✧","steam_id":76561198092224185,"connected_time":405000000000,"state":"active","ping":63},{"user_id":458,"name":"Lia_Rein","steam_id":76561198151569597,"connected_time":1767000000000,"state":"active","ping":144}]},{"server_id":106,"name":"Uncletopia | Chicago | 2 | All Maps","name_short":"chi-2","host":"chi-1.us.uncletopia.com","port":27025,"enabled":true,"region":"us-central","cc":"us","latitude":41.881832,"longitude":-87.62318,"reserved":0,"last_update":"0001-01-01T00:00:00Z","name_a2s":"Uncletopia | Chicago | 2 | All Maps","protocol":17,"map":"pl_barnblitz","folder":"tf","game":"Team Fortress","app_id":440,"player_count":24,"max_players":24,"Bots":0,"server_type":"Dedicated","server_os":"Linux","password":true,"vac":true,"version":"7757534","steam_id":85568392924469985,"keywords":["nocrits","nodmgspread","payload","uncletopia"],"game_id":440,"stv_port":27026,"stv_name":"Uncletopia | Chicago | 2 | All Maps | STV","players":[{"user_id":520,"name":"girlpeen supreme","steam_id":76561198031242903,"connected_time":55000000000,"state":"active","ping":62},{"user_id":472,"name":"Toottoot","steam_id":76561197992404836,"connected_time":3374000000000,"state":"active","ping":47},{"user_id":516,"name":"Cyramic","steam_id":76561198017136083,"connected_time":763000000000,"state":"active","ping":68},{"user_id":513,"name":"DeSynthed","steam_id":76561198098768007,"connected_time":1152000000000,"state":"active","ping":61},{"user_id":517,"name":"Mr. Cheesey","steam_id":76561198153462183,"connected_time":559000000000,"state":"active","ping":62},{"user_id":521,"name":"The Pope","steam_id":76561198313560302,"connected_time":52000000000,"state":"active","ping":65},{"user_id":508,"name":"Miro","steam_id":76561198936412406,"connected_time":1540000000000,"state":"active","ping":85},{"user_id":425,"name":"ZofoJackson","steam_id":76561197998366861,"connected_time":6917000000000,"state":"active","ping":50},{"user_id":458,"name":"Mina's Ninas","steam_id":76561198046502179,"connected_time":4620000000000,"state":"active","ping":93},{"user_id":505,"name":"sweatshirt","steam_id":76561198277477109,"connected_time":1844000000000,"state":"active","ping":67},{"user_id":522,"name":"GuyGoom","steam_id":76561198254522178,"connected_time":46000000000,"state":"active","ping":61},{"user_id":465,"name":"Mr.Bady","steam_id":76561199094651706,"connected_time":3922000000000,"state":"active","ping":87},{"user_id":482,"name":"BurgerPizza","steam_id":76561198151256410,"connected_time":2283000000000,"state":"active","ping":149},{"user_id":494,"name":"Mkwhackertracker","steam_id":76561198128343704,"connected_time":2124000000000,"state":"active","ping":69},{"user_id":523,"name":"captain red","steam_id":76561198191587983,"connected_time":43000000000,"state":"active","ping":76},{"user_id":493,"name":"SilentSonata","steam_id":76561198045231259,"connected_time":2138000000000,"state":"active","ping":171},{"user_id":510,"name":"tulpa","steam_id":76561198013253513,"connected_time":1334000000000,"state":"active","ping":73},{"user_id":497,"name":"Ice Tray","steam_id":76561198156184504,"connected_time":2044000000000,"state":"active","ping":80},{"user_id":524,"name":"JZ","steam_id":76561198377029198,"connected_time":43000000000,"state":"active","ping":66},{"user_id":511,"name":"bomb","steam_id":76561198359135819,"connected_time":1324000000000,"state":"active","ping":93},{"user_id":503,"name":"Gian","steam_id":76561198041434512,"connected_time":1944000000000,"state":"active","ping":109},{"user_id":515,"name":"conscripted monk","steam_id":76561199029246232,"connected_time":1007000000000,"state":"active","ping":70},{"user_id":519,"name":"olivia","steam_id":76561198288130849,"connected_time":402000000000,"state":"active","ping":81},{"user_id":457,"name":"1 Great Wooden Dad","steam_id":76561198377126974,"connected_time":4634000000000,"state":"active","ping":69}]},{"server_id":402,"name":"Uncletopia | Chicago | 3 | All Maps","name_short":"chi-3","host":"chi-1.us.uncletopia.com","port":27035,"enabled":true,"region":"us-central","cc":"us","latitude":41.881832,"longitude":-87.62318,"reserved":0,"last_update":"0001-01-01T00:00:00Z","name_a2s":"Uncletopia | Chicago | 3 | All Maps","protocol":17,"map":"pl_pier","folder":"tf","game":"Team Fortress","app_id":440,"player_count":24,"max_players":24,"Bots":0,"server_type":"Dedicated","server_os":"Linux","password":true,"vac":true,"version":"7757534","steam_id":85568392924515191,"keywords":["nocrits","nodmgspread","payload","uncletopia"],"game_id":440,"stv_port":27036,"stv_name":"Uncletopia | Chicago | 3 | All Maps | STV","players":[{"user_id":80,"name":"mud","steam_id":76561198081243580,"connected_time":1904000000000,"state":"active","ping":65},{"user_id":94,"name":"porfer","steam_id":76561199118049168,"connected_time":488000000000,"state":"active","ping":95},{"user_id":73,"name":"enmgxcltayiqoacx","steam_id":76561197974965536,"connected_time":2846000000000,"state":"active","ping":59},{"user_id":92,"name":"Hobity","steam_id":76561198135386781,"connected_time":797000000000,"state":"active","ping":57},{"user_id":85,"name":"Mury","steam_id":76561198069743049,"connected_time":1840000000000,"state":"active","ping":118},{"user_id":82,"name":"RiverEgg","steam_id":76561198888913405,"connected_time":1881000000000,"state":"active","ping":57},{"user_id":32,"name":"Kieran","steam_id":76561198072788168,"connected_time":5443000000000,"state":"active","ping":76},{"user_id":93,"name":"MankTKO","steam_id":76561198189421005,"connected_time":722000000000,"state":"active","ping":47},{"user_id":99,"name":"Hong Xiuquan","steam_id":76561198110046630,"connected_time":219000000000,"state":"active","ping":53},{"user_id":98,"name":"Alpaca Mc Maca","steam_id":76561198301576115,"connected_time":302000000000,"state":"active","ping":65},{"user_id":55,"name":"Thundermonkey (SMOKE)","steam_id":76561198017631728,"connected_time":4925000000000,"state":"active","ping":72},{"user_id":89,"name":"freya","steam_id":76561198440779667,"connected_time":1600000000000,"state":"active","ping":55},{"user_id":71,"name":"Kitt(eh) ∑:3","steam_id":76561198110858518,"connected_time":2973000000000,"state":"active","ping":56},{"user_id":96,"name":"Wso1123","steam_id":76561198048040111,"connected_time":468000000000,"state":"active","ping":74},{"user_id":81,"name":"Eviscerator","steam_id":76561197980073637,"connected_time":1892000000000,"state":"active","ping":78},{"user_id":91,"name":"Godmode","steam_id":76561198076240365,"connected_time":1232000000000,"state":"active","ping":62},{"user_id":95,"name":"Stormz64(But weezer)","steam_id":76561198239036482,"connected_time":484000000000,"state":"active","ping":49},{"user_id":45,"name":"The magic doo bus","steam_id":76561198243387974,"connected_time":5263000000000,"state":"active","ping":102},{"user_id":75,"name":"Wardin","steam_id":76561198096881855,"connected_time":2613000000000,"state":"active","ping":68},{"user_id":61,"name":"soundwave | sfm comms open!","steam_id":76561198454725718,"connected_time":3570000000000,"state":"active","ping":47},{"user_id":68,"name":"NPC","steam_id":76561198431446386,"connected_time":3469000000000,"state":"active","ping":66},{"user_id":97,"name":"jeremy elbertson","steam_id":76561198044420428,"connected_time":464000000000,"state":"active","ping":56},{"user_id":54,"name":"⛧elly bell⛧","steam_id":76561198117032513,"connected_time":4990000000000,"state":"active","ping":104},{"user_id":70,"name":"Xan Hathaway","steam_id":76561198069816677,"connected_time":3440000000000,"state":"active","ping":81}]},{"server_id":403,"name":"Uncletopia | Chicago | 4 | All Maps","name_short":"chi-4","host":"chi-1.us.uncletopia.com","port":27045,"enabled":true,"region":"us-central","cc":"us","latitude":41.881832,"longitude":-87.62318,"reserved":0,"last_update":"0001-01-01T00:00:00Z","name_a2s":"Uncletopia | Chicago | 4 | All Maps","protocol":17,"map":"pl_barnblitz","folder":"tf","game":"Team Fortress","app_id":440,"player_count":23,"max_players":24,"Bots":0,"server_type":"Dedicated","server_os":"Linux","password":true,"vac":true,"version":"7757534","steam_id":85568392924515193,"keywords":["nocrits","nodmgspread","payload","uncletopia"],"game_id":440,"stv_port":27046,"stv_name":"Uncletopia | Chicago | 4 | All Maps | STV","players":[{"user_id":321,"name":"LVL 4 Dispenser Gaming","steam_id":76561198044244547,"connected_time":1718000000000,"state":"active","ping":77},{"user_id":343,"name":"bit","steam_id":76561198993740818,"connected_time":123000000000,"state":"active","ping":63},{"user_id":302,"name":"khil","steam_id":76561198042455487,"connected_time":3243000000000,"state":"active","ping":44},{"user_id":303,"name":"Jill Stingray","steam_id":76561198074209737,"connected_time":2608000000000,"state":"active","ping":60},{"user_id":324,"name":"Marshall","steam_id":76561198042570322,"connected_time":1636000000000,"state":"active","ping":59},{"user_id":322,"name":"mashallah","steam_id":76561198075111427,"connected_time":1654000000000,"state":"active","ping":64},{"user_id":329,"name":"PheebsyDeebsy","steam_id":76561198101509436,"connected_time":1349000000000,"state":"active","ping":98},{"user_id":305,"name":"Scottygofast","steam_id":76561199140785887,"connected_time":2602000000000,"state":"active","ping":87},{"user_id":340,"name":"hotdog water","steam_id":76561198031675881,"connected_time":476000000000,"state":"active","ping":71},{"user_id":311,"name":"Recursive Gamer","steam_id":76561198042102952,"connected_time":2547000000000,"state":"active","ping":62},{"user_id":347,"name":"CamSoup","steam_id":76561198202483168,"connected_time":61000000000,"state":"active","ping":69},{"user_id":338,"name":"Skinny Pete","steam_id":76561198801608576,"connected_time":1204000000000,"state":"active","ping":74},{"user_id":344,"name":"DeepCarryGalactic","steam_id":76561198295280927,"connected_time":121000000000,"state":"active","ping":73},{"user_id":345,"name":"Alexander1353","steam_id":76561198249641266,"connected_time":112000000000,"state":"active","ping":101},{"user_id":283,"name":"The Return","steam_id":76561198202187684,"connected_time":4671000000000,"state":"active","ping":71},{"user_id":317,"name":"✧･ﾟhooligan!!","steam_id":76561198874149130,"connected_time":2397000000000,"state":"active","ping":86},{"user_id":346,"name":"Emberdened","steam_id":76561199163688421,"connected_time":100000000000,"state":"active","ping":100},{"user_id":310,"name":"Heidi","steam_id":76561198889596543,"connected_time":2551000000000,"state":"active","ping":62},{"user_id":314,"name":"minerkid2004","steam_id":76561198044262827,"connected_time":2532000000000,"state":"active","ping":96},{"user_id":330,"name":"Seller of Waffles","steam_id":76561198296018138,"connected_time":1339000000000,"state":"active","ping":53},{"user_id":320,"name":"Ghost","steam_id":76561198110914180,"connected_time":1950000000000,"state":"active","ping":191},{"user_id":337,"name":"loudpizzer","steam_id":76561198078802110,"connected_time":1243000000000,"state":"active","ping":73},{"user_id":332,"name":"Hallucinates_Tigers","steam_id":76561198100676123,"connected_time":1314000000000,"state":"active","ping":45}]},{"server_id":36,"name":"Uncletopia | Chicago | 5 | All Maps","name_short":"chi-5","host":"chi-2.us.uncletopia.com","port":27015,"enabled":true,"region":"us-central","cc":"us","latitude":41.881832,"longitude":-87.62318,"reserved":0,"last_update":"0001-01-01T00:00:00Z","name_a2s":"Uncletopia | Chicago | 5 | All Maps","protocol":17,"map":"koth_highpass","folder":"tf","game":"Team Fortress","app_id":440,"player_count":24,"max_players":24,"Bots":0,"server_type":"Dedicated","server_os":"Linux","password":true,"vac":true,"version":"7757534","steam_id":85568392924866362,"keywords":["cp","nocrits","nodmgspread","uncletopia"],"game_id":440,"stv_port":27016,"stv_name":"Uncletopia | Chicago | 5 | All Maps | STV","players":[{"user_id":60,"name":"LukeLeal","steam_id":76561198049822995,"connected_time":991000000000,"state":"active","ping":164},{"user_id":67,"name":"Farseer Ulwithy","steam_id":76561197965179245,"connected_time":426000000000,"state":"active","ping":80},{"user_id":63,"name":"pigswill","steam_id":76561197999081865,"connected_time":928000000000,"state":"active","ping":86},{"user_id":51,"name":"Carthagos","steam_id":76561198028068515,"connected_time":1338000000000,"state":"active","ping":76},{"user_id":73,"name":"fredpimpstone","steam_id":76561198201872929,"connected_time":40000000000,"state":"spawning","ping":60},{"user_id":25,"name":"RedSock","steam_id":76561198161243404,"connected_time":2404000000000,"state":"active","ping":43},{"user_id":26,"name":"toddler on ipad","steam_id":76561199016999537,"connected_time":2396000000000,"state":"active","ping":121},{"user_id":28,"name":"Rec","steam_id":76561198022813906,"connected_time":2312000000000,"state":"active","ping":52},{"user_id":29,"name":"Mindset","steam_id":76561198107074449,"connected_time":2270000000000,"state":"active","ping":52},{"user_id":30,"name":"GamblerTuba","steam_id":76561198015189132,"connected_time":2138000000000,"state":"active","ping":61},{"user_id":31,"name":"Buck","steam_id":76561197993075304,"connected_time":2045000000000,"state":"active","ping":75},{"user_id":59,"name":"consider shucking","steam_id":76561198042682297,"connected_time":999000000000,"state":"active","ping":55},{"user_id":71,"name":"Pebbled","steam_id":76561199390347605,"connected_time":356000000000,"state":"active","ping":85},{"user_id":39,"name":"Bad gaming lap top user","steam_id":76561199101808144,"connected_time":1872000000000,"state":"active","ping":93},{"user_id":72,"name":"Vaudeville Villain","steam_id":76561199212093339,"connected_time":348000000000,"state":"active","ping":67},{"user_id":36,"name":"neet","steam_id":76561197968115168,"connected_time":1943000000000,"state":"active","ping":56},{"user_id":69,"name":"Candy Sparkles","steam_id":76561198126871264,"connected_time":421000000000,"state":"active","ping":86},{"user_id":58,"name":"Kobbert","steam_id":76561198045040833,"connected_time":1016000000000,"state":"active","ping":41},{"user_id":62,"name":"Andy","steam_id":76561198043115724,"connected_time":961000000000,"state":"active","ping":86},{"user_id":57,"name":"CreateADebate","steam_id":76561198115760035,"connected_time":1056000000000,"state":"active","ping":67},{"user_id":44,"name":"CopperBox","steam_id":76561198068217248,"connected_time":1767000000000,"state":"active","ping":98},{"user_id":64,"name":"Glue Gulper","steam_id":76561198158014525,"connected_time":920000000000,"state":"active","ping":61},{"user_id":46,"name":"BarrowBaron","steam_id":76561198013633236,"connected_time":1748000000000,"state":"active","ping":74},{"user_id":70,"name":"Whys there a level 3 there?","steam_id":76561198309696109,"connected_time":390000000000,"state":"active","ping":80}]},{"server_id":37,"name":"Uncletopia | Chicago | 6 | All Maps","name_short":"chi-6","host":"chi-2.us.uncletopia.com","port":27025,"enabled":true,"region":"us-central","cc":"us","latitude":41.881832,"longitude":-87.62318,"reserved":0,"last_update":"0001-01-01T00:00:00Z","name_a2s":"Uncletopia | Chicago | 6 | All Maps","protocol":17,"map":"pl_pier","folder":"tf","game":"Team Fortress","app_id":440,"player_count":24,"max_players":24,"Bots":0,"server_type":"Dedicated","server_os":"Linux","password":true,"vac":true,"version":"7757534","steam_id":85568392924866363,"keywords":["nocrits","nodmgspread","payload","uncletopia"],"game_id":440,"stv_port":27026,"stv_name":"Uncletopia | Chicago | 6 | All Maps | STV","players":[{"user_id":88,"name":"HighJingo","steam_id":76561198846814390,"connected_time":3477000000000,"state":"active","ping":75},{"user_id":144,"name":"Slashes","steam_id":76561197968573499,"connected_time":32000000000,"state":"active","ping":60},{"user_id":139,"name":"Stinkly","steam_id":76561198045010846,"connected_time":418000000000,"state":"active","ping":74},{"user_id":134,"name":"stall","steam_id":76561199152861652,"connected_time":591000000000,"state":"active","ping":57},{"user_id":126,"name":"Hakn","steam_id":76561198051068084,"connected_time":1175000000000,"state":"active","ping":61},{"user_id":127,"name":"mothsprings","steam_id":76561198928604937,"connected_time":1098000000000,"state":"active","ping":82},{"user_id":81,"name":"sqgly","steam_id":76561198105508955,"connected_time":3867000000000,"state":"active","ping":53},{"user_id":20,"name":"Zin","steam_id":76561199041369507,"connected_time":7890000000000,"state":"active","ping":63},{"user_id":120,"name":"salsaa","steam_id":76561198149627108,"connected_time":1564000000000,"state":"active","ping":75},{"user_id":69,"name":"double with a funny hat","steam_id":76561199241322679,"connected_time":4445000000000,"state":"active","ping":60},{"user_id":131,"name":"john","steam_id":76561198850447852,"connected_time":882000000000,"state":"active","ping":78},{"user_id":97,"name":"DamerDoozle","steam_id":76561199121686201,"connected_time":3311000000000,"state":"active","ping":72},{"user_id":54,"name":"YUNG LOAF","steam_id":76561198237338018,"connected_time":6354000000000,"state":"active","ping":85},{"user_id":129,"name":"ultra_beanman","steam_id":76561198008751185,"connected_time":969000000000,"state":"active","ping":60},{"user_id":103,"name":"real sips, the big","steam_id":76561197999945358,"connected_time":2814000000000,"state":"active","ping":67},{"user_id":140,"name":"Toasty Gyro","steam_id":76561198001026643,"connected_time":412000000000,"state":"active","ping":47},{"user_id":119,"name":"Thilo","steam_id":76561197987278784,"connected_time":1627000000000,"state":"active","ping":69},{"user_id":121,"name":"Evolution","steam_id":76561198144767370,"connected_time":1501000000000,"state":"active","ping":47},{"user_id":132,"name":"CrazySquirrel","steam_id":76561198206338200,"connected_time":879000000000,"state":"active","ping":64},{"user_id":135,"name":"Marceline","steam_id":76561198261007627,"connected_time":584000000000,"state":"active","ping":66},{"user_id":136,"name":"Yoinkinator","steam_id":76561198011366624,"connected_time":577000000000,"state":"active","ping":93},{"user_id":109,"name":"Mercedes Benhart","steam_id":76561198131250808,"connected_time":2131000000000,"state":"active","ping":92},{"user_id":77,"name":"Gaskranx","steam_id":76561198020269547,"connected_time":4291000000000,"state":"active","ping":68},{"user_id":142,"name":"Sovereign","steam_id":76561198223959572,"connected_time":72000000000,"state":"spawning","ping":69}]},{"server_id":38,"name":"Uncletopia | Chicago | 7 | Stopwatch Beta","name_short":"chi-7","host":"chi-2.us.uncletopia.com","port":27035,"enabled":true,"region":"us-central","cc":"us","latitude":41.881832,"longitude":-87.62318,"reserved":0,"last_update":"0001-01-01T00:00:00Z","name_a2s":"Uncletopia | Chicago | 7 | Stopwatch Beta","protocol":17,"map":"workshop/pl_barnblitz_pro7.ugc582280235","folder":"tf","game":"Team Fortress","app_id":440,"player_count":0,"max_players":24,"Bots":0,"server_type":"Dedicated","server_os":"Linux","password":true,"vac":true,"version":"7757534","steam_id":85568392924866364,"keywords":["nocrits","nodmgspread","payload","uncletopia"],"game_id":440,"stv_port":27036,"stv_name":"Uncletopia | Chicago | 7 | Stopwatch Beta | STV","players":null},{"server_id":39,"name":"Uncletopia | Chicago | 8 | Community","name_short":"chi-8","host":"chi-2.us.uncletopia.com","port":27045,"enabled":true,"region":"us-central","cc":"us","latitude":41.881832,"longitude":-87.62318,"reserved":0,"last_update":"0001-01-01T00:00:00Z","name_a2s":"Uncletopia | Chicago | 8 | Community","protocol":17,"map":"koth_cascade","folder":"tf","game":"Team Fortress","app_id":440,"player_count":0,"max_players":24,"Bots":0,"server_type":"Dedicated","server_os":"Linux","password":true,"vac":true,"version":"7757534","steam_id":85568392924866365,"keywords":["cp","nocrits","nodmgspread","uncletopia"],"game_id":440,"stv_port":27046,"stv_name":"Uncletopia | Chicago | 8 | Community | STV","players":null},{"server_id":8,"name":"Uncletopia | Dallas | 1 | All Maps","name_short":"dal-1","host":"dal-1.us.uncletopia.com","port":27015,"enabled":true,"region":"us-central","cc":"us","latitude":32.779167,"longitude":-96.80889,"reserved":0,"last_update":"0001-01-01T00:00:00Z","name_a2s":"Uncletopia | Dallas | 1 | All Maps","protocol":17,"map":"pl_borneo","folder":"tf","game":"Team Fortress","app_id":440,"player_count":24,"max_players":24,"Bots":0,"server_type":"Dedicated","server_os":"Linux","password":true,"vac":true,"version":"7757534","steam_id":85568392924469986,"keywords":["nocrits","nodmgspread","payload","uncletopia"],"game_id":440,"stv_port":27016,"stv_name":"Uncletopia | Dallas | 1 | All Maps | STV","players":[{"user_id":218,"name":"Bush.exe","steam_id":76561198124385307,"connected_time":2391000000000,"state":"active","ping":88},{"user_id":236,"name":"Vibey","steam_id":76561198342873474,"connected_time":1743000000000,"state":"active","ping":101},{"user_id":240,"name":"Michaelpc1","steam_id":76561198088365519,"connected_time":1364000000000,"state":"active","ping":76},{"user_id":234,"name":"hank suckle","steam_id":76561198122622916,"connected_time":1760000000000,"state":"active","ping":103},{"user_id":256,"name":"Ryo31337","steam_id":76561198063083553,"connected_time":74000000000,"state":"spawning","ping":60},{"user_id":241,"name":"wakeupbdot","steam_id":76561198160786631,"connected_time":1296000000000,"state":"active","ping":100},{"user_id":239,"name":"mr.edderkopper","steam_id":76561198152614478,"connected_time":1391000000000,"state":"active","ping":100},{"user_id":188,"name":"winkelwagen","steam_id":76561197987025017,"connected_time":4090000000000,"state":"active","ping":72},{"user_id":167,"name":"Sup m8","steam_id":76561198081659121,"connected_time":4915000000000,"state":"active","ping":33},{"user_id":242,"name":"Redzur","steam_id":76561199384588086,"connected_time":990000000000,"state":"active","ping":66},{"user_id":255,"name":"M4 Sherman","steam_id":76561198011096132,"connected_time":233000000000,"state":"active","ping":90},{"user_id":222,"name":"evan_is_sauce","steam_id":76561199086802383,"connected_time":2160000000000,"state":"active","ping":82},{"user_id":244,"name":"hankm2011","steam_id":76561198928036250,"connected_time":957000000000,"state":"active","ping":82},{"user_id":246,"name":"bo scrungulus","steam_id":76561198038036122,"connected_time":899000000000,"state":"active","ping":61},{"user_id":180,"name":"cake-mix","steam_id":76561199475394535,"connected_time":4563000000000,"state":"active","ping":100},{"user_id":78,"name":"Jake from FedEx","steam_id":76561198051258256,"connected_time":10299000000000,"state":"active","ping":89},{"user_id":252,"name":"ReDiculous22","steam_id":76561198038391383,"connected_time":324000000000,"state":"active","ping":51},{"user_id":195,"name":"errant","steam_id":76561197961758410,"connected_time":3546000000000,"state":"active","ping":41},{"user_id":251,"name":"Cammicus","steam_id":76561198033375316,"connected_time":365000000000,"state":"active","ping":75},{"user_id":248,"name":"scarecrow (evil)","steam_id":76561198082979347,"connected_time":644000000000,"state":"active","ping":78},{"user_id":228,"name":"O Dog","steam_id":76561198133498912,"connected_time":1929000000000,"state":"active","ping":77},{"user_id":254,"name":"Shamrock Shake Oct.10.2020 @8pm","steam_id":76561198833313201,"connected_time":260000000000,"state":"active","ping":88},{"user_id":253,"name":"barbara","steam_id":76561198072417792,"connected_time":305000000000,"state":"active","ping":89},{"user_id":231,"name":"CreepyCook","steam_id":76561198242874622,"connected_time":1877000000000,"state":"active","ping":63}]},{"server_id":108,"name":"Uncletopia | Dallas | 2 | All Maps","name_short":"dal-2","host":"dal-1.us.uncletopia.com","port":27025,"enabled":true,"region":"us-central","cc":"us","latitude":32.779167,"longitude":-96.80889,"reserved":0,"last_update":"0001-01-01T00:00:00Z","name_a2s":"Uncletopia | Dallas | 2 | All Maps","protocol":17,"map":"pl_upward","folder":"tf","game":"Team Fortress","app_id":440,"player_count":24,"max_players":24,"Bots":0,"server_type":"Dedicated","server_os":"Linux","password":true,"vac":true,"version":"7757534","steam_id":85568392924469988,"keywords":["nocrits","nodmgspread","payload","uncletopia"],"game_id":440,"stv_port":27026,"stv_name":"Uncletopia | Dallas | 2 | All Maps | STV","players":[{"user_id":160,"name":"Arnelcardis","steam_id":76561198018063858,"connected_time":1673000000000,"state":"active","ping":85},{"user_id":184,"name":"Gad","steam_id":76561198020792373,"connected_time":704000000000,"state":"active","ping":61},{"user_id":9,"name":"pleasehelpidonthavefingers","steam_id":76561199367935846,"connected_time":11421000000000,"state":"active","ping":69},{"user_id":135,"name":"Doomagedden","steam_id":76561198272589475,"connected_time":3698000000000,"state":"active","ping":59},{"user_id":150,"name":"ThatGamingKiwi","steam_id":76561199170522237,"connected_time":2761000000000,"state":"active","ping":105},{"user_id":166,"name":"(⓿_⓿)","steam_id":76561198080179262,"connected_time":1289000000000,"state":"active","ping":62},{"user_id":183,"name":"hforce11","steam_id":76561198087647130,"connected_time":885000000000,"state":"active","ping":60},{"user_id":168,"name":"Rat Smacker","steam_id":76561199090197628,"connected_time":1273000000000,"state":"active","ping":67},{"user_id":169,"name":"Schlebecke","steam_id":76561199044752122,"connected_time":1272000000000,"state":"active","ping":83},{"user_id":111,"name":"SHiFT_DeL3TE","steam_id":76561198234965064,"connected_time":4768000000000,"state":"active","ping":63},{"user_id":190,"name":"Hugo_Testicles","steam_id":76561199318142492,"connected_time":92000000000,"state":"active","ping":68},{"user_id":170,"name":"Moonflower ✦","steam_id":76561198191782483,"connected_time":1264000000000,"state":"active","ping":50},{"user_id":188,"name":"sock","steam_id":76561199117597830,"connected_time":256000000000,"state":"active","ping":218},{"user_id":146,"name":"dog","steam_id":76561198263873491,"connected_time":3014000000000,"state":"active","ping":60},{"user_id":173,"name":"ryghehn","steam_id":76561198195359229,"connected_time":1197000000000,"state":"active","ping":100},{"user_id":123,"name":"gretchling","steam_id":76561198046111695,"connected_time":4180000000000,"state":"active","ping":46},{"user_id":179,"name":"poompis","steam_id":76561198160850933,"connected_time":1125000000000,"state":"active","ping":73},{"user_id":175,"name":"birdo","steam_id":76561198093887836,"connected_time":1177000000000,"state":"active","ping":60},{"user_id":186,"name":"momb","steam_id":76561198142234038,"connected_time":416000000000,"state":"active","ping":85},{"user_id":177,"name":"Kzjytsugn","steam_id":76561198130241974,"connected_time":1161000000000,"state":"active","ping":104},{"user_id":152,"name":"Karma","steam_id":76561199112057184,"connected_time":2398000000000,"state":"active","ping":66},{"user_id":153,"name":"Chimpish","steam_id":76561199263493270,"connected_time":2395000000000,"state":"active","ping":95},{"user_id":187,"name":"Sea raider","steam_id":76561198123982355,"connected_time":259000000000,"state":"active","ping":89},{"user_id":189,"name":"D(b) Hell","steam_id":76561198067869016,"connected_time":209000000000,"state":"active","ping":73}]},{"server_id":5,"name":"Uncletopia | Frankfurt | 1 | All Maps","name_short":"frk-1","host":"frk-1.de.uncletopia.com","port":27015,"enabled":true,"region":"eu","cc":"de","latitude":50.110924,"longitude":8.682127,"reserved":0,"last_update":"0001-01-01T00:00:00Z","name_a2s":"Uncletopia | Frankfurt | 1 | All Maps","protocol":17,"map":"pl_snowycoast","folder":"tf","game":"Team Fortress","app_id":440,"player_count":24,"max_players":24,"Bots":0,"server_type":"Dedicated","server_os":"Linux","password":true,"vac":true,"version":"7757534","steam_id":85568392924469989,"keywords":["nocrits","nodmgspread","payload","uncletopia"],"game_id":440,"stv_port":27016,"stv_name":"Uncletopia | Frankfurt | 1 | All Maps | STV","players":[{"user_id":342,"name":"я сосал меня ебал","steam_id":76561197971140507,"connected_time":946000000000,"state":"active","ping":61},{"user_id":349,"name":"Tegnerud","steam_id":76561198214185612,"connected_time":317000000000,"state":"active","ping":74},{"user_id":344,"name":"Deacon Dracul","steam_id":76561198046880663,"connected_time":876000000000,"state":"active","ping":104},{"user_id":346,"name":"Mr.B","steam_id":76561199204478925,"connected_time":708000000000,"state":"active","ping":115},{"user_id":278,"name":"MAKENTAKEN","steam_id":76561199127359587,"connected_time":6625000000000,"state":"active","ping":99},{"user_id":313,"name":"Qwerty","steam_id":76561198023525894,"connected_time":2769000000000,"state":"active","ping":86},{"user_id":325,"name":"Luna","steam_id":76561199140738350,"connected_time":1825000000000,"state":"active","ping":74},{"user_id":330,"name":"Grichka Bogdanoff","steam_id":76561199157330506,"connected_time":1714000000000,"state":"active","ping":71},{"user_id":350,"name":"cursedbygod♡","steam_id":76561198318291047,"connected_time":295000000000,"state":"active","ping":110},{"user_id":259,"name":"elsuedi","steam_id":76561198074722832,"connected_time":7644000000000,"state":"active","ping":52},{"user_id":328,"name":"TidB","steam_id":76561198055342304,"connected_time":1734000000000,"state":"active","ping":57},{"user_id":337,"name":"LOBZIK","steam_id":76561198114830120,"connected_time":1444000000000,"state":"active","ping":76},{"user_id":255,"name":"dn4k","steam_id":76561199221755690,"connected_time":7815000000000,"state":"active","ping":83},{"user_id":352,"name":"engie?","steam_id":76561198331852832,"connected_time":257000000000,"state":"active","ping":58},{"user_id":353,"name":"jones","steam_id":76561198044434971,"connected_time":227000000000,"state":"active","ping":59},{"user_id":358,"name":"KingIsTom","steam_id":76561198890852240,"connected_time":22000000000,"state":"spawning","ping":63},{"user_id":343,"name":"ohio.lottery.contestant4004","steam_id":76561198051852765,"connected_time":929000000000,"state":"active","ping":60},{"user_id":309,"name":"Mr. Mime","steam_id":76561199197676776,"connected_time":3250000000000,"state":"active","ping":175},{"user_id":341,"name":"NukePigg","steam_id":76561198131324143,"connected_time":1066000000000,"state":"active","ping":57},{"user_id":356,"name":"i am not famous anymore","steam_id":76561197994300335,"connected_time":100000000000,"state":"active","ping":81},{"user_id":316,"name":"justgvbe","steam_id":76561199193230375,"connected_time":2451000000000,"state":"active","ping":59},{"user_id":357,"name":"Toot","steam_id":76561198267288496,"connected_time":69000000000,"state":"active","ping":58},{"user_id":324,"name":"röv","steam_id":76561198170330563,"connected_time":1892000000000,"state":"active","ping":101},{"user_id":359,"name":"Rammtrait","steam_id":76561198016436610,"connected_time":0,"state":"spawning","ping":34}]},{"server_id":110,"name":"Uncletopia | Frankfurt | 2 | All Maps","name_short":"frk-2","host":"frk-1.de.uncletopia.com","port":27025,"enabled":true,"region":"eu","cc":"de","latitude":50.110924,"longitude":8.682127,"reserved":0,"last_update":"0001-01-01T00:00:00Z","name_a2s":"Uncletopia | Frankfurt | 2 | All Maps","protocol":17,"map":"pl_badwater","folder":"tf","game":"Team Fortress","app_id":440,"player_count":24,"max_players":24,"Bots":0,"server_type":"Dedicated","server_os":"Linux","password":true,"vac":true,"version":"7757534","steam_id":85568392924469990,"keywords":["nocrits","nodmgspread","payload","uncletopia"],"game_id":440,"stv_port":27026,"stv_name":"Uncletopia | Frankfurt | 2 | All Maps | STV","players":[{"user_id":486,"name":"TF150","steam_id":76561198046839444,"connected_time":8116000000000,"state":"active","ping":93},{"user_id":588,"name":"murf","steam_id":76561199184831395,"connected_time":374000000000,"state":"active","ping":47},{"user_id":583,"name":"errisauroh","steam_id":76561198112701938,"connected_time":517000000000,"state":"active","ping":59},{"user_id":545,"name":"SoupER","steam_id":76561198063056668,"connected_time":4215000000000,"state":"active","ping":59},{"user_id":485,"name":"Exnem","steam_id":76561198072731911,"connected_time":8137000000000,"state":"active","ping":83},{"user_id":550,"name":"Kyle","steam_id":76561198071181745,"connected_time":3477000000000,"state":"active","ping":69},{"user_id":566,"name":"alicealicealicealicealicealicea","steam_id":76561198180361759,"connected_time":2131000000000,"state":"active","ping":52},{"user_id":537,"name":"Borat","steam_id":76561198122226417,"connected_time":5233000000000,"state":"active","ping":58},{"user_id":563,"name":"Weed","steam_id":76561198180008390,"connected_time":2637000000000,"state":"active","ping":92},{"user_id":549,"name":"Suomipe #TF2Center","steam_id":76561198816127818,"connected_time":3482000000000,"state":"active","ping":95},{"user_id":489,"name":"Xenomorph67","steam_id":76561198282017864,"connected_time":8093000000000,"state":"active","ping":88},{"user_id":581,"name":"cinny","steam_id":76561198832112629,"connected_time":551000000000,"state":"active","ping":85},{"user_id":547,"name":"koko","steam_id":76561198953867666,"connected_time":4138000000000,"state":"active","ping":58},{"user_id":589,"name":"SuperBob103","steam_id":76561199175360012,"connected_time":330000000000,"state":"active","ping":68},{"user_id":590,"name":"Mount Wannahockaloogie","steam_id":76561198924316615,"connected_time":306000000000,"state":"active","ping":148},{"user_id":576,"name":"Sandshee","steam_id":76561198088574666,"connected_time":1003000000000,"state":"active","ping":59},{"user_id":584,"name":"TheDozer","steam_id":76561198073850602,"connected_time":497000000000,"state":"active","ping":79},{"user_id":578,"name":"outlaw","steam_id":76561198323805289,"connected_time":819000000000,"state":"active","ping":46},{"user_id":556,"name":"Droy","steam_id":76561198065854668,"connected_time":3240000000000,"state":"active","ping":53},{"user_id":541,"name":"tïger","steam_id":76561198260483157,"connected_time":5162000000000,"state":"active","ping":86},{"user_id":571,"name":"Kkikok","steam_id":76561198055767709,"connected_time":1937000000000,"state":"active","ping":86},{"user_id":585,"name":"Syll","steam_id":76561198040736202,"connected_time":497000000000,"state":"active","ping":89},{"user_id":579,"name":"Tonnoman","steam_id":76561199025710941,"connected_time":750000000000,"state":"active","ping":60},{"user_id":587,"name":"strobery","steam_id":76561198988675980,"connected_time":435000000000,"state":"active","ping":54}]},{"server_id":308,"name":"Uncletopia | Frankfurt | 3 | All Maps","name_short":"frk-3","host":"frk-1.de.uncletopia.com","port":27035,"enabled":true,"region":"eu","cc":"de","latitude":50.110924,"longitude":8.682127,"reserved":0,"last_update":"0001-01-01T00:00:00Z","name_a2s":"Uncletopia | Frankfurt | 3 | All Maps","protocol":17,"map":"koth_lakeside_final","folder":"tf","game":"Team Fortress","app_id":440,"player_count":0,"max_players":24,"Bots":0,"server_type":"Dedicated","server_os":"Linux","password":true,"vac":true,"version":"7757534","steam_id":85568392924504274,"keywords":["cp","nocrits","nodmgspread","uncletopia"],"game_id":440,"stv_port":27036,"stv_name":"Uncletopia | Frankfurt | 3 | All Maps | STV","players":null},{"server_id":309,"name":"Uncletopia | Frankfurt | 4 | All Maps","name_short":"frk-4","host":"frk-1.de.uncletopia.com","port":27045,"enabled":true,"region":"eu","cc":"de","latitude":50.110924,"longitude":8.682127,"reserved":0,"last_update":"0001-01-01T00:00:00Z","name_a2s":"Uncletopia | Frankfurt | 4 | All Maps","protocol":17,"map":"cp_dustbowl","folder":"tf","game":"Team Fortress","app_id":440,"player_count":3,"max_players":24,"Bots":0,"server_type":"Dedicated","server_os":"Linux","password":true,"vac":true,"version":"7757534","steam_id":85568392924504275,"keywords":["cp","nocrits","nodmgspread","uncletopia"],"game_id":440,"stv_port":27046,"stv_name":"Uncletopia | Frankfurt | 4 | All Maps | STV","players":[{"user_id":883,"name":"Frank","steam_id":76561198086672774,"connected_time":426000000000,"state":"active","ping":61},{"user_id":864,"name":"sunshine (he/him)","steam_id":76561198084597975,"connected_time":3778000000000,"state":"active","ping":56},{"user_id":840,"name":"Anonymous47007","steam_id":76561199005211417,"connected_time":5875000000000,"state":"active","ping":69}]},{"server_id":310,"name":"Uncletopia | Frankfurt | 5 | All Maps","name_short":"frk-5","host":"frk-1.de.uncletopia.com","port":27055,"enabled":true,"region":"eu","cc":"de","latitude":50.110924,"longitude":8.682127,"reserved":0,"last_update":"0001-01-01T00:00:00Z","name_a2s":"Uncletopia | Frankfurt | 5 | All Maps","protocol":17,"map":"koth_highpass","folder":"tf","game":"Team Fortress","app_id":440,"player_count":0,"max_players":24,"Bots":0,"server_type":"Dedicated","server_os":"Linux","password":true,"vac":true,"version":"7757534","steam_id":85568392924504277,"keywords":["cp","nocrits","nodmgspread","uncletopia"],"game_id":440,"stv_port":27056,"stv_name":"Uncletopia | Frankfurt | 5 | All Maps | STV","players":null},{"server_id":311,"name":"Uncletopia | Frankfurt | 6 | All Maps","name_short":"frk-6","host":"frk-1.de.uncletopia.com","port":27065,"enabled":true,"region":"eu","cc":"de","latitude":50.110924,"longitude":8.682127,"reserved":0,"last_update":"0001-01-01T00:00:00Z","name_a2s":"Uncletopia | Frankfurt | 6 | All Maps","protocol":17,"map":"pl_swiftwater_final1","folder":"tf","game":"Team Fortress","app_id":440,"player_count":20,"max_players":24,"Bots":0,"server_type":"Dedicated","server_os":"Linux","password":true,"vac":true,"version":"7757534","steam_id":85568392924504278,"keywords":["nocrits","nodmgspread","payload","uncletopia"],"game_id":440,"stv_port":27066,"stv_name":"Uncletopia | Frankfurt | 6 | All Maps | STV","players":[{"user_id":538,"name":"✪","steam_id":76561198811738907,"connected_time":410000000000,"state":"active","ping":144},{"user_id":536,"name":"Aesthetic Alcoholism","steam_id":76561198044418968,"connected_time":599000000000,"state":"active","ping":48},{"user_id":529,"name":"Xiqui","steam_id":76561198818386611,"connected_time":830000000000,"state":"active","ping":78},{"user_id":544,"name":"Kan0_","steam_id":76561198129596771,"connected_time":141000000000,"state":"active","ping":54},{"user_id":539,"name":"siraidenx","steam_id":76561198164561478,"connected_time":391000000000,"state":"active","ping":149},{"user_id":542,"name":"suyex","steam_id":76561198331165901,"connected_time":313000000000,"state":"active","ping":56},{"user_id":533,"name":"Robzy","steam_id":76561198082387972,"connected_time":715000000000,"state":"active","ping":62},{"user_id":543,"name":"Chuck Mcgill Gaming","steam_id":76561198074001910,"connected_time":253000000000,"state":"active","ping":84},{"user_id":535,"name":"Timpanojnoj","steam_id":76561197970334448,"connected_time":640000000000,"state":"active","ping":72},{"user_id":498,"name":"meriones","steam_id":76561198034234373,"connected_time":2995000000000,"state":"active","ping":50},{"user_id":497,"name":"smell_my_cheese","steam_id":76561198008517427,"connected_time":3046000000000,"state":"active","ping":71},{"user_id":541,"name":"MagalaxShiro","steam_id":76561198079071492,"connected_time":352000000000,"state":"active","ping":66},{"user_id":519,"name":"ABBA_fan_547","steam_id":76561198114601678,"connected_time":2134000000000,"state":"active","ping":73},{"user_id":492,"name":"Pope John Paul III","steam_id":76561197999421201,"connected_time":3468000000000,"state":"active","ping":82},{"user_id":520,"name":"LiterallyRyanGosling","steam_id":76561199017856691,"connected_time":2072000000000,"state":"active","ping":66},{"user_id":545,"name":"tayro","steam_id":76561198202990635,"connected_time":123000000000,"state":"active","ping":60},{"user_id":546,"name":"Smalstro","steam_id":76561199227819604,"connected_time":117000000000,"state":"active","ping":191},{"user_id":501,"name":"Balls","steam_id":76561198086400484,"connected_time":2899000000000,"state":"active","ping":75},{"user_id":547,"name":"Ott","steam_id":76561198276464481,"connected_time":61000000000,"state":"active","ping":69},{"user_id":510,"name":"Shovelhalfrusty","steam_id":76561198346447513,"connected_time":2556000000000,"state":"active","ping":88}]},{"server_id":23,"name":"Uncletopia | Frankfurt | 7 | Stopwatch Beta","name_short":"frk-7","host":"frk-1.de.uncletopia.com","port":27075,"enabled":true,"region":"eu","cc":"de","latitude":50.110924,"longitude":8.682127,"reserved":0,"last_update":"0001-01-01T00:00:00Z","name_a2s":"Uncletopia | Frankfurt | 7 | Stopwatch Beta","protocol":17,"map":"workshop/pl_barnblitz_pro7.ugc582280235","folder":"tf","game":"Team Fortress","app_id":440,"player_count":0,"max_players":24,"Bots":0,"server_type":"Dedicated","server_os":"Linux","password":true,"vac":true,"version":"7757534","steam_id":85568392924742827,"keywords":["nocrits","nodmgspread","payload","uncletopia"],"game_id":440,"stv_port":27076,"stv_name":"Uncletopia | Frankfurt | 7 | Stopwatch Beta | STV","players":null},{"server_id":24,"name":"Uncletopia | Frankfurt | 8 | Community","name_short":"frk-8","host":"frk-1.de.uncletopia.com","port":27085,"enabled":true,"region":"eu","cc":"de","latitude":50.110924,"longitude":8.682127,"reserved":0,"last_update":"0001-01-01T00:00:00Z","name_a2s":"Uncletopia | Frankfurt | 8 | Community","protocol":17,"map":"workshop/koth_ashville_final.ugc2130459942","folder":"tf","game":"Team Fortress","app_id":440,"player_count":0,"max_players":24,"Bots":0,"server_type":"Dedicated","server_os":"Linux","password":true,"vac":true,"version":"7757534","steam_id":85568392924742828,"keywords":["cp","nocrits","nodmgspread","uncletopia"],"game_id":440,"stv_port":27086,"stv_name":"Uncletopia | Frankfurt | 8 | Community | STV","players":null},{"server_id":202,"name":"Uncletopia | Hong Kong | 1 | All Maps","name_short":"hgk-1","host":"hgk-1.hk.uncletopia.com","port":27015,"enabled":true,"region":"asia","cc":"hk","latitude":22.302711,"longitude":114.177216,"reserved":0,"last_update":"0001-01-01T00:00:00Z","name_a2s":"Uncletopia | Hong Kong | 1 | All Maps","protocol":17,"map":"pl_borneo","folder":"tf","game":"Team Fortress","app_id":440,"player_count":0,"max_players":24,"Bots":0,"server_type":"Dedicated","server_os":"Linux","password":true,"vac":true,"version":"7757534","steam_id":85568392924494504,"keywords":["nocrits","nodmgspread","payload","uncletopia"],"game_id":440,"stv_port":27016,"stv_name":"Uncletopia | Hong Kong | 1 | All Maps | STV","players":null},{"server_id":1,"name":"Uncletopia | Los Angeles | 1 | All Maps","name_short":"lax-1","host":"lax-1.us.uncletopia.com","port":27015,"enabled":true,"region":"us-west","cc":"us","latitude":33.94279,"longitude":-118.41004,"reserved":0,"last_update":"0001-01-01T00:00:00Z","name_a2s":"Uncletopia | Los Angeles | 1 | All Maps","protocol":17,"map":"pl_upward","folder":"tf","game":"Team Fortress","app_id":440,"player_count":24,"max_players":24,"Bots":0,"server_type":"Dedicated","server_os":"Linux","password":true,"vac":true,"version":"7757534","steam_id":85568392924469991,"keywords":["nocrits","nodmgspread","payload","uncletopia"],"game_id":440,"stv_port":27016,"stv_name":"Uncletopia | Los Angeles | 1 | All Maps | STV","players":[{"user_id":65,"name":"Minedark","steam_id":76561198250995706,"connected_time":178000000000,"state":"active","ping":76},{"user_id":10,"name":"Ultimate Prinny Battle God!","steam_id":76561198087574100,"connected_time":3211000000000,"state":"active","ping":55},{"user_id":57,"name":"Chad","steam_id":76561198222313772,"connected_time":743000000000,"state":"active","ping":130},{"user_id":58,"name":"*Gage*","steam_id":76561197975233869,"connected_time":702000000000,"state":"active","ping":91},{"user_id":66,"name":"BigBubble42","steam_id":76561198136286123,"connected_time":141000000000,"state":"active","ping":58},{"user_id":64,"name":"CrackedFish679","steam_id":76561198823599006,"connected_time":242000000000,"state":"active","ping":148},{"user_id":16,"name":"Nuggies","steam_id":76561198272432592,"connected_time":2721000000000,"state":"active","ping":58},{"user_id":27,"name":"mkl","steam_id":76561197986401685,"connected_time":2007000000000,"state":"active","ping":87},{"user_id":71,"name":"moosin","steam_id":76561198162143939,"connected_time":119000000000,"state":"active","ping":78},{"user_id":59,"name":"Rivi","steam_id":76561198086635699,"connected_time":656000000000,"state":"active","ping":135},{"user_id":62,"name":"Jeffrey Chan","steam_id":76561199470601524,"connected_time":389000000000,"state":"active","ping":121},{"user_id":53,"name":"Tec________________________WANG","steam_id":76561198141482152,"connected_time":828000000000,"state":"active","ping":45},{"user_id":35,"name":"Snack","steam_id":76561198125077563,"connected_time":1161000000000,"state":"active","ping":83},{"user_id":36,"name":"Brek","steam_id":76561198109859067,"connected_time":1154000000000,"state":"active","ping":72},{"user_id":68,"name":"OG Izzy","steam_id":76561198162715742,"connected_time":129000000000,"state":"active","ping":31},{"user_id":38,"name":"Mop","steam_id":76561198108759102,"connected_time":1143000000000,"state":"active","ping":61},{"user_id":70,"name":"Boy_Blue","steam_id":76561198142150093,"connected_time":128000000000,"state":"active","ping":135},{"user_id":60,"name":"Driving Cat Orange (real cat)","steam_id":76561199067771554,"connected_time":633000000000,"state":"active","ping":102},{"user_id":42,"name":"Lemon Luke","steam_id":76561199141696546,"connected_time":1078000000000,"state":"active","ping":89},{"user_id":43,"name":"Loaf","steam_id":76561199220083136,"connected_time":1056000000000,"state":"active","ping":85},{"user_id":49,"name":"a chicken","steam_id":76561198313121580,"connected_time":939000000000,"state":"active","ping":45},{"user_id":50,"name":"LeBron James Ferraro","steam_id":76561197995200743,"connected_time":924000000000,"state":"active","ping":30},{"user_id":61,"name":"Cracked In A Can","steam_id":76561198153788401,"connected_time":613000000000,"state":"active","ping":37},{"user_id":72,"name":"Deeply","steam_id":76561199000786530,"connected_time":109000000000,"state":"active","ping":98}]},{"server_id":112,"name":"Uncletopia | Los Angeles | 2 | All Maps","name_short":"lax-2","host":"lax-1.us.uncletopia.com","port":27025,"enabled":true,"region":"us-west","cc":"us","latitude":33.94279,"longitude":-118.41004,"reserved":0,"last_update":"0001-01-01T00:00:00Z","name_a2s":"Uncletopia | Los Angeles | 2 | All Maps","protocol":17,"map":"pl_frontier_final","folder":"tf","game":"Team Fortress","app_id":440,"player_count":24,"max_players":24,"Bots":0,"server_type":"Dedicated","server_os":"Linux","password":true,"vac":true,"version":"7757534","steam_id":85568392924469992,"keywords":["nocrits","nodmgspread","payload","uncletopia"],"game_id":440,"stv_port":27026,"stv_name":"Uncletopia | Los Angeles | 2 | All Maps | STV","players":[{"user_id":202,"name":"Not A Rapper","steam_id":76561198077523537,"connected_time":1466000000000,"state":"active","ping":105},{"user_id":68,"name":"Honey Boo Boo","steam_id":76561198119340886,"connected_time":10519000000000,"state":"active","ping":100},{"user_id":203,"name":"joethefool","steam_id":76561199015436319,"connected_time":1441000000000,"state":"active","ping":114},{"user_id":201,"name":"Mini","steam_id":76561198119708149,"connected_time":1472000000000,"state":"active","ping":55},{"user_id":219,"name":"Whoplops","steam_id":76561197977188933,"connected_time":690000000000,"state":"active","ping":117},{"user_id":191,"name":"e7","steam_id":76561198154265084,"connected_time":2521000000000,"state":"active","ping":57},{"user_id":212,"name":"Iron Argus","steam_id":76561198181088245,"connected_time":858000000000,"state":"active","ping":123},{"user_id":192,"name":"Grand Piano Tuna","steam_id":76561198135137213,"connected_time":2452000000000,"state":"active","ping":92},{"user_id":222,"name":"A Shiny Meat Bicycle","steam_id":76561198358757709,"connected_time":508000000000,"state":"active","ping":124},{"user_id":221,"name":"flo rida","steam_id":76561198226169704,"connected_time":603000000000,"state":"active","ping":53},{"user_id":210,"name":"MoonlightDragon","steam_id":76561198124808865,"connected_time":868000000000,"state":"active","ping":104},{"user_id":215,"name":"Remedy Rex","steam_id":76561198181128247,"connected_time":814000000000,"state":"active","ping":69},{"user_id":217,"name":"Dani","steam_id":76561198348012378,"connected_time":803000000000,"state":"active","ping":211},{"user_id":168,"name":"Scuff1e","steam_id":76561198272995728,"connected_time":3593000000000,"state":"active","ping":82},{"user_id":208,"name":"Ceph","steam_id":76561199223559872,"connected_time":1119000000000,"state":"active","ping":43},{"user_id":187,"name":"Triforce141","steam_id":76561198063896776,"connected_time":2692000000000,"state":"active","ping":72},{"user_id":195,"name":"DonoC","steam_id":76561198274473338,"connected_time":2352000000000,"state":"active","ping":90},{"user_id":218,"name":"EastSideKidd","steam_id":76561199292266424,"connected_time":786000000000,"state":"active","ping":110},{"user_id":158,"name":"Florence Jenkins","steam_id":76561198023894049,"connected_time":4160000000000,"state":"active","ping":77},{"user_id":220,"name":"Birdbern","steam_id":76561198122383177,"connected_time":680000000000,"state":"active","ping":115},{"user_id":207,"name":"Gary Budussy","steam_id":76561197969793969,"connected_time":1270000000000,"state":"active","ping":86},{"user_id":213,"name":"brucking","steam_id":76561198348213337,"connected_time":854000000000,"state":"active","ping":68},{"user_id":142,"name":"NanoBotSigma","steam_id":76561198134449532,"connected_time":5205000000000,"state":"active","ping":84},{"user_id":165,"name":"darktheif54","steam_id":76561198043650119,"connected_time":3780000000000,"state":"active","ping":54}]},{"server_id":324,"name":"Uncletopia | Los Angeles | 3 | All Maps","name_short":"lax-3","host":"lax-1.us.uncletopia.com","port":27035,"enabled":true,"region":"us-west","cc":"us","latitude":33.94279,"longitude":-118.41004,"reserved":0,"last_update":"0001-01-01T00:00:00Z","name_a2s":"Uncletopia | Los Angeles | 3 | All Maps","protocol":17,"map":"pl_snowycoast","folder":"tf","game":"Team Fortress","app_id":440,"player_count":0,"max_players":24,"Bots":0,"server_type":"Dedicated","server_os":"Linux","password":true,"vac":true,"version":"7757534","steam_id":85568392924510198,"keywords":["nocrits","nodmgspread","payload","uncletopia"],"game_id":440,"stv_port":27036,"stv_name":"Uncletopia | Los Angeles | 3 | All Maps | STV","players":null},{"server_id":25,"name":"Uncletopia | Los Angeles | 4 | Stopwatch Beta","name_short":"lax-4","host":"lax-1.us.uncletopia.com","port":27045,"enabled":true,"region":"us-west","cc":"us","latitude":33.94279,"longitude":-118.41004,"reserved":0,"last_update":"0001-01-01T00:00:00Z","name_a2s":"Uncletopia | Los Angeles | 4 | Stopwatch Beta","protocol":17,"map":"pl_swiftwater_final1","folder":"tf","game":"Team Fortress","app_id":440,"player_count":0,"max_players":24,"Bots":0,"server_type":"Dedicated","server_os":"Linux","password":true,"vac":true,"version":"7757534","steam_id":85568392924510199,"keywords":["nocrits","nodmgspread","payload","uncletopia"],"game_id":440,"stv_port":27046,"stv_name":"Uncletopia | Los Angeles | 4 | Stopwatch Beta | STV","players":null},{"server_id":11,"name":"Uncletopia | London | 1 | All Maps","name_short":"lon-1","host":"lon-1.uk.uncletopia.com","port":27015,"enabled":true,"region":"eu","cc":"gb","latitude":51.509865,"longitude":-0.118092,"reserved":0,"last_update":"0001-01-01T00:00:00Z","name_a2s":"Uncletopia | London | 1 | All Maps","protocol":17,"map":"pl_pier","folder":"tf","game":"Team Fortress","app_id":440,"player_count":24,"max_players":24,"Bots":0,"server_type":"Dedicated","server_os":"Linux","password":true,"vac":true,"version":"7757534","steam_id":85568392924367362,"keywords":["nocrits","nodmgspread","payload","uncletopia"],"game_id":440,"stv_port":27016,"stv_name":"Uncletopia | London | 1 | All Maps | STV","players":[{"user_id":693,"name":"Atlas","steam_id":76561198072189527,"connected_time":1254000000000,"state":"active","ping":52},{"user_id":645,"name":"♥ aura ♥","steam_id":76561198066258544,"connected_time":5346000000000,"state":"active","ping":61},{"user_id":665,"name":"bonk","steam_id":76561198953939723,"connected_time":3181000000000,"state":"active","ping":109},{"user_id":596,"name":"Dwevy - Muted","steam_id":76561198090379437,"connected_time":9185000000000,"state":"active","ping":49},{"user_id":658,"name":"Dark ^^","steam_id":76561198036241064,"connected_time":4413000000000,"state":"active","ping":64},{"user_id":694,"name":"ack","steam_id":76561198139796077,"connected_time":1249000000000,"state":"active","ping":45},{"user_id":700,"name":"a perfectly fine dog","steam_id":76561198000890796,"connected_time":996000000000,"state":"active","ping":98},{"user_id":574,"name":"KPhii","steam_id":76561198970587061,"connected_time":11626000000000,"state":"active","ping":68},{"user_id":631,"name":"Son Goku","steam_id":76561199383437138,"connected_time":7916000000000,"state":"active","ping":112},{"user_id":687,"name":"✪ qua ✪","steam_id":76561198066408333,"connected_time":1677000000000,"state":"active","ping":85},{"user_id":688,"name":"Kristianma","steam_id":76561198021772843,"connected_time":1560000000000,"state":"active","ping":62},{"user_id":702,"name":"ThePigKing","steam_id":76561198124945814,"connected_time":519000000000,"state":"active","ping":55},{"user_id":681,"name":"Minimi","steam_id":76561198873850443,"connected_time":2416000000000,"state":"active","ping":43},{"user_id":696,"name":"Bonca","steam_id":76561198137503531,"connected_time":1123000000000,"state":"active","ping":74},{"user_id":679,"name":"Girlboy Theenie","steam_id":76561198029025500,"connected_time":2785000000000,"state":"active","ping":50},{"user_id":635,"name":"sm0ke","steam_id":76561198198977226,"connected_time":6921000000000,"state":"active","ping":76},{"user_id":671,"name":"Kurage","steam_id":76561198021221288,"connected_time":3077000000000,"state":"active","ping":62},{"user_id":680,"name":"beebo","steam_id":76561199120277007,"connected_time":2573000000000,"state":"active","ping":51},{"user_id":697,"name":"rup ladies","steam_id":76561198119449463,"connected_time":1096000000000,"state":"active","ping":46},{"user_id":676,"name":"Arcader","steam_id":76561198109860110,"connected_time":2943000000000,"state":"active","ping":69},{"user_id":701,"name":"TheJudgeShot","steam_id":76561198105060723,"connected_time":975000000000,"state":"active","ping":56},{"user_id":690,"name":"Joy","steam_id":76561198155314925,"connected_time":1514000000000,"state":"active","ping":53},{"user_id":630,"name":"Baki ඞ","steam_id":76561198193615529,"connected_time":7955000000000,"state":"active","ping":64},{"user_id":699,"name":"Oxy:*","steam_id":76561198275120049,"connected_time":1083000000000,"state":"active","ping":71}]},{"server_id":114,"name":"Uncletopia | London | 2 | All Maps","name_short":"lon-2","host":"lon-1.uk.uncletopia.com","port":27025,"enabled":true,"region":"eu","cc":"gb","latitude":51.509865,"longitude":-0.118092,"reserved":0,"last_update":"0001-01-01T00:00:00Z","name_a2s":"Uncletopia | London | 2 | All Maps","protocol":17,"map":"pl_snowycoast","folder":"tf","game":"Team Fortress","app_id":440,"player_count":15,"max_players":24,"Bots":0,"server_type":"Dedicated","server_os":"Linux","password":true,"vac":true,"version":"7757534","steam_id":85568392924470941,"keywords":["nocrits","nodmgspread","payload","uncletopia"],"game_id":440,"stv_port":27026,"stv_name":"Uncletopia | London | 2 | All Maps | STV","players":[{"user_id":505,"name":"FlukeY","steam_id":76561198026137327,"connected_time":2184000000000,"state":"active","ping":60},{"user_id":530,"name":"Tom","steam_id":76561198008519979,"connected_time":261000000000,"state":"active","ping":67},{"user_id":531,"name":"Jiant","steam_id":76561198374998274,"connected_time":229000000000,"state":"active","ping":66},{"user_id":517,"name":"Glasta","steam_id":76561198176669382,"connected_time":1548000000000,"state":"active","ping":42},{"user_id":520,"name":"pfydo","steam_id":76561198122426122,"connected_time":1467000000000,"state":"active","ping":137},{"user_id":532,"name":"Bronze Age Furvert","steam_id":76561198859118263,"connected_time":207000000000,"state":"active","ping":143},{"user_id":483,"name":"ehehehehehhe","steam_id":76561198044502435,"connected_time":3027000000000,"state":"active","ping":94},{"user_id":488,"name":"GipsySorcerer","steam_id":76561198170020311,"connected_time":2860000000000,"state":"active","ping":79},{"user_id":535,"name":"hananamanna","steam_id":76561198006570285,"connected_time":76000000000,"state":"active","ping":114},{"user_id":534,"name":"kittycat959","steam_id":76561198182054933,"connected_time":82000000000,"state":"active","ping":69},{"user_id":493,"name":"Onshoe","steam_id":76561198253877489,"connected_time":2735000000000,"state":"active","ping":85},{"user_id":516,"name":"Snowmotion","steam_id":76561198075022454,"connected_time":1556000000000,"state":"active","ping":68},{"user_id":518,"name":"Alfred","steam_id":76561198348799252,"connected_time":1524000000000,"state":"active","ping":45},{"user_id":519,"name":"skitarii enjoyer","steam_id":76561198220245604,"connected_time":1517000000000,"state":"active","ping":73},{"user_id":498,"name":"coo coo coo cha","steam_id":76561198007792525,"connected_time":2546000000000,"state":"active","ping":44}]},{"server_id":320,"name":"Uncletopia | London | 3 | All Maps","name_short":"lon-3","host":"lon-1.uk.uncletopia.com","port":27035,"enabled":true,"region":"eu","cc":"gb","latitude":51.509865,"longitude":-0.118092,"reserved":0,"last_update":"0001-01-01T00:00:00Z","name_a2s":"Uncletopia | London | 3 | All Maps","protocol":17,"map":"cp_yukon_final","folder":"tf","game":"Team Fortress","app_id":440,"player_count":24,"max_players":24,"Bots":0,"server_type":"Dedicated","server_os":"Linux","password":true,"vac":true,"version":"7757534","steam_id":85568392924510192,"keywords":["cp","nocrits","nodmgspread","uncletopia"],"game_id":440,"stv_port":27036,"stv_name":"Uncletopia | London | 3 | All Maps | STV","players":[{"user_id":671,"name":"randompixel","steam_id":76561198003941207,"connected_time":2178000000000,"state":"active","ping":56},{"user_id":680,"name":"milktea","steam_id":76561198080168182,"connected_time":1798000000000,"state":"active","ping":75},{"user_id":692,"name":"New","steam_id":76561198402195911,"connected_time":1349000000000,"state":"active","ping":113},{"user_id":700,"name":"mumbler","steam_id":76561197970641239,"connected_time":604000000000,"state":"active","ping":56},{"user_id":707,"name":"Jon Snuh","steam_id":76561198075298635,"connected_time":409000000000,"state":"active","ping":135},{"user_id":708,"name":"Skinny101","steam_id":76561197985599360,"connected_time":385000000000,"state":"active","ping":48},{"user_id":701,"name":"|| Igorex95 ||","steam_id":76561198413771226,"connected_time":593000000000,"state":"active","ping":101},{"user_id":677,"name":"Mari Christmas","steam_id":76561197997020707,"connected_time":1811000000000,"state":"active","ping":51},{"user_id":699,"name":"Jonathan","steam_id":76561198087988880,"connected_time":807000000000,"state":"active","ping":75},{"user_id":696,"name":"Mau","steam_id":76561198003382595,"connected_time":1106000000000,"state":"active","ping":45},{"user_id":650,"name":"aa.aa","steam_id":76561198269505103,"connected_time":4169000000000,"state":"active","ping":54},{"user_id":702,"name":"God's Goofiest Goober","steam_id":76561198103175187,"connected_time":580000000000,"state":"active","ping":65},{"user_id":709,"name":"Dirty Joe","steam_id":76561198142418870,"connected_time":6000000000,"state":"spawning","ping":258},{"user_id":679,"name":"nedilya","steam_id":76561198039692077,"connected_time":1809000000000,"state":"active","ping":60},{"user_id":681,"name":"gibb (official)","steam_id":76561198074097655,"connected_time":1777000000000,"state":"active","ping":45},{"user_id":647,"name":"Squeek","steam_id":76561198037498898,"connected_time":4255000000000,"state":"active","ping":57},{"user_id":657,"name":"Sydney\u003c3","steam_id":76561199478564380,"connected_time":3755000000000,"state":"active","ping":145},{"user_id":689,"name":"Sarah Obama Michella","steam_id":76561198078996559,"connected_time":1619000000000,"state":"active","ping":82},{"user_id":704,"name":"flan","steam_id":76561198271900816,"connected_time":557000000000,"state":"active","ping":46},{"user_id":705,"name":"etc","steam_id":76561197998394797,"connected_time":547000000000,"state":"active","ping":57},{"user_id":706,"name":"truebosnianking","steam_id":76561199440060597,"connected_time":531000000000,"state":"active","ping":87},{"user_id":660,"name":"RuneShine","steam_id":76561198007098323,"connected_time":3727000000000,"state":"active","ping":45},{"user_id":662,"name":"Whisper","steam_id":76561197990890595,"connected_time":3645000000000,"state":"active","ping":63},{"user_id":682,"name":"OutOfDucks","steam_id":76561198166376227,"connected_time":1774000000000,"state":"active","ping":55}]},{"server_id":321,"name":"Uncletopia | London | 4 | All Maps","name_short":"lon-4","host":"lon-1.uk.uncletopia.com","port":27045,"enabled":true,"region":"eu","cc":"gb","latitude":51.509865,"longitude":-0.118092,"reserved":0,"last_update":"0001-01-01T00:00:00Z","name_a2s":"Uncletopia | London | 4 | All Maps","protocol":17,"map":"cp_dustbowl","folder":"tf","game":"Team Fortress","app_id":440,"player_count":18,"max_players":24,"Bots":0,"server_type":"Dedicated","server_os":"Linux","password":true,"vac":true,"version":"7757534","steam_id":85568392924510193,"keywords":["cp","nocrits","nodmgspread","uncletopia"],"game_id":440,"stv_port":27046,"stv_name":"Uncletopia | London | 4 | All Maps | STV","players":[{"user_id":386,"name":"Rezkey","steam_id":76561198206079048,"connected_time":1205000000000,"state":"active","ping":45},{"user_id":344,"name":"DaBrowser","steam_id":76561198142654072,"connected_time":3921000000000,"state":"active","ping":86},{"user_id":363,"name":"Modge","steam_id":76561198034119979,"connected_time":2388000000000,"state":"active","ping":51},{"user_id":266,"name":"Lyncurion","steam_id":76561199260022725,"connected_time":10161000000000,"state":"active","ping":79},{"user_id":336,"name":"Nameless","steam_id":76561198084215731,"connected_time":4672000000000,"state":"active","ping":31},{"user_id":379,"name":"tm`","steam_id":76561197993580412,"connected_time":1615000000000,"state":"active","ping":70},{"user_id":366,"name":"Brallerin","steam_id":76561198060026189,"connected_time":2190000000000,"state":"active","ping":53},{"user_id":392,"name":"Shwal","steam_id":76561198138840448,"connected_time":145000000000,"state":"active","ping":141},{"user_id":368,"name":"retarded demoman","steam_id":76561198029932939,"connected_time":2045000000000,"state":"active","ping":90},{"user_id":380,"name":"the indomitable human spirit","steam_id":76561198718760200,"connected_time":1613000000000,"state":"active","ping":45},{"user_id":385,"name":"owl","steam_id":76561197998066985,"connected_time":1244000000000,"state":"active","ping":72},{"user_id":375,"name":"Kenlaboss","steam_id":76561198022848412,"connected_time":1840000000000,"state":"active","ping":70},{"user_id":381,"name":"Valen","steam_id":76561198049614521,"connected_time":1601000000000,"state":"active","ping":75},{"user_id":390,"name":"AsuX","steam_id":76561197990333289,"connected_time":542000000000,"state":"active","ping":59},{"user_id":391,"name":":weed:","steam_id":76561198388750592,"connected_time":299000000000,"state":"active","ping":71},{"user_id":383,"name":"Economic crisis","steam_id":76561198063562843,"connected_time":1438000000000,"state":"active","ping":61},{"user_id":338,"name":"cat","steam_id":76561198832231975,"connected_time":4537000000000,"state":"active","ping":91},{"user_id":384,"name":"(1)cat","steam_id":76561198305304708,"connected_time":1332000000000,"state":"active","ping":46}]},{"server_id":21,"name":"Uncletopia | London | 5 | All Maps","name_short":"lon-5","host":"lon-1.uk.uncletopia.com","port":27055,"enabled":true,"region":"eu","cc":"gb","latitude":51.509865,"longitude":-0.118092,"reserved":0,"last_update":"0001-01-01T00:00:00Z","name_a2s":"Uncletopia | London | 5 | All Maps","protocol":17,"map":"cp_mountainlab","folder":"tf","game":"Team Fortress","app_id":440,"player_count":0,"max_players":24,"Bots":0,"server_type":"Dedicated","server_os":"Linux","password":true,"vac":true,"version":"7757534","steam_id":85568392924742829,"keywords":["cp","nocrits","nodmgspread","uncletopia"],"game_id":440,"stv_port":27056,"stv_name":"Uncletopia | London | 5 | All Maps | STV","players":null},{"server_id":22,"name":"Uncletopia | London | 6 | All Maps","name_short":"lon-6","host":"lon-1.uk.uncletopia.com","port":27065,"enabled":true,"region":"eu","cc":"gb","latitude":51.509865,"longitude":-0.118092,"reserved":0,"last_update":"0001-01-01T00:00:00Z","name_a2s":"Uncletopia | London | 6 | All Maps","protocol":17,"map":"cp_altitude","folder":"tf","game":"Team Fortress","app_id":440,"player_count":0,"max_players":24,"Bots":0,"server_type":"Dedicated","server_os":"Linux","password":true,"vac":true,"version":"7757534","steam_id":85568392924742830,"keywords":["cp","nocrits","nodmgspread","uncletopia"],"game_id":440,"stv_port":27066,"stv_name":"Uncletopia | London | 6 | All Maps | STV","players":null},{"server_id":40,"name":"Uncletopia | London | 7 | No Payload","name_short":"lon-7","host":"lon-1.uk.uncletopia.com","port":27075,"enabled":true,"region":"eu","cc":"gb","latitude":51.509865,"longitude":-0.118092,"reserved":0,"last_update":"0001-01-01T00:00:00Z","name_a2s":"Uncletopia | London | 7 | No Payload","protocol":17,"map":"koth_sawmill","folder":"tf","game":"Team Fortress","app_id":440,"player_count":0,"max_players":24,"Bots":0,"server_type":"Dedicated","server_os":"Linux","password":true,"vac":true,"version":"7757534","steam_id":85568392924964314,"keywords":["cp","nocrits","nodmgspread","uncletopia"],"game_id":440,"stv_port":27076,"stv_name":"Uncletopia | London | 7 | No Payload | STV","players":null},{"server_id":41,"name":"Uncletopia | London | 8 | Community","name_short":"lon-8","host":"lon-1.uk.uncletopia.com","port":27085,"enabled":true,"region":"eu","cc":"gb","latitude":51.509865,"longitude":-0.118092,"reserved":0,"last_update":"0001-01-01T00:00:00Z","name_a2s":"Uncletopia | London | 8 | Community","protocol":17,"map":"pl_barnblitz","folder":"tf","game":"Team Fortress","app_id":440,"player_count":0,"max_players":24,"Bots":0,"server_type":"Dedicated","server_os":"Linux","password":true,"vac":true,"version":"7757534","steam_id":85568392924964315,"keywords":["nocrits","nodmgspread","payload","uncletopia"],"game_id":440,"stv_port":27086,"stv_name":"Uncletopia | London | 8 | Community | STV","players":null},{"server_id":300,"name":"Uncletopia | Montréal | 1 | All Maps","name_short":"mtl-1","host":"mtl-1.ca.uncletopia.com","port":27015,"enabled":true,"region":"us-east","cc":"ca","latitude":45.50889,"longitude":-73.56167,"reserved":0,"last_update":"0001-01-01T00:00:00Z","name_a2s":"Uncletopia | Montréal | 1 | All Maps","protocol":17,"map":"pl_pier","folder":"tf","game":"Team Fortress","app_id":440,"player_count":0,"max_players":24,"Bots":0,"server_type":"Dedicated","server_os":"Linux","password":true,"vac":true,"version":"7757534","steam_id":85568392924500087,"keywords":["nocrits","nodmgspread","payload","uncletopia"],"game_id":440,"stv_port":27016,"stv_name":"Uncletopia | Montréal | 1 | All Maps | STV","players":null},{"server_id":301,"name":"Uncletopia | Montréal | 2 | All Maps","name_short":"mtl-2","host":"mtl-1.ca.uncletopia.com","port":27025,"enabled":true,"region":"us-east","cc":"ca","latitude":45.50889,"longitude":-73.56167,"reserved":0,"last_update":"0001-01-01T00:00:00Z","name_a2s":"Uncletopia | Montréal | 2 | All Maps","protocol":17,"map":"pl_snowycoast","folder":"tf","game":"Team Fortress","app_id":440,"player_count":0,"max_players":24,"Bots":0,"server_type":"Dedicated","server_os":"Linux","password":true,"vac":true,"version":"7757534","steam_id":85568392924500088,"keywords":["nocrits","nodmgspread","payload","uncletopia"],"game_id":440,"stv_port":27026,"stv_name":"Uncletopia | Montréal | 2 | All Maps | STV","players":null},{"server_id":302,"name":"Uncletopia | Montréal | 3 | All Maps","name_short":"mtl-3","host":"mtl-1.ca.uncletopia.com","port":27035,"enabled":true,"region":"us-east","cc":"ca","latitude":45.50889,"longitude":-73.56167,"reserved":0,"last_update":"0001-01-01T00:00:00Z","name_a2s":"Uncletopia | Montréal | 3 | All Maps","protocol":17,"map":"pl_swiftwater_final1","folder":"tf","game":"Team Fortress","app_id":440,"player_count":0,"max_players":24,"Bots":0,"server_type":"Dedicated","server_os":"Linux","password":true,"vac":true,"version":"7757534","steam_id":85568392924500089,"keywords":["nocrits","nodmgspread","payload","uncletopia"],"game_id":440,"stv_port":27036,"stv_name":"Uncletopia | Montréal | 3 | All Maps | STV","players":null},{"server_id":303,"name":"Uncletopia | Montréal | 4 | No Payload","name_short":"mtl-4","host":"mtl-1.ca.uncletopia.com","port":27045,"enabled":true,"region":"us-east","cc":"ca","latitude":45.50889,"longitude":-73.56167,"reserved":0,"last_update":"0001-01-01T00:00:00Z","name_a2s":"Uncletopia | Montréal | 4 | No Payload","protocol":17,"map":"cp_steel","folder":"tf","game":"Team Fortress","app_id":440,"player_count":0,"max_players":24,"Bots":0,"server_type":"Dedicated","server_os":"Linux","password":true,"vac":true,"version":"7757534","steam_id":85568392924500090,"keywords":["cp","nocrits","nodmgspread","uncletopia"],"game_id":440,"stv_port":27046,"stv_name":"Uncletopia | Montréal | 4 | No Payload | STV","players":null},{"server_id":13,"name":"Uncletopia | New York City | 1 | All Maps","name_short":"nyc-1","host":"nyc-1.us.uncletopia.com","port":27015,"enabled":true,"region":"us-east","cc":"us","latitude":40.73061,"longitude":-73.93524,"reserved":0,"last_update":"0001-01-01T00:00:00Z","name_a2s":"Uncletopia | New York City | 1 | All Maps","protocol":17,"map":"pl_badwater","folder":"tf","game":"Team Fortress","app_id":440,"player_count":24,"max_players":24,"Bots":0,"server_type":"Dedicated","server_os":"Linux","password":true,"vac":true,"version":"7757534","steam_id":85568392924469993,"keywords":["nocrits","nodmgspread","payload","uncletopia"],"game_id":440,"stv_port":27016,"stv_name":"Uncletopia | New York City | 1 | All Maps | STV","players":[{"user_id":398,"name":"FLORAL COMPUTING","steam_id":76561199056492130,"connected_time":46000000000,"state":"active","ping":48},{"user_id":397,"name":"Oh no","steam_id":76561198123441203,"connected_time":396000000000,"state":"active","ping":73},{"user_id":348,"name":"Mr.MossMuncher","steam_id":76561199171527680,"connected_time":3284000000000,"state":"active","ping":83},{"user_id":384,"name":"Splnter","steam_id":76561198874186629,"connected_time":1494000000000,"state":"active","ping":69},{"user_id":377,"name":"gghfgfgfg","steam_id":76561198064823861,"connected_time":1821000000000,"state":"active","ping":52},{"user_id":208,"name":"burger king fries on the dash","steam_id":76561199049096532,"connected_time":15528000000000,"state":"active","ping":88},{"user_id":385,"name":"Propaniac Gaming ☑","steam_id":76561198133963270,"connected_time":1478000000000,"state":"active","ping":60},{"user_id":360,"name":"ok","steam_id":76561198445140249,"connected_time":3076000000000,"state":"active","ping":62},{"user_id":396,"name":"Grundle Thunder","steam_id":76561197960790338,"connected_time":466000000000,"state":"active","ping":69},{"user_id":394,"name":"monke","steam_id":76561198308289194,"connected_time":676000000000,"state":"active","ping":75},{"user_id":379,"name":"Ceiling Man","steam_id":76561198003959902,"connected_time":1692000000000,"state":"active","ping":40},{"user_id":343,"name":"Ritzy","steam_id":76561198381955342,"connected_time":4059000000000,"state":"active","ping":122},{"user_id":395,"name":"Thot Police","steam_id":76561198084299100,"connected_time":575000000000,"state":"active","ping":69},{"user_id":383,"name":"\\|)=|_|=(|/","steam_id":76561198171491110,"connected_time":1514000000000,"state":"active","ping":49},{"user_id":374,"name":"Jeugh","steam_id":76561198073498865,"connected_time":2125000000000,"state":"active","ping":77},{"user_id":392,"name":"Dancing Nuggets","steam_id":76561198307986253,"connected_time":816000000000,"state":"active","ping":48},{"user_id":386,"name":"Erick","steam_id":76561198176406475,"connected_time":1476000000000,"state":"active","ping":99},{"user_id":390,"name":"Waffle Wannabe","steam_id":76561198064510650,"connected_time":1137000000000,"state":"active","ping":49},{"user_id":361,"name":"FS Jorda (She/Her)","steam_id":76561198071421459,"connected_time":3069000000000,"state":"active","ping":30},{"user_id":329,"name":"Porcupine's Revenge!","steam_id":76561199121615234,"connected_time":6479000000000,"state":"active","ping":60},{"user_id":391,"name":"Rheibe","steam_id":76561198027228795,"connected_time":939000000000,"state":"active","ping":76},{"user_id":381,"name":"Grandpa Simpson (Official)","steam_id":76561198057607033,"connected_time":1534000000000,"state":"active","ping":70},{"user_id":387,"name":"kiviviviviviviviviviviviviviviv","steam_id":76561198838223023,"connected_time":1449000000000,"state":"active","ping":70},{"user_id":380,"name":"Swifgz","steam_id":76561198162875756,"connected_time":1676000000000,"state":"active","ping":43}]},{"server_id":14,"name":"Uncletopia | New York City | 2 | All Maps","name_short":"nyc-2","host":"nyc-1.us.uncletopia.com","port":27025,"enabled":true,"region":"us-east","cc":"us","latitude":40.73061,"longitude":-73.93524,"reserved":0,"last_update":"0001-01-01T00:00:00Z","name_a2s":"Uncletopia | New York City | 2 | All Maps","protocol":17,"map":"pl_borneo","folder":"tf","game":"Team Fortress","app_id":440,"player_count":24,"max_players":24,"Bots":0,"server_type":"Dedicated","server_os":"Linux","password":true,"vac":true,"version":"7757534","steam_id":85568392924469994,"keywords":["nocrits","nodmgspread","payload","uncletopia"],"game_id":440,"stv_port":27026,"stv_name":"Uncletopia | New York City | 2 | All Maps | STV","players":[{"user_id":301,"name":"hashmap","steam_id":76561198043794014,"connected_time":4151000000000,"state":"active","ping":59},{"user_id":286,"name":"Nespreco","steam_id":76561198252035336,"connected_time":5154000000000,"state":"active","ping":42},{"user_id":336,"name":"xXcLaImEd__ReApErXx [F2P]","steam_id":76561198067232540,"connected_time":585000000000,"state":"active","ping":77},{"user_id":308,"name":"kursed","steam_id":76561198992371495,"connected_time":3451000000000,"state":"active","ping":43},{"user_id":315,"name":"Ferguson","steam_id":76561198121349387,"connected_time":2693000000000,"state":"active","ping":83},{"user_id":345,"name":"farteater22","steam_id":76561198848710113,"connected_time":58000000000,"state":"active","ping":65},{"user_id":337,"name":"Roken","steam_id":76561198037836282,"connected_time":562000000000,"state":"active","ping":61},{"user_id":333,"name":"NUDIST AMBUSHER","steam_id":76561199039152146,"connected_time":627000000000,"state":"active","ping":86},{"user_id":327,"name":"Sour Grapes Radio Hour","steam_id":76561198121372198,"connected_time":1240000000000,"state":"active","ping":75},{"user_id":338,"name":"beyonder","steam_id":76561198045844070,"connected_time":553000000000,"state":"active","ping":89},{"user_id":317,"name":"[VP]PurplePaladin","steam_id":76561198017011129,"connected_time":2629000000000,"state":"active","ping":46},{"user_id":334,"name":"Gogo","steam_id":76561198172430633,"connected_time":612000000000,"state":"active","ping":68},{"user_id":283,"name":"pepsibobby","steam_id":76561198853864511,"connected_time":5396000000000,"state":"active","ping":66},{"user_id":300,"name":"Professor Pussy","steam_id":76561199231729436,"connected_time":4211000000000,"state":"active","ping":59},{"user_id":335,"name":"Tone","steam_id":76561198139386202,"connected_time":609000000000,"state":"active","ping":63},{"user_id":289,"name":"peee pee man","steam_id":76561198044979205,"connected_time":4981000000000,"state":"active","ping":58},{"user_id":339,"name":"Flerkjerk","steam_id":76561199346074410,"connected_time":550000000000,"state":"active","ping":78},{"user_id":306,"name":"Ugzugzug The Bucket Mann","steam_id":76561198836624330,"connected_time":3689000000000,"state":"active","ping":86},{"user_id":340,"name":"BreakfastTacos","steam_id":76561198847620442,"connected_time":548000000000,"state":"active","ping":104},{"user_id":341,"name":"judesro","steam_id":76561198352244888,"connected_time":533000000000,"state":"active","ping":70},{"user_id":342,"name":"Amauri","steam_id":76561198130809137,"connected_time":526000000000,"state":"active","ping":75},{"user_id":320,"name":"Wattle","steam_id":76561198036756626,"connected_time":2142000000000,"state":"active","ping":52},{"user_id":328,"name":"Gaben Gaming","steam_id":76561198330119627,"connected_time":1040000000000,"state":"active","ping":81},{"user_id":270,"name":"Gocel","steam_id":76561198071467515,"connected_time":6014000000000,"state":"active","ping":48}]},{"server_id":15,"name":"Uncletopia | New York City | 3 | Stopwatch Beta","name_short":"nyc-3","host":"nyc-1.us.uncletopia.com","port":27035,"enabled":true,"region":"us-east","cc":"us","latitude":40.73061,"longitude":-73.93524,"reserved":0,"last_update":"0001-01-01T00:00:00Z","name_a2s":"Uncletopia | New York City | 3 | Stopwatch Beta","protocol":17,"map":"workshop/koth_ashville_final.ugc2130459942","folder":"tf","game":"Team Fortress","app_id":440,"player_count":0,"max_players":24,"Bots":0,"server_type":"Dedicated","server_os":"Linux","password":true,"vac":true,"version":"7757534","steam_id":85568392924742820,"keywords":["cp","nocrits","nodmgspread","uncletopia"],"game_id":440,"stv_port":27036,"stv_name":"Uncletopia | New York City | 3 | Stopwatch Beta | STV","players":null},{"server_id":16,"name":"Uncletopia | New York City | 4 | Community","name_short":"nyc-4","host":"nyc-1.us.uncletopia.com","port":27045,"enabled":true,"region":"us-east","cc":"us","latitude":40.73061,"longitude":-73.93524,"reserved":0,"last_update":"0001-01-01T00:00:00Z","name_a2s":"Uncletopia | New York City | 4 | Community","protocol":17,"map":"workshop/koth_trenchfoot_b1a.ugc731436616","folder":"tf","game":"Team Fortress","app_id":440,"player_count":0,"max_players":24,"Bots":0,"server_type":"Dedicated","server_os":"Linux","password":true,"vac":true,"version":"7757534","steam_id":85568392924742821,"keywords":["cp","nocrits","nodmgspread","uncletopia"],"game_id":440,"stv_port":27046,"stv_name":"Uncletopia | New York City | 4 | Community | STV","players":null},{"server_id":142,"name":"Uncletopia | São Paulo | 1 | All Maps","name_short":"sao-1","host":"sao-1.br.uncletopia.com","port":27015,"enabled":true,"region":"sa","cc":"br","latitude":-23.533773,"longitude":-46.62529,"reserved":0,"last_update":"0001-01-01T00:00:00Z","name_a2s":"Uncletopia | São Paulo | 1 | All Maps","protocol":17,"map":"koth_highpass","folder":"tf","game":"Team Fortress","app_id":440,"player_count":0,"max_players":24,"Bots":0,"server_type":"Dedicated","server_os":"Linux","password":true,"vac":true,"version":"7757534","steam_id":85568392924469996,"keywords":["cp","nocrits","nodmgspread","uncletopia"],"game_id":440,"stv_port":27016,"stv_name":"Uncletopia | São Paulo | 1 | All Maps | STV","players":null},{"server_id":143,"name":"Uncletopia | São Paulo | 2 | All Maps","name_short":"sao-2","host":"sao-2.br.uncletopia.com","port":27015,"enabled":true,"region":"sa","cc":"br","latitude":-23.533773,"longitude":-46.62529,"reserved":0,"last_update":"0001-01-01T00:00:00Z","name_a2s":"Uncletopia | São Paulo | 2 | All Maps","protocol":17,"map":"cp_dustbowl","folder":"tf","game":"Team Fortress","app_id":440,"player_count":0,"max_players":24,"Bots":0,"server_type":"Dedicated","server_os":"Linux","password":true,"vac":true,"version":"7757534","steam_id":85568392924485349,"keywords":["cp","nocrits","nodmgspread","uncletopia"],"game_id":440,"stv_port":27016,"stv_name":"Uncletopia | São Paulo | 2 | All Maps | STV","players":null},{"server_id":7,"name":"Uncletopia | Seattle | 1 | All Maps","name_short":"sea-1","host":"sea-1.us.uncletopia.com","port":27015,"enabled":true,"region":"us-west","cc":"us","latitude":47.608013,"longitude":-122.33517,"reserved":0,"last_update":"0001-01-01T00:00:00Z","name_a2s":"Uncletopia | Seattle | 1 | All Maps","protocol":17,"map":"pl_frontier_final","folder":"tf","game":"Team Fortress","app_id":440,"player_count":22,"max_players":24,"Bots":0,"server_type":"Dedicated","server_os":"Linux","password":true,"vac":true,"version":"7757534","steam_id":85568392924469997,"keywords":["nocrits","nodmgspread","payload","uncletopia"],"game_id":440,"stv_port":27016,"stv_name":"Uncletopia | Seattle | 1 | All Maps | STV","players":[{"user_id":367,"name":"forest (girldick)","steam_id":76561198157960257,"connected_time":5783000000000,"state":"active","ping":31},{"user_id":427,"name":"gundself","steam_id":76561198799241927,"connected_time":1118000000000,"state":"active","ping":182},{"user_id":395,"name":"kjorbjort","steam_id":76561198855201444,"connected_time":3452000000000,"state":"active","ping":58},{"user_id":442,"name":"Falleax","steam_id":76561198021154908,"connected_time":33000000000,"state":"spawning","ping":92},{"user_id":423,"name":"LeTonzy","steam_id":76561198005806699,"connected_time":1429000000000,"state":"active","ping":83},{"user_id":420,"name":"wrench","steam_id":76561198137242573,"connected_time":1635000000000,"state":"active","ping":58},{"user_id":439,"name":"Tea","steam_id":76561198004133638,"connected_time":449000000000,"state":"active","ping":82},{"user_id":429,"name":"K2f","steam_id":76561198049600563,"connected_time":1076000000000,"state":"active","ping":70},{"user_id":424,"name":"koncept","steam_id":76561198027812652,"connected_time":1405000000000,"state":"active","ping":66},{"user_id":443,"name":"Gr8butnotreally","steam_id":76561198133924450,"connected_time":29000000000,"state":"active","ping":91},{"user_id":445,"name":"Eggbert","steam_id":76561199070156627,"connected_time":26000000000,"state":"active","ping":76},{"user_id":431,"name":"Mort Strudel","steam_id":76561198041024295,"connected_time":1040000000000,"state":"active","ping":62},{"user_id":425,"name":"shibaba bababool","steam_id":76561197972601902,"connected_time":1368000000000,"state":"active","ping":84},{"user_id":444,"name":"Skabbety","steam_id":76561198168044257,"connected_time":28000000000,"state":"active","ping":30},{"user_id":282,"name":"lavender","steam_id":76561199069518286,"connected_time":11771000000000,"state":"active","ping":73},{"user_id":410,"name":"Adorable Cat","steam_id":76561198165453127,"connected_time":2770000000000,"state":"active","ping":124},{"user_id":437,"name":"Themasterman75","steam_id":76561199385573293,"connected_time":689000000000,"state":"active","ping":70},{"user_id":438,"name":"Choccy Milk","steam_id":76561198085333480,"connected_time":688000000000,"state":"active","ping":61},{"user_id":401,"name":"mads","steam_id":76561197996544374,"connected_time":3260000000000,"state":"active","ping":78},{"user_id":441,"name":"aoka","steam_id":76561198838294547,"connected_time":42000000000,"state":"spawning","ping":58},{"user_id":416,"name":"The Horny","steam_id":76561198863639459,"connected_time":2110000000000,"state":"active","ping":61},{"user_id":435,"name":"toes","steam_id":76561198221151676,"connected_time":998000000000,"state":"active","ping":48}]},{"server_id":119,"name":"Uncletopia | Seattle | 2 | All Maps","name_short":"sea-2","host":"sea-1.us.uncletopia.com","port":27025,"enabled":true,"region":"us-west","cc":"us","latitude":47.608013,"longitude":-122.33517,"reserved":0,"last_update":"0001-01-01T00:00:00Z","name_a2s":"Uncletopia | Seattle | 2 | All Maps","protocol":17,"map":"cp_dustbowl","folder":"tf","game":"Team Fortress","app_id":440,"player_count":22,"max_players":24,"Bots":0,"server_type":"Dedicated","server_os":"Linux","password":true,"vac":true,"version":"7757534","steam_id":85568392924469998,"keywords":["cp","nocrits","nodmgspread","uncletopia"],"game_id":440,"stv_port":27026,"stv_name":"Uncletopia | Seattle | 2 | All Maps | STV","players":[{"user_id":385,"name":"AyoMingus","steam_id":76561198324639028,"connected_time":1673000000000,"state":"active","ping":129},{"user_id":400,"name":"superbad","steam_id":76561198065913973,"connected_time":43000000000,"state":"active","ping":74},{"user_id":381,"name":"French Toast","steam_id":76561198983973946,"connected_time":1719000000000,"state":"active","ping":125},{"user_id":386,"name":"hiko3.aug","steam_id":76561198379650478,"connected_time":1600000000000,"state":"active","ping":160},{"user_id":387,"name":"get jumpscared","steam_id":76561198190962742,"connected_time":1576000000000,"state":"active","ping":113},{"user_id":395,"name":"Scorpie Doodle","steam_id":76561198021845763,"connected_time":1026000000000,"state":"active","ping":110},{"user_id":394,"name":"EERIE OREO","steam_id":76561199013454294,"connected_time":1206000000000,"state":"active","ping":83},{"user_id":401,"name":"LemonZest","steam_id":76561199196369249,"connected_time":37000000000,"state":"active","ping":126},{"user_id":402,"name":"Vlad","steam_id":76561198072334604,"connected_time":16000000000,"state":"active","ping":52},{"user_id":367,"name":"shake","steam_id":76561199064204750,"connected_time":2905000000000,"state":"active","ping":155},{"user_id":392,"name":"Cinnifox","steam_id":76561198068773971,"connected_time":1408000000000,"state":"active","ping":65},{"user_id":374,"name":"𝓡𝔂𝓪𝓷","steam_id":76561198067641129,"connected_time":2371000000000,"state":"active","ping":55},{"user_id":300,"name":"Ika Engie","steam_id":76561199042315297,"connected_time":6413000000000,"state":"active","ping":54},{"user_id":328,"name":"Rhutebeer","steam_id":76561198018302761,"connected_time":5291000000000,"state":"active","ping":139},{"user_id":378,"name":"DragonKnight343","steam_id":76561199235854406,"connected_time":2135000000000,"state":"active","ping":148},{"user_id":397,"name":"Why am I the only person who","steam_id":76561198139634916,"connected_time":472000000000,"state":"active","ping":48},{"user_id":336,"name":"wmjledger","steam_id":76561198443046861,"connected_time":4594000000000,"state":"active","ping":63},{"user_id":398,"name":"Frogzilla","steam_id":76561198077657538,"connected_time":265000000000,"state":"active","ping":69},{"user_id":346,"name":"PPFitzenreit","steam_id":76561199381005210,"connected_time":3967000000000,"state":"active","ping":89},{"user_id":393,"name":"QuesaDiaz","steam_id":76561198355667850,"connected_time":1347000000000,"state":"active","ping":75},{"user_id":372,"name":"Ylmer34","steam_id":76561198335022699,"connected_time":2458000000000,"state":"active","ping":69},{"user_id":391,"name":"why the wig?","steam_id":76561199084109885,"connected_time":1453000000000,"state":"active","ping":130}]},{"server_id":406,"name":"Uncletopia | Seattle | 3 | Stopwatch Beta","name_short":"sea-3","host":"sea-1.us.uncletopia.com","port":27035,"enabled":true,"region":"us-west","cc":"us","latitude":47.608013,"longitude":-122.33517,"reserved":0,"last_update":"0001-01-01T00:00:00Z","name_a2s":"Uncletopia | Seattle | 3 | Stopwatch Beta","protocol":17,"map":"cp_metalworks","folder":"tf","game":"Team Fortress","app_id":440,"player_count":0,"max_players":24,"Bots":0,"server_type":"Dedicated","server_os":"Linux","password":true,"vac":true,"version":"7757534","steam_id":85568392924515217,"keywords":["cp","nocrits","nodmgspread","uncletopia"],"game_id":440,"stv_port":27036,"stv_name":"Uncletopia | Seattle | 3 | Stopwatch Beta | STV","players":null},{"server_id":17,"name":"Uncletopia | San Francisco | 1 | All Maps","name_short":"sfo-1","host":"sfo-1.us.uncletopia.com","port":27015,"enabled":true,"region":"us-west","cc":"us","latitude":37.77397,"longitude":-122.4313,"reserved":0,"last_update":"0001-01-01T00:00:00Z","name_a2s":"Uncletopia | San Francisco | 1 | All Maps","protocol":17,"map":"pl_pier","folder":"tf","game":"Team Fortress","app_id":440,"player_count":24,"max_players":24,"Bots":0,"server_type":"Dedicated","server_os":"Linux","password":true,"vac":true,"version":"7757534","steam_id":85568392924469999,"keywords":["nocrits","nodmgspread","payload","uncletopia"],"game_id":440,"stv_port":27016,"stv_name":"Uncletopia | San Francisco | 1 | All Maps | STV","players":[{"user_id":164,"name":"The Super Mario Bros. Movie","steam_id":76561198871692156,"connected_time":1514000000000,"state":"active","ping":67},{"user_id":137,"name":"EmotreX","steam_id":76561198366518989,"connected_time":3689000000000,"state":"active","ping":90},{"user_id":118,"name":"cool beans","steam_id":76561198045758072,"connected_time":4631000000000,"state":"active","ping":46},{"user_id":127,"name":"Bocchi the Cock","steam_id":76561198152455316,"connected_time":4074000000000,"state":"active","ping":135},{"user_id":174,"name":"Gabe","steam_id":76561198081153719,"connected_time":1112000000000,"state":"active","ping":58},{"user_id":166,"name":"Natalie (she/her)","steam_id":76561198048848289,"connected_time":1498000000000,"state":"active","ping":65},{"user_id":126,"name":"J.G. Klaus","steam_id":76561198001111196,"connected_time":4251000000000,"state":"active","ping":85},{"user_id":167,"name":"Toast","steam_id":76561199243331140,"connected_time":1469000000000,"state":"active","ping":119},{"user_id":101,"name":"bigman1","steam_id":76561198050225055,"connected_time":5488000000000,"state":"active","ping":56},{"user_id":178,"name":"Alkimia","steam_id":76561198385763137,"connected_time":787000000000,"state":"active","ping":96},{"user_id":179,"name":"Bury the Light - Vergil's battl","steam_id":76561198396414319,"connected_time":783000000000,"state":"active","ping":67},{"user_id":175,"name":"PINGAS DISPENSER™","steam_id":76561198014868070,"connected_time":1092000000000,"state":"active","ping":63},{"user_id":110,"name":"D0VE","steam_id":76561198151618566,"connected_time":5211000000000,"state":"active","ping":85},{"user_id":156,"name":"sparkk","steam_id":76561198261866773,"connected_time":2183000000000,"state":"active","ping":101},{"user_id":144,"name":"Sidekick","steam_id":76561198392740835,"connected_time":3396000000000,"state":"active","ping":72},{"user_id":153,"name":"Flyingcat9000","steam_id":76561198179561797,"connected_time":2443000000000,"state":"active","ping":35},{"user_id":131,"name":"Hovg9000.TV","steam_id":76561199191556710,"connected_time":3843000000000,"state":"active","ping":98},{"user_id":139,"name":"suicide in fragments","steam_id":76561198071430182,"connected_time":3630000000000,"state":"active","ping":104},{"user_id":185,"name":"itshuredoes","steam_id":76561199094108419,"connected_time":83000000000,"state":"active","ping":123},{"user_id":180,"name":"Daikyu","steam_id":76561199249225043,"connected_time":684000000000,"state":"active","ping":149},{"user_id":136,"name":"pt","steam_id":76561198143023330,"connected_time":3721000000000,"state":"active","ping":54},{"user_id":182,"name":"Krazetrain:76","steam_id":76561198284628604,"connected_time":645000000000,"state":"active","ping":98},{"user_id":173,"name":"Chimpanzee","steam_id":76561198850387282,"connected_time":1151000000000,"state":"active","ping":109},{"user_id":184,"name":"shortsguy1","steam_id":76561199149053118,"connected_time":289000000000,"state":"active","ping":64}]},{"server_id":18,"name":"Uncletopia | San Francisco | 2 | All Maps","name_short":"sfo-2","host":"sfo-1.us.uncletopia.com","port":27025,"enabled":true,"region":"us-west","cc":"us","latitude":37.77397,"longitude":-122.4313,"reserved":0,"last_update":"0001-01-01T00:00:00Z","name_a2s":"Uncletopia | San Francisco | 2 | All Maps","protocol":17,"map":"pl_barnblitz","folder":"tf","game":"Team Fortress","app_id":440,"player_count":0,"max_players":24,"Bots":0,"server_type":"Dedicated","server_os":"Linux","password":true,"vac":true,"version":"7757534","steam_id":85568392924470000,"keywords":["nocrits","nodmgspread","payload","uncletopia"],"game_id":440,"stv_port":27026,"stv_name":"Uncletopia | San Francisco | 2 | All Maps | STV","players":null},{"server_id":19,"name":"Uncletopia | San Francisco | 3 | Stopwatch Beta","name_short":"sfo-3","host":"sfo-1.us.uncletopia.com","port":27035,"enabled":true,"region":"us-west","cc":"us","latitude":37.77397,"longitude":-122.4313,"reserved":0,"last_update":"0001-01-01T00:00:00Z","name_a2s":"Uncletopia | San Francisco | 3 | Stopwatch Beta","protocol":17,"map":"koth_lakeside_final","folder":"tf","game":"Team Fortress","app_id":440,"player_count":0,"max_players":24,"Bots":0,"server_type":"Dedicated","server_os":"Linux","password":true,"vac":true,"version":"7757534","steam_id":85568392924742824,"keywords":["cp","nocrits","nodmgspread","uncletopia"],"game_id":440,"stv_port":27036,"stv_name":"Uncletopia | San Francisco | 3 | Stopwatch Beta | STV","players":null},{"server_id":20,"name":"Uncletopia | San Francisco | 4 | Community","name_short":"sfo-4","host":"sfo-1.us.uncletopia.com","port":27045,"enabled":true,"region":"us-west","cc":"us","latitude":37.77397,"longitude":-122.4313,"reserved":0,"last_update":"0001-01-01T00:00:00Z","name_a2s":"Uncletopia | San Francisco | 4 | Community","protocol":17,"map":"workshop/pl_cashworks_final1.ugc2904065412","folder":"tf","game":"Team Fortress","app_id":440,"player_count":0,"max_players":24,"Bots":0,"server_type":"Dedicated","server_os":"Linux","password":true,"vac":true,"version":"7757534","steam_id":85568392924742826,"keywords":["nocrits","nodmgspread","payload","uncletopia"],"game_id":440,"stv_port":27046,"stv_name":"Uncletopia | San Francisco | 4 | Community | STV","players":null},{"server_id":141,"name":"Uncletopia | Sydney | 1 | All Maps","name_short":"syd-1","host":"syd-1.au.uncletopia.com","port":27015,"enabled":true,"region":"au","cc":"au","latitude":-33.865143,"longitude":151.2099,"reserved":0,"last_update":"0001-01-01T00:00:00Z","name_a2s":"Uncletopia | Sydney | 1 | All Maps","protocol":17,"map":"koth_viaduct","folder":"tf","game":"Team Fortress","app_id":440,"player_count":0,"max_players":24,"Bots":0,"server_type":"Dedicated","server_os":"Linux","password":true,"vac":true,"version":"7757534","steam_id":85568392924470001,"keywords":["cp","nocrits","nodmgspread","uncletopia"],"game_id":440,"stv_port":27016,"stv_name":"Uncletopia | Sydney | 1 | All Maps | STV","players":null},{"server_id":123,"name":"Uncletopia | Sydney | 2 | All Maps","name_short":"syd-2","host":"syd-1.au.uncletopia.com","port":27025,"enabled":true,"region":"au","cc":"au","latitude":-33.865143,"longitude":151.2099,"reserved":0,"last_update":"0001-01-01T00:00:00Z","name_a2s":"Uncletopia | Sydney | 2 | All Maps","protocol":17,"map":"cp_process_final","folder":"tf","game":"Team Fortress","app_id":440,"player_count":0,"max_players":24,"Bots":0,"server_type":"Dedicated","server_os":"Linux","password":true,"vac":true,"version":"7757534","steam_id":85568392924470002,"keywords":["cp","nocrits","nodmgspread","uncletopia"],"game_id":440,"stv_port":27026,"stv_name":"Uncletopia | Sydney | 2 | All Maps | STV","players":null},{"server_id":395,"name":"Uncletopia | Sydney | 3 | All Maps","name_short":"syd-3","host":"syd-1.au.uncletopia.com","port":27035,"enabled":true,"region":"au","cc":"au","latitude":-33.865143,"longitude":151.2099,"reserved":0,"last_update":"0001-01-01T00:00:00Z","name_a2s":"Uncletopia | Sydney | 3 | All Maps","protocol":17,"map":"pl_swiftwater_final1","folder":"tf","game":"Team Fortress","app_id":440,"player_count":0,"max_players":24,"Bots":0,"server_type":"Dedicated","server_os":"Linux","password":true,"vac":true,"version":"7757534","steam_id":85568392925194467,"keywords":["nocrits","nodmgspread","payload","uncletopia"],"game_id":440,"stv_port":27036,"stv_name":"Uncletopia | Sydney | 3 | All Maps | STV","players":null},{"server_id":396,"name":"Uncletopia | Sydney | 4 | All Maps","name_short":"syd-4","host":"syd-1.au.uncletopia.com","port":27045,"enabled":true,"region":"au","cc":"au","latitude":-33.865143,"longitude":151.2099,"reserved":0,"last_update":"0001-01-01T00:00:00Z","name_a2s":"Uncletopia | Sydney | 4 | All Maps","protocol":17,"map":"koth_highpass","folder":"tf","game":"Team Fortress","app_id":440,"player_count":0,"max_players":24,"Bots":0,"server_type":"Dedicated","server_os":"Linux","password":true,"vac":true,"version":"7757534","steam_id":85568392925397958,"keywords":["cp","nocrits","nodmgspread","uncletopia"],"game_id":440,"stv_port":27046,"stv_name":"Uncletopia | Sydney | 4 | All Maps | STV","players":null},{"server_id":58,"name":"Uncletopia | Sydney | 5 | Stopwatch Beta","name_short":"syd-5","host":"syd-1.au.uncletopia.com","port":27055,"enabled":true,"region":"au","cc":"au","latitude":-33.865143,"longitude":151.2099,"reserved":0,"last_update":"0001-01-01T00:00:00Z","name_a2s":"Uncletopia | Sydney | 5 | Stopwatch Beta","protocol":17,"map":"koth_cascade","folder":"tf","game":"Team Fortress","app_id":440,"player_count":0,"max_players":24,"Bots":0,"server_type":"Dedicated","server_os":"Linux","password":true,"vac":true,"version":"7757534","steam_id":85568392925397959,"keywords":["cp","nocrits","nodmgspread","uncletopia"],"game_id":440,"stv_port":27056,"stv_name":"Uncletopia | Sydney | 5 | Stopwatch Beta | STV","players":null},{"server_id":59,"name":"Uncletopia | Sydney | 6 | Community","name_short":"syd-6","host":"syd-1.au.uncletopia.com","port":27065,"enabled":true,"region":"au","cc":"au","latitude":-33.865143,"longitude":151.2099,"reserved":0,"last_update":"0001-01-01T00:00:00Z","name_a2s":"Uncletopia | Sydney | 6 | Community","protocol":17,"map":"cp_snakewater_final1","folder":"tf","game":"Team Fortress","app_id":440,"player_count":0,"max_players":24,"Bots":0,"server_type":"Dedicated","server_os":"Linux","password":true,"vac":true,"version":"7757534","steam_id":85568392925397960,"keywords":["cp","nocrits","nodmgspread","uncletopia"],"game_id":440,"stv_port":27066,"stv_name":"Uncletopia | Sydney | 6 | Community | STV","players":null},{"server_id":49,"name":"Uncletopia | Warsaw | 1 | All Maps","name_short":"waw-1","host":"waw-1.pl.uncletopia.com","port":27015,"enabled":true,"region":"eu","cc":"pl","latitude":52.2297,"longitude":21.017532,"reserved":0,"last_update":"0001-01-01T00:00:00Z","name_a2s":"","protocol":0,"map":"","folder":"","game":"","app_id":0,"player_count":0,"max_players":0,"Bots":0,"server_type":"","server_os":"","password":false,"vac":false,"version":"","steam_id":0,"keywords":null,"game_id":0,"stv_port":0,"stv_name":"","players":null},{"server_id":50,"name":"Uncletopia | Warsaw | 2 | All Maps","name_short":"waw-2","host":"waw-1.pl.uncletopia.com","port":27025,"enabled":true,"region":"eu","cc":"pl","latitude":52.2297,"longitude":21.017532,"reserved":0,"last_update":"0001-01-01T00:00:00Z","name_a2s":"Uncletopia | Warsaw | 2 | All Maps","protocol":17,"map":"pl_frontier_final","folder":"tf","game":"Team Fortress","app_id":440,"player_count":0,"max_players":24,"Bots":0,"server_type":"Dedicated","server_os":"Linux","password":true,"vac":true,"version":"7757534","steam_id":85568392925397851,"keywords":["nocrits","nodmgspread","payload","uncletopia"],"game_id":440,"stv_port":27026,"stv_name":"Uncletopia | Warsaw | 2 | All Maps | STV","players":null},{"server_id":51,"name":"Uncletopia | Warsaw | 3 | All Maps","name_short":"waw-3","host":"waw-1.pl.uncletopia.com","port":27035,"enabled":true,"region":"eu","cc":"pl","latitude":52.2297,"longitude":21.017532,"reserved":0,"last_update":"0001-01-01T00:00:00Z","name_a2s":"Uncletopia | Warsaw | 3 | All Maps","protocol":17,"map":"cp_snakewater_final1","folder":"tf","game":"Team Fortress","app_id":440,"player_count":0,"max_players":24,"Bots":0,"server_type":"Dedicated","server_os":"Linux","password":true,"vac":true,"version":"7757534","steam_id":85568392925397852,"keywords":["cp","nocrits","nodmgspread","uncletopia"],"game_id":440,"stv_port":27036,"stv_name":"Uncletopia | Warsaw | 3 | All Maps | STV","players":null},{"server_id":52,"name":"Uncletopia | Warsaw | 4 | All Maps","name_short":"waw-4","host":"waw-1.pl.uncletopia.com","port":27045,"enabled":true,"region":"eu","cc":"pl","latitude":52.2297,"longitude":21.017532,"reserved":0,"last_update":"0001-01-01T00:00:00Z","name_a2s":"Uncletopia | Warsaw | 4 | All Maps","protocol":17,"map":"koth_lakeside_final","folder":"tf","game":"Team Fortress","app_id":440,"player_count":0,"max_players":24,"Bots":0,"server_type":"Dedicated","server_os":"Linux","password":true,"vac":true,"version":"7757534","steam_id":85568392925397853,"keywords":["cp","nocrits","nodmgspread","uncletopia"],"game_id":440,"stv_port":27046,"stv_name":"Uncletopia | Warsaw | 4 | All Maps | STV","players":null},{"server_id":53,"name":"Uncletopia | Warsaw | 5 | Stopwatch Beta","name_short":"waw-5","host":"waw-1.pl.uncletopia.com","port":27055,"enabled":true,"region":"eu","cc":"pl","latitude":52.2297,"longitude":21.017532,"reserved":0,"last_update":"0001-01-01T00:00:00Z","name_a2s":"Uncletopia | Warsaw | 5 | Stopwatch Beta","protocol":17,"map":"pl_borneo","folder":"tf","game":"Team Fortress","app_id":440,"player_count":0,"max_players":24,"Bots":0,"server_type":"Dedicated","server_os":"Linux","password":true,"vac":true,"version":"7757534","steam_id":85568392925397854,"keywords":["nocrits","nodmgspread","payload","uncletopia"],"game_id":440,"stv_port":27056,"stv_name":"Uncletopia | Warsaw | 5 | Stopwatch Beta | STV","players":null},{"server_id":54,"name":"Uncletopia | Warsaw | 6 | Community","name_short":"waw-6","host":"waw-1.pl.uncletopia.com","port":27065,"enabled":true,"region":"eu","cc":"pl","latitude":52.2297,"longitude":21.017532,"reserved":0,"last_update":"0001-01-01T00:00:00Z","name_a2s":"Uncletopia | Warsaw | 6 | Community","protocol":17,"map":"koth_lakeside_final","folder":"tf","game":"Team Fortress","app_id":440,"player_count":0,"max_players":24,"Bots":0,"server_type":"Dedicated","server_os":"Linux","password":true,"vac":true,"version":"7757534","steam_id":85568392925397856,"keywords":["cp","nocrits","nodmgspread","uncletopia"],"game_id":440,"stv_port":27066,"stv_name":"Uncletopia | Warsaw | 6 | Community | STV","players":null}]}