{"status":true,"message":"","result":[{"server_id":9,"name":"Uncletopia | Atlanta | 1 | All Maps","name_short":"atl-1","host":"atl-1.us.uncletopia.com","port":27015,"enabled":true,"region":"us-east","cc":"us","latitude":33.753746,"longitude":-84.38633,"reserved":0,"last_update":"0001-01-01T00:00:00Z","name_a2s":"Uncletopia | Atlanta | 1 | All Maps","protocol":17,"map":"pl_pier","folder":"tf","game":"Team Fortress","app_id":440,"player_count":0,"max_players":24,"Bots":0,"server_type":"Dedicated","server_os":"Linux","password":true,"vac":true,"version":"7723704","steam_id":85568392924469982,"keywords":["nocrits","nodmgspread","payload","uncletopia"],"game_id":440,"stv_port":27016,"stv_name":"Uncletopia | Atlanta | 1 | All Maps | STV","players":null},{"server_id":400,"name":"Uncletopia | Atlanta | 3 | Stopwatch Beta","name_short":"atl-3","host":"atl-1.us.uncletopia.com","port":27035,"enabled":true,"region":"us-east","cc":"us","latitude":33.753746,"longitude":-84.38633,"reserved":0,"last_update":"0001-01-01T00:00:00Z","name_a2s":"Uncletopia | Atlanta | 3 | Stopwatch Beta","protocol":17,"map":"koth_cascade","folder":"tf","game":"Team Fortress","app_id":440,"player_count":0,"max_players":24,"Bots":0,"server_type":"Dedicated","server_os":"Linux","password":true,"vac":true,"version":"7723704","steam_id":85568392924515187,"keywords":["cp","nocrits","nodmgspread","uncletopia"],"game_id":440,"stv_port":27036,"stv_name":"Uncletopia | Atlanta | 3 | Stopwatch Beta | STV","players":null},{"server_id":401,"name":"Uncletopia | Atlanta | 4 | No Payload","name_short":"atl-4","host":"atl-1.us.uncletopia.com","port":27045,"enabled":true,"region":"us-east","cc":"us","latitude":33.753746,"longitude":-84.38633,"reserved":0,"last_update":"0001-01-01T00:00:00Z","name_a2s":"Uncletopia | Atlanta | 4 | No Payload","protocol":17,"map":"pl_pier","folder":"tf","game":"Team Fortress","app_id":440,"player_count":0,"max_players":24,"Bots":0,"server_type":"Dedicated","server_os":"Linux","password":true,"vac":true,"version":"7723704","steam_id":85568392924515188,"keywords":["nocrits","nodmgspread","payload","uncletopia"],"game_id":440,"stv_port":27046,"stv_name":"Uncletopia | Atlanta | 4 | No Payload | STV","players":null},{"server_id":2,"name":"Uncletopia | Chicago | 1 | All Maps","name_short":"chi-1","host":"chi-1.us.uncletopia.com","port":27015,"enabled":true,"region":"us-central","cc":"us","latitude":41.881832,"longitude":-87.62318,"reserved":0,"last_update":"0001-01-01T00:00:00Z","name_a2s":"Uncletopia | Chicago | 1 | All Maps","protocol":17,"map":"cp_snakewater_final1","folder":"tf","game":"Team Fortress","app_id":440,"player_count":24,"max_players":24,"Bots":0,"server_type":"Dedicated","server_os":"Linux","password":true,"vac":true,"version":"7723704","steam_id":85568392924469984,"keywords":["cp","nocrits","nodmgspread","uncletopia"],"game_id":440,"stv_port":27016,"stv_name":"Uncletopia | Chicago | 1 | All Maps | STV","players":[{"user_id":75,"name":"Dode","steam_id":76561198065157200,"connected_time":211000000000,"state":"active","ping":79},{"user_id":62,"name":"viagra addict","steam_id":76561198017705248,"connected_time":1552000000000,"state":"active","ping":45},{"user_id":72,"name":"Dieu-Sama","steam_id":76561198002075862,"connected_time":726000000000,"state":"active","ping":67},{"user_id":67,"name":"Maxx","steam_id":76561198045405304,"connected_time":1470000000000,"state":"active","ping":75},{"user_id":28,"name":"Ramix","steam_id":76561198120419206,"connected_time":4702000000000,"state":"active","ping":68},{"user_id":76,"name":"Mr.Stabington","steam_id":76561198136440988,"connected_time":42000000000,"state":"active","ping":94},{"user_id":9,"name":"Kol","steam_id":76561199151398882,"connected_time":5966000000000,"state":"active","ping":90},{"user_id":66,"name":"wizorb","steam_id":76561198002172674,"connected_time":1494000000000,"state":"active","ping":73},{"user_id":70,"name":"ENORMOUS HOG","steam_id":76561198079923652,"connected_time":973000000000,"state":"active","ping":75},{"user_id":13,"name":"SRV","steam_id":76561198026589960,"connected_time":5907000000000,"state":"active","ping":54},{"user_id":56,"name":"richard clock","steam_id":76561198048455671,"connected_time":2006000000000,"state":"active","ping":57},{"user_id":54,"name":"valtiel","steam_id":76561198165212575,"connected_time":2986000000000,"state":"active","ping":61},{"user_id":68,"name":"Wolfwu - BUFF THE SPEED","steam_id":76561198864421290,"connected_time":1079000000000,"state":"active","ping":46},{"user_id":26,"name":"SomeRandomPerson (f2p)","steam_id":76561198977045933,"connected_time":4975000000000,"state":"active","ping":78},{"user_id":57,"name":"Dr. Bobo","steam_id":76561198271696761,"connected_time":2004000000000,"state":"active","ping":83},{"user_id":69,"name":"name him golfball","steam_id":76561198068958789,"connected_time":1018000000000,"state":"active","ping":62},{"user_id":32,"name":"mommy claus","steam_id":76561199230929836,"connected_time":4628000000000,"state":"active","ping":81},{"user_id":71,"name":"a_person_159","steam_id":76561199024416326,"connected_time":816000000000,"state":"active","ping":59},{"user_id":73,"name":"floofy","steam_id":76561198389769098,"connected_time":233000000000,"state":"active","ping":74},{"user_id":61,"name":"Ripheart","steam_id":76561198089661561,"connected_time":1555000000000,"state":"active","ping":48},{"user_id":51,"name":"lost in spaaaaace","steam_id":76561199085974120,"connected_time":3471000000000,"state":"active","ping":64},{"user_id":74,"name":"Do Moose go Moo?","steam_id":76561198073550620,"connected_time":228000000000,"state":"active","ping":59},{"user_id":77,"name":"Helt Ensam","steam_id":76561198076067588,"connected_time":4000000000,"state":"spawning","ping":148},{"user_id":64,"name":"The Engie","steam_id":76561198029782412,"connected_time":1549000000000,"state":"active","ping":72}]},{"server_id":106,"name":"Uncletopia | Chicago | 2 | All Maps","name_short":"chi-2","host":"chi-1.us.uncletopia.com","port":27025,"enabled":true,"region":"us-central","cc":"us","latitude":41.881832,"longitude":-87.62318,"reserved":0,"last_update":"0001-01-01T00:00:00Z","name_a2s":"Uncletopia | Chicago | 2 | All Maps","protocol":17,"map":"koth_highpass","folder":"tf","game":"Team Fortress","app_id":440,"player_count":0,"max_players":24,"Bots":0,"server_type":"Dedicated","server_os":"Linux","password":true,"vac":true,"version":"7723704","steam_id":85568392924469985,"keywords":["cp","nocrits","nodmgspread","uncletopia"],"game_id":440,"stv_port":27026,"stv_name":"Uncletopia | Chicago | 2 | All Maps | STV","players":null},{"server_id":402,"name":"Uncletopia | Chicago | 3 | All Maps","name_short":"chi-3","host":"chi-1.us.uncletopia.com","port":27035,"enabled":true,"region":"us-central","cc":"us","latitude":41.881832,"longitude":-87.62318,"reserved":0,"last_update":"0001-01-01T00:00:00Z","name_a2s":"Uncletopia | Chicago | 3 | All Maps","protocol":17,"map":"cp_mountainlab","folder":"tf","game":"Team Fortress","app_id":440,"player_count":0,"max_players":24,"Bots":0,"server_type":"Dedicated","server_os":"Linux","password":true,"vac":true,"version":"7723704","steam_id":85568392924515191,"keywords":["cp","nocrits","nodmgspread","uncletopia"],"game_id":440,"stv_port":27036,"stv_name":"Uncletopia | Chicago | 3 | All Maps | STV","players":null},{"server_id":403,"name":"Uncletopia | Chicago | 4 | All Maps","name_short":"chi-4","host":"chi-1.us.uncletopia.com","port":27045,"enabled":true,"region":"us-central","cc":"us","latitude":41.881832,"longitude":-87.62318,"reserved":0,"last_update":"0001-01-01T00:00:00Z","name_a2s":"Uncletopia | Chicago | 4 | All Maps","protocol":17,"map":"pl_swiftwater_final1","folder":"tf","game":"Team Fortress","app_id":440,"player_count":0,"max_players":24,"Bots":0,"server_type":"Dedicated","server_os":"Linux","password":true,"vac":true,"version":"7723704","steam_id":85568392924515193,"keywords":["nocrits","nodmgspread","payload","uncletopia"],"game_id":440,"stv_port":27046,"stv_name":"Uncletopia | Chicago | 4 | All Maps | STV","players":null},{"server_id":36,"name":"Uncletopia | Chicago | 5 | All Maps","name_short":"chi-5","host":"chi-2.us.uncletopia.com","port":27015,"enabled":true,"region":"us-central","cc":"us","latitude":41.881832,"longitude":-87.62318,"reserved":0,"last_update":"0001-01-01T00:00:00Z","name_a2s":"Uncletopia | Chicago | 5 | All Maps","protocol":17,"map":"cp_altitude","folder":"tf","game":"Team Fortress","app_id":440,"player_count":0,"max_players":24,"Bots":0,"server_type":"Dedicated","server_os":"Linux","password":true,"vac":true,"version":"7723704","steam_id":85568392924866362,"keywords":["cp","nocrits","nodmgspread","uncletopia"],"game_id":440,"stv_port":27016,"stv_name":"Uncletopia | Chicago | 5 | All Maps | STV","players":null},{"server_id":37,"name":"Uncletopia | Chicago | 6 | All Maps","name_short":"chi-6","host":"chi-2.us.uncletopia.com","port":27025,"enabled":true,"region":"us-central","cc":"us","latitude":41.881832,"longitude":-87.62318,"reserved":0,"last_update":"0001-01-01T00:00:00Z","name_a2s":"Uncletopia | Chicago | 6 | All Maps","protocol":17,"map":"koth_viaduct","folder":"tf","game":"Team Fortress","app_id":440,"player_count":0,"max_players":24,"Bots":0,"server_type":"Dedicated","server_os":"Linux","password":true,"vac":true,"version":"7723704","steam_id":85568392924866363,"keywords":["cp","nocrits","nodmgspread","uncletopia"],"game_id":440,"stv_port":27026,"stv_name":"Uncletopia | Chicago | 6 | All Maps | STV","players":null},{"server_id":38,"name":"Uncletopia | Chicago | 7 | Stopwatch Beta","name_short":"chi-7","host":"chi-2.us.uncletopia.com","port":27035,"enabled":true,"region":"us-central","cc":"us","latitude":41.881832,"longitude":-87.62318,"reserved":0,"last_update":"0001-01-01T00:00:00Z","name_a2s":"Uncletopia | Chicago | 7 | Stopwatch Beta","protocol":17,"map":"pl_upward","folder":"tf","game":"Team Fortress","app_id":440,"player_count":0,"max_players":24,"Bots":0,"server_type":"Dedicated","server_os":"Linux","password":true,"vac":true,"version":"7723704","steam_id":85568392924866364,"keywords":["nocrits","nodmgspread","payload","uncletopia"],"game_id":440,"stv_port":27036,"stv_name":"Uncletopia | Chicago | 7 | Stopwatch Beta | STV","players":null},{"server_id":39,"name":"Uncletopia | Chicago | 8 | Community","name_short":"chi-8","host":"chi-2.us.uncletopia.com","port":27045,"enabled":true,"region":"us-central","cc":"us","latitude":41.881832,"longitude":-87.62318,"reserved":0,"last_update":"0001-01-01T00:00:00Z","name_a2s":"Uncletopia | Chicago | 8 | Community","protocol":17,"map":"pl_frontier_final","folder":"tf","game":"Team Fortress","app_id":440,"player_count":0,"max_players":24,"Bots":0,"server_type":"Dedicated","server_os":"Linux","password":true,"vac":true,"version":"7723704","steam_id":85568392924866365,"keywords":["nocrits","nodmgspread","payload","uncletopia"],"game_id":440,"stv_port":27046,"stv_name":"Uncletopia | Chicago | 8 | Community | STV","players":null},{"server_id":8,"name":"Uncletopia | Dallas | 1 | All Maps","name_short":"dal-1","host":"dal-1.us.uncletopia.com","port":27015,"enabled":true,"region":"us-central","cc":"us","latitude":32.779167,"longitude":-96.80889,"reserved":0,"last_update":"0001-01-01T00:00:00Z","name_a2s":"Uncletopia | Dallas | 1 | All Maps","protocol":17,"map":"pl_frontier_final","folder":"tf","game":"Team Fortress","app_id":440,"player_count":0,"max_players":24,"Bots":0,"server_type":"Dedicated","server_os":"Linux","password":true,"vac":true,"version":"7723704","steam_id":85568392924469986,"keywords":["nocrits","nodmgspread","payload","uncletopia"],"game_id":440,"stv_port":27016,"stv_name":"Uncletopia | Dallas | 1 | All Maps | STV","players":null},{"server_id":108,"name":"Uncletopia | Dallas | 2 | All Maps","name_short":"dal-2","host":"dal-1.us.uncletopia.com","port":27025,"enabled":true,"region":"us-central","cc":"us","latitude":32.779167,"longitude":-96.80889,"reserved":0,"last_update":"0001-01-01T00:00:00Z","name_a2s":"Uncletopia | Dallas | 2 | All Maps","protocol":17,"map":"pl_borneo","folder":"tf","game":"Team Fortress","app_id":440,"player_count":0,"max_players":24,"Bots":0,"server_type":"Dedicated","server_os":"Linux","password":true,"vac":true,"version":"7723704","steam_id":85568392924469988,"keywords":["nocrits","nodmgspread","payload","uncletopia"],"game_id":440,"stv_port":27026,"stv_name":"Uncletopia | Dallas | 2 | All Maps | STV","players":null},{"server_id":5,"name":"Uncletopia | Frankfurt | 1 | All Maps","name_short":"frk-1","host":"frk-1.de.uncletopia.com","port":27015,"enabled":true,"region":"eu","cc":"de","latitude":50.110924,"longitude":8.682127,"reserved":0,"last_update":"0001-01-01T00:00:00Z","name_a2s":"Uncletopia | Frankfurt | 1 | All Maps","protocol":17,"map":"pl_borneo","folder":"tf","game":"Team Fortress","app_id":440,"player_count":23,"max_players":24,"Bots":0,"server_type":"Dedicated","server_os":"Linux","password":true,"vac":true,"version":"7723704","steam_id":85568392924469989,"keywords":["nocrits","nodmgspread","payload","uncletopia"],"game_id":440,"stv_port":27016,"stv_name":"Uncletopia | Frankfurt | 1 | All Maps | STV","players":[{"user_id":90,"name":"dualshock 4","steam_id":76561198891999531,"connected_time":672000000000,"state":"active","ping":79},{"user_id":92,"name":"C0d3s","steam_id":76561198093907544,"connected_time":633000000000,"state":"active","ping":101},{"user_id":78,"name":"asdgsfdaujhaswedrvjhfdwsbhk","steam_id":76561198208839507,"connected_time":1393000000000,"state":"active","ping":108},{"user_id":87,"name":"pelna","steam_id":76561199166486303,"connected_time":787000000000,"state":"active","ping":93},{"user_id":67,"name":"Fat Pigeon","steam_id":76561198817940142,"connected_time":2357000000000,"state":"active","ping":52},{"user_id":22,"name":"Luke SpyWalker","steam_id":76561198008643276,"connected_time":4947000000000,"state":"active","ping":57},{"user_id":98,"name":"Aydin Channel","steam_id":76561198138031624,"connected_time":404000000000,"state":"active","ping":138},{"user_id":26,"name":"Tails Gaming","steam_id":76561198190253894,"connected_time":4770000000000,"state":"active","ping":88},{"user_id":77,"name":"Tenacity","steam_id":76561198214848887,"connected_time":1500000000000,"state":"active","ping":66},{"user_id":79,"name":"wasps","steam_id":76561198049485054,"connected_time":1388000000000,"state":"active","ping":90},{"user_id":97,"name":"Smuggs","steam_id":76561197999456003,"connected_time":455000000000,"state":"active","ping":58},{"user_id":80,"name":"Fales","steam_id":76561198126124929,"connected_time":1362000000000,"state":"active","ping":59},{"user_id":101,"name":"drew","steam_id":76561198012304706,"connected_time":111000000000,"state":"active","ping":102},{"user_id":100,"name":"tap tap","steam_id":76561198168547493,"connected_time":129000000000,"state":"active","ping":50},{"user_id":96,"name":"name","steam_id":76561198152620745,"connected_time":506000000000,"state":"active","ping":68},{"user_id":102,"name":"Mimo","steam_id":76561197974221343,"connected_time":106000000000,"state":"active","ping":100},{"user_id":61,"name":"Here's Johnny!","steam_id":76561198065506317,"connected_time":3169000000000,"state":"active","ping":67},{"user_id":91,"name":"Kahvi","steam_id":76561198723244199,"connected_time":659000000000,"state":"active","ping":89},{"user_id":103,"name":"GOT Ya :)","steam_id":76561198877246517,"connected_time":71000000000,"state":"active","ping":94},{"user_id":40,"name":"I-I","steam_id":76561198267969436,"connected_time":4207000000000,"state":"active","ping":60},{"user_id":93,"name":"Volkswagen Golf 4","steam_id":76561198156433244,"connected_time":613000000000,"state":"active","ping":84},{"user_id":62,"name":"tristan","steam_id":76561198096097448,"connected_time":3106000000000,"state":"active","ping":51},{"user_id":94,"name":"Kvadrat","steam_id":76561198022834916,"connected_time":590000000000,"state":"active","ping":113}]},{"server_id":110,"name":"Uncletopia | Frankfurt | 2 | All Maps","name_short":"frk-2","host":"frk-1.de.uncletopia.com","port":27025,"enabled":true,"region":"eu","cc":"de","latitude":50.110924,"longitude":8.682127,"reserved":0,"last_update":"0001-01-01T00:00:00Z","name_a2s":"Uncletopia | Frankfurt | 2 | All Maps","protocol":17,"map":"koth_highpass","folder":"tf","game":"Team Fortress","app_id":440,"player_count":0,"max_players":24,"Bots":0,"server_type":"Dedicated","server_os":"Linux","password":true,"vac":true,"version":"7723704","steam_id":85568392924469990,"keywords":["cp","nocrits","nodmgspread","uncletopia"],"game_id":440,"stv_port":27026,"stv_name":"Uncletopia | Frankfurt | 2 | All Maps | STV","players":null},{"server_id":308,"name":"Uncletopia | Frankfurt | 3 | All Maps","name_short":"frk-3","host":"frk-1.de.uncletopia.com","port":27035,"enabled":true,"region":"eu","cc":"de","latitude":50.110924,"longitude":8.682127,"reserved":0,"last_update":"0001-01-01T00:00:00Z","name_a2s":"Uncletopia | Frankfurt | 3 | All Maps","protocol":17,"map":"pl_upward","folder":"tf","game":"Team Fortress","app_id":440,"player_count":24,"max_players":24,"Bots":0,"server_type":"Dedicated","server_os":"Linux","password":true,"vac":true,"version":"7723704","steam_id":85568392924504274,"keywords":["nocrits","nodmgspread","payload","uncletopia"],"game_id":440,"stv_port":27036,"stv_name":"Uncletopia | Frankfurt | 3 | All Maps | STV","players":[{"user_id":41,"name":"Pabs :D","steam_id":76561198000016962,"connected_time":1129000000000,"state":"active","ping":57},{"user_id":29,"name":"Psychicpie","steam_id":76561198126065206,"connected_time":1475000000000,"state":"active","ping":46},{"user_id":43,"name":"fiyahstorm","steam_id":76561197992574261,"connected_time":1057000000000,"state":"active","ping":48},{"user_id":18,"name":"Toples","steam_id":76561198259218982,"connected_time":2097000000000,"state":"active","ping":93},{"user_id":24,"name":"Pan Pan","steam_id":76561199074670515,"connected_time":1897000000000,"state":"active","ping":104},{"user_id":50,"name":"azzy","steam_id":76561198061293740,"connected_time":435000000000,"state":"active","ping":76},{"user_id":21,"name":"delta man","steam_id":76561198204491245,"connected_time":1962000000000,"state":"active","ping":130},{"user_id":42,"name":"yeldad","steam_id":76561198447264153,"connected_time":1105000000000,"state":"active","ping":138},{"user_id":51,"name":"nej... nejjj.. neeejjj","steam_id":76561198295967237,"connected_time":409000000000,"state":"active","ping":62},{"user_id":16,"name":"ashsbhop","steam_id":76561199155075476,"connected_time":2318000000000,"state":"active","ping":86},{"user_id":52,"name":"fénix","steam_id":76561198083199151,"connected_time":402000000000,"state":"active","ping":62},{"user_id":53,"name":"sir Hiss","steam_id":76561198372256154,"connected_time":360000000000,"state":"active","ping":77},{"user_id":49,"name":"Yatsuzume","steam_id":76561198059762108,"connected_time":570000000000,"state":"active","ping":90},{"user_id":48,"name":"Marginal","steam_id":76561198935566138,"connected_time":682000000000,"state":"active","ping":74},{"user_id":27,"name":"Intheweb33","steam_id":76561198082873786,"connected_time":1652000000000,"state":"active","ping":83},{"user_id":54,"name":"Ela?","steam_id":76561198382598509,"connected_time":330000000000,"state":"active","ping":59},{"user_id":31,"name":"WUNNA","steam_id":76561198999848273,"connected_time":1438000000000,"state":"active","ping":80},{"user_id":32,"name":"heavy sings (real)","steam_id":76561199023804405,"connected_time":1365000000000,"state":"active","ping":75},{"user_id":46,"name":"omnibombulator","steam_id":76561198025858897,"connected_time":972000000000,"state":"active","ping":64},{"user_id":47,"name":"hushhx","steam_id":76561198216200092,"connected_time":960000000000,"state":"active","ping":66},{"user_id":38,"name":"drippin jimmy","steam_id":76561198219243969,"connected_time":1241000000000,"state":"active","ping":55},{"user_id":39,"name":"traplover313","steam_id":76561198153611464,"connected_time":1230000000000,"state":"active","ping":58},{"user_id":40,"name":"lofimonkeyjazz","steam_id":76561198117059662,"connected_time":1201000000000,"state":"active","ping":79},{"user_id":56,"name":"miko polo","steam_id":76561198430649064,"connected_time":304000000000,"state":"active","ping":67}]},{"server_id":309,"name":"Uncletopia | Frankfurt | 4 | All Maps","name_short":"frk-4","host":"frk-1.de.uncletopia.com","port":27045,"enabled":true,"region":"eu","cc":"de","latitude":50.110924,"longitude":8.682127,"reserved":0,"last_update":"0001-01-01T00:00:00Z","name_a2s":"Uncletopia | Frankfurt | 4 | All Maps","protocol":17,"map":"pl_borneo","folder":"tf","game":"Team Fortress","app_id":440,"player_count":15,"max_players":24,"Bots":0,"server_type":"Dedicated","server_os":"Linux","password":true,"vac":true,"version":"7723704","steam_id":85568392924504275,"keywords":["nocrits","nodmgspread","payload","uncletopia"],"game_id":440,"stv_port":27046,"stv_name":"Uncletopia | Frankfurt | 4 | All Maps | STV","players":[{"user_id":61,"name":"Dream (real)","steam_id":76561199013644069,"connected_time":1480000000000,"state":"active","ping":75},{"user_id":62,"name":"DUCKDUDEREEE","steam_id":76561199065212407,"connected_time":1278000000000,"state":"active","ping":197},{"user_id":63,"name":"FwoodoWoodo","steam_id":76561198873073673,"connected_time":1085000000000,"state":"active","ping":222},{"user_id":65,"name":"marsel","steam_id":76561198116168271,"connected_time":522000000000,"state":"active","ping":61},{"user_id":9,"name":"winterxs","steam_id":76561199261885080,"connected_time":6021000000000,"state":"active","ping":39},{"user_id":71,"name":"fried","steam_id":76561198307522022,"connected_time":305000000000,"state":"active","ping":47},{"user_id":75,"name":"SaSSolino","steam_id":76561198011308018,"connected_time":73000000000,"state":"active","ping":53},{"user_id":68,"name":"RyuFia","steam_id":76561198147961304,"connected_time":437000000000,"state":"active","ping":77},{"user_id":13,"name":"WeirdCoat","steam_id":76561198910289586,"connected_time":5958000000000,"state":"active","ping":64},{"user_id":76,"name":"PI (3.14)","steam_id":76561198129463258,"connected_time":62000000000,"state":"active","ping":153},{"user_id":72,"name":"DeCypher","steam_id":76561198171992619,"connected_time":287000000000,"state":"active","ping":63},{"user_id":77,"name":"Aneťák","steam_id":76561198159294906,"connected_time":35000000000,"state":"spawning","ping":68},{"user_id":78,"name":"Leibeigener","steam_id":76561199275478305,"connected_time":27000000000,"state":"active","ping":33},{"user_id":28,"name":"про339","steam_id":76561198428111079,"connected_time":5583000000000,"state":"active","ping":84},{"user_id":44,"name":"xvkt","steam_id":76561199215475049,"connected_time":4195000000000,"state":"active","ping":70}]},{"server_id":310,"name":"Uncletopia | Frankfurt | 5 | All Maps","name_short":"frk-5","host":"frk-1.de.uncletopia.com","port":27055,"enabled":true,"region":"eu","cc":"de","latitude":50.110924,"longitude":8.682127,"reserved":0,"last_update":"0001-01-01T00:00:00Z","name_a2s":"Uncletopia | Frankfurt | 5 | All Maps","protocol":17,"map":"pl_badwater","folder":"tf","game":"Team Fortress","app_id":440,"player_count":23,"max_players":24,"Bots":0,"server_type":"Dedicated","server_os":"Linux","password":true,"vac":true,"version":"7723704","steam_id":85568392924504277,"keywords":["nocrits","nodmgspread","payload","uncletopia"],"game_id":440,"stv_port":27056,"stv_name":"Uncletopia | Frankfurt | 5 | All Maps | STV","players":[{"user_id":10,"name":"Light601","steam_id":76561198134998492,"connected_time":4491000000000,"state":"active","ping":140},{"user_id":50,"name":"|==[шприц]\u003e--- RAMA","steam_id":76561198040423618,"connected_time":1221000000000,"state":"active","ping":77},{"user_id":58,"name":"Naho","steam_id":76561198077169715,"connected_time":523000000000,"state":"active","ping":80},{"user_id":67,"name":"gorgie","steam_id":76561199032591040,"connected_time":31000000000,"state":"active","ping":86},{"user_id":60,"name":"OstosTacos","steam_id":76561198364617470,"connected_time":478000000000,"state":"active","ping":67},{"user_id":16,"name":"Taпgen","steam_id":76561198120329367,"connected_time":3730000000000,"state":"active","ping":102},{"user_id":62,"name":"SCRAMMMBLED","steam_id":76561197998307746,"connected_time":425000000000,"state":"active","ping":62},{"user_id":18,"name":"Jonas Destark","steam_id":76561198030327441,"connected_time":3602000000000,"state":"active","ping":66},{"user_id":20,"name":"snake9544","steam_id":76561198083076205,"connected_time":3570000000000,"state":"active","ping":76},{"user_id":59,"name":"Playboi Pungo","steam_id":76561198079299519,"connected_time":501000000000,"state":"active","ping":76},{"user_id":65,"name":"Random Cap","steam_id":76561198129271321,"connected_time":238000000000,"state":"active","ping":78},{"user_id":23,"name":"owner of 3 sausage","steam_id":76561198046873337,"connected_time":3371000000000,"state":"active","ping":75},{"user_id":24,"name":"horse tranq consumer","steam_id":76561198010662796,"connected_time":3363000000000,"state":"active","ping":56},{"user_id":25,"name":"raccoon toddler","steam_id":76561198015876799,"connected_time":3359000000000,"state":"active","ping":67},{"user_id":47,"name":"N1KOS","steam_id":76561198035444701,"connected_time":1336000000000,"state":"active","ping":94},{"user_id":32,"name":"froggo","steam_id":76561199438805486,"connected_time":3061000000000,"state":"active","ping":69},{"user_id":28,"name":"Greaves","steam_id":76561197977967171,"connected_time":3243000000000,"state":"active","ping":71},{"user_id":51,"name":"NoobfromHell","steam_id":76561198394221491,"connected_time":1167000000000,"state":"active","ping":61},{"user_id":66,"name":"Captain Brexit","steam_id":76561199025230103,"connected_time":178000000000,"state":"spawning","ping":76},{"user_id":31,"name":"therekter","steam_id":76561198186570307,"connected_time":3189000000000,"state":"active","ping":74},{"user_id":56,"name":"gagalak","steam_id":76561198089979108,"connected_time":672000000000,"state":"active","ping":95},{"user_id":48,"name":"Owner of 4 steak","steam_id":76561198133901720,"connected_time":1332000000000,"state":"active","ping":63},{"user_id":61,"name":"VBNM","steam_id":76561198316509516,"connected_time":467000000000,"state":"active","ping":78}]},{"server_id":311,"name":"Uncletopia | Frankfurt | 6 | All Maps","name_short":"frk-6","host":"frk-1.de.uncletopia.com","port":27065,"enabled":true,"region":"eu","cc":"de","latitude":50.110924,"longitude":8.682127,"reserved":0,"last_update":"0001-01-01T00:00:00Z","name_a2s":"Uncletopia | Frankfurt | 6 | All Maps","protocol":17,"map":"koth_cascade","folder":"tf","game":"Team Fortress","app_id":440,"player_count":0,"max_players":24,"Bots":0,"server_type":"Dedicated","server_os":"Linux","password":true,"vac":true,"version":"7723704","steam_id":85568392924504278,"keywords":["cp","nocrits","nodmgspread","uncletopia"],"game_id":440,"stv_port":27066,"stv_name":"Uncletopia | Frankfurt | 6 | All Maps | STV","players":null},{"server_id":23,"name":"Uncletopia | Frankfurt | 7 | Stopwatch Beta","name_short":"frk-7","host":"frk-1.de.uncletopia.com","port":27075,"enabled":true,"region":"eu","cc":"de","latitude":50.110924,"longitude":8.682127,"reserved":0,"last_update":"0001-01-01T00:00:00Z","name_a2s":"Uncletopia | Frankfurt | 7 | Stopwatch Beta","protocol":17,"map":"koth_viaduct","folder":"tf","game":"Team Fortress","app_id":440,"player_count":0,"max_players":24,"Bots":0,"server_type":"Dedicated","server_os":"Linux","password":true,"vac":true,"version":"7723704","steam_id":85568392924742827,"keywords":["cp","nocrits","nodmgspread","uncletopia"],"game_id":440,"stv_port":27076,"stv_name":"Uncletopia | Frankfurt | 7 | Stopwatch Beta | STV","players":null},{"server_id":24,"name":"Uncletopia | Frankfurt | 8 | Community","name_short":"frk-8","host":"frk-1.de.uncletopia.com","port":27085,"enabled":true,"region":"eu","cc":"de","latitude":50.110924,"longitude":8.682127,"reserved":0,"last_update":"0001-01-01T00:00:00Z","name_a2s":"Uncletopia | Frankfurt | 8 | Community","protocol":17,"map":"workshop/koth_bagel_rc5.ugc2514036946","folder":"tf","game":"Team Fortress","app_id":440,"player_count":0,"max_players":24,"Bots":0,"server_type":"Dedicated","server_os":"Linux","password":true,"vac":true,"version":"7723704","steam_id":85568392924742828,"keywords":["cp","nocrits","nodmgspread","uncletopia"],"game_id":440,"stv_port":27086,"stv_name":"Uncletopia | Frankfurt | 8 | Community | STV","players":null},{"server_id":202,"name":"Uncletopia | Hong Kong | 1 | All Maps","name_short":"hgk-1","host":"hgk-1.hk.uncletopia.com","port":27015,"enabled":true,"region":"asia","cc":"hk","latitude":22.302711,"longitude":114.177216,"reserved":0,"last_update":"0001-01-01T00:00:00Z","name_a2s":"Uncletopia | Hong Kong | 1 | All Maps","protocol":17,"map":"pl_thundermountain","folder":"tf","game":"Team Fortress","app_id":440,"player_count":24,"max_players":24,"Bots":0,"server_type":"Dedicated","server_os":"Linux","password":true,"vac":true,"version":"7723704","steam_id":85568392924494504,"keywords":["nocrits","nodmgspread","payload","uncletopia"],"game_id":440,"stv_port":27016,"stv_name":"Uncletopia | Hong Kong | 1 | All Maps | STV","players":[{"user_id":433,"name":"RandomGuy1085","steam_id":76561199053910995,"connected_time":4898000000000,"state":"active","ping":75},{"user_id":328,"name":"Bertengkar","steam_id":76561198213031155,"connected_time":12923000000000,"state":"active","ping":97},{"user_id":418,"name":"silversol","steam_id":76561198004570036,"connected_time":6157000000000,"state":"active","ping":95},{"user_id":394,"name":"instant karma","steam_id":76561198027307933,"connected_time":8161000000000,"state":"active","ping":48},{"user_id":481,"name":"+W+","steam_id":76561197997220367,"connected_time":1884000000000,"state":"active","ping":44},{"user_id":485,"name":"cellum95","steam_id":76561198172146871,"connected_time":1327000000000,"state":"active","ping":71},{"user_id":492,"name":"Aiyda","steam_id":76561199206795019,"connected_time":461000000000,"state":"active","ping":122},{"user_id":478,"name":"sett.","steam_id":76561199010718657,"connected_time":2060000000000,"state":"active","ping":76},{"user_id":495,"name":"killman47","steam_id":76561198348487408,"connected_time":268000000000,"state":"active","ping":42},{"user_id":434,"name":"Corhix","steam_id":76561198968706355,"connected_time":4691000000000,"state":"active","ping":45},{"user_id":404,"name":"j_rex","steam_id":76561198132473926,"connected_time":7060000000000,"state":"active","ping":58},{"user_id":486,"name":"hpeed","steam_id":76561198808595586,"connected_time":1153000000000,"state":"active","ping":66},{"user_id":477,"name":"\"SKS\"","steam_id":76561198187995386,"connected_time":2062000000000,"state":"active","ping":89},{"user_id":354,"name":"2022WEEK51","steam_id":76561198413116920,"connected_time":10734000000000,"state":"active","ping":86},{"user_id":334,"name":"A Toilet","steam_id":76561198148278657,"connected_time":12770000000000,"state":"active","ping":104},{"user_id":462,"name":"3wfFbdrjEze5d2G","steam_id":76561198435900451,"connected_time":3510000000000,"state":"active","ping":124},{"user_id":483,"name":"Banana Milk","steam_id":76561198005156257,"connected_time":1349000000000,"state":"active","ping":125},{"user_id":484,"name":"lk❆","steam_id":76561199077602424,"connected_time":1349000000000,"state":"active","ping":57},{"user_id":489,"name":"Faclo","steam_id":76561198217101861,"connected_time":702000000000,"state":"active","ping":43},{"user_id":497,"name":"haha-manヾ(･ω･｡)ｼ","steam_id":76561198113626204,"connected_time":119000000000,"state":"active","ping":35},{"user_id":473,"name":"chaoticrecon","steam_id":76561199078255117,"connected_time":2084000000000,"state":"active","ping":83},{"user_id":493,"name":"GrinningViper","steam_id":76561197995086200,"connected_time":461000000000,"state":"active","ping":135},{"user_id":397,"name":"mching","steam_id":76561198044327754,"connected_time":7449000000000,"state":"active","ping":133},{"user_id":499,"name":"FrankOceanLover911","steam_id":76561198400698408,"connected_time":58000000000,"state":"spawning","ping":101}]},{"server_id":1,"name":"Uncletopia | Los Angeles | 1 | All Maps","name_short":"lax-1","host":"lax-1.us.uncletopia.com","port":27015,"enabled":true,"region":"us-west","cc":"us","latitude":33.94279,"longitude":-118.41004,"reserved":0,"last_update":"0001-01-01T00:00:00Z","name_a2s":"Uncletopia | Los Angeles | 1 | All Maps","protocol":17,"map":"cp_dustbowl","folder":"tf","game":"Team Fortress","app_id":440,"player_count":0,"max_players":24,"Bots":0,"server_type":"Dedicated","server_os":"Linux","password":true,"vac":true,"version":"7723704","steam_id":85568392924469991,"keywords":["cp","nocrits","nodmgspread","uncletopia"],"game_id":440,"stv_port":27016,"stv_name":"Uncletopia | Los Angeles | 1 | All Maps | STV","players":null},{"server_id":112,"name":"Uncletopia | Los Angeles | 2 | All Maps","name_short":"lax-2","host":"lax-1.us.uncletopia.com","port":27025,"enabled":true,"region":"us-west","cc":"us","latitude":33.94279,"longitude":-118.41004,"reserved":0,"last_update":"0001-01-01T00:00:00Z","name_a2s":"Uncletopia | Los Angeles | 2 | All Maps","protocol":17,"map":"cp_altitude","folder":"tf","game":"Team Fortress","app_id":440,"player_count":0,"max_players":24,"Bots":0,"server_type":"Dedicated","server_os":"Linux","password":true,"vac":true,"version":"7723704","steam_id":85568392924469992,"keywords":["cp","nocrits","nodmgspread","uncletopia"],"game_id":440,"stv_port":27026,"stv_name":"Uncletopia | Los Angeles | 2 | All Maps | STV","players":null},{"server_id":324,"name":"Uncletopia | Los Angeles | 3 | All Maps","name_short":"lax-3","host":"lax-1.us.uncletopia.com","port":27035,"enabled":true,"region":"us-west","cc":"us","latitude":33.94279,"longitude":-118.41004,"reserved":0,"last_update":"0001-01-01T00:00:00Z","name_a2s":"Uncletopia | Los Angeles | 3 | All Maps","protocol":17,"map":"cp_snakewater_final1","folder":"tf","game":"Team Fortress","app_id":440,"player_count":0,"max_players":24,"Bots":0,"server_type":"Dedicated","server_os":"Linux","password":true,"vac":true,"version":"7723704","steam_id":85568392924510198,"keywords":["cp","nocrits","nodmgspread","uncletopia"],"game_id":440,"stv_port":27036,"stv_name":"Uncletopia | Los Angeles | 3 | All Maps | STV","players":null},{"server_id":25,"name":"Uncletopia | Los Angeles | 4 | Stopwatch Beta","name_short":"lax-4","host":"lax-1.us.uncletopia.com","port":27045,"enabled":true,"region":"us-west","cc":"us","latitude":33.94279,"longitude":-118.41004,"reserved":0,"last_update":"0001-01-01T00:00:00Z","name_a2s":"Uncletopia | Los Angeles | 4 | Stopwatch Beta","protocol":17,"map":"cp_sunshine","folder":"tf","game":"Team Fortress","app_id":440,"player_count":0,"max_players":24,"Bots":0,"server_type":"Dedicated","server_os":"Linux","password":true,"vac":true,"version":"7723704","steam_id":85568392924510199,"keywords":["cp","nocrits","nodmgspread","uncletopia"],"game_id":440,"stv_port":27046,"stv_name":"Uncletopia | Los Angeles | 4 | Stopwatch Beta | STV","players":null},{"server_id":11,"name":"Uncletopia | London | 1 | All Maps","name_short":"lon-1","host":"lon-1.uk.uncletopia.com","port":27015,"enabled":true,"region":"eu","cc":"gb","latitude":51.509865,"longitude":-0.118092,"reserved":0,"last_update":"0001-01-01T00:00:00Z","name_a2s":"Uncletopia | London | 1 | All Maps","protocol":17,"map":"koth_viaduct","folder":"tf","game":"Team Fortress","app_id":440,"player_count":23,"max_players":24,"Bots":0,"server_type":"Dedicated","server_os":"Linux","password":true,"vac":true,"version":"7723704","steam_id":85568392924367362,"keywords":["cp","nocrits","nodmgspread","uncletopia"],"game_id":440,"stv_port":27016,"stv_name":"Uncletopia | London | 1 | All Maps | STV","players":[{"user_id":380,"name":"Below Average","steam_id":76561198133784080,"connected_time":307000000000,"state":"active","ping":62},{"user_id":371,"name":"Festive Yuletart","steam_id":76561198023918830,"connected_time":1133000000000,"state":"active","ping":45},{"user_id":354,"name":"Bone","steam_id":76561198073117364,"connected_time":3000000000000,"state":"active","ping":122},{"user_id":364,"name":"ryftomania","steam_id":76561198429138254,"connected_time":1701000000000,"state":"active","ping":72},{"user_id":372,"name":"Athena","steam_id":76561198173241341,"connected_time":1133000000000,"state":"active","ping":79},{"user_id":381,"name":"Kah-Loom","steam_id":76561198015759140,"connected_time":244000000000,"state":"active","ping":143},{"user_id":328,"name":"InsectKing","steam_id":76561199013519071,"connected_time":4175000000000,"state":"active","ping":43},{"user_id":338,"name":"Carpe diem.","steam_id":76561199065917088,"connected_time":3499000000000,"state":"active","ping":63},{"user_id":333,"name":"Spy","steam_id":76561198122074582,"connected_time":4073000000000,"state":"active","ping":88},{"user_id":367,"name":"Krispy","steam_id":76561197994783393,"connected_time":1419000000000,"state":"active","ping":119},{"user_id":359,"name":"jankomit","steam_id":76561198043024857,"connected_time":2127000000000,"state":"active","ping":77},{"user_id":382,"name":"YILK","steam_id":76561198077913307,"connected_time":235000000000,"state":"active","ping":45},{"user_id":251,"name":"NO end to POOTIS","steam_id":76561198144879361,"connected_time":9924000000000,"state":"active","ping":108},{"user_id":355,"name":"dorak","steam_id":76561198818037965,"connected_time":2740000000000,"state":"active","ping":105},{"user_id":383,"name":"Hkitchen","steam_id":76561198194779526,"connected_time":61000000000,"state":"active","ping":38},{"user_id":376,"name":"Los Pollos Hermanos","steam_id":76561198146425583,"connected_time":919000000000,"state":"active","ping":68},{"user_id":326,"name":"ciliorkun18","steam_id":76561198228942500,"connected_time":4377000000000,"state":"active","ping":95},{"user_id":334,"name":"Smag","steam_id":76561198153675141,"connected_time":3870000000000,"state":"active","ping":50},{"user_id":369,"name":"Bones","steam_id":76561198065081225,"connected_time":1209000000000,"state":"active","ping":51},{"user_id":343,"name":"Nexosert","steam_id":76561198941142018,"connected_time":3413000000000,"state":"active","ping":146},{"user_id":375,"name":"Zon","steam_id":76561198819789573,"connected_time":1016000000000,"state":"active","ping":156},{"user_id":363,"name":"Ziramis1234","steam_id":76561198146367476,"connected_time":1927000000000,"state":"active","ping":70},{"user_id":378,"name":"No Thoughts","steam_id":76561198246042066,"connected_time":843000000000,"state":"active","ping":59}]},{"server_id":114,"name":"Uncletopia | London | 2 | All Maps","name_short":"lon-2","host":"lon-1.uk.uncletopia.com","port":27025,"enabled":true,"region":"eu","cc":"gb","latitude":51.509865,"longitude":-0.118092,"reserved":0,"last_update":"0001-01-01T00:00:00Z","name_a2s":"Uncletopia | London | 2 | All Maps","protocol":17,"map":"koth_king","folder":"tf","game":"Team Fortress","app_id":440,"player_count":21,"max_players":24,"Bots":0,"server_type":"Dedicated","server_os":"Linux","password":true,"vac":true,"version":"7723704","steam_id":85568392924470941,"keywords":["cp","nocrits","nodmgspread","uncletopia"],"game_id":440,"stv_port":27026,"stv_name":"Uncletopia | London | 2 | All Maps | STV","players":[{"user_id":167,"name":"Le Chevalier Pingouin","steam_id":76561198221355000,"connected_time":1555000000000,"state":"active","ping":37},{"user_id":176,"name":"some edgy nickname","steam_id":76561198040241299,"connected_time":1391000000000,"state":"active","ping":74},{"user_id":186,"name":"Aphex triplet","steam_id":76561198047725816,"connected_time":616000000000,"state":"active","ping":51},{"user_id":168,"name":"Celtins","steam_id":76561198839837475,"connected_time":1485000000000,"state":"active","ping":47},{"user_id":178,"name":"Exxon","steam_id":76561198997885594,"connected_time":1229000000000,"state":"active","ping":126},{"user_id":128,"name":"\u003e.\u003c","steam_id":76561199216923710,"connected_time":4838000000000,"state":"active","ping":136},{"user_id":191,"name":"Nedge","steam_id":76561197963549701,"connected_time":245000000000,"state":"active","ping":49},{"user_id":125,"name":"Saken","steam_id":76561198049075295,"connected_time":5070000000000,"state":"active","ping":66},{"user_id":163,"name":"lesbillionaire","steam_id":76561199000159394,"connected_time":1608000000000,"state":"active","ping":53},{"user_id":118,"name":"invis","steam_id":76561198120668070,"connected_time":6252000000000,"state":"active","ping":68},{"user_id":165,"name":"Xiada","steam_id":76561198292624901,"connected_time":1569000000000,"state":"active","ping":124},{"user_id":161,"name":"Noxifoxis","steam_id":76561198838493783,"connected_time":1679000000000,"state":"active","ping":104},{"user_id":195,"name":"Shimas","steam_id":76561198867546842,"connected_time":8000000000,"state":"spawning","ping":95},{"user_id":188,"name":"Zero","steam_id":76561199383267408,"connected_time":447000000000,"state":"active","ping":139},{"user_id":193,"name":"demoman jumpscare","steam_id":76561198026160958,"connected_time":84000000000,"state":"active","ping":75},{"user_id":194,"name":"Graceium","steam_id":76561198271802336,"connected_time":43000000000,"state":"spawning","ping":59},{"user_id":175,"name":"1 month Big Earner challenge","steam_id":76561198799097492,"connected_time":1414000000000,"state":"active","ping":46},{"user_id":177,"name":"Garfield Gaming","steam_id":76561198254539791,"connected_time":1375000000000,"state":"active","ping":54},{"user_id":160,"name":"Octobella Enthusiast","steam_id":76561198199266047,"connected_time":1825000000000,"state":"active","ping":113},{"user_id":133,"name":"cropping","steam_id":76561198026586456,"connected_time":4592000000000,"state":"active","ping":58},{"user_id":148,"name":"Binky","steam_id":76561198116681081,"connected_time":3403000000000,"state":"active","ping":114}]},{"server_id":320,"name":"Uncletopia | London | 3 | All Maps","name_short":"lon-3","host":"lon-1.uk.uncletopia.com","port":27035,"enabled":true,"region":"eu","cc":"gb","latitude":51.509865,"longitude":-0.118092,"reserved":0,"last_update":"0001-01-01T00:00:00Z","name_a2s":"Uncletopia | London | 3 | All Maps","protocol":17,"map":"cp_altitude","folder":"tf","game":"Team Fortress","app_id":440,"player_count":24,"max_players":24,"Bots":0,"server_type":"Dedicated","server_os":"Linux","password":true,"vac":true,"version":"7723704","steam_id":85568392924510192,"keywords":["cp","nocrits","nodmgspread","uncletopia"],"game_id":440,"stv_port":27036,"stv_name":"Uncletopia | London | 3 | All Maps | STV","players":[{"user_id":149,"name":"Sza","steam_id":76561198022132105,"connected_time":443000000000,"state":"active","ping":67},{"user_id":160,"name":"gion","steam_id":76561199065121816,"connected_time":18000000000,"state":"active","ping":94},{"user_id":154,"name":"Comfy Monkey","steam_id":76561197998434936,"connected_time":296000000000,"state":"active","ping":110},{"user_id":146,"name":"Crafty Kobold","steam_id":76561197970546264,"connected_time":602000000000,"state":"active","ping":52},{"user_id":142,"name":"Generic Human Being","steam_id":76561198971818982,"connected_time":832000000000,"state":"active","ping":61},{"user_id":138,"name":"►hAppser◄","steam_id":76561198255221005,"connected_time":1297000000000,"state":"active","ping":88},{"user_id":130,"name":"DarthPaul8181","steam_id":76561198373050455,"connected_time":1969000000000,"state":"active","ping":40},{"user_id":101,"name":"Welder","steam_id":76561198355300561,"connected_time":4040000000000,"state":"active","ping":70},{"user_id":134,"name":"simplistic","steam_id":76561198231690748,"connected_time":1693000000000,"state":"active","ping":62},{"user_id":143,"name":"Definitely not Ray","steam_id":76561197991390018,"connected_time":802000000000,"state":"active","ping":63},{"user_id":155,"name":"shenanigan","steam_id":76561198043452925,"connected_time":259000000000,"state":"active","ping":95},{"user_id":139,"name":"Jon Snuh","steam_id":76561198075298635,"connected_time":1169000000000,"state":"active","ping":133},{"user_id":161,"name":"The Real Lobster Socks","steam_id":76561198870015437,"connected_time":9000000000,"state":"spawning","ping":56},{"user_id":122,"name":"Cobb Salads","steam_id":76561197971140507,"connected_time":2712000000000,"state":"active","ping":83},{"user_id":151,"name":"Carrot Arc","steam_id":76561198164957006,"connected_time":400000000000,"state":"active","ping":77},{"user_id":159,"name":"British Disapproval","steam_id":76561198001375260,"connected_time":123000000000,"state":"active","ping":48},{"user_id":140,"name":"sumweeb","steam_id":76561198311624395,"connected_time":1162000000000,"state":"active","ping":40},{"user_id":144,"name":"moon","steam_id":76561199212557251,"connected_time":754000000000,"state":"active","ping":112},{"user_id":145,"name":"Wuffington","steam_id":76561198033762881,"connected_time":704000000000,"state":"active","ping":55},{"user_id":157,"name":"garthag","steam_id":76561198042039318,"connected_time":177000000000,"state":"active","ping":45},{"user_id":158,"name":"try meditation","steam_id":76561198190690201,"connected_time":153000000000,"state":"active","ping":68},{"user_id":29,"name":"LOBZIK","steam_id":76561198114830120,"connected_time":9723000000000,"state":"active","ping":77},{"user_id":110,"name":"jolie rouge","steam_id":76561197988085026,"connected_time":3219000000000,"state":"active","ping":72},{"user_id":107,"name":"sawburst","steam_id":76561198113143238,"connected_time":3715000000000,"state":"active","ping":124}]},{"server_id":321,"name":"Uncletopia | London | 4 | All Maps","name_short":"lon-4","host":"lon-1.uk.uncletopia.com","port":27045,"enabled":true,"region":"eu","cc":"gb","latitude":51.509865,"longitude":-0.118092,"reserved":0,"last_update":"0001-01-01T00:00:00Z","name_a2s":"Uncletopia | London | 4 | All Maps","protocol":17,"map":"koth_lakeside_final","folder":"tf","game":"Team Fortress","app_id":440,"player_count":0,"max_players":24,"Bots":0,"server_type":"Dedicated","server_os":"Linux","password":true,"vac":true,"version":"7723704","steam_id":85568392924510193,"keywords":["cp","nocrits","nodmgspread","uncletopia"],"game_id":440,"stv_port":27046,"stv_name":"Uncletopia | London | 4 | All Maps | STV","players":null},{"server_id":21,"name":"Uncletopia | London | 5 | All Maps","name_short":"lon-5","host":"lon-1.uk.uncletopia.com","port":27055,"enabled":true,"region":"eu","cc":"gb","latitude":51.509865,"longitude":-0.118092,"reserved":0,"last_update":"0001-01-01T00:00:00Z","name_a2s":"Uncletopia | London | 5 | All Maps","protocol":17,"map":"pl_upward","folder":"tf","game":"Team Fortress","app_id":440,"player_count":0,"max_players":24,"Bots":0,"server_type":"Dedicated","server_os":"Linux","password":true,"vac":true,"version":"7723704","steam_id":85568392924742829,"keywords":["nocrits","nodmgspread","payload","uncletopia"],"game_id":440,"stv_port":27056,"stv_name":"Uncletopia | London | 5 | All Maps | STV","players":null},{"server_id":22,"name":"Uncletopia | London | 6 | All Maps","name_short":"lon-6","host":"lon-1.uk.uncletopia.com","port":27065,"enabled":true,"region":"eu","cc":"gb","latitude":51.509865,"longitude":-0.118092,"reserved":0,"last_update":"0001-01-01T00:00:00Z","name_a2s":"Uncletopia | London | 6 | All Maps","protocol":17,"map":"pl_barnblitz","folder":"tf","game":"Team Fortress","app_id":440,"player_count":0,"max_players":24,"Bots":0,"server_type":"Dedicated","server_os":"Linux","password":true,"vac":true,"version":"7723704","steam_id":85568392924742830,"keywords":["nocrits","nodmgspread","payload","uncletopia"],"game_id":440,"stv_port":27066,"stv_name":"Uncletopia | London | 6 | All Maps | STV","players":null},{"server_id":40,"name":"Uncletopia | London | 7 | No Payload","name_short":"lon-7","host":"lon-1.uk.uncletopia.com","port":27075,"enabled":true,"region":"eu","cc":"gb","latitude":51.509865,"longitude":-0.118092,"reserved":0,"last_update":"0001-01-01T00:00:00Z","name_a2s":"Uncletopia | London | 7 | No Payload","protocol":17,"map":"koth_viaduct","folder":"tf","game":"Team Fortress","app_id":440,"player_count":0,"max_players":24,"Bots":0,"server_type":"Dedicated","server_os":"Linux","password":true,"vac":true,"version":"7723704","steam_id":85568392924964314,"keywords":["cp","nocrits","nodmgspread","uncletopia"],"game_id":440,"stv_port":27076,"stv_name":"Uncletopia | London | 7 | No Payload | STV","players":null},{"server_id":41,"name":"Uncletopia | London | 8 | Community","name_short":"lon-8","host":"lon-1.uk.uncletopia.com","port":27085,"enabled":true,"region":"eu","cc":"gb","latitude":51.509865,"longitude":-0.118092,"reserved":0,"last_update":"0001-01-01T00:00:00Z","name_a2s":"Uncletopia | London | 8 | Community","protocol":17,"map":"koth_highpass","folder":"tf","game":"Team Fortress","app_id":440,"player_count":0,"max_players":24,"Bots":0,"server_type":"Dedicated","server_os":"Linux","password":true,"vac":true,"version":"7723704","steam_id":85568392924964315,"keywords":["cp","nocrits","nodmgspread","uncletopia"],"game_id":440,"stv_port":27086,"stv_name":"Uncletopia | London | 8 | Community | STV","players":null},{"server_id":300,"name":"Uncletopia | Montréal | 1 | All Maps","name_short":"mtl-1","host":"mtl-1.ca.uncletopia.com","port":27015,"enabled":true,"region":"us-east","cc":"ca","latitude":45.50889,"longitude":-73.56167,"reserved":0,"last_update":"0001-01-01T00:00:00Z","name_a2s":"Uncletopia | Montréal | 1 | All Maps","protocol":17,"map":"pl_snowycoast","folder":"tf","game":"Team Fortress","app_id":440,"player_count":2,"max_players":24,"Bots":0,"server_type":"Dedicated","server_os":"Linux","password":true,"vac":true,"version":"7723704","steam_id":85568392924500087,"keywords":["nocrits","nodmgspread","payload","uncletopia"],"game_id":440,"stv_port":27016,"stv_name":"Uncletopia | Montréal | 1 | All Maps | STV","players":[{"user_id":3,"name":"Cutlession","steam_id":76561198243124624,"connected_time":938000000000,"state":"active","ping":76},{"user_id":4,"name":"sheep","steam_id":76561198172943006,"connected_time":236000000000,"state":"active","ping":60}]},{"server_id":301,"name":"Uncletopia | Montréal | 2 | All Maps","name_short":"mtl-2","host":"mtl-1.ca.uncletopia.com","port":27025,"enabled":true,"region":"us-east","cc":"ca","latitude":45.50889,"longitude":-73.56167,"reserved":0,"last_update":"0001-01-01T00:00:00Z","name_a2s":"Uncletopia | Montréal | 2 | All Maps","protocol":17,"map":"cp_process_final","folder":"tf","game":"Team Fortress","app_id":440,"player_count":0,"max_players":24,"Bots":0,"server_type":"Dedicated","server_os":"Linux","password":true,"vac":true,"version":"7723704","steam_id":85568392924500088,"keywords":["cp","nocrits","nodmgspread","uncletopia"],"game_id":440,"stv_port":27026,"stv_name":"Uncletopia | Montréal | 2 | All Maps | STV","players":null},{"server_id":302,"name":"Uncletopia | Montréal | 3 | All Maps","name_short":"mtl-3","host":"mtl-1.ca.uncletopia.com","port":27035,"enabled":true,"region":"us-east","cc":"ca","latitude":45.50889,"longitude":-73.56167,"reserved":0,"last_update":"0001-01-01T00:00:00Z","name_a2s":"Uncletopia | Montréal | 3 | All Maps","protocol":17,"map":"pl_barnblitz","folder":"tf","game":"Team Fortress","app_id":440,"player_count":0,"max_players":24,"Bots":0,"server_type":"Dedicated","server_os":"Linux","password":true,"vac":true,"version":"7723704","steam_id":85568392924500089,"keywords":["nocrits","nodmgspread","payload","uncletopia"],"game_id":440,"stv_port":27036,"stv_name":"Uncletopia | Montréal | 3 | All Maps | STV","players":null},{"server_id":303,"name":"Uncletopia | Montréal | 4 | No Payload","name_short":"mtl-4","host":"mtl-1.ca.uncletopia.com","port":27045,"enabled":true,"region":"us-east","cc":"ca","latitude":45.50889,"longitude":-73.56167,"reserved":0,"last_update":"0001-01-01T00:00:00Z","name_a2s":"Uncletopia | Montréal | 4 | No Payload","protocol":17,"map":"koth_cascade","folder":"tf","game":"Team Fortress","app_id":440,"player_count":0,"max_players":24,"Bots":0,"server_type":"Dedicated","server_os":"Linux","password":true,"vac":true,"version":"7723704","steam_id":85568392924500090,"keywords":["cp","nocrits","nodmgspread","uncletopia"],"game_id":440,"stv_port":27046,"stv_name":"Uncletopia | Montréal | 4 | No Payload | STV","players":null},{"server_id":13,"name":"Uncletopia | New York City | 1 | All Maps","name_short":"nyc-1","host":"nyc-1.us.uncletopia.com","port":27015,"enabled":true,"region":"us-east","cc":"us","latitude":40.73061,"longitude":-73.93524,"reserved":0,"last_update":"0001-01-01T00:00:00Z","name_a2s":"Uncletopia | New York City | 1 | All Maps","protocol":17,"map":"pl_upward","folder":"tf","game":"Team Fortress","app_id":440,"player_count":0,"max_players":24,"Bots":0,"server_type":"Dedicated","server_os":"Linux","password":true,"vac":true,"version":"7723704","steam_id":85568392924469993,"keywords":["nocrits","nodmgspread","payload","uncletopia"],"game_id":440,"stv_port":27016,"stv_name":"Uncletopia | New York City | 1 | All Maps | STV","players":null},{"server_id":14,"name":"Uncletopia | New York City | 2 | All Maps","name_short":"nyc-2","host":"nyc-1.us.uncletopia.com","port":27025,"enabled":true,"region":"us-east","cc":"us","latitude":40.73061,"longitude":-73.93524,"reserved":0,"last_update":"0001-01-01T00:00:00Z","name_a2s":"Uncletopia | New York City | 2 | All Maps","protocol":17,"map":"pl_barnblitz","folder":"tf","game":"Team Fortress","app_id":440,"player_count":0,"max_players":24,"Bots":0,"server_type":"Dedicated","server_os":"Linux","password":true,"vac":true,"version":"7723704","steam_id":85568392924469994,"keywords":["nocrits","nodmgspread","payload","uncletopia"],"game_id":440,"stv_port":27026,"stv_name":"Uncletopia | New York City | 2 | All Maps | STV","players":null},{"server_id":15,"name":"Uncletopia | New York City | 3 | Stopwatch Beta","name_short":"nyc-3","host":"nyc-1.us.uncletopia.com","port":27035,"enabled":true,"region":"us-east","cc":"us","latitude":40.73061,"longitude":-73.93524,"reserved":0,"last_update":"0001-01-01T00:00:00Z","name_a2s":"Uncletopia | New York City | 3 | Stopwatch Beta","protocol":17,"map":"cp_sunshine","folder":"tf","game":"Team Fortress","app_id":440,"player_count":0,"max_players":24,"Bots":0,"server_type":"Dedicated","server_os":"Linux","password":true,"vac":true,"version":"7723704","steam_id":85568392924742820,"keywords":["cp","nocrits","nodmgspread","uncletopia"],"game_id":440,"stv_port":27036,"stv_name":"Uncletopia | New York City | 3 | Stopwatch Beta | STV","players":null},{"server_id":16,"name":"Uncletopia | New York City | 4 | Community","name_short":"nyc-4","host":"nyc-1.us.uncletopia.com","port":27045,"enabled":true,"region":"us-east","cc":"us","latitude":40.73061,"longitude":-73.93524,"reserved":0,"last_update":"0001-01-01T00:00:00Z","name_a2s":"Uncletopia | New York City | 4 | Community","protocol":17,"map":"pl_frontier_final","folder":"tf","game":"Team Fortress","app_id":440,"player_count":0,"max_players":24,"Bots":0,"server_type":"Dedicated","server_os":"Linux","password":true,"vac":true,"version":"7723704","steam_id":85568392924742821,"keywords":["nocrits","nodmgspread","payload","uncletopia"],"game_id":440,"stv_port":27046,"stv_name":"Uncletopia | New York City | 4 | Community | STV","players":null},{"server_id":142,"name":"Uncletopia | São Paulo | 1 | All Maps","name_short":"sao-1","host":"sao-1.br.uncletopia.com","port":27015,"enabled":true,"region":"sa","cc":"br","latitude":-23.533773,"longitude":-46.62529,"reserved":0,"last_update":"0001-01-01T00:00:00Z","name_a2s":"Uncletopia | São Paulo | 1 | All Maps","protocol":17,"map":"pl_borneo","folder":"tf","game":"Team Fortress","app_id":440,"player_count":0,"max_players":24,"Bots":0,"server_type":"Dedicated","server_os":"Linux","password":true,"vac":true,"version":"7723704","steam_id":85568392924469996,"keywords":["nocrits","nodmgspread","payload","uncletopia"],"game_id":440,"stv_port":27016,"stv_name":"Uncletopia | São Paulo | 1 | All Maps | STV","players":null},{"server_id":143,"name":"Uncletopia | São Paulo | 2 | All Maps","name_short":"sao-2","host":"sao-2.br.uncletopia.com","port":27015,"enabled":true,"region":"sa","cc":"br","latitude":-23.533773,"longitude":-46.62529,"reserved":0,"last_update":"0001-01-01T00:00:00Z","name_a2s":"Uncletopia | São Paulo | 2 | All Maps","protocol":17,"map":"pl_frontier_final","folder":"tf","game":"Team Fortress","app_id":440,"player_count":1,"max_players":24,"Bots":0,"server_type":"Dedicated","server_os":"Linux","password":true,"vac":true,"version":"7723704","steam_id":85568392924485349,"keywords":["nocrits","nodmgspread","payload","uncletopia"],"game_id":440,"stv_port":27016,"stv_name":"Uncletopia | São Paulo | 2 | All Maps | STV","players":[{"user_id":3,"name":"Death_Pow","steam_id":76561198312958718,"connected_time":293000000000,"state":"active","ping":56}]},{"server_id":7,"name":"Uncletopia | Seattle | 1 | All Maps","name_short":"sea-1","host":"sea-1.us.uncletopia.com","port":27015,"enabled":true,"region":"us-west","cc":"us","latitude":47.608013,"longitude":-122.33517,"reserved":0,"last_update":"0001-01-01T00:00:00Z","name_a2s":"Uncletopia | Seattle | 1 | All Maps","protocol":17,"map":"pl_borneo","folder":"tf","game":"Team Fortress","app_id":440,"player_count":23,"max_players":24,"Bots":0,"server_type":"Dedicated","server_os":"Linux","password":true,"vac":true,"version":"7723704","steam_id":85568392924469997,"keywords":["nocrits","nodmgspread","payload","uncletopia"],"game_id":440,"stv_port":27016,"stv_name":"Uncletopia | Seattle | 1 | All Maps | STV","players":[{"user_id":909,"name":"The #1 Fan","steam_id":76561198044654399,"connected_time":1762000000000,"state":"active","ping":67},{"user_id":902,"name":"blue_axolotl64","steam_id":76561199121285443,"connected_time":2080000000000,"state":"active","ping":119},{"user_id":900,"name":"drive","steam_id":76561198041818185,"connected_time":2525000000000,"state":"active","ping":112},{"user_id":921,"name":"pat back","steam_id":76561198347225801,"connected_time":487000000000,"state":"active","ping":55},{"user_id":869,"name":"gabberGirl99","steam_id":76561198131166135,"connected_time":4273000000000,"state":"active","ping":33},{"user_id":852,"name":"Jacasola","steam_id":76561198055460402,"connected_time":5697000000000,"state":"active","ping":62},{"user_id":762,"name":"dosimeter","steam_id":76561198039608940,"connected_time":12469000000000,"state":"active","ping":53},{"user_id":897,"name":"CoherentCarpet (ノಠ益ಠ)\ufffd\ufffd","steam_id":76561198045625360,"connected_time":2540000000000,"state":"active","ping":71},{"user_id":916,"name":"Cake Noddle","steam_id":76561198070072005,"connected_time":1214000000000,"state":"active","ping":119},{"user_id":901,"name":"CassandraRC7 (She/her)","steam_id":76561198094123940,"connected_time":2435000000000,"state":"active","ping":122},{"user_id":720,"name":"aisu","steam_id":76561198043768507,"connected_time":16238000000000,"state":"active","ping":96},{"user_id":912,"name":"Seru","steam_id":76561199219827214,"connected_time":1621000000000,"state":"active","ping":137},{"user_id":924,"name":"aTaVaX","steam_id":76561197999920851,"connected_time":147000000000,"state":"active","ping":105},{"user_id":925,"name":"pinglefingle","steam_id":76561198216580197,"connected_time":140000000000,"state":"active","ping":107},{"user_id":860,"name":"jimothy","steam_id":76561198982248872,"connected_time":5254000000000,"state":"active","ping":106},{"user_id":919,"name":"Kibeca the Weird","steam_id":76561198116534133,"connected_time":906000000000,"state":"active","ping":125},{"user_id":885,"name":"rorytherednosedreindeer","steam_id":76561198065825165,"connected_time":3466000000000,"state":"active","ping":81},{"user_id":887,"name":"4","steam_id":76561198009121060,"connected_time":3369000000000,"state":"active","ping":45},{"user_id":920,"name":"Spaghettiguy6","steam_id":76561198261692989,"connected_time":849000000000,"state":"active","ping":78},{"user_id":917,"name":"Phil Collins","steam_id":76561198068868644,"connected_time":1207000000000,"state":"active","ping":84},{"user_id":922,"name":"Whizzo the Clown","steam_id":76561197995910627,"connected_time":485000000000,"state":"active","ping":134},{"user_id":915,"name":"GenEric Nobody","steam_id":76561198835998184,"connected_time":1335000000000,"state":"active","ping":107},{"user_id":923,"name":"Ranch Style Beans","steam_id":76561198126791566,"connected_time":376000000000,"state":"active","ping":146}]},{"server_id":119,"name":"Uncletopia | Seattle | 2 | All Maps","name_short":"sea-2","host":"sea-1.us.uncletopia.com","port":27025,"enabled":true,"region":"us-west","cc":"us","latitude":47.608013,"longitude":-122.33517,"reserved":0,"last_update":"0001-01-01T00:00:00Z","name_a2s":"Uncletopia | Seattle | 2 | All Maps","protocol":17,"map":"koth_lakeside_final","folder":"tf","game":"Team Fortress","app_id":440,"player_count":0,"max_players":24,"Bots":0,"server_type":"Dedicated","server_os":"Linux","password":true,"vac":true,"version":"7723704","steam_id":85568392924469998,"keywords":["cp","nocrits","nodmgspread","uncletopia"],"game_id":440,"stv_port":27026,"stv_name":"Uncletopia | Seattle | 2 | All Maps | STV","players":null},{"server_id":406,"name":"Uncletopia | Seattle | 3 | Stopwatch Beta","name_short":"sea-3","host":"sea-1.us.uncletopia.com","port":27035,"enabled":true,"region":"us-west","cc":"us","latitude":47.608013,"longitude":-122.33517,"reserved":0,"last_update":"0001-01-01T00:00:00Z","name_a2s":"Uncletopia | Seattle | 3 | Stopwatch Beta","protocol":17,"map":"cp_altitude","folder":"tf","game":"Team Fortress","app_id":440,"player_count":0,"max_players":24,"Bots":0,"server_type":"Dedicated","server_os":"Linux","password":true,"vac":false,"version":"7723704","steam_id":0,"keywords":["cp","nocrits","nodmgspread","uncletopia"],"game_id":440,"stv_port":27036,"stv_name":"Uncletopia | Seattle | 3 | Stopwatch Beta | STV","players":null},{"server_id":17,"name":"Uncletopia | San Francisco | 1 | All Maps","name_short":"sfo-1","host":"sfo-1.us.uncletopia.com","port":27015,"enabled":true,"region":"us-west","cc":"us","latitude":37.77397,"longitude":-122.4313,"reserved":0,"last_update":"0001-01-01T00:00:00Z","name_a2s":"Uncletopia | San Francisco | 1 | All Maps","protocol":17,"map":"pl_borneo","folder":"tf","game":"Team Fortress","app_id":440,"player_count":0,"max_players":24,"Bots":0,"server_type":"Dedicated","server_os":"Linux","password":true,"vac":true,"version":"7723704","steam_id":85568392924469999,"keywords":["nocrits","nodmgspread","payload","uncletopia"],"game_id":440,"stv_port":27016,"stv_name":"Uncletopia | San Francisco | 1 | All Maps | STV","players":null},{"server_id":18,"name":"Uncletopia | San Francisco | 2 | All Maps","name_short":"sfo-2","host":"sfo-1.us.uncletopia.com","port":27025,"enabled":true,"region":"us-west","cc":"us","latitude":37.77397,"longitude":-122.4313,"reserved":0,"last_update":"0001-01-01T00:00:00Z","name_a2s":"Uncletopia | San Francisco | 2 | All Maps","protocol":17,"map":"pl_pier","folder":"tf","game":"Team Fortress","app_id":440,"player_count":0,"max_players":24,"Bots":0,"server_type":"Dedicated","server_os":"Linux","password":true,"vac":true,"version":"7723704","steam_id":85568392924470000,"keywords":["nocrits","nodmgspread","payload","uncletopia"],"game_id":440,"stv_port":27026,"stv_name":"Uncletopia | San Francisco | 2 | All Maps | STV","players":null},{"server_id":19,"name":"Uncletopia | San Francisco | 3 | Stopwatch Beta","name_short":"sfo-3","host":"sfo-1.us.uncletopia.com","port":27035,"enabled":true,"region":"us-west","cc":"us","latitude":37.77397,"longitude":-122.4313,"reserved":0,"last_update":"0001-01-01T00:00:00Z","name_a2s":"Uncletopia | San Francisco | 3 | Stopwatch Beta","protocol":17,"map":"pl_pier","folder":"tf","game":"Team Fortress","app_id":440,"player_count":0,"max_players":24,"Bots":0,"server_type":"Dedicated","server_os":"Linux","password":true,"vac":true,"version":"7723704","steam_id":85568392924742824,"keywords":["nocrits","nodmgspread","payload","uncletopia"],"game_id":440,"stv_port":27036,"stv_name":"Uncletopia | San Francisco | 3 | Stopwatch Beta | STV","players":null},{"server_id":20,"name":"Uncletopia | San Francisco | 4 | Community","name_short":"sfo-4","host":"sfo-1.us.uncletopia.com","port":27045,"enabled":true,"region":"us-west","cc":"us","latitude":37.77397,"longitude":-122.4313,"reserved":0,"last_update":"0001-01-01T00:00:00Z","name_a2s":"Uncletopia | San Francisco | 4 | Community","protocol":17,"map":"koth_cascade","folder":"tf","game":"Team Fortress","app_id":440,"player_count":0,"max_players":24,"Bots":0,"server_type":"Dedicated","server_os":"Linux","password":true,"vac":true,"version":"7723704","steam_id":85568392924742826,"keywords":["cp","nocrits","nodmgspread","uncletopia"],"game_id":440,"stv_port":27046,"stv_name":"Uncletopia | San Francisco | 4 | Community | STV","players":null},{"server_id":141,"name":"Uncletopia | Sydney | 1 | All Maps","name_short":"syd-1","host":"syd-1.au.uncletopia.com","port":27015,"enabled":true,"region":"au","cc":"au","latitude":-33.865143,"longitude":151.2099,"reserved":0,"last_update":"0001-01-01T00:00:00Z","name_a2s":"Uncletopia | Sydney | 1 | All Maps","protocol":17,"map":"koth_lakeside_final","folder":"tf","game":"Team Fortress","app_id":440,"player_count":0,"max_players":24,"Bots":0,"server_type":"Dedicated","server_os":"Linux","password":true,"vac":true,"version":"7723704","steam_id":85568392924470001,"keywords":["cp","nocrits","nodmgspread","uncletopia"],"game_id":440,"stv_port":27016,"stv_name":"Uncletopia | Sydney | 1 | All Maps | STV","players":null},{"server_id":123,"name":"Uncletopia | Sydney | 2 | All Maps","name_short":"syd-2","host":"syd-1.au.uncletopia.com","port":27025,"enabled":true,"region":"au","cc":"au","latitude":-33.865143,"longitude":151.2099,"reserved":0,"last_update":"0001-01-01T00:00:00Z","name_a2s":"Uncletopia | Sydney | 2 | All Maps","protocol":17,"map":"cp_mountainlab","folder":"tf","game":"Team Fortress","app_id":440,"player_count":1,"max_players":24,"Bots":0,"server_type":"Dedicated","server_os":"Linux","password":true,"vac":true,"version":"7723704","steam_id":85568392924470002,"keywords":["cp","nocrits","nodmgspread","uncletopia"],"game_id":440,"stv_port":27026,"stv_name":"Uncletopia | Sydney | 2 | All Maps | STV","players":[{"user_id":450,"name":"kweshuu","steam_id":76561199282412024,"connected_time":1350000000000,"state":"active","ping":83}]},{"server_id":395,"name":"Uncletopia | Sydney | 3 | All Maps","name_short":"syd-3","host":"syd-1.au.uncletopia.com","port":27035,"enabled":true,"region":"au","cc":"au","latitude":-33.865143,"longitude":151.2099,"reserved":0,"last_update":"0001-01-01T00:00:00Z","name_a2s":"Uncletopia | Sydney | 3 | All Maps","protocol":17,"map":"cp_dustbowl","folder":"tf","game":"Team Fortress","app_id":440,"player_count":0,"max_players":24,"Bots":0,"server_type":"Dedicated","server_os":"Linux","password":true,"vac":true,"version":"7723704","steam_id":85568392925194467,"keywords":["cp","nocrits","nodmgspread","uncletopia"],"game_id":440,"stv_port":27036,"stv_name":"Uncletopia | Sydney | 3 | All Maps | STV","players":null},{"server_id":396,"name":"Uncletopia | Sydney | 4 | All Maps","name_short":"syd-4","host":"syd-1.au.uncletopia.com","port":27045,"enabled":true,"region":"au","cc":"au","latitude":-33.865143,"longitude":151.2099,"reserved":0,"last_update":"0001-01-01T00:00:00Z","name_a2s":"Uncletopia | Sydney | 4 | All Maps","protocol":17,"map":"koth_viaduct","folder":"tf","game":"Team Fortress","app_id":440,"player_count":0,"max_players":24,"Bots":0,"server_type":"Dedicated","server_os":"Linux","password":true,"vac":true,"version":"7723704","steam_id":85568392925397958,"keywords":["cp","nocrits","nodmgspread","uncletopia"],"game_id":440,"stv_port":27046,"stv_name":"Uncletopia | Sydney | 4 | All Maps | STV","players":null},{"server_id":58,"name":"Uncletopia | Sydney | 5 | Stopwatch Beta","name_short":"syd-5","host":"syd-1.au.uncletopia.com","port":27055,"enabled":true,"region":"au","cc":"au","latitude":-33.865143,"longitude":151.2099,"reserved":0,"last_update":"0001-01-01T00:00:00Z","name_a2s":"Uncletopia | Sydney | 5 | Stopwatch Beta","protocol":17,"map":"cp_altitude","folder":"tf","game":"Team Fortress","app_id":440,"player_count":0,"max_players":24,"Bots":0,"server_type":"Dedicated","server_os":"Linux","password":true,"vac":true,"version":"7723704","steam_id":85568392925397959,"keywords":["cp","nocrits","nodmgspread","uncletopia"],"game_id":440,"stv_port":27056,"stv_name":"Uncletopia | Sydney | 5 | Stopwatch Beta | STV","players":null},{"server_id":59,"name":"Uncletopia | Sydney | 6 | Community","name_short":"syd-6","host":"syd-1.au.uncletopia.com","port":27065,"enabled":true,"region":"au","cc":"au","latitude":-33.865143,"longitude":151.2099,"reserved":0,"last_update":"0001-01-01T00:00:00Z","name_a2s":"Uncletopia | Sydney | 6 | Community","protocol":17,"map":"workshop/pl_fifthcurve_rc1.ugc648227046","folder":"tf","game":"Team Fortress","app_id":440,"player_count":0,"max_players":24,"Bots":0,"server_type":"Dedicated","server_os":"Linux","password":true,"vac":true,"version":"7723704","steam_id":85568392925397960,"keywords":["nocrits","nodmgspread","payload","uncletopia"],"game_id":440,"stv_port":27066,"stv_name":"Uncletopia | Sydney | 6 | Community | STV","players":null},{"server_id":49,"name":"Uncletopia | Warsaw | 1 | All Maps","name_short":"waw-1","host":"waw-1.pl.uncletopia.com","port":27015,"enabled":true,"region":"eu","cc":"pl","latitude":52.2297,"longitude":21.017532,"reserved":0,"last_update":"0001-01-01T00:00:00Z","name_a2s":"Uncletopia | Warsaw | 1 | All Maps","protocol":17,"map":"pl_snowycoast","folder":"tf","game":"Team Fortress","app_id":440,"player_count":0,"max_players":24,"Bots":0,"server_type":"Dedicated","server_os":"Linux","password":true,"vac":true,"version":"7723704","steam_id":85568392925397850,"keywords":["nocrits","nodmgspread","payload","uncletopia"],"game_id":440,"stv_port":27016,"stv_name":"Uncletopia | Warsaw | 1 | All Maps | STV","players":null},{"server_id":50,"name":"Uncletopia | Warsaw | 2 | All Maps","name_short":"waw-2","host":"waw-1.pl.uncletopia.com","port":27025,"enabled":true,"region":"eu","cc":"pl","latitude":52.2297,"longitude":21.017532,"reserved":0,"last_update":"0001-01-01T00:00:00Z","name_a2s":"Uncletopia | Warsaw | 2 | All Maps","protocol":17,"map":"pl_barnblitz","folder":"tf","game":"Team Fortress","app_id":440,"player_count":0,"max_players":24,"Bots":0,"server_type":"Dedicated","server_os":"Linux","password":true,"vac":true,"version":"7723704","steam_id":85568392925397851,"keywords":["nocrits","nodmgspread","payload","uncletopia"],"game_id":440,"stv_port":27026,"stv_name":"Uncletopia | Warsaw | 2 | All Maps | STV","players":null},{"server_id":51,"name":"Uncletopia | Warsaw | 3 | All Maps","name_short":"waw-3","host":"waw-1.pl.uncletopia.com","port":27035,"enabled":true,"region":"eu","cc":"pl","latitude":52.2297,"longitude":21.017532,"reserved":0,"last_update":"0001-01-01T00:00:00Z","name_a2s":"Uncletopia | Warsaw | 3 | All Maps","protocol":17,"map":"pl_barnblitz","folder":"tf","game":"Team Fortress","app_id":440,"player_count":0,"max_players":24,"Bots":0,"server_type":"Dedicated","server_os":"Linux","password":true,"vac":true,"version":"7723704","steam_id":85568392925397852,"keywords":["nocrits","nodmgspread","payload","uncletopia"],"game_id":440,"stv_port":27036,"stv_name":"Uncletopia | Warsaw | 3 | All Maps | STV","players":null},{"server_id":52,"name":"Uncletopia | Warsaw | 4 | All Maps","name_short":"waw-4","host":"waw-1.pl.uncletopia.com","port":27045,"enabled":true,"region":"eu","cc":"pl","latitude":52.2297,"longitude":21.017532,"reserved":0,"last_update":"0001-01-01T00:00:00Z","name_a2s":"Uncletopia | Warsaw | 4 | All Maps","protocol":17,"map":"pl_snowycoast","folder":"tf","game":"Team Fortress","app_id":440,"player_count":0,"max_players":24,"Bots":0,"server_type":"Dedicated","server_os":"Linux","password":true,"vac":true,"version":"7723704","steam_id":85568392925397853,"keywords":["nocrits","nodmgspread","payload","uncletopia"],"game_id":440,"stv_port":27046,"stv_name":"Uncletopia | Warsaw | 4 | All Maps | STV","players":null},{"server_id":53,"name":"Uncletopia | Warsaw | 5 | Stopwatch Beta","name_short":"waw-5","host":"waw-1.pl.uncletopia.com","port":27055,"enabled":true,"region":"eu","cc":"pl","latitude":52.2297,"longitude":21.017532,"reserved":0,"last_update":"0001-01-01T00:00:00Z","name_a2s":"Uncletopia | Warsaw | 5 | Stopwatch Beta","protocol":17,"map":"cp_sunshine","folder":"tf","game":"Team Fortress","app_id":440,"player_count":0,"max_players":24,"Bots":0,"server_type":"Dedicated","server_os":"Linux","password":true,"vac":true,"version":"7723704","steam_id":85568392925397854,"keywords":["cp","nocrits","nodmgspread","uncletopia"],"game_id":440,"stv_port":27056,"stv_name":"Uncletopia | Warsaw | 5 | Stopwatch Beta | STV","players":null},{"server_id":54,"name":"Uncletopia | Warsaw | 6 | Community","name_short":"waw-6","host":"waw-1.pl.uncletopia.com","port":27065,"enabled":true,"region":"eu","cc":"pl","latitude":52.2297,"longitude":21.017532,"reserved":0,"last_update":"0001-01-01T00:00:00Z","name_a2s":"Uncletopia | Warsaw | 6 | Community","protocol":17,"map":"workshop/koth_synthetic_rc6a.ugc1549817316","folder":"tf","game":"Team Fortress","app_id":440,"player_count":0,"max_players":24,"Bots":0,"server_type":"Dedicated","server_os":"Linux","password":true,"vac":true,"version":"7723704","steam_id":85568392925397856,"keywords":["cp","nocrits","nodmgspread","uncletopia"],"game_id":440,"stv_port":27066,"stv_name":"Uncletopia | Warsaw | 6 | Community | STV","players":null}]}