{"status":true,"message":"","result":[{"server_id":9,"name":"Uncletopia | Atlanta | 1 | All Maps","name_short":"atl-1","host":"atl-1.us.uncletopia.com","port":27015,"enabled":true,"region":"us-east","cc":"us","latitude":33.753746,"longitude":-84.38633,"reserved":0,"last_update":"0001-01-01T00:00:00Z","name_a2s":"Uncletopia | Atlanta | 1 | All Maps","protocol":17,"map":"pl_thundermountain","folder":"tf","game":"Team Fortress","app_id":440,"player_count":24,"max_players":24,"Bots":0,"server_type":"Dedicated","server_os":"Linux","password":true,"vac":true,"version":"7742253","steam_id":85568392924469982,"keywords":["nocrits","nodmgspread","payload","uncletopia"],"game_id":440,"stv_port":27016,"stv_name":"Uncletopia | Atlanta | 1 | All Maps | STV","players":[{"user_id":508,"name":"hypnosterical","steam_id":76561197990537951,"connected_time":5956000000000,"state":"active","ping":71},{"user_id":521,"name":"Brock sturdy™","steam_id":76561198118428095,"connected_time":4069000000000,"state":"active","ping":83},{"user_id":369,"name":"ATL1 | eish","steam_id":76561198089463603,"connected_time":23058000000000,"state":"active","ping":117},{"user_id":573,"name":"▲▼▲ Paul Atreideeznuts","steam_id":76561198015714075,"connected_time":271000000000,"state":"active","ping":93},{"user_id":564,"name":"BadaBing","steam_id":76561198197999221,"connected_time":984000000000,"state":"active","ping":56},{"user_id":514,"name":"scrambledeggs3","steam_id":76561198066112579,"connected_time":5748000000000,"state":"active","ping":86},{"user_id":566,"name":"♥Ranman♥Femboy♥","steam_id":76561198042144492,"connected_time":703000000000,"state":"active","ping":52},{"user_id":557,"name":"new years forecast","steam_id":76561198042243083,"connected_time":1313000000000,"state":"active","ping":60},{"user_id":527,"name":"Alt","steam_id":76561197992591984,"connected_time":3452000000000,"state":"active","ping":88},{"user_id":507,"name":"Tay1Qr","steam_id":76561198082809935,"connected_time":6025000000000,"state":"active","ping":68},{"user_id":563,"name":"SOUL MONSTER","steam_id":76561198087360997,"connected_time":1014000000000,"state":"active","ping":88},{"user_id":468,"name":"EVIL CHRISTMAS Cherry Coke","steam_id":76561198178233006,"connected_time":10910000000000,"state":"active","ping":71},{"user_id":537,"name":"FemboyNate","steam_id":76561198146636410,"connected_time":2908000000000,"state":"active","ping":72},{"user_id":553,"name":"Antwan","steam_id":76561198246200638,"connected_time":1892000000000,"state":"active","ping":61},{"user_id":568,"name":"Red","steam_id":76561198031865869,"connected_time":550000000000,"state":"active","ping":76},{"user_id":574,"name":"Nyle","steam_id":76561198045652639,"connected_time":247000000000,"state":"active","ping":112},{"user_id":565,"name":"Abbashea","steam_id":76561199182136969,"connected_time":977000000000,"state":"active","ping":99},{"user_id":562,"name":"Tue","steam_id":76561198181668501,"connected_time":1063000000000,"state":"active","ping":60},{"user_id":575,"name":"Frajer","steam_id":76561198059129680,"connected_time":239000000000,"state":"active","ping":79},{"user_id":571,"name":"Nicolas Cage Kisses Mace Windu","steam_id":76561198046127710,"connected_time":456000000000,"state":"active","ping":76},{"user_id":548,"name":"illmannered man","steam_id":76561199079614516,"connected_time":2179000000000,"state":"active","ping":72},{"user_id":552,"name":"ATL1 | Kramer","steam_id":76561198083595936,"connected_time":1945000000000,"state":"active","ping":99},{"user_id":517,"name":"nomad","steam_id":76561197998740399,"connected_time":5205000000000,"state":"active","ping":67},{"user_id":427,"name":"Intro Bonito","steam_id":76561198119478838,"connected_time":17014000000000,"state":"active","ping":60}]},{"server_id":400,"name":"Uncletopia | Atlanta | 3 | Stopwatch Beta","name_short":"atl-3","host":"atl-1.us.uncletopia.com","port":27035,"enabled":true,"region":"us-east","cc":"us","latitude":33.753746,"longitude":-84.38633,"reserved":0,"last_update":"0001-01-01T00:00:00Z","name_a2s":"Uncletopia | Atlanta | 3 | Stopwatch Beta","protocol":17,"map":"pl_pier","folder":"tf","game":"Team Fortress","app_id":440,"player_count":0,"max_players":24,"Bots":0,"server_type":"Dedicated","server_os":"Linux","password":true,"vac":true,"version":"7742253","steam_id":85568392924515187,"keywords":["nocrits","nodmgspread","payload","uncletopia"],"game_id":440,"stv_port":27036,"stv_name":"Uncletopia | Atlanta | 3 | Stopwatch Beta | STV","players":null},{"server_id":401,"name":"Uncletopia | Atlanta | 4 | No Payload","name_short":"atl-4","host":"atl-1.us.uncletopia.com","port":27045,"enabled":true,"region":"us-east","cc":"us","latitude":33.753746,"longitude":-84.38633,"reserved":0,"last_update":"0001-01-01T00:00:00Z","name_a2s":"Uncletopia | Atlanta | 4 | No Payload","protocol":17,"map":"pl_pier","folder":"tf","game":"Team Fortress","app_id":440,"player_count":0,"max_players":24,"Bots":0,"server_type":"Dedicated","server_os":"Linux","password":true,"vac":true,"version":"7723704","steam_id":85568392924515188,"keywords":["nocrits","nodmgspread","payload","uncletopia"],"game_id":440,"stv_port":27046,"stv_name":"Uncletopia | Atlanta | 4 | No Payload | STV","players":null},{"server_id":2,"name":"Uncletopia | Chicago | 1 | All Maps","name_short":"chi-1","host":"chi-1.us.uncletopia.com","port":27015,"enabled":true,"region":"us-central","cc":"us","latitude":41.881832,"longitude":-87.62318,"reserved":0,"last_update":"0001-01-01T00:00:00Z","name_a2s":"Uncletopia | Chicago | 1 | All Maps","protocol":17,"map":"pl_coal_event","folder":"tf","game":"Team Fortress","app_id":440,"player_count":24,"max_players":24,"Bots":0,"server_type":"Dedicated","server_os":"Linux","password":true,"vac":true,"version":"7742253","steam_id":85568392924469984,"keywords":["nocrits","nodmgspread","payload","uncletopia"],"game_id":440,"stv_port":27016,"stv_name":"Uncletopia | Chicago | 1 | All Maps | STV","players":[{"user_id":572,"name":"UnsettlingVoice","steam_id":76561198036614583,"connected_time":2981000000000,"state":"active","ping":62},{"user_id":592,"name":"TyrTheSlayer","steam_id":76561198097845755,"connected_time":1353000000000,"state":"active","ping":98},{"user_id":593,"name":"Adrianator","steam_id":76561198055630763,"connected_time":1325000000000,"state":"active","ping":85},{"user_id":604,"name":"thundah!","steam_id":76561199159928133,"connected_time":147000000000,"state":"active","ping":70},{"user_id":578,"name":"ShinyOrion (She/Her)","steam_id":76561198408378321,"connected_time":2895000000000,"state":"active","ping":72},{"user_id":595,"name":"Snoogs","steam_id":76561198444880931,"connected_time":1174000000000,"state":"active","ping":72},{"user_id":539,"name":"cat","steam_id":76561198138325084,"connected_time":4245000000000,"state":"active","ping":46},{"user_id":589,"name":"icecxld⛄","steam_id":76561198079018805,"connected_time":1475000000000,"state":"active","ping":58},{"user_id":586,"name":"NyanHorses","steam_id":76561198161584966,"connected_time":1994000000000,"state":"active","ping":67},{"user_id":590,"name":"Uberawp","steam_id":76561198022359959,"connected_time":1407000000000,"state":"active","ping":44},{"user_id":581,"name":"CoconutRice","steam_id":76561198114909164,"connected_time":2650000000000,"state":"active","ping":49},{"user_id":596,"name":"Boltzmann","steam_id":76561198100504544,"connected_time":1170000000000,"state":"active","ping":90},{"user_id":560,"name":"ADHDking","steam_id":76561198116099017,"connected_time":3742000000000,"state":"active","ping":60},{"user_id":597,"name":"your colonoscopy results","steam_id":76561198017705248,"connected_time":1143000000000,"state":"active","ping":47},{"user_id":603,"name":"AliCat","steam_id":76561198308360862,"connected_time":236000000000,"state":"active","ping":77},{"user_id":570,"name":"Money Collector","steam_id":76561198046249467,"connected_time":3117000000000,"state":"active","ping":58},{"user_id":600,"name":"Demon Jake","steam_id":76561199060466592,"connected_time":947000000000,"state":"active","ping":45},{"user_id":576,"name":"Gaston","steam_id":76561198050099666,"connected_time":2950000000000,"state":"active","ping":89},{"user_id":602,"name":"rainingmudkips","steam_id":76561198018010854,"connected_time":390000000000,"state":"active","ping":62},{"user_id":567,"name":"arashsmash","steam_id":76561198277649058,"connected_time":3379000000000,"state":"active","ping":67},{"user_id":565,"name":"Madrox Who?","steam_id":76561197988859134,"connected_time":3510000000000,"state":"active","ping":73},{"user_id":521,"name":"Astoriæ!","steam_id":76561199090168858,"connected_time":5486000000000,"state":"active","ping":61},{"user_id":551,"name":"peachy","steam_id":76561198026664629,"connected_time":3867000000000,"state":"active","ping":53},{"user_id":588,"name":"redbrite","steam_id":76561198389370871,"connected_time":1673000000000,"state":"active","ping":104}]},{"server_id":106,"name":"Uncletopia | Chicago | 2 | All Maps","name_short":"chi-2","host":"chi-1.us.uncletopia.com","port":27025,"enabled":true,"region":"us-central","cc":"us","latitude":41.881832,"longitude":-87.62318,"reserved":0,"last_update":"0001-01-01T00:00:00Z","name_a2s":"Uncletopia | Chicago | 2 | All Maps","protocol":17,"map":"pl_swiftwater_final1","folder":"tf","game":"Team Fortress","app_id":440,"player_count":0,"max_players":24,"Bots":0,"server_type":"Dedicated","server_os":"Linux","password":true,"vac":true,"version":"7742253","steam_id":85568392924469985,"keywords":["nocrits","nodmgspread","payload","uncletopia"],"game_id":440,"stv_port":27026,"stv_name":"Uncletopia | Chicago | 2 | All Maps | STV","players":null},{"server_id":402,"name":"Uncletopia | Chicago | 3 | All Maps","name_short":"chi-3","host":"chi-1.us.uncletopia.com","port":27035,"enabled":true,"region":"us-central","cc":"us","latitude":41.881832,"longitude":-87.62318,"reserved":0,"last_update":"0001-01-01T00:00:00Z","name_a2s":"Uncletopia | Chicago | 3 | All Maps","protocol":17,"map":"pl_upward","folder":"tf","game":"Team Fortress","app_id":440,"player_count":24,"max_players":24,"Bots":0,"server_type":"Dedicated","server_os":"Linux","password":true,"vac":true,"version":"7742253","steam_id":85568392924515191,"keywords":["nocrits","nodmgspread","payload","uncletopia"],"game_id":440,"stv_port":27036,"stv_name":"Uncletopia | Chicago | 3 | All Maps | STV","players":[{"user_id":674,"name":"Skashur","steam_id":76561198364924060,"connected_time":1483000000000,"state":"active","ping":56},{"user_id":659,"name":"Menlymen","steam_id":76561198046508051,"connected_time":2669000000000,"state":"active","ping":68},{"user_id":688,"name":"slep.py","steam_id":76561197988287144,"connected_time":369000000000,"state":"active","ping":55},{"user_id":671,"name":"Apetometrist","steam_id":76561198045391635,"connected_time":1779000000000,"state":"active","ping":61},{"user_id":682,"name":"caption cool","steam_id":76561197990612056,"connected_time":1321000000000,"state":"active","ping":57},{"user_id":673,"name":"Stressmelo","steam_id":76561199204445185,"connected_time":1513000000000,"state":"active","ping":71},{"user_id":676,"name":"Beanbag","steam_id":76561198101393625,"connected_time":1450000000000,"state":"active","ping":68},{"user_id":677,"name":"Sarbanes-Oxley","steam_id":76561197975898479,"connected_time":1415000000000,"state":"active","ping":74},{"user_id":678,"name":"Lore","steam_id":76561198098407538,"connected_time":1413000000000,"state":"active","ping":48},{"user_id":679,"name":"powerslide","steam_id":76561198288491241,"connected_time":1409000000000,"state":"active","ping":54},{"user_id":655,"name":"HAVE YOU DONE YOUR SQUATS TODAY","steam_id":76561198010201227,"connected_time":3588000000000,"state":"active","ping":75},{"user_id":668,"name":"♦♣Quadric♥♠","steam_id":76561198061003853,"connected_time":2538000000000,"state":"active","ping":70},{"user_id":680,"name":"The Angel of Death","steam_id":76561198026079349,"connected_time":1334000000000,"state":"active","ping":127},{"user_id":687,"name":"A Puppy","steam_id":76561198828184456,"connected_time":452000000000,"state":"active","ping":53},{"user_id":681,"name":"DREW PEACOCK","steam_id":76561198065057392,"connected_time":1326000000000,"state":"active","ping":75},{"user_id":672,"name":"xyzKevin","steam_id":76561199042234301,"connected_time":1768000000000,"state":"active","ping":72},{"user_id":626,"name":"HavocGDI","steam_id":76561199388371914,"connected_time":5949000000000,"state":"active","ping":106},{"user_id":689,"name":"esoobac","steam_id":76561198010370396,"connected_time":268000000000,"state":"active","ping":46},{"user_id":628,"name":"Casual Costanza","steam_id":76561198024409325,"connected_time":5695000000000,"state":"active","ping":64},{"user_id":635,"name":"LionWink","steam_id":76561198075398661,"connected_time":5036000000000,"state":"active","ping":65},{"user_id":608,"name":"Xbox_Pro_2016","steam_id":76561198176126519,"connected_time":7043000000000,"state":"active","ping":72},{"user_id":683,"name":"MikeLovesRabbit","steam_id":76561197997742625,"connected_time":1232000000000,"state":"active","ping":55},{"user_id":685,"name":"boku no upgrade teleporter","steam_id":76561198054260599,"connected_time":1046000000000,"state":"active","ping":77},{"user_id":657,"name":"(◔) Neville #hotel_wifi","steam_id":76561198025637970,"connected_time":3550000000000,"state":"active","ping":158}]},{"server_id":403,"name":"Uncletopia | Chicago | 4 | All Maps","name_short":"chi-4","host":"chi-1.us.uncletopia.com","port":27045,"enabled":true,"region":"us-central","cc":"us","latitude":41.881832,"longitude":-87.62318,"reserved":0,"last_update":"0001-01-01T00:00:00Z","name_a2s":"Uncletopia | Chicago | 4 | All Maps","protocol":17,"map":"pl_borneo","folder":"tf","game":"Team Fortress","app_id":440,"player_count":3,"max_players":24,"Bots":0,"server_type":"Dedicated","server_os":"Linux","password":true,"vac":true,"version":"7742253","steam_id":85568392924515193,"keywords":["nocrits","nodmgspread","payload","uncletopia"],"game_id":440,"stv_port":27046,"stv_name":"Uncletopia | Chicago | 4 | All Maps | STV","players":[{"user_id":467,"name":"autogynocelia","steam_id":76561198038995286,"connected_time":2365000000000,"state":"active","ping":75},{"user_id":471,"name":"A very nice man","steam_id":76561198165472253,"connected_time":2266000000000,"state":"active","ping":77},{"user_id":472,"name":"TinyLgnd","steam_id":76561198254062116,"connected_time":2236000000000,"state":"active","ping":75}]},{"server_id":36,"name":"Uncletopia | Chicago | 5 | All Maps","name_short":"chi-5","host":"chi-2.us.uncletopia.com","port":27015,"enabled":true,"region":"us-central","cc":"us","latitude":41.881832,"longitude":-87.62318,"reserved":0,"last_update":"0001-01-01T00:00:00Z","name_a2s":"Uncletopia | Chicago | 5 | All Maps","protocol":17,"map":"pl_frontier_final","folder":"tf","game":"Team Fortress","app_id":440,"player_count":7,"max_players":24,"Bots":0,"server_type":"Dedicated","server_os":"Linux","password":true,"vac":true,"version":"7742253","steam_id":85568392924866362,"keywords":["nocrits","nodmgspread","payload","uncletopia"],"game_id":440,"stv_port":27016,"stv_name":"Uncletopia | Chicago | 5 | All Maps | STV","players":[{"user_id":914,"name":"matkaster","steam_id":76561197998546486,"connected_time":437000000000,"state":"active","ping":50},{"user_id":919,"name":"One Shot and A Miss","steam_id":76561198124269698,"connected_time":25000000000,"state":"active","ping":61},{"user_id":916,"name":"greg","steam_id":76561198984372314,"connected_time":363000000000,"state":"active","ping":100},{"user_id":918,"name":"jabcanaus","steam_id":76561198917254299,"connected_time":71000000000,"state":"active","ping":241},{"user_id":904,"name":"OldManHenderson1976","steam_id":76561198148713751,"connected_time":924000000000,"state":"active","ping":93},{"user_id":913,"name":"LambLambLamp","steam_id":76561199016563789,"connected_time":482000000000,"state":"active","ping":79},{"user_id":877,"name":"Joocebox","steam_id":76561198259997021,"connected_time":2908000000000,"state":"active","ping":69}]},{"server_id":37,"name":"Uncletopia | Chicago | 6 | All Maps","name_short":"chi-6","host":"chi-2.us.uncletopia.com","port":27025,"enabled":true,"region":"us-central","cc":"us","latitude":41.881832,"longitude":-87.62318,"reserved":0,"last_update":"0001-01-01T00:00:00Z","name_a2s":"Uncletopia | Chicago | 6 | All Maps","protocol":17,"map":"pl_upward","folder":"tf","game":"Team Fortress","app_id":440,"player_count":24,"max_players":24,"Bots":0,"server_type":"Dedicated","server_os":"Linux","password":true,"vac":true,"version":"7742253","steam_id":85568392924866363,"keywords":["nocrits","nodmgspread","payload","uncletopia"],"game_id":440,"stv_port":27026,"stv_name":"Uncletopia | Chicago | 6 | All Maps | STV","players":[{"user_id":589,"name":"krornus","steam_id":76561198003890508,"connected_time":86000000000,"state":"active","ping":70},{"user_id":575,"name":"UnknownZer0","steam_id":76561198108008730,"connected_time":1261000000000,"state":"active","ping":60},{"user_id":584,"name":"Christmas Hat Logan","steam_id":76561198113957074,"connected_time":1015000000000,"state":"active","ping":108},{"user_id":569,"name":"Fluffeline","steam_id":76561198352909489,"connected_time":1721000000000,"state":"active","ping":145},{"user_id":535,"name":"TwoScore","steam_id":76561198024412148,"connected_time":3793000000000,"state":"active","ping":92},{"user_id":560,"name":"later aligater","steam_id":76561198021609442,"connected_time":2254000000000,"state":"active","ping":58},{"user_id":577,"name":"Octobella Enthusiast","steam_id":76561198199266047,"connected_time":1212000000000,"state":"active","ping":59},{"user_id":578,"name":"Croxodile","steam_id":76561198215822949,"connected_time":1207000000000,"state":"active","ping":51},{"user_id":579,"name":"hue","steam_id":76561198043497451,"connected_time":1201000000000,"state":"active","ping":47},{"user_id":536,"name":"themadlad67","steam_id":76561199309554436,"connected_time":3790000000000,"state":"active","ping":99},{"user_id":538,"name":"Ender","steam_id":76561198845055020,"connected_time":3544000000000,"state":"active","ping":154},{"user_id":556,"name":"Thessalonians 5:26","steam_id":76561199236719411,"connected_time":2386000000000,"state":"active","ping":62},{"user_id":580,"name":"viedoamegs","steam_id":76561198025295263,"connected_time":1196000000000,"state":"active","ping":77},{"user_id":550,"name":"CroMaLaka","steam_id":76561198380926090,"connected_time":2445000000000,"state":"active","ping":58},{"user_id":553,"name":"Dongarrian","steam_id":76561198078564422,"connected_time":2412000000000,"state":"active","ping":85},{"user_id":552,"name":"Rose","steam_id":76561198020936286,"connected_time":2418000000000,"state":"active","ping":110},{"user_id":554,"name":"sakn","steam_id":76561198081817461,"connected_time":2405000000000,"state":"active","ping":65},{"user_id":573,"name":"FISH","steam_id":76561199122475583,"connected_time":1541000000000,"state":"active","ping":58},{"user_id":587,"name":"Passes the Bungus","steam_id":76561198040647717,"connected_time":488000000000,"state":"active","ping":85},{"user_id":559,"name":"Scarlet","steam_id":76561197992361965,"connected_time":2359000000000,"state":"active","ping":76},{"user_id":581,"name":"Ace Chromatica","steam_id":76561198042211131,"connected_time":1178000000000,"state":"active","ping":51},{"user_id":590,"name":"Exotic","steam_id":76561198094518524,"connected_time":54000000000,"state":"active","ping":44},{"user_id":567,"name":"ctap2lean","steam_id":76561198068538473,"connected_time":2027000000000,"state":"active","ping":80},{"user_id":585,"name":"Ayylmao","steam_id":76561198104780147,"connected_time":996000000000,"state":"active","ping":43}]},{"server_id":38,"name":"Uncletopia | Chicago | 7 | Stopwatch Beta","name_short":"chi-7","host":"chi-2.us.uncletopia.com","port":27035,"enabled":true,"region":"us-central","cc":"us","latitude":41.881832,"longitude":-87.62318,"reserved":0,"last_update":"0001-01-01T00:00:00Z","name_a2s":"Uncletopia | Chicago | 7 | Stopwatch Beta","protocol":17,"map":"workshop/pl_barnblitz_pro7.ugc582280235","folder":"tf","game":"Team Fortress","app_id":440,"player_count":0,"max_players":24,"Bots":0,"server_type":"Dedicated","server_os":"Linux","password":true,"vac":true,"version":"7742253","steam_id":85568392924866364,"keywords":["nocrits","nodmgspread","payload","uncletopia"],"game_id":440,"stv_port":27036,"stv_name":"Uncletopia | Chicago | 7 | Stopwatch Beta | STV","players":null},{"server_id":39,"name":"Uncletopia | Chicago | 8 | Community","name_short":"chi-8","host":"chi-2.us.uncletopia.com","port":27045,"enabled":true,"region":"us-central","cc":"us","latitude":41.881832,"longitude":-87.62318,"reserved":0,"last_update":"0001-01-01T00:00:00Z","name_a2s":"Uncletopia | Chicago | 8 | Community","protocol":17,"map":"workshop/cp_reckoner_rc6.ugc674719999","folder":"tf","game":"Team Fortress","app_id":440,"player_count":0,"max_players":24,"Bots":0,"server_type":"Dedicated","server_os":"Linux","password":true,"vac":true,"version":"7742253","steam_id":85568392924866365,"keywords":["cp","nocrits","nodmgspread","uncletopia"],"game_id":440,"stv_port":27046,"stv_name":"Uncletopia | Chicago | 8 | Community | STV","players":null},{"server_id":8,"name":"Uncletopia | Dallas | 1 | All Maps","name_short":"dal-1","host":"dal-1.us.uncletopia.com","port":27015,"enabled":true,"region":"us-central","cc":"us","latitude":32.779167,"longitude":-96.80889,"reserved":0,"last_update":"0001-01-01T00:00:00Z","name_a2s":"Uncletopia | Dallas | 1 | All Maps","protocol":17,"map":"pl_frontier_final","folder":"tf","game":"Team Fortress","app_id":440,"player_count":24,"max_players":24,"Bots":0,"server_type":"Dedicated","server_os":"Linux","password":true,"vac":true,"version":"7742253","steam_id":85568392924469986,"keywords":["nocrits","nodmgspread","payload","uncletopia"],"game_id":440,"stv_port":27016,"stv_name":"Uncletopia | Dallas | 1 | All Maps | STV","players":[{"user_id":827,"name":"SpyShark","steam_id":76561198064973839,"connected_time":2665000000000,"state":"active","ping":77},{"user_id":893,"name":"Niceswish","steam_id":76561198378101886,"connected_time":682000000000,"state":"active","ping":90},{"user_id":901,"name":"Duck Senpai","steam_id":76561198069067079,"connected_time":398000000000,"state":"active","ping":87},{"user_id":883,"name":"TurtleNine","steam_id":76561198209660784,"connected_time":1149000000000,"state":"active","ping":46},{"user_id":894,"name":"SGT Disoriented","steam_id":76561198058177958,"connected_time":648000000000,"state":"active","ping":52},{"user_id":879,"name":"Password is Taco","steam_id":76561198026092945,"connected_time":1217000000000,"state":"active","ping":62},{"user_id":801,"name":"elyk37","steam_id":76561198124135253,"connected_time":3979000000000,"state":"active","ping":77},{"user_id":891,"name":"conspiracy.theorist.man32103","steam_id":76561198398605610,"connected_time":727000000000,"state":"active","ping":78},{"user_id":903,"name":"Yukon Cornelius","steam_id":76561198261512781,"connected_time":177000000000,"state":"active","ping":75},{"user_id":895,"name":"Pennis the Menace","steam_id":76561198254878037,"connected_time":580000000000,"state":"active","ping":82},{"user_id":897,"name":"Coxsackie","steam_id":76561198134492046,"connected_time":518000000000,"state":"active","ping":91},{"user_id":813,"name":"leopardo123atl","steam_id":76561198872648238,"connected_time":3147000000000,"state":"active","ping":74},{"user_id":858,"name":"hapi bananuh","steam_id":76561198091547092,"connected_time":1610000000000,"state":"active","ping":74},{"user_id":886,"name":"jen","steam_id":76561198359790100,"connected_time":915000000000,"state":"active","ping":74},{"user_id":902,"name":"tranquil monk arc","steam_id":76561198185980055,"connected_time":286000000000,"state":"active","ping":75},{"user_id":904,"name":"CampinCarl","steam_id":76561197997373624,"connected_time":157000000000,"state":"active","ping":90},{"user_id":905,"name":"Faust main","steam_id":76561198971799149,"connected_time":73000000000,"state":"active","ping":66},{"user_id":900,"name":"littleman70","steam_id":76561198179956478,"connected_time":440000000000,"state":"active","ping":87},{"user_id":846,"name":"agolem3214","steam_id":76561198121844002,"connected_time":2004000000000,"state":"active","ping":65},{"user_id":887,"name":"summer bummer","steam_id":76561198107219183,"connected_time":910000000000,"state":"active","ping":84},{"user_id":889,"name":"MoonMan Midnight","steam_id":76561198300525893,"connected_time":879000000000,"state":"active","ping":63},{"user_id":769,"name":"The Krinkler","steam_id":76561198020308956,"connected_time":7253000000000,"state":"active","ping":96},{"user_id":869,"name":"Henry The Guy","steam_id":76561198845469727,"connected_time":1455000000000,"state":"active","ping":47},{"user_id":861,"name":"Zaya7709","steam_id":76561199274247868,"connected_time":1558000000000,"state":"active","ping":88}]},{"server_id":108,"name":"Uncletopia | Dallas | 2 | All Maps","name_short":"dal-2","host":"dal-1.us.uncletopia.com","port":27025,"enabled":true,"region":"us-central","cc":"us","latitude":32.779167,"longitude":-96.80889,"reserved":0,"last_update":"0001-01-01T00:00:00Z","name_a2s":"Uncletopia | Dallas | 2 | All Maps","protocol":17,"map":"cp_dustbowl","folder":"tf","game":"Team Fortress","app_id":440,"player_count":23,"max_players":24,"Bots":0,"server_type":"Dedicated","server_os":"Linux","password":true,"vac":true,"version":"7742253","steam_id":85568392924469988,"keywords":["cp","nocrits","nodmgspread","uncletopia"],"game_id":440,"stv_port":27026,"stv_name":"Uncletopia | Dallas | 2 | All Maps | STV","players":[{"user_id":351,"name":"Fostrel","steam_id":76561198152160601,"connected_time":2954000000000,"state":"active","ping":52},{"user_id":279,"name":"survivalist bubbie","steam_id":76561198860460013,"connected_time":8229000000000,"state":"active","ping":91},{"user_id":364,"name":"Sevfront","steam_id":76561198249207818,"connected_time":1048000000000,"state":"active","ping":80},{"user_id":365,"name":"Cow","steam_id":76561199068097215,"connected_time":1039000000000,"state":"active","ping":75},{"user_id":324,"name":"❤Dumpster Cat❤","steam_id":76561199200969139,"connected_time":4749000000000,"state":"active","ping":110},{"user_id":362,"name":"rcus","steam_id":76561198405759470,"connected_time":1163000000000,"state":"active","ping":59},{"user_id":369,"name":"Local","steam_id":76561198170915102,"connected_time":764000000000,"state":"active","ping":75},{"user_id":382,"name":"Rurigade Towers","steam_id":76561198148598905,"connected_time":52000000000,"state":"active","ping":86},{"user_id":381,"name":"plutonium isotope","steam_id":76561198319442494,"connected_time":89000000000,"state":"active","ping":82},{"user_id":343,"name":"mocha","steam_id":76561198825658971,"connected_time":3361000000000,"state":"active","ping":77},{"user_id":368,"name":"linus","steam_id":76561198106196691,"connected_time":823000000000,"state":"active","ping":81},{"user_id":374,"name":"兹曼混蛋","steam_id":76561199030351024,"connected_time":470000000000,"state":"active","ping":124},{"user_id":371,"name":"Average Gibus Enjoyer","steam_id":76561198300953867,"connected_time":702000000000,"state":"active","ping":63},{"user_id":228,"name":"Matches_                       ","steam_id":76561198048925904,"connected_time":11963000000000,"state":"active","ping":86},{"user_id":375,"name":"Fewseb","steam_id":76561198104808456,"connected_time":441000000000,"state":"active","ping":80},{"user_id":348,"name":"Fermenting Kiwi","steam_id":76561198253303497,"connected_time":3149000000000,"state":"active","ping":72},{"user_id":376,"name":"Heydensan","steam_id":76561198272372552,"connected_time":423000000000,"state":"active","ping":77},{"user_id":356,"name":"SPREAD CHRISTMAS CHEER AND JOY","steam_id":76561198800386026,"connected_time":1872000000000,"state":"active","ping":88},{"user_id":305,"name":"survivalist keeda","steam_id":76561198277979851,"connected_time":6695000000000,"state":"active","ping":102},{"user_id":377,"name":"Jazz2T","steam_id":76561198154418867,"connected_time":375000000000,"state":"active","ping":109},{"user_id":312,"name":"trobort","steam_id":76561198027150357,"connected_time":5911000000000,"state":"active","ping":56},{"user_id":378,"name":"Ageispolis","steam_id":76561198045052196,"connected_time":333000000000,"state":"active","ping":117},{"user_id":379,"name":"Flicky","steam_id":76561198012811546,"connected_time":246000000000,"state":"active","ping":104}]},{"server_id":5,"name":"Uncletopia | Frankfurt | 1 | All Maps","name_short":"frk-1","host":"frk-1.de.uncletopia.com","port":27015,"enabled":true,"region":"eu","cc":"de","latitude":50.110924,"longitude":8.682127,"reserved":0,"last_update":"0001-01-01T00:00:00Z","name_a2s":"Uncletopia | Frankfurt | 1 | All Maps","protocol":17,"map":"pl_borneo","folder":"tf","game":"Team Fortress","app_id":440,"player_count":0,"max_players":24,"Bots":0,"server_type":"Dedicated","server_os":"Linux","password":true,"vac":true,"version":"7742253","steam_id":85568392924469989,"keywords":["nocrits","nodmgspread","payload","uncletopia"],"game_id":440,"stv_port":27016,"stv_name":"Uncletopia | Frankfurt | 1 | All Maps | STV","players":null},{"server_id":110,"name":"Uncletopia | Frankfurt | 2 | All Maps","name_short":"frk-2","host":"frk-1.de.uncletopia.com","port":27025,"enabled":true,"region":"eu","cc":"de","latitude":50.110924,"longitude":8.682127,"reserved":0,"last_update":"0001-01-01T00:00:00Z","name_a2s":"Uncletopia | Frankfurt | 2 | All Maps","protocol":17,"map":"pl_swiftwater_final1","folder":"tf","game":"Team Fortress","app_id":440,"player_count":0,"max_players":24,"Bots":0,"server_type":"Dedicated","server_os":"Linux","password":true,"vac":true,"version":"7742253","steam_id":85568392924469990,"keywords":["nocrits","nodmgspread","payload","uncletopia"],"game_id":440,"stv_port":27026,"stv_name":"Uncletopia | Frankfurt | 2 | All Maps | STV","players":null},{"server_id":308,"name":"Uncletopia | Frankfurt | 3 | All Maps","name_short":"frk-3","host":"frk-1.de.uncletopia.com","port":27035,"enabled":true,"region":"eu","cc":"de","latitude":50.110924,"longitude":8.682127,"reserved":0,"last_update":"0001-01-01T00:00:00Z","name_a2s":"Uncletopia | Frankfurt | 3 | All Maps","protocol":17,"map":"cp_dustbowl","folder":"tf","game":"Team Fortress","app_id":440,"player_count":0,"max_players":24,"Bots":0,"server_type":"Dedicated","server_os":"Linux","password":true,"vac":true,"version":"7742253","steam_id":85568392924504274,"keywords":["cp","nocrits","nodmgspread","uncletopia"],"game_id":440,"stv_port":27036,"stv_name":"Uncletopia | Frankfurt | 3 | All Maps | STV","players":null},{"server_id":309,"name":"Uncletopia | Frankfurt | 4 | All Maps","name_short":"frk-4","host":"frk-1.de.uncletopia.com","port":27045,"enabled":true,"region":"eu","cc":"de","latitude":50.110924,"longitude":8.682127,"reserved":0,"last_update":"0001-01-01T00:00:00Z","name_a2s":"Uncletopia | Frankfurt | 4 | All Maps","protocol":17,"map":"cp_sunshine","folder":"tf","game":"Team Fortress","app_id":440,"player_count":0,"max_players":24,"Bots":0,"server_type":"Dedicated","server_os":"Linux","password":true,"vac":true,"version":"7742253","steam_id":85568392924504275,"keywords":["cp","nocrits","nodmgspread","uncletopia"],"game_id":440,"stv_port":27046,"stv_name":"Uncletopia | Frankfurt | 4 | All Maps | STV","players":null},{"server_id":310,"name":"Uncletopia | Frankfurt | 5 | All Maps","name_short":"frk-5","host":"frk-1.de.uncletopia.com","port":27055,"enabled":true,"region":"eu","cc":"de","latitude":50.110924,"longitude":8.682127,"reserved":0,"last_update":"0001-01-01T00:00:00Z","name_a2s":"Uncletopia | Frankfurt | 5 | All Maps","protocol":17,"map":"cp_snakewater_final1","folder":"tf","game":"Team Fortress","app_id":440,"player_count":0,"max_players":24,"Bots":0,"server_type":"Dedicated","server_os":"Linux","password":true,"vac":true,"version":"7742253","steam_id":85568392924504277,"keywords":["cp","nocrits","nodmgspread","uncletopia"],"game_id":440,"stv_port":27056,"stv_name":"Uncletopia | Frankfurt | 5 | All Maps | STV","players":null},{"server_id":311,"name":"Uncletopia | Frankfurt | 6 | All Maps","name_short":"frk-6","host":"frk-1.de.uncletopia.com","port":27065,"enabled":true,"region":"eu","cc":"de","latitude":50.110924,"longitude":8.682127,"reserved":0,"last_update":"0001-01-01T00:00:00Z","name_a2s":"Uncletopia | Frankfurt | 6 | All Maps","protocol":17,"map":"koth_lakeside_final","folder":"tf","game":"Team Fortress","app_id":440,"player_count":0,"max_players":24,"Bots":0,"server_type":"Dedicated","server_os":"Linux","password":true,"vac":true,"version":"7742253","steam_id":85568392924504278,"keywords":["cp","nocrits","nodmgspread","uncletopia"],"game_id":440,"stv_port":27066,"stv_name":"Uncletopia | Frankfurt | 6 | All Maps | STV","players":null},{"server_id":23,"name":"Uncletopia | Frankfurt | 7 | Stopwatch Beta","name_short":"frk-7","host":"frk-1.de.uncletopia.com","port":27075,"enabled":true,"region":"eu","cc":"de","latitude":50.110924,"longitude":8.682127,"reserved":0,"last_update":"0001-01-01T00:00:00Z","name_a2s":"Uncletopia | Frankfurt | 7 | Stopwatch Beta","protocol":17,"map":"pl_badwater","folder":"tf","game":"Team Fortress","app_id":440,"player_count":0,"max_players":24,"Bots":0,"server_type":"Dedicated","server_os":"Linux","password":true,"vac":true,"version":"7742253","steam_id":85568392924742827,"keywords":["nocrits","nodmgspread","payload","uncletopia"],"game_id":440,"stv_port":27076,"stv_name":"Uncletopia | Frankfurt | 7 | Stopwatch Beta | STV","players":null},{"server_id":24,"name":"Uncletopia | Frankfurt | 8 | Community","name_short":"frk-8","host":"frk-1.de.uncletopia.com","port":27085,"enabled":true,"region":"eu","cc":"de","latitude":50.110924,"longitude":8.682127,"reserved":0,"last_update":"0001-01-01T00:00:00Z","name_a2s":"Uncletopia | Frankfurt | 8 | Community","protocol":17,"map":"koth_cascade","folder":"tf","game":"Team Fortress","app_id":440,"player_count":0,"max_players":24,"Bots":0,"server_type":"Dedicated","server_os":"Linux","password":true,"vac":true,"version":"7742253","steam_id":85568392924742828,"keywords":["cp","nocrits","nodmgspread","uncletopia"],"game_id":440,"stv_port":27086,"stv_name":"Uncletopia | Frankfurt | 8 | Community | STV","players":null},{"server_id":202,"name":"Uncletopia | Hong Kong | 1 | All Maps","name_short":"hgk-1","host":"hgk-1.hk.uncletopia.com","port":27015,"enabled":true,"region":"asia","cc":"hk","latitude":22.302711,"longitude":114.177216,"reserved":0,"last_update":"0001-01-01T00:00:00Z","name_a2s":"Uncletopia | Hong Kong | 1 | All Maps","protocol":17,"map":"cp_snakewater_final1","folder":"tf","game":"Team Fortress","app_id":440,"player_count":24,"max_players":24,"Bots":0,"server_type":"Dedicated","server_os":"Linux","password":true,"vac":true,"version":"7742253","steam_id":85568392924494504,"keywords":["cp","nocrits","nodmgspread","uncletopia"],"game_id":440,"stv_port":27016,"stv_name":"Uncletopia | Hong Kong | 1 | All Maps | STV","players":[{"user_id":499,"name":"Noyour","steam_id":76561198323259830,"connected_time":1230000000000,"state":"active","ping":116},{"user_id":470,"name":"professional esports fortnite","steam_id":76561198337887896,"connected_time":3058000000000,"state":"active","ping":79},{"user_id":526,"name":"Urotsuki","steam_id":76561198074339034,"connected_time":539000000000,"state":"active","ping":76},{"user_id":269,"name":"UZ","steam_id":76561198179320563,"connected_time":7335000000000,"state":"active","ping":68},{"user_id":498,"name":"Half measure","steam_id":76561199135173894,"connected_time":1324000000000,"state":"active","ping":77},{"user_id":448,"name":"Sam-alamalam","steam_id":76561198963220676,"connected_time":3743000000000,"state":"active","ping":78},{"user_id":170,"name":"33GA itsmejc_97 (f2p)","steam_id":76561199217594855,"connected_time":9318000000000,"state":"active","ping":86},{"user_id":537,"name":"Clark Redgrave","steam_id":76561198247578638,"connected_time":228000000000,"state":"active","ping":89},{"user_id":471,"name":"j_rex","steam_id":76561198132473926,"connected_time":2789000000000,"state":"active","ping":52},{"user_id":18,"name":"lillalune","steam_id":76561198230213828,"connected_time":14331000000000,"state":"active","ping":68},{"user_id":364,"name":"cherenn","steam_id":76561198320532821,"connected_time":5457000000000,"state":"active","ping":50},{"user_id":504,"name":"Talkk More","steam_id":76561198305424433,"connected_time":883000000000,"state":"active","ping":101},{"user_id":358,"name":"Milk❤ (currently banned in ut","steam_id":76561198163911560,"connected_time":5729000000000,"state":"active","ping":118},{"user_id":505,"name":"MongGoyo63","steam_id":76561198349540834,"connected_time":827000000000,"state":"active","ping":73},{"user_id":169,"name":"Windmill","steam_id":76561199230997986,"connected_time":9640000000000,"state":"active","ping":75},{"user_id":518,"name":"Kiyomi","steam_id":76561198240627872,"connected_time":601000000000,"state":"active","ping":53},{"user_id":507,"name":"cozmic","steam_id":76561198862028046,"connected_time":719000000000,"state":"active","ping":103},{"user_id":479,"name":"June Frits","steam_id":76561199422972321,"connected_time":2233000000000,"state":"active","ping":73},{"user_id":467,"name":"Juju Shortbow","steam_id":76561198349807521,"connected_time":3272000000000,"state":"active","ping":94},{"user_id":450,"name":"JayJ","steam_id":76561198324008555,"connected_time":3700000000000,"state":"active","ping":59},{"user_id":183,"name":"Bertengkar","steam_id":76561198213031155,"connected_time":8663000000000,"state":"active","ping":97},{"user_id":509,"name":"Gold","steam_id":76561199008543001,"connected_time":694000000000,"state":"active","ping":64},{"user_id":229,"name":"iLikeMudrock ᗜ‸ᗜ","steam_id":76561199352285088,"connected_time":7934000000000,"state":"active","ping":81},{"user_id":524,"name":"monkeyman536","steam_id":76561197997717737,"connected_time":556000000000,"state":"active","ping":122}]},{"server_id":1,"name":"Uncletopia | Los Angeles | 1 | All Maps","name_short":"lax-1","host":"lax-1.us.uncletopia.com","port":27015,"enabled":true,"region":"us-west","cc":"us","latitude":33.94279,"longitude":-118.41004,"reserved":0,"last_update":"0001-01-01T00:00:00Z","name_a2s":"Uncletopia | Los Angeles | 1 | All Maps","protocol":17,"map":"koth_lakeside_final","folder":"tf","game":"Team Fortress","app_id":440,"player_count":0,"max_players":24,"Bots":0,"server_type":"Dedicated","server_os":"Linux","password":true,"vac":true,"version":"7742253","steam_id":85568392924469991,"keywords":["cp","nocrits","nodmgspread","uncletopia"],"game_id":440,"stv_port":27016,"stv_name":"Uncletopia | Los Angeles | 1 | All Maps | STV","players":null},{"server_id":112,"name":"Uncletopia | Los Angeles | 2 | All Maps","name_short":"lax-2","host":"lax-1.us.uncletopia.com","port":27025,"enabled":true,"region":"us-west","cc":"us","latitude":33.94279,"longitude":-118.41004,"reserved":0,"last_update":"0001-01-01T00:00:00Z","name_a2s":"Uncletopia | Los Angeles | 2 | All Maps","protocol":17,"map":"pl_badwater","folder":"tf","game":"Team Fortress","app_id":440,"player_count":0,"max_players":24,"Bots":0,"server_type":"Dedicated","server_os":"Linux","password":true,"vac":true,"version":"7742253","steam_id":85568392924469992,"keywords":["nocrits","nodmgspread","payload","uncletopia"],"game_id":440,"stv_port":27026,"stv_name":"Uncletopia | Los Angeles | 2 | All Maps | STV","players":null},{"server_id":324,"name":"Uncletopia | Los Angeles | 3 | All Maps","name_short":"lax-3","host":"lax-1.us.uncletopia.com","port":27035,"enabled":true,"region":"us-west","cc":"us","latitude":33.94279,"longitude":-118.41004,"reserved":0,"last_update":"0001-01-01T00:00:00Z","name_a2s":"Uncletopia | Los Angeles | 3 | All Maps","protocol":17,"map":"koth_lakeside_final","folder":"tf","game":"Team Fortress","app_id":440,"player_count":0,"max_players":24,"Bots":0,"server_type":"Dedicated","server_os":"Linux","password":true,"vac":true,"version":"7742253","steam_id":85568392924510198,"keywords":["cp","nocrits","nodmgspread","uncletopia"],"game_id":440,"stv_port":27036,"stv_name":"Uncletopia | Los Angeles | 3 | All Maps | STV","players":null},{"server_id":25,"name":"Uncletopia | Los Angeles | 4 | Stopwatch Beta","name_short":"lax-4","host":"lax-1.us.uncletopia.com","port":27045,"enabled":true,"region":"us-west","cc":"us","latitude":33.94279,"longitude":-118.41004,"reserved":0,"last_update":"0001-01-01T00:00:00Z","name_a2s":"Uncletopia | Los Angeles | 4 | Stopwatch Beta","protocol":17,"map":"koth_lakeside_final","folder":"tf","game":"Team Fortress","app_id":440,"player_count":0,"max_players":24,"Bots":0,"server_type":"Dedicated","server_os":"Linux","password":true,"vac":true,"version":"7742253","steam_id":85568392924510199,"keywords":["cp","nocrits","nodmgspread","uncletopia"],"game_id":440,"stv_port":27046,"stv_name":"Uncletopia | Los Angeles | 4 | Stopwatch Beta | STV","players":null},{"server_id":11,"name":"Uncletopia | London | 1 | All Maps","name_short":"lon-1","host":"lon-1.uk.uncletopia.com","port":27015,"enabled":true,"region":"eu","cc":"gb","latitude":51.509865,"longitude":-0.118092,"reserved":0,"last_update":"0001-01-01T00:00:00Z","name_a2s":"Uncletopia | London | 1 | All Maps","protocol":17,"map":"pl_badwater","folder":"tf","game":"Team Fortress","app_id":440,"player_count":7,"max_players":24,"Bots":0,"server_type":"Dedicated","server_os":"Linux","password":true,"vac":true,"version":"7742253","steam_id":85568392924367362,"keywords":["nocrits","nodmgspread","payload","uncletopia"],"game_id":440,"stv_port":27016,"stv_name":"Uncletopia | London | 1 | All Maps | STV","players":[{"user_id":1084,"name":"Cossack","steam_id":76561198076661772,"connected_time":695000000000,"state":"active","ping":84},{"user_id":1059,"name":"thomas :-)","steam_id":76561198355097756,"connected_time":5822000000000,"state":"active","ping":60},{"user_id":1087,"name":"Stragnov☆","steam_id":76561198074702465,"connected_time":382000000000,"state":"active","ping":62},{"user_id":1090,"name":"xX_GamingGilf_Xx","steam_id":76561199118876157,"connected_time":30000000000,"state":"active","ping":45},{"user_id":1081,"name":"sam-","steam_id":76561198013770973,"connected_time":1618000000000,"state":"active","ping":68},{"user_id":1089,"name":"Ian","steam_id":76561198159334435,"connected_time":320000000000,"state":"active","ping":180},{"user_id":948,"name":"R A S M U S","steam_id":76561198279799226,"connected_time":16099000000000,"state":"active","ping":64}]},{"server_id":114,"name":"Uncletopia | London | 2 | All Maps","name_short":"lon-2","host":"lon-1.uk.uncletopia.com","port":27025,"enabled":true,"region":"eu","cc":"gb","latitude":51.509865,"longitude":-0.118092,"reserved":0,"last_update":"0001-01-01T00:00:00Z","name_a2s":"Uncletopia | London | 2 | All Maps","protocol":17,"map":"koth_lakeside_final","folder":"tf","game":"Team Fortress","app_id":440,"player_count":0,"max_players":24,"Bots":0,"server_type":"Dedicated","server_os":"Linux","password":true,"vac":true,"version":"7742253","steam_id":85568392924470941,"keywords":["cp","nocrits","nodmgspread","uncletopia"],"game_id":440,"stv_port":27026,"stv_name":"Uncletopia | London | 2 | All Maps | STV","players":null},{"server_id":320,"name":"Uncletopia | London | 3 | All Maps","name_short":"lon-3","host":"lon-1.uk.uncletopia.com","port":27035,"enabled":true,"region":"eu","cc":"gb","latitude":51.509865,"longitude":-0.118092,"reserved":0,"last_update":"0001-01-01T00:00:00Z","name_a2s":"Uncletopia | London | 3 | All Maps","protocol":17,"map":"pl_barnblitz","folder":"tf","game":"Team Fortress","app_id":440,"player_count":0,"max_players":24,"Bots":0,"server_type":"Dedicated","server_os":"Linux","password":true,"vac":true,"version":"7742253","steam_id":85568392924510192,"keywords":["nocrits","nodmgspread","payload","uncletopia"],"game_id":440,"stv_port":27036,"stv_name":"Uncletopia | London | 3 | All Maps | STV","players":null},{"server_id":321,"name":"Uncletopia | London | 4 | All Maps","name_short":"lon-4","host":"lon-1.uk.uncletopia.com","port":27045,"enabled":true,"region":"eu","cc":"gb","latitude":51.509865,"longitude":-0.118092,"reserved":0,"last_update":"0001-01-01T00:00:00Z","name_a2s":"Uncletopia | London | 4 | All Maps","protocol":17,"map":"pl_swiftwater_final1","folder":"tf","game":"Team Fortress","app_id":440,"player_count":0,"max_players":24,"Bots":0,"server_type":"Dedicated","server_os":"Linux","password":true,"vac":true,"version":"7742253","steam_id":85568392924510193,"keywords":["nocrits","nodmgspread","payload","uncletopia"],"game_id":440,"stv_port":27046,"stv_name":"Uncletopia | London | 4 | All Maps | STV","players":null},{"server_id":21,"name":"Uncletopia | London | 5 | All Maps","name_short":"lon-5","host":"lon-1.uk.uncletopia.com","port":27055,"enabled":true,"region":"eu","cc":"gb","latitude":51.509865,"longitude":-0.118092,"reserved":0,"last_update":"0001-01-01T00:00:00Z","name_a2s":"Uncletopia | London | 5 | All Maps","protocol":17,"map":"cp_snakewater_final1","folder":"tf","game":"Team Fortress","app_id":440,"player_count":0,"max_players":24,"Bots":0,"server_type":"Dedicated","server_os":"Linux","password":true,"vac":true,"version":"7742253","steam_id":85568392924742829,"keywords":["cp","nocrits","nodmgspread","uncletopia"],"game_id":440,"stv_port":27056,"stv_name":"Uncletopia | London | 5 | All Maps | STV","players":null},{"server_id":22,"name":"Uncletopia | London | 6 | All Maps","name_short":"lon-6","host":"lon-1.uk.uncletopia.com","port":27065,"enabled":true,"region":"eu","cc":"gb","latitude":51.509865,"longitude":-0.118092,"reserved":0,"last_update":"0001-01-01T00:00:00Z","name_a2s":"Uncletopia | London | 6 | All Maps","protocol":17,"map":"pl_frontier_final","folder":"tf","game":"Team Fortress","app_id":440,"player_count":0,"max_players":24,"Bots":0,"server_type":"Dedicated","server_os":"Linux","password":true,"vac":true,"version":"7742253","steam_id":85568392924742830,"keywords":["nocrits","nodmgspread","payload","uncletopia"],"game_id":440,"stv_port":27066,"stv_name":"Uncletopia | London | 6 | All Maps | STV","players":null},{"server_id":40,"name":"Uncletopia | London | 7 | No Payload","name_short":"lon-7","host":"lon-1.uk.uncletopia.com","port":27075,"enabled":true,"region":"eu","cc":"gb","latitude":51.509865,"longitude":-0.118092,"reserved":0,"last_update":"0001-01-01T00:00:00Z","name_a2s":"Uncletopia | London | 7 | No Payload","protocol":17,"map":"plr_bananabay","folder":"tf","game":"Team Fortress","app_id":440,"player_count":0,"max_players":24,"Bots":0,"server_type":"Dedicated","server_os":"Linux","password":true,"vac":true,"version":"7742253","steam_id":85568392924964314,"keywords":["nocrits","nodmgspread","payload","uncletopia"],"game_id":440,"stv_port":27076,"stv_name":"Uncletopia | London | 7 | No Payload | STV","players":null},{"server_id":41,"name":"Uncletopia | London | 8 | Community","name_short":"lon-8","host":"lon-1.uk.uncletopia.com","port":27085,"enabled":true,"region":"eu","cc":"gb","latitude":51.509865,"longitude":-0.118092,"reserved":0,"last_update":"0001-01-01T00:00:00Z","name_a2s":"Uncletopia | London | 8 | Community","protocol":17,"map":"workshop/koth_ashville_final.ugc2130459942","folder":"tf","game":"Team Fortress","app_id":440,"player_count":0,"max_players":24,"Bots":0,"server_type":"Dedicated","server_os":"Linux","password":true,"vac":true,"version":"7742253","steam_id":85568392924964315,"keywords":["cp","nocrits","nodmgspread","uncletopia"],"game_id":440,"stv_port":27086,"stv_name":"Uncletopia | London | 8 | Community | STV","players":null},{"server_id":300,"name":"Uncletopia | Montréal | 1 | All Maps","name_short":"mtl-1","host":"mtl-1.ca.uncletopia.com","port":27015,"enabled":true,"region":"us-east","cc":"ca","latitude":45.50889,"longitude":-73.56167,"reserved":0,"last_update":"0001-01-01T00:00:00Z","name_a2s":"Uncletopia | Montréal | 1 | All Maps","protocol":17,"map":"koth_cascade","folder":"tf","game":"Team Fortress","app_id":440,"player_count":0,"max_players":24,"Bots":0,"server_type":"Dedicated","server_os":"Linux","password":true,"vac":true,"version":"7742253","steam_id":85568392924500087,"keywords":["cp","nocrits","nodmgspread","uncletopia"],"game_id":440,"stv_port":27016,"stv_name":"Uncletopia | Montréal | 1 | All Maps | STV","players":null},{"server_id":301,"name":"Uncletopia | Montréal | 2 | All Maps","name_short":"mtl-2","host":"mtl-1.ca.uncletopia.com","port":27025,"enabled":true,"region":"us-east","cc":"ca","latitude":45.50889,"longitude":-73.56167,"reserved":0,"last_update":"0001-01-01T00:00:00Z","name_a2s":"Uncletopia | Montréal | 2 | All Maps","protocol":17,"map":"koth_lakeside_final","folder":"tf","game":"Team Fortress","app_id":440,"player_count":0,"max_players":24,"Bots":0,"server_type":"Dedicated","server_os":"Linux","password":true,"vac":true,"version":"7742253","steam_id":85568392924500088,"keywords":["cp","nocrits","nodmgspread","uncletopia"],"game_id":440,"stv_port":27026,"stv_name":"Uncletopia | Montréal | 2 | All Maps | STV","players":null},{"server_id":302,"name":"Uncletopia | Montréal | 3 | All Maps","name_short":"mtl-3","host":"mtl-1.ca.uncletopia.com","port":27035,"enabled":true,"region":"us-east","cc":"ca","latitude":45.50889,"longitude":-73.56167,"reserved":0,"last_update":"0001-01-01T00:00:00Z","name_a2s":"Uncletopia | Montréal | 3 | All Maps","protocol":17,"map":"pl_frontier_final","folder":"tf","game":"Team Fortress","app_id":440,"player_count":0,"max_players":24,"Bots":0,"server_type":"Dedicated","server_os":"Linux","password":true,"vac":true,"version":"7742253","steam_id":85568392924500089,"keywords":["nocrits","nodmgspread","payload","uncletopia"],"game_id":440,"stv_port":27036,"stv_name":"Uncletopia | Montréal | 3 | All Maps | STV","players":null},{"server_id":303,"name":"Uncletopia | Montréal | 4 | No Payload","name_short":"mtl-4","host":"mtl-1.ca.uncletopia.com","port":27045,"enabled":true,"region":"us-east","cc":"ca","latitude":45.50889,"longitude":-73.56167,"reserved":0,"last_update":"0001-01-01T00:00:00Z","name_a2s":"Uncletopia | Montréal | 4 | No Payload","protocol":17,"map":"cp_mountainlab","folder":"tf","game":"Team Fortress","app_id":440,"player_count":0,"max_players":24,"Bots":0,"server_type":"Dedicated","server_os":"Linux","password":true,"vac":true,"version":"7742253","steam_id":85568392924500090,"keywords":["cp","nocrits","nodmgspread","uncletopia"],"game_id":440,"stv_port":27046,"stv_name":"Uncletopia | Montréal | 4 | No Payload | STV","players":null},{"server_id":13,"name":"Uncletopia | New York City | 1 | All Maps","name_short":"nyc-1","host":"nyc-1.us.uncletopia.com","port":27015,"enabled":true,"region":"us-east","cc":"us","latitude":40.73061,"longitude":-73.93524,"reserved":0,"last_update":"0001-01-01T00:00:00Z","name_a2s":"Uncletopia | New York City | 1 | All Maps","protocol":17,"map":"pl_snowycoast","folder":"tf","game":"Team Fortress","app_id":440,"player_count":24,"max_players":24,"Bots":0,"server_type":"Dedicated","server_os":"Linux","password":true,"vac":true,"version":"7742253","steam_id":85568392924469993,"keywords":["nocrits","nodmgspread","payload","uncletopia"],"game_id":440,"stv_port":27016,"stv_name":"Uncletopia | New York City | 1 | All Maps | STV","players":[{"user_id":193,"name":"Jai_Jax","steam_id":76561198294183299,"connected_time":4553000000000,"state":"active","ping":68},{"user_id":220,"name":"Frank HardWood","steam_id":76561198109364911,"connected_time":2166000000000,"state":"active","ping":86},{"user_id":219,"name":"e0e0","steam_id":76561198293839750,"connected_time":2197000000000,"state":"active","ping":45},{"user_id":213,"name":"freestyling at the y","steam_id":76561198075758026,"connected_time":3146000000000,"state":"active","ping":84},{"user_id":221,"name":"cokersworld","steam_id":76561198039731344,"connected_time":2112000000000,"state":"active","ping":62},{"user_id":218,"name":"Smileland","steam_id":76561199223425104,"connected_time":2383000000000,"state":"active","ping":94},{"user_id":121,"name":"Ballin \u0026 Can't Get Up","steam_id":76561198047394013,"connected_time":11490000000000,"state":"active","ping":58},{"user_id":157,"name":"Father Cocoa","steam_id":76561199023002514,"connected_time":7703000000000,"state":"active","ping":75},{"user_id":168,"name":"iL","steam_id":76561198086331015,"connected_time":7008000000000,"state":"active","ping":32},{"user_id":222,"name":"ScaredyCat","steam_id":76561198799338137,"connected_time":2111000000000,"state":"active","ping":72},{"user_id":195,"name":"Market Pliers","steam_id":76561198380473491,"connected_time":4536000000000,"state":"active","ping":76},{"user_id":154,"name":"Yuzu","steam_id":76561198417913035,"connected_time":8436000000000,"state":"active","ping":64},{"user_id":145,"name":"Sir Quacksalot","steam_id":76561198048942777,"connected_time":9794000000000,"state":"active","ping":78},{"user_id":196,"name":"Brass beast heavy","steam_id":76561198274197623,"connected_time":4533000000000,"state":"active","ping":135},{"user_id":197,"name":"Gibs","steam_id":76561198278676375,"connected_time":4529000000000,"state":"active","ping":66},{"user_id":198,"name":"Emerald Playz","steam_id":76561198381315777,"connected_time":4504000000000,"state":"active","ping":76},{"user_id":217,"name":"Oink","steam_id":76561198186680197,"connected_time":2504000000000,"state":"active","ping":105},{"user_id":210,"name":"[\u003e\u003c] OTP Uncle Sam","steam_id":76561198186666399,"connected_time":3608000000000,"state":"active","ping":134},{"user_id":223,"name":"anal fiend","steam_id":76561198026844952,"connected_time":2074000000000,"state":"active","ping":109},{"user_id":215,"name":"inyanga!","steam_id":76561198354663927,"connected_time":2723000000000,"state":"active","ping":63},{"user_id":140,"name":"Braamklauw","steam_id":76561198283287697,"connected_time":9884000000000,"state":"active","ping":140},{"user_id":224,"name":"Tripp","steam_id":76561198033705006,"connected_time":2053000000000,"state":"active","ping":118},{"user_id":216,"name":"matcha ^_^ \u003c3","steam_id":76561198832230598,"connected_time":2583000000000,"state":"active","ping":47},{"user_id":214,"name":"SALEM","steam_id":76561198116281100,"connected_time":3143000000000,"state":"active","ping":59}]},{"server_id":14,"name":"Uncletopia | New York City | 2 | All Maps","name_short":"nyc-2","host":"nyc-1.us.uncletopia.com","port":27025,"enabled":true,"region":"us-east","cc":"us","latitude":40.73061,"longitude":-73.93524,"reserved":0,"last_update":"0001-01-01T00:00:00Z","name_a2s":"Uncletopia | New York City | 2 | All Maps","protocol":17,"map":"pl_upward","folder":"tf","game":"Team Fortress","app_id":440,"player_count":24,"max_players":24,"Bots":0,"server_type":"Dedicated","server_os":"Linux","password":true,"vac":true,"version":"7742253","steam_id":85568392924469994,"keywords":["nocrits","nodmgspread","payload","uncletopia"],"game_id":440,"stv_port":27026,"stv_name":"Uncletopia | New York City | 2 | All Maps | STV","players":[{"user_id":188,"name":"Saristan","steam_id":76561198093346048,"connected_time":1376000000000,"state":"active","ping":57},{"user_id":196,"name":"deech","steam_id":76561198066429444,"connected_time":755000000000,"state":"active","ping":46},{"user_id":192,"name":"BeerPowder","steam_id":76561198058129400,"connected_time":1011000000000,"state":"active","ping":46},{"user_id":135,"name":"2fort lesbian","steam_id":76561198055490517,"connected_time":5790000000000,"state":"active","ping":50},{"user_id":179,"name":"stockhack","steam_id":76561198050220225,"connected_time":2094000000000,"state":"active","ping":52},{"user_id":189,"name":"Hermit not Kermit","steam_id":76561198106182525,"connected_time":1341000000000,"state":"active","ping":120},{"user_id":183,"name":"Fly Man","steam_id":76561198201036790,"connected_time":1512000000000,"state":"active","ping":86},{"user_id":190,"name":"Lumpy","steam_id":76561198058840585,"connected_time":1320000000000,"state":"active","ping":60},{"user_id":193,"name":"WitheringLeo","steam_id":76561198046722918,"connected_time":953000000000,"state":"active","ping":52},{"user_id":197,"name":"Colin102004","steam_id":76561198202384334,"connected_time":741000000000,"state":"active","ping":42},{"user_id":155,"name":"jorjor wells","steam_id":76561199073429082,"connected_time":4391000000000,"state":"active","ping":53},{"user_id":170,"name":"java","steam_id":76561198030276792,"connected_time":2884000000000,"state":"active","ping":60},{"user_id":205,"name":"Queen Frau the Round","steam_id":76561197999942134,"connected_time":28000000000,"state":"spawning","ping":84},{"user_id":56,"name":"sithreis","steam_id":76561198000564263,"connected_time":10908000000000,"state":"active","ping":75},{"user_id":74,"name":"AlecTheNefarious","steam_id":76561198035291230,"connected_time":10118000000000,"state":"active","ping":80},{"user_id":137,"name":"ndvr","steam_id":76561199379200102,"connected_time":5262000000000,"state":"active","ping":45},{"user_id":160,"name":"majo","steam_id":76561199443511982,"connected_time":3744000000000,"state":"active","ping":87},{"user_id":198,"name":"BigOrca54","steam_id":76561198181360271,"connected_time":727000000000,"state":"active","ping":70},{"user_id":202,"name":"lanp","steam_id":76561198815492747,"connected_time":474000000000,"state":"active","ping":55},{"user_id":180,"name":"kramer","steam_id":76561198117761965,"connected_time":1970000000000,"state":"active","ping":57},{"user_id":168,"name":"Shh","steam_id":76561198075865231,"connected_time":2898000000000,"state":"active","ping":50},{"user_id":169,"name":"lanoc","steam_id":76561198055415367,"connected_time":2890000000000,"state":"active","ping":75},{"user_id":150,"name":"femboy beats","steam_id":76561199245717718,"connected_time":4570000000000,"state":"active","ping":61},{"user_id":203,"name":"bingle","steam_id":76561198359413453,"connected_time":401000000000,"state":"active","ping":65}]},{"server_id":15,"name":"Uncletopia | New York City | 3 | Stopwatch Beta","name_short":"nyc-3","host":"nyc-1.us.uncletopia.com","port":27035,"enabled":true,"region":"us-east","cc":"us","latitude":40.73061,"longitude":-73.93524,"reserved":0,"last_update":"0001-01-01T00:00:00Z","name_a2s":"Uncletopia | New York City | 3 | Stopwatch Beta","protocol":17,"map":"pl_pier","folder":"tf","game":"Team Fortress","app_id":440,"player_count":0,"max_players":24,"Bots":0,"server_type":"Dedicated","server_os":"Linux","password":true,"vac":true,"version":"7742253","steam_id":85568392924742820,"keywords":["nocrits","nodmgspread","payload","uncletopia"],"game_id":440,"stv_port":27036,"stv_name":"Uncletopia | New York City | 3 | Stopwatch Beta | STV","players":null},{"server_id":16,"name":"Uncletopia | New York City | 4 | Community","name_short":"nyc-4","host":"nyc-1.us.uncletopia.com","port":27045,"enabled":true,"region":"us-east","cc":"us","latitude":40.73061,"longitude":-73.93524,"reserved":0,"last_update":"0001-01-01T00:00:00Z","name_a2s":"Uncletopia | New York City | 4 | Community","protocol":17,"map":"workshop/pl_vigil_rc9.ugc1266210012","folder":"tf","game":"Team Fortress","app_id":440,"player_count":0,"max_players":24,"Bots":0,"server_type":"Dedicated","server_os":"Linux","password":true,"vac":true,"version":"7742253","steam_id":85568392924742821,"keywords":["nocrits","nodmgspread","payload","uncletopia"],"game_id":440,"stv_port":27046,"stv_name":"Uncletopia | New York City | 4 | Community | STV","players":null},{"server_id":142,"name":"Uncletopia | São Paulo | 1 | All Maps","name_short":"sao-1","host":"sao-1.br.uncletopia.com","port":27015,"enabled":true,"region":"sa","cc":"br","latitude":-23.533773,"longitude":-46.62529,"reserved":0,"last_update":"0001-01-01T00:00:00Z","name_a2s":"Uncletopia | São Paulo | 1 | All Maps","protocol":17,"map":"koth_lakeside_final","folder":"tf","game":"Team Fortress","app_id":440,"player_count":0,"max_players":24,"Bots":0,"server_type":"Dedicated","server_os":"Linux","password":true,"vac":true,"version":"7742253","steam_id":85568392924469996,"keywords":["cp","nocrits","nodmgspread","uncletopia"],"game_id":440,"stv_port":27016,"stv_name":"Uncletopia | São Paulo | 1 | All Maps | STV","players":null},{"server_id":143,"name":"Uncletopia | São Paulo | 2 | All Maps","name_short":"sao-2","host":"sao-2.br.uncletopia.com","port":27015,"enabled":true,"region":"sa","cc":"br","latitude":-23.533773,"longitude":-46.62529,"reserved":0,"last_update":"0001-01-01T00:00:00Z","name_a2s":"Uncletopia | São Paulo | 2 | All Maps","protocol":17,"map":"koth_cascade","folder":"tf","game":"Team Fortress","app_id":440,"player_count":0,"max_players":24,"Bots":0,"server_type":"Dedicated","server_os":"Linux","password":true,"vac":true,"version":"7742253","steam_id":85568392924485349,"keywords":["cp","nocrits","nodmgspread","uncletopia"],"game_id":440,"stv_port":27016,"stv_name":"Uncletopia | São Paulo | 2 | All Maps | STV","players":null},{"server_id":7,"name":"Uncletopia | Seattle | 1 | All Maps","name_short":"sea-1","host":"sea-1.us.uncletopia.com","port":27015,"enabled":true,"region":"us-west","cc":"us","latitude":47.608013,"longitude":-122.33517,"reserved":0,"last_update":"0001-01-01T00:00:00Z","name_a2s":"Uncletopia | Seattle | 1 | All Maps","protocol":17,"map":"pl_pier","folder":"tf","game":"Team Fortress","app_id":440,"player_count":24,"max_players":24,"Bots":0,"server_type":"Dedicated","server_os":"Linux","password":true,"vac":true,"version":"7742253","steam_id":85568392924469997,"keywords":["nocrits","nodmgspread","payload","uncletopia"],"game_id":440,"stv_port":27016,"stv_name":"Uncletopia | Seattle | 1 | All Maps | STV","players":[{"user_id":472,"name":"Muteant","steam_id":76561197999237890,"connected_time":1093000000000,"state":"active","ping":89},{"user_id":429,"name":"Fh","steam_id":76561198000903511,"connected_time":5154000000000,"state":"active","ping":72},{"user_id":466,"name":"Arsonist Goose","steam_id":76561198147441830,"connected_time":1464000000000,"state":"active","ping":75},{"user_id":467,"name":"andruwu","steam_id":76561198096912831,"connected_time":1387000000000,"state":"active","ping":83},{"user_id":413,"name":"SvicidalBug","steam_id":76561198221390504,"connected_time":6521000000000,"state":"active","ping":68},{"user_id":468,"name":"demon girl","steam_id":76561198100650222,"connected_time":1372000000000,"state":"active","ping":87},{"user_id":449,"name":"Raian","steam_id":76561199138048671,"connected_time":2517000000000,"state":"active","ping":64},{"user_id":461,"name":"Dang","steam_id":76561198288874083,"connected_time":2022000000000,"state":"active","ping":147},{"user_id":471,"name":"Thanks Ants","steam_id":76561197966221018,"connected_time":1223000000000,"state":"active","ping":45},{"user_id":431,"name":"demoman","steam_id":76561199389584938,"connected_time":4627000000000,"state":"active","ping":41},{"user_id":483,"name":"Chingga","steam_id":76561198165837395,"connected_time":632000000000,"state":"active","ping":43},{"user_id":484,"name":"Sweets","steam_id":76561198998446307,"connected_time":381000000000,"state":"active","ping":62},{"user_id":487,"name":"Mad dog of Shimano","steam_id":76561198797266817,"connected_time":115000000000,"state":"active","ping":119},{"user_id":486,"name":"bbbbb","steam_id":76561198095480838,"connected_time":273000000000,"state":"active","ping":54},{"user_id":479,"name":"jaime42003","steam_id":76561199426821890,"connected_time":860000000000,"state":"active","ping":145},{"user_id":473,"name":"lag","steam_id":76561198117898839,"connected_time":1040000000000,"state":"active","ping":122},{"user_id":474,"name":"Sailor","steam_id":76561199081983517,"connected_time":999000000000,"state":"active","ping":98},{"user_id":481,"name":"laggy mcstab","steam_id":76561198106379962,"connected_time":748000000000,"state":"active","ping":58},{"user_id":476,"name":"Jerimiah :)","steam_id":76561198092084090,"connected_time":966000000000,"state":"active","ping":77},{"user_id":443,"name":"bad spy player","steam_id":76561198873699671,"connected_time":3171000000000,"state":"active","ping":39},{"user_id":437,"name":"The King of Piss World","steam_id":76561198082806956,"connected_time":3994000000000,"state":"active","ping":113},{"user_id":465,"name":"Savant","steam_id":76561197969881916,"connected_time":1499000000000,"state":"active","ping":59},{"user_id":463,"name":"TheLegend27","steam_id":76561199012721121,"connected_time":2009000000000,"state":"active","ping":89},{"user_id":477,"name":"Rx Auntie","steam_id":76561198051618393,"connected_time":947000000000,"state":"active","ping":70}]},{"server_id":119,"name":"Uncletopia | Seattle | 2 | All Maps","name_short":"sea-2","host":"sea-1.us.uncletopia.com","port":27025,"enabled":true,"region":"us-west","cc":"us","latitude":47.608013,"longitude":-122.33517,"reserved":0,"last_update":"0001-01-01T00:00:00Z","name_a2s":"Uncletopia | Seattle | 2 | All Maps","protocol":17,"map":"cp_dustbowl","folder":"tf","game":"Team Fortress","app_id":440,"player_count":24,"max_players":24,"Bots":0,"server_type":"Dedicated","server_os":"Linux","password":true,"vac":true,"version":"7742253","steam_id":85568392924469998,"keywords":["cp","nocrits","nodmgspread","uncletopia"],"game_id":440,"stv_port":27026,"stv_name":"Uncletopia | Seattle | 2 | All Maps | STV","players":[{"user_id":474,"name":"ilMoose","steam_id":76561198827275420,"connected_time":1597000000000,"state":"active","ping":48},{"user_id":494,"name":"KingTinkerer","steam_id":76561198226856548,"connected_time":432000000000,"state":"active","ping":78},{"user_id":459,"name":"mooney","steam_id":76561199110622484,"connected_time":2503000000000,"state":"active","ping":58},{"user_id":500,"name":"rat gets the cheese","steam_id":76561198031234032,"connected_time":4000000000,"state":"spawning","ping":120},{"user_id":486,"name":"Monkey_Eyes","steam_id":76561198972371618,"connected_time":1008000000000,"state":"active","ping":52},{"user_id":429,"name":"Micah","steam_id":76561198006837982,"connected_time":4593000000000,"state":"active","ping":125},{"user_id":458,"name":"loco503","steam_id":76561198827495121,"connected_time":2504000000000,"state":"active","ping":75},{"user_id":394,"name":"jungus","steam_id":76561198129862008,"connected_time":6567000000000,"state":"active","ping":74},{"user_id":427,"name":"THE NUT","steam_id":76561198067813626,"connected_time":4641000000000,"state":"active","ping":53},{"user_id":493,"name":"freya!","steam_id":76561198966232220,"connected_time":435000000000,"state":"active","ping":70},{"user_id":485,"name":"rat smacker","steam_id":76561198970498537,"connected_time":1032000000000,"state":"active","ping":84},{"user_id":496,"name":"nephar1ous","steam_id":76561198962318010,"connected_time":254000000000,"state":"active","ping":129},{"user_id":499,"name":"Booster Gold","steam_id":76561198045873731,"connected_time":124000000000,"state":"active","ping":50},{"user_id":498,"name":"bananabarrel","steam_id":76561198849331467,"connected_time":211000000000,"state":"active","ping":101},{"user_id":479,"name":"butt3r_","steam_id":76561198156374792,"connected_time":1247000000000,"state":"active","ping":46},{"user_id":454,"name":"toki","steam_id":76561199196943730,"connected_time":2897000000000,"state":"active","ping":92},{"user_id":446,"name":"McNamJam","steam_id":76561198028128686,"connected_time":3515000000000,"state":"active","ping":71},{"user_id":491,"name":"kalahan","steam_id":76561199438718706,"connected_time":482000000000,"state":"active","ping":122},{"user_id":376,"name":"Mignyanne :3","steam_id":76561198048754056,"connected_time":8205000000000,"state":"active","ping":75},{"user_id":473,"name":"The Grimspeeder","steam_id":76561198105189117,"connected_time":1606000000000,"state":"active","ping":56},{"user_id":453,"name":"zoo-music girl","steam_id":76561198325306660,"connected_time":3027000000000,"state":"active","ping":52},{"user_id":489,"name":"chloé","steam_id":76561198858926895,"connected_time":703000000000,"state":"active","ping":44},{"user_id":488,"name":"General Fisticuffs","steam_id":76561198255721392,"connected_time":732000000000,"state":"active","ping":110},{"user_id":441,"name":"kebo","steam_id":76561198237159430,"connected_time":3738000000000,"state":"active","ping":78}]},{"server_id":406,"name":"Uncletopia | Seattle | 3 | Stopwatch Beta","name_short":"sea-3","host":"sea-1.us.uncletopia.com","port":27035,"enabled":true,"region":"us-west","cc":"us","latitude":47.608013,"longitude":-122.33517,"reserved":0,"last_update":"0001-01-01T00:00:00Z","name_a2s":"Uncletopia | Seattle | 3 | Stopwatch Beta","protocol":17,"map":"workshop/pl_summercoast_rc8e.ugc1761528829","folder":"tf","game":"Team Fortress","app_id":440,"player_count":0,"max_players":24,"Bots":0,"server_type":"Dedicated","server_os":"Linux","password":true,"vac":true,"version":"7742253","steam_id":85568392924515217,"keywords":["nocrits","nodmgspread","payload","uncletopia"],"game_id":440,"stv_port":27036,"stv_name":"Uncletopia | Seattle | 3 | Stopwatch Beta | STV","players":null},{"server_id":17,"name":"Uncletopia | San Francisco | 1 | All Maps","name_short":"sfo-1","host":"sfo-1.us.uncletopia.com","port":27015,"enabled":true,"region":"us-west","cc":"us","latitude":37.77397,"longitude":-122.4313,"reserved":0,"last_update":"0001-01-01T00:00:00Z","name_a2s":"Uncletopia | San Francisco | 1 | All Maps","protocol":17,"map":"pl_upward","folder":"tf","game":"Team Fortress","app_id":440,"player_count":24,"max_players":24,"Bots":0,"server_type":"Dedicated","server_os":"Linux","password":true,"vac":true,"version":"7742253","steam_id":85568392924469999,"keywords":["nocrits","nodmgspread","payload","uncletopia"],"game_id":440,"stv_port":27016,"stv_name":"Uncletopia | San Francisco | 1 | All Maps | STV","players":[{"user_id":425,"name":"Surly Joe","steam_id":76561199150833796,"connected_time":2364000000000,"state":"active","ping":64},{"user_id":448,"name":"Sad Sapling","steam_id":76561198075612150,"connected_time":259000000000,"state":"active","ping":62},{"user_id":436,"name":"mu","steam_id":76561197997530228,"connected_time":1816000000000,"state":"active","ping":70},{"user_id":449,"name":"Metal 9","steam_id":76561198178318343,"connected_time":228000000000,"state":"active","ping":131},{"user_id":426,"name":"adapt","steam_id":76561198156181017,"connected_time":2352000000000,"state":"active","ping":63},{"user_id":419,"name":"skelter","steam_id":76561199228915146,"connected_time":2705000000000,"state":"active","ping":65},{"user_id":431,"name":"Krazy","steam_id":76561198835502709,"connected_time":2201000000000,"state":"active","ping":48},{"user_id":450,"name":"a_10warthog5_56","steam_id":76561199388748730,"connected_time":225000000000,"state":"active","ping":62},{"user_id":441,"name":"John Wick's puppy","steam_id":76561198064662875,"connected_time":814000000000,"state":"active","ping":49},{"user_id":444,"name":"HungryHippo","steam_id":76561198047615363,"connected_time":632000000000,"state":"active","ping":58},{"user_id":445,"name":"Sivinus","steam_id":76561198025589541,"connected_time":591000000000,"state":"active","ping":61},{"user_id":451,"name":"goldhed","steam_id":76561198051751133,"connected_time":177000000000,"state":"active","ping":76},{"user_id":429,"name":"Amogous Supreme","steam_id":76561198025476774,"connected_time":2311000000000,"state":"active","ping":56},{"user_id":438,"name":"A 7/10","steam_id":76561198075814864,"connected_time":1342000000000,"state":"active","ping":105},{"user_id":411,"name":"сливная\u003e_+","steam_id":76561198126358045,"connected_time":3173000000000,"state":"active","ping":119},{"user_id":422,"name":"Western_spy","steam_id":76561198968587046,"connected_time":2517000000000,"state":"active","ping":55},{"user_id":412,"name":"объем\u003e_\u003c","steam_id":76561199253405698,"connected_time":3133000000000,"state":"active","ping":45},{"user_id":420,"name":"Jooshypoo1234","steam_id":76561199286470868,"connected_time":2625000000000,"state":"active","ping":113},{"user_id":447,"name":"primordialheath","steam_id":76561199386942638,"connected_time":565000000000,"state":"active","ping":115},{"user_id":432,"name":"Testicular Torsion","steam_id":76561197968179862,"connected_time":2178000000000,"state":"active","ping":65},{"user_id":435,"name":"A Pair of Candy Canes","steam_id":76561198052239472,"connected_time":2080000000000,"state":"active","ping":54},{"user_id":408,"name":"Jax O'Gaytor","steam_id":76561198288922168,"connected_time":3499000000000,"state":"active","ping":67},{"user_id":439,"name":"Knock on the sky and listen","steam_id":76561198077597130,"connected_time":1087000000000,"state":"active","ping":44},{"user_id":443,"name":"Luffy (real)","steam_id":76561198056301018,"connected_time":774000000000,"state":"active","ping":78}]},{"server_id":18,"name":"Uncletopia | San Francisco | 2 | All Maps","name_short":"sfo-2","host":"sfo-1.us.uncletopia.com","port":27025,"enabled":true,"region":"us-west","cc":"us","latitude":37.77397,"longitude":-122.4313,"reserved":0,"last_update":"0001-01-01T00:00:00Z","name_a2s":"Uncletopia | San Francisco | 2 | All Maps","protocol":17,"map":"cp_sunshine","folder":"tf","game":"Team Fortress","app_id":440,"player_count":24,"max_players":24,"Bots":0,"server_type":"Dedicated","server_os":"Linux","password":true,"vac":true,"version":"7742253","steam_id":85568392924470000,"keywords":["cp","nocrits","nodmgspread","uncletopia"],"game_id":440,"stv_port":27026,"stv_name":"Uncletopia | San Francisco | 2 | All Maps | STV","players":[{"user_id":311,"name":"mean penguin","steam_id":76561198174751517,"connected_time":725000000000,"state":"active","ping":59},{"user_id":313,"name":"RighteousICE","steam_id":76561198266993942,"connected_time":246000000000,"state":"active","ping":53},{"user_id":305,"name":"gazpacho","steam_id":76561198132903078,"connected_time":1129000000000,"state":"active","ping":60},{"user_id":306,"name":"shoes","steam_id":76561198044104086,"connected_time":1127000000000,"state":"active","ping":60},{"user_id":299,"name":"Frank Accardi","steam_id":76561198017275707,"connected_time":1810000000000,"state":"active","ping":70},{"user_id":296,"name":"mmmBoyo","steam_id":76561198821360261,"connected_time":1961000000000,"state":"active","ping":73},{"user_id":304,"name":"......","steam_id":76561198067612741,"connected_time":1175000000000,"state":"active","ping":63},{"user_id":292,"name":"supatrip","steam_id":76561198131030886,"connected_time":2160000000000,"state":"active","ping":52},{"user_id":288,"name":"fuzzorino","steam_id":76561198093146293,"connected_time":2921000000000,"state":"active","ping":48},{"user_id":314,"name":"ricky_racquetball_2009","steam_id":76561198098631397,"connected_time":94000000000,"state":"active","ping":98},{"user_id":308,"name":"Jack from Jack in The Box","steam_id":76561199083594971,"connected_time":844000000000,"state":"active","ping":64},{"user_id":234,"name":"staples easy button","steam_id":76561198040415947,"connected_time":5912000000000,"state":"active","ping":98},{"user_id":218,"name":"Gift_Card","steam_id":76561197995405617,"connected_time":6512000000000,"state":"active","ping":106},{"user_id":289,"name":"Communist Party of Wutville","steam_id":76561198844003641,"connected_time":2903000000000,"state":"active","ping":62},{"user_id":309,"name":"SuaveFrenchman","steam_id":76561198043762683,"connected_time":838000000000,"state":"active","ping":47},{"user_id":264,"name":"Protato","steam_id":76561198053117503,"connected_time":4334000000000,"state":"active","ping":73},{"user_id":263,"name":"42","steam_id":76561198043965184,"connected_time":4361000000000,"state":"active","ping":51},{"user_id":312,"name":"GamerGuy88","steam_id":76561199059733640,"connected_time":560000000000,"state":"active","ping":62},{"user_id":301,"name":"Person","steam_id":76561198073885832,"connected_time":1520000000000,"state":"active","ping":65},{"user_id":315,"name":"1000 Ping","steam_id":76561198098330939,"connected_time":67000000000,"state":"active","ping":71},{"user_id":302,"name":"radio","steam_id":76561198010226481,"connected_time":1425000000000,"state":"active","ping":56},{"user_id":281,"name":"1 Great Wooden Dad","steam_id":76561198377126974,"connected_time":3291000000000,"state":"active","ping":114},{"user_id":265,"name":"KnifeSaber","steam_id":76561198872681766,"connected_time":4308000000000,"state":"active","ping":123},{"user_id":310,"name":"xlesz","steam_id":76561199020119161,"connected_time":836000000000,"state":"active","ping":61}]},{"server_id":19,"name":"Uncletopia | San Francisco | 3 | Stopwatch Beta","name_short":"sfo-3","host":"sfo-1.us.uncletopia.com","port":27035,"enabled":true,"region":"us-west","cc":"us","latitude":37.77397,"longitude":-122.4313,"reserved":0,"last_update":"0001-01-01T00:00:00Z","name_a2s":"Uncletopia | San Francisco | 3 | Stopwatch Beta","protocol":17,"map":"koth_lakeside_final","folder":"tf","game":"Team Fortress","app_id":440,"player_count":0,"max_players":24,"Bots":0,"server_type":"Dedicated","server_os":"Linux","password":true,"vac":true,"version":"7742253","steam_id":85568392924742824,"keywords":["cp","nocrits","nodmgspread","uncletopia"],"game_id":440,"stv_port":27036,"stv_name":"Uncletopia | San Francisco | 3 | Stopwatch Beta | STV","players":null},{"server_id":20,"name":"Uncletopia | San Francisco | 4 | Community","name_short":"sfo-4","host":"sfo-1.us.uncletopia.com","port":27045,"enabled":true,"region":"us-west","cc":"us","latitude":37.77397,"longitude":-122.4313,"reserved":0,"last_update":"0001-01-01T00:00:00Z","name_a2s":"Uncletopia | San Francisco | 4 | Community","protocol":17,"map":"workshop/koth_bagel_rc5.ugc2514036946","folder":"tf","game":"Team Fortress","app_id":440,"player_count":0,"max_players":24,"Bots":0,"server_type":"Dedicated","server_os":"Linux","password":true,"vac":true,"version":"7742253","steam_id":85568392924742826,"keywords":["cp","nocrits","nodmgspread","uncletopia"],"game_id":440,"stv_port":27046,"stv_name":"Uncletopia | San Francisco | 4 | Community | STV","players":null},{"server_id":141,"name":"Uncletopia | Sydney | 1 | All Maps","name_short":"syd-1","host":"syd-1.au.uncletopia.com","port":27015,"enabled":true,"region":"au","cc":"au","latitude":-33.865143,"longitude":151.2099,"reserved":0,"last_update":"0001-01-01T00:00:00Z","name_a2s":"Uncletopia | Sydney | 1 | All Maps","protocol":17,"map":"koth_lakeside_final","folder":"tf","game":"Team Fortress","app_id":440,"player_count":0,"max_players":24,"Bots":0,"server_type":"Dedicated","server_os":"Linux","password":true,"vac":true,"version":"7742253","steam_id":85568392924470001,"keywords":["cp","nocrits","nodmgspread","uncletopia"],"game_id":440,"stv_port":27016,"stv_name":"Uncletopia | Sydney | 1 | All Maps | STV","players":null},{"server_id":123,"name":"Uncletopia | Sydney | 2 | All Maps","name_short":"syd-2","host":"syd-1.au.uncletopia.com","port":27025,"enabled":true,"region":"au","cc":"au","latitude":-33.865143,"longitude":151.2099,"reserved":0,"last_update":"0001-01-01T00:00:00Z","name_a2s":"Uncletopia | Sydney | 2 | All Maps","protocol":17,"map":"koth_cascade","folder":"tf","game":"Team Fortress","app_id":440,"player_count":0,"max_players":24,"Bots":0,"server_type":"Dedicated","server_os":"Linux","password":true,"vac":true,"version":"7742253","steam_id":85568392924470002,"keywords":["cp","nocrits","nodmgspread","uncletopia"],"game_id":440,"stv_port":27026,"stv_name":"Uncletopia | Sydney | 2 | All Maps | STV","players":null},{"server_id":395,"name":"Uncletopia | Sydney | 3 | All Maps","name_short":"syd-3","host":"syd-1.au.uncletopia.com","port":27035,"enabled":true,"region":"au","cc":"au","latitude":-33.865143,"longitude":151.2099,"reserved":0,"last_update":"0001-01-01T00:00:00Z","name_a2s":"Uncletopia | Sydney | 3 | All Maps","protocol":17,"map":"cp_mountainlab","folder":"tf","game":"Team Fortress","app_id":440,"player_count":0,"max_players":24,"Bots":0,"server_type":"Dedicated","server_os":"Linux","password":true,"vac":true,"version":"7742253","steam_id":85568392925194467,"keywords":["cp","nocrits","nodmgspread","uncletopia"],"game_id":440,"stv_port":27036,"stv_name":"Uncletopia | Sydney | 3 | All Maps | STV","players":null},{"server_id":396,"name":"Uncletopia | Sydney | 4 | All Maps","name_short":"syd-4","host":"syd-1.au.uncletopia.com","port":27045,"enabled":true,"region":"au","cc":"au","latitude":-33.865143,"longitude":151.2099,"reserved":0,"last_update":"0001-01-01T00:00:00Z","name_a2s":"Uncletopia | Sydney | 4 | All Maps","protocol":17,"map":"pl_frontier_final","folder":"tf","game":"Team Fortress","app_id":440,"player_count":0,"max_players":24,"Bots":0,"server_type":"Dedicated","server_os":"Linux","password":true,"vac":true,"version":"7742253","steam_id":85568392925397958,"keywords":["nocrits","nodmgspread","payload","uncletopia"],"game_id":440,"stv_port":27046,"stv_name":"Uncletopia | Sydney | 4 | All Maps | STV","players":null},{"server_id":58,"name":"Uncletopia | Sydney | 5 | Stopwatch Beta","name_short":"syd-5","host":"syd-1.au.uncletopia.com","port":27055,"enabled":true,"region":"au","cc":"au","latitude":-33.865143,"longitude":151.2099,"reserved":0,"last_update":"0001-01-01T00:00:00Z","name_a2s":"Uncletopia | Sydney | 5 | Stopwatch Beta","protocol":17,"map":"pl_upward","folder":"tf","game":"Team Fortress","app_id":440,"player_count":8,"max_players":24,"Bots":0,"server_type":"Dedicated","server_os":"Linux","password":true,"vac":true,"version":"7742253","steam_id":85568392925397959,"keywords":["nocrits","nodmgspread","payload","uncletopia"],"game_id":440,"stv_port":27056,"stv_name":"Uncletopia | Sydney | 5 | Stopwatch Beta | STV","players":[{"user_id":27,"name":"Branko","steam_id":76561199262196710,"connected_time":506000000000,"state":"active","ping":39},{"user_id":26,"name":"Gamma","steam_id":76561198281131757,"connected_time":671000000000,"state":"active","ping":51},{"user_id":28,"name":"Chooka","steam_id":76561197992307814,"connected_time":444000000000,"state":"active","ping":62},{"user_id":32,"name":"Coffee","steam_id":76561198072414195,"connected_time":55000000000,"state":"active","ping":61},{"user_id":31,"name":"rikiaintgonnatellyou","steam_id":76561199231002156,"connected_time":102000000000,"state":"active","ping":73},{"user_id":11,"name":"Pongo","steam_id":76561197972265004,"connected_time":2682000000000,"state":"active","ping":30},{"user_id":16,"name":"Pickled Cow","steam_id":76561198292517991,"connected_time":1919000000000,"state":"active","ping":44},{"user_id":20,"name":"amanthatplaysgames","steam_id":76561199396905804,"connected_time":1782000000000,"state":"active","ping":208}]},{"server_id":59,"name":"Uncletopia | Sydney | 6 | Community","name_short":"syd-6","host":"syd-1.au.uncletopia.com","port":27065,"enabled":true,"region":"au","cc":"au","latitude":-33.865143,"longitude":151.2099,"reserved":0,"last_update":"0001-01-01T00:00:00Z","name_a2s":"Uncletopia | Sydney | 6 | Community","protocol":17,"map":"workshop/koth_synthetic_rc6a.ugc1549817316","folder":"tf","game":"Team Fortress","app_id":440,"player_count":0,"max_players":24,"Bots":0,"server_type":"Dedicated","server_os":"Linux","password":true,"vac":true,"version":"7742253","steam_id":85568392925397960,"keywords":["cp","nocrits","nodmgspread","uncletopia"],"game_id":440,"stv_port":27066,"stv_name":"Uncletopia | Sydney | 6 | Community | STV","players":null},{"server_id":49,"name":"Uncletopia | Warsaw | 1 | All Maps","name_short":"waw-1","host":"waw-1.pl.uncletopia.com","port":27015,"enabled":true,"region":"eu","cc":"pl","latitude":52.2297,"longitude":21.017532,"reserved":0,"last_update":"0001-01-01T00:00:00Z","name_a2s":"","protocol":0,"map":"","folder":"","game":"","app_id":0,"player_count":0,"max_players":0,"Bots":0,"server_type":"","server_os":"","password":false,"vac":false,"version":"","steam_id":0,"keywords":null,"game_id":0,"stv_port":0,"stv_name":"","players":null},{"server_id":50,"name":"Uncletopia | Warsaw | 2 | All Maps","name_short":"waw-2","host":"waw-1.pl.uncletopia.com","port":27025,"enabled":true,"region":"eu","cc":"pl","latitude":52.2297,"longitude":21.017532,"reserved":0,"last_update":"0001-01-01T00:00:00Z","name_a2s":"Uncletopia | Warsaw | 2 | All Maps","protocol":17,"map":"pl_upward","folder":"tf","game":"Team Fortress","app_id":440,"player_count":0,"max_players":24,"Bots":0,"server_type":"Dedicated","server_os":"Linux","password":true,"vac":true,"version":"7742253","steam_id":85568392925397851,"keywords":["nocrits","nodmgspread","payload","uncletopia"],"game_id":440,"stv_port":27026,"stv_name":"Uncletopia | Warsaw | 2 | All Maps | STV","players":null},{"server_id":51,"name":"Uncletopia | Warsaw | 3 | All Maps","name_short":"waw-3","host":"waw-1.pl.uncletopia.com","port":27035,"enabled":true,"region":"eu","cc":"pl","latitude":52.2297,"longitude":21.017532,"reserved":0,"last_update":"0001-01-01T00:00:00Z","name_a2s":"Uncletopia | Warsaw | 3 | All Maps","protocol":17,"map":"koth_lakeside_final","folder":"tf","game":"Team Fortress","app_id":440,"player_count":0,"max_players":24,"Bots":0,"server_type":"Dedicated","server_os":"Linux","password":true,"vac":true,"version":"7742253","steam_id":85568392925397852,"keywords":["cp","nocrits","nodmgspread","uncletopia"],"game_id":440,"stv_port":27036,"stv_name":"Uncletopia | Warsaw | 3 | All Maps | STV","players":null},{"server_id":52,"name":"Uncletopia | Warsaw | 4 | All Maps","name_short":"waw-4","host":"waw-1.pl.uncletopia.com","port":27045,"enabled":true,"region":"eu","cc":"pl","latitude":52.2297,"longitude":21.017532,"reserved":0,"last_update":"0001-01-01T00:00:00Z","name_a2s":"Uncletopia | Warsaw | 4 | All Maps","protocol":17,"map":"pl_upward","folder":"tf","game":"Team Fortress","app_id":440,"player_count":0,"max_players":24,"Bots":0,"server_type":"Dedicated","server_os":"Linux","password":true,"vac":true,"version":"7742253","steam_id":85568392925397853,"keywords":["nocrits","nodmgspread","payload","uncletopia"],"game_id":440,"stv_port":27046,"stv_name":"Uncletopia | Warsaw | 4 | All Maps | STV","players":null},{"server_id":53,"name":"Uncletopia | Warsaw | 5 | Stopwatch Beta","name_short":"waw-5","host":"waw-1.pl.uncletopia.com","port":27055,"enabled":true,"region":"eu","cc":"pl","latitude":52.2297,"longitude":21.017532,"reserved":0,"last_update":"0001-01-01T00:00:00Z","name_a2s":"Uncletopia | Warsaw | 5 | Stopwatch Beta","protocol":17,"map":"pl_swiftwater_final1","folder":"tf","game":"Team Fortress","app_id":440,"player_count":0,"max_players":24,"Bots":0,"server_type":"Dedicated","server_os":"Linux","password":true,"vac":true,"version":"7742253","steam_id":85568392925397854,"keywords":["nocrits","nodmgspread","payload","uncletopia"],"game_id":440,"stv_port":27056,"stv_name":"Uncletopia | Warsaw | 5 | Stopwatch Beta | STV","players":null},{"server_id":54,"name":"Uncletopia | Warsaw | 6 | Community","name_short":"waw-6","host":"waw-1.pl.uncletopia.com","port":27065,"enabled":true,"region":"eu","cc":"pl","latitude":52.2297,"longitude":21.017532,"reserved":0,"last_update":"0001-01-01T00:00:00Z","name_a2s":"Uncletopia | Warsaw | 6 | Community","protocol":17,"map":"koth_highpass","folder":"tf","game":"Team Fortress","app_id":440,"player_count":0,"max_players":24,"Bots":0,"server_type":"Dedicated","server_os":"Linux","password":true,"vac":true,"version":"7742253","steam_id":85568392925397856,"keywords":["cp","nocrits","nodmgspread","uncletopia"],"game_id":440,"stv_port":27066,"stv_name":"Uncletopia | Warsaw | 6 | Community | STV","players":null}]}