{"status":true,"message":"","result":[{"server_id":9,"name":"Uncletopia | Atlanta | 1 | All Maps","name_short":"atl-1","host":"atl-1.us.uncletopia.com","port":27015,"enabled":true,"region":"us-east","cc":"us","latitude":33.753746,"longitude":-84.38633,"reserved":0,"last_update":"0001-01-01T00:00:00Z","name_a2s":"Uncletopia | Atlanta | 1 | All Maps","protocol":17,"map":"pl_borneo","folder":"tf","game":"Team Fortress","app_id":440,"player_count":0,"max_players":24,"Bots":0,"server_type":"Dedicated","server_os":"Linux","password":true,"vac":true,"version":"7961495","steam_id":85568392924469982,"keywords":["nocrits","nodmgspread","payload","uncletopia"],"game_id":440,"stv_port":27016,"stv_name":"Uncletopia | Atlanta | 1 | All Maps | STV","players":null},{"server_id":104,"name":"Uncletopia | Atlanta | 2 | All Maps","name_short":"atl-2","host":"atl-1.us.uncletopia.com","port":27025,"enabled":true,"region":"us-east","cc":"us","latitude":33.753746,"longitude":-84.38633,"reserved":0,"last_update":"0001-01-01T00:00:00Z","name_a2s":"Uncletopia | Atlanta | 2 | All Maps","protocol":17,"map":"koth_cascade","folder":"tf","game":"Team Fortress","app_id":440,"player_count":0,"max_players":24,"Bots":0,"server_type":"Dedicated","server_os":"Linux","password":true,"vac":true,"version":"7961495","steam_id":85568392924469983,"keywords":["cp","nocrits","nodmgspread","uncletopia"],"game_id":440,"stv_port":27026,"stv_name":"Uncletopia | Atlanta | 2 | All Maps | STV","players":null},{"server_id":400,"name":"Uncletopia | Atlanta | 3 | Stopwatch","name_short":"atl-3","host":"atl-1.us.uncletopia.com","port":27035,"enabled":true,"region":"us-east","cc":"us","latitude":33.753746,"longitude":-84.38633,"reserved":0,"last_update":"0001-01-01T00:00:00Z","name_a2s":"Uncletopia | Atlanta | 3 | Stopwatch","protocol":17,"map":"koth_clearcut_b15","folder":"tf","game":"Team Fortress","app_id":440,"player_count":0,"max_players":24,"Bots":0,"server_type":"Dedicated","server_os":"Linux","password":true,"vac":true,"version":"7961495","steam_id":85568392924515187,"keywords":["cp","nocrits","nodmgspread","uncletopia"],"game_id":440,"stv_port":27036,"stv_name":"Uncletopia | Atlanta | 3 | Stopwatch | STV","players":null},{"server_id":401,"name":"Uncletopia | Atlanta | 4 | Community","name_short":"atl-4","host":"atl-1.us.uncletopia.com","port":27045,"enabled":true,"region":"us-east","cc":"us","latitude":33.753746,"longitude":-84.38633,"reserved":0,"last_update":"0001-01-01T00:00:00Z","name_a2s":"Uncletopia | Atlanta | 4 | Community","protocol":17,"map":"koth_bagel_rc6","folder":"tf","game":"Team Fortress","app_id":440,"player_count":0,"max_players":24,"Bots":0,"server_type":"Dedicated","server_os":"Linux","password":true,"vac":true,"version":"7961495","steam_id":85568392924515188,"keywords":["cp","nocrits","nodmgspread","uncletopia"],"game_id":440,"stv_port":27046,"stv_name":"Uncletopia | Atlanta | 4 | Community | STV","players":null},{"server_id":2,"name":"Uncletopia | Chicago | 1 | All Maps","name_short":"chi-1","host":"chi-1.us.uncletopia.com","port":27015,"enabled":true,"region":"us-central","cc":"us","latitude":41.881832,"longitude":-87.62318,"reserved":0,"last_update":"0001-01-01T00:00:00Z","name_a2s":"Uncletopia | Chicago | 1 | All Maps","protocol":17,"map":"koth_viaduct","folder":"tf","game":"Team Fortress","app_id":440,"player_count":0,"max_players":24,"Bots":0,"server_type":"Dedicated","server_os":"Linux","password":true,"vac":true,"version":"7961495","steam_id":85568392924469984,"keywords":["cp","nocrits","nodmgspread","uncletopia"],"game_id":440,"stv_port":27016,"stv_name":"Uncletopia | Chicago | 1 | All Maps | STV","players":null},{"server_id":106,"name":"Uncletopia | Chicago | 2 | All Maps","name_short":"chi-2","host":"chi-1.us.uncletopia.com","port":27025,"enabled":true,"region":"us-central","cc":"us","latitude":41.881832,"longitude":-87.62318,"reserved":0,"last_update":"0001-01-01T00:00:00Z","name_a2s":"Uncletopia | Chicago | 2 | All Maps","protocol":17,"map":"pl_frontier_final","folder":"tf","game":"Team Fortress","app_id":440,"player_count":24,"max_players":24,"Bots":0,"server_type":"Dedicated","server_os":"Linux","password":true,"vac":true,"version":"7961495","steam_id":85568392924469985,"keywords":["nocrits","nodmgspread","payload","uncletopia"],"game_id":440,"stv_port":27026,"stv_name":"Uncletopia | Chicago | 2 | All Maps | STV","players":[{"user_id":80,"name":"Mr. Cheesey","steam_id":76561198153462183,"connected_time":425000000000,"state":"active","ping":57},{"user_id":83,"name":"Mog","steam_id":76561198025575870,"connected_time":194000000000,"state":"active","ping":54},{"user_id":65,"name":"enhanced with disney's FastPlay","steam_id":76561198164134387,"connected_time":1168000000000,"state":"active","ping":109},{"user_id":56,"name":"Aimless S. (Caberace \u003e:3ing)","steam_id":76561198058382041,"connected_time":2051000000000,"state":"active","ping":86},{"user_id":74,"name":"Terry Crews from Brooklyn 99","steam_id":76561198357806819,"connected_time":465000000000,"state":"active","ping":77},{"user_id":10,"name":"Kazul","steam_id":76561198014925555,"connected_time":5012000000000,"state":"active","ping":53},{"user_id":61,"name":"Nathan","steam_id":76561199132214008,"connected_time":1203000000000,"state":"active","ping":82},{"user_id":71,"name":"Legit_Jaxer","steam_id":76561198172234053,"connected_time":828000000000,"state":"active","ping":129},{"user_id":76,"name":"John Fortnite","steam_id":76561198076608253,"connected_time":454000000000,"state":"active","ping":70},{"user_id":58,"name":"Nic","steam_id":76561198333983754,"connected_time":1223000000000,"state":"active","ping":75},{"user_id":31,"name":"dree says relax!","steam_id":76561198079178866,"connected_time":3641000000000,"state":"active","ping":70},{"user_id":81,"name":"FingaBanga","steam_id":76561198018660856,"connected_time":378000000000,"state":"active","ping":66},{"user_id":46,"name":"Punks","steam_id":76561199140940650,"connected_time":2386000000000,"state":"active","ping":60},{"user_id":48,"name":"Jennifer Aniston's Nipples","steam_id":76561198086107548,"connected_time":2372000000000,"state":"active","ping":67},{"user_id":75,"name":"❤ Dolphiniz ❤","steam_id":76561199093367765,"connected_time":464000000000,"state":"active","ping":94},{"user_id":82,"name":"thrust","steam_id":76561198106166263,"connected_time":335000000000,"state":"active","ping":62},{"user_id":69,"name":"squ-are","steam_id":76561198272357903,"connected_time":873000000000,"state":"active","ping":58},{"user_id":64,"name":"Broadsword #LGM","steam_id":76561198011160411,"connected_time":1171000000000,"state":"active","ping":77},{"user_id":68,"name":"ATL1_Lav4ie_She/They","steam_id":76561198825997674,"connected_time":1021000000000,"state":"active","ping":69},{"user_id":73,"name":"Rornir","steam_id":76561198081829615,"connected_time":653000000000,"state":"active","ping":35},{"user_id":79,"name":"Mr. Tickle","steam_id":76561198126684647,"connected_time":449000000000,"state":"active","ping":59},{"user_id":30,"name":"Yam Jazzy Jim","steam_id":76561198000788950,"connected_time":3718000000000,"state":"active","ping":73},{"user_id":43,"name":"MechaSixVII","steam_id":76561198014927379,"connected_time":2413000000000,"state":"active","ping":65},{"user_id":44,"name":"King","steam_id":76561198039763676,"connected_time":2412000000000,"state":"active","ping":76}]},{"server_id":402,"name":"Uncletopia | Chicago | 3 | All Maps","name_short":"chi-3","host":"chi-1.us.uncletopia.com","port":27035,"enabled":true,"region":"us-central","cc":"us","latitude":41.881832,"longitude":-87.62318,"reserved":0,"last_update":"0001-01-01T00:00:00Z","name_a2s":"Uncletopia | Chicago | 3 | All Maps","protocol":17,"map":"koth_sawmill","folder":"tf","game":"Team Fortress","app_id":440,"player_count":0,"max_players":24,"Bots":0,"server_type":"Dedicated","server_os":"Linux","password":true,"vac":true,"version":"7961495","steam_id":85568392924515191,"keywords":["cp","nocrits","nodmgspread","uncletopia"],"game_id":440,"stv_port":27036,"stv_name":"Uncletopia | Chicago | 3 | All Maps | STV","players":null},{"server_id":403,"name":"Uncletopia | Chicago | 4 | All Maps","name_short":"chi-4","host":"chi-1.us.uncletopia.com","port":27045,"enabled":true,"region":"us-central","cc":"us","latitude":41.881832,"longitude":-87.62318,"reserved":0,"last_update":"0001-01-01T00:00:00Z","name_a2s":"Uncletopia | Chicago | 4 | All Maps","protocol":17,"map":"koth_cascade","folder":"tf","game":"Team Fortress","app_id":440,"player_count":0,"max_players":24,"Bots":0,"server_type":"Dedicated","server_os":"Linux","password":true,"vac":true,"version":"7961495","steam_id":85568392924515193,"keywords":["cp","nocrits","nodmgspread","uncletopia"],"game_id":440,"stv_port":27046,"stv_name":"Uncletopia | Chicago | 4 | All Maps | STV","players":null},{"server_id":36,"name":"Uncletopia | Chicago | 5 | All Maps","name_short":"chi-5","host":"chi-2.us.uncletopia.com","port":27015,"enabled":true,"region":"us-central","cc":"us","latitude":41.881832,"longitude":-87.62318,"reserved":0,"last_update":"0001-01-01T00:00:00Z","name_a2s":"Uncletopia | Chicago | 5 | All Maps","protocol":17,"map":"koth_viaduct","folder":"tf","game":"Team Fortress","app_id":440,"player_count":0,"max_players":24,"Bots":0,"server_type":"Dedicated","server_os":"Linux","password":true,"vac":true,"version":"7961495","steam_id":85568392924866362,"keywords":["cp","nocrits","nodmgspread","uncletopia"],"game_id":440,"stv_port":27016,"stv_name":"Uncletopia | Chicago | 5 | All Maps | STV","players":null},{"server_id":37,"name":"Uncletopia | Chicago | 6 | All Maps","name_short":"chi-6","host":"chi-2.us.uncletopia.com","port":27025,"enabled":true,"region":"us-central","cc":"us","latitude":41.881832,"longitude":-87.62318,"reserved":0,"last_update":"0001-01-01T00:00:00Z","name_a2s":"Uncletopia | Chicago | 6 | All Maps","protocol":17,"map":"pl_badwater","folder":"tf","game":"Team Fortress","app_id":440,"player_count":23,"max_players":24,"Bots":0,"server_type":"Dedicated","server_os":"Linux","password":true,"vac":true,"version":"7961495","steam_id":85568392924866363,"keywords":["nocrits","nodmgspread","payload","uncletopia"],"game_id":440,"stv_port":27026,"stv_name":"Uncletopia | Chicago | 6 | All Maps | STV","players":[{"user_id":261,"name":"magickxanadu","steam_id":76561199117360103,"connected_time":3243000000000,"state":"active","ping":78},{"user_id":223,"name":"Window Licker #pride","steam_id":76561198386717007,"connected_time":5122000000000,"state":"active","ping":60},{"user_id":288,"name":"pea ttv/peabeanz","steam_id":76561198119551968,"connected_time":1123000000000,"state":"active","ping":71},{"user_id":282,"name":"MarkyMark1995","steam_id":76561198822440840,"connected_time":1777000000000,"state":"active","ping":71},{"user_id":284,"name":"Sexual Villain","steam_id":76561198106217716,"connected_time":1368000000000,"state":"active","ping":78},{"user_id":81,"name":"Elias","steam_id":76561198106431732,"connected_time":11858000000000,"state":"active","ping":40},{"user_id":278,"name":"Khaicchi ♥","steam_id":76561198104454754,"connected_time":1867000000000,"state":"active","ping":175},{"user_id":299,"name":"Psychosis","steam_id":76561198078659070,"connected_time":7000000000,"state":"active","ping":80},{"user_id":300,"name":"chikin.sauce","steam_id":76561198042464635,"connected_time":5000000000,"state":"spawning","ping":83},{"user_id":167,"name":"dahperson","steam_id":76561198067207467,"connected_time":6822000000000,"state":"active","ping":55},{"user_id":259,"name":"1-800-GHOST-DANCE","steam_id":76561198835430429,"connected_time":3479000000000,"state":"active","ping":85},{"user_id":294,"name":"William Wallace","steam_id":76561199343316814,"connected_time":197000000000,"state":"active","ping":69},{"user_id":181,"name":"Missing Minus","steam_id":76561198120822928,"connected_time":6007000000000,"state":"active","ping":56},{"user_id":271,"name":"npc energy","steam_id":76561198035342207,"connected_time":2691000000000,"state":"active","ping":37},{"user_id":296,"name":"Ringo x Seiran","steam_id":76561198357437908,"connected_time":19000000000,"state":"spawning","ping":65},{"user_id":239,"name":"Cheems","steam_id":76561198269074039,"connected_time":4879000000000,"state":"active","ping":72},{"user_id":279,"name":"p","steam_id":76561198155720118,"connected_time":1861000000000,"state":"active","ping":43},{"user_id":292,"name":"JOTARDO","steam_id":76561198188498429,"connected_time":680000000000,"state":"active","ping":77},{"user_id":281,"name":"Sunflower","steam_id":76561198081223793,"connected_time":1823000000000,"state":"active","ping":56},{"user_id":297,"name":"Waffle Wannabe","steam_id":76561198064510650,"connected_time":15000000000,"state":"active","ping":54},{"user_id":287,"name":"ZYNTERLINKED","steam_id":76561198241948526,"connected_time":1344000000000,"state":"active","ping":60},{"user_id":162,"name":"Zeek","steam_id":76561197987204351,"connected_time":6991000000000,"state":"active","ping":52},{"user_id":298,"name":"kkoduh","steam_id":76561198142884645,"connected_time":15000000000,"state":"active","ping":66}]},{"server_id":38,"name":"Uncletopia | Chicago | 7 | Stopwatch","name_short":"chi-7","host":"chi-2.us.uncletopia.com","port":27035,"enabled":true,"region":"us-central","cc":"us","latitude":41.881832,"longitude":-87.62318,"reserved":0,"last_update":"0001-01-01T00:00:00Z","name_a2s":"Uncletopia | Chicago | 7 | Stopwatch","protocol":17,"map":"pl_badwater","folder":"tf","game":"Team Fortress","app_id":440,"player_count":0,"max_players":24,"Bots":0,"server_type":"Dedicated","server_os":"Linux","password":true,"vac":true,"version":"7961495","steam_id":85568392924866364,"keywords":["nocrits","nodmgspread","payload","uncletopia"],"game_id":440,"stv_port":27036,"stv_name":"Uncletopia | Chicago | 7 | Stopwatch | STV","players":null},{"server_id":39,"name":"Uncletopia | Chicago | 8 | Community","name_short":"chi-8","host":"chi-2.us.uncletopia.com","port":27045,"enabled":true,"region":"us-central","cc":"us","latitude":41.881832,"longitude":-87.62318,"reserved":0,"last_update":"0001-01-01T00:00:00Z","name_a2s":"Uncletopia | Chicago | 8 | Community","protocol":17,"map":"pl_pier","folder":"tf","game":"Team Fortress","app_id":440,"player_count":0,"max_players":24,"Bots":0,"server_type":"Dedicated","server_os":"Linux","password":true,"vac":true,"version":"7961495","steam_id":85568392924866365,"keywords":["nocrits","nodmgspread","payload","uncletopia"],"game_id":440,"stv_port":27046,"stv_name":"Uncletopia | Chicago | 8 | Community | STV","players":null},{"server_id":8,"name":"Uncletopia | Dallas | 1 | All Maps","name_short":"dal-1","host":"dal-1.us.uncletopia.com","port":27015,"enabled":true,"region":"us-central","cc":"us","latitude":32.779167,"longitude":-96.80889,"reserved":0,"last_update":"0001-01-01T00:00:00Z","name_a2s":"Uncletopia | Dallas | 1 | All Maps","protocol":17,"map":"pl_frontier_final","folder":"tf","game":"Team Fortress","app_id":440,"player_count":0,"max_players":24,"Bots":0,"server_type":"Dedicated","server_os":"Linux","password":true,"vac":true,"version":"7961495","steam_id":85568392924469986,"keywords":["nocrits","nodmgspread","payload","uncletopia"],"game_id":440,"stv_port":27016,"stv_name":"Uncletopia | Dallas | 1 | All Maps | STV","players":null},{"server_id":108,"name":"Uncletopia | Dallas | 2 | All Maps","name_short":"dal-2","host":"dal-1.us.uncletopia.com","port":27025,"enabled":true,"region":"us-central","cc":"us","latitude":32.779167,"longitude":-96.80889,"reserved":0,"last_update":"0001-01-01T00:00:00Z","name_a2s":"Uncletopia | Dallas | 2 | All Maps","protocol":17,"map":"cp_dustbowl","folder":"tf","game":"Team Fortress","app_id":440,"player_count":24,"max_players":24,"Bots":0,"server_type":"Dedicated","server_os":"Linux","password":true,"vac":true,"version":"7961495","steam_id":85568392924469988,"keywords":["cp","nocrits","nodmgspread","uncletopia"],"game_id":440,"stv_port":27026,"stv_name":"Uncletopia | Dallas | 2 | All Maps | STV","players":[{"user_id":56,"name":"Killerfish360","steam_id":76561198115029584,"connected_time":175000000000,"state":"active","ping":68},{"user_id":46,"name":"a narwhal","steam_id":76561198014527353,"connected_time":664000000000,"state":"active","ping":90},{"user_id":6,"name":"BatMatt","steam_id":76561198045910433,"connected_time":4884000000000,"state":"active","ping":51},{"user_id":8,"name":"retro 7","steam_id":76561198285265582,"connected_time":4683000000000,"state":"active","ping":56},{"user_id":16,"name":"Disco Box","steam_id":76561198056558972,"connected_time":2043000000000,"state":"active","ping":71},{"user_id":42,"name":"charles","steam_id":76561198135249177,"connected_time":1077000000000,"state":"active","ping":47},{"user_id":18,"name":"BLØRG","steam_id":76561198036126673,"connected_time":2022000000000,"state":"active","ping":71},{"user_id":41,"name":"Wigl","steam_id":76561198019324464,"connected_time":1170000000000,"state":"active","ping":75},{"user_id":44,"name":"Smug","steam_id":76561198448205229,"connected_time":875000000000,"state":"active","ping":71},{"user_id":57,"name":"Hebonky","steam_id":76561199014257873,"connected_time":170000000000,"state":"spawning","ping":85},{"user_id":43,"name":"SiskoSenpai","steam_id":76561198053701833,"connected_time":982000000000,"state":"active","ping":85},{"user_id":58,"name":"Starkiller","steam_id":76561198101643120,"connected_time":165000000000,"state":"active","ping":100},{"user_id":55,"name":"Philo","steam_id":76561198061873341,"connected_time":380000000000,"state":"active","ping":88},{"user_id":59,"name":"engiqueer69","steam_id":76561199153261850,"connected_time":157000000000,"state":"active","ping":101},{"user_id":45,"name":"Voodo133","steam_id":76561198042670351,"connected_time":852000000000,"state":"active","ping":93},{"user_id":39,"name":"Phosu","steam_id":76561198180162801,"connected_time":1392000000000,"state":"active","ping":58},{"user_id":51,"name":"Discourse","steam_id":76561198984286678,"connected_time":576000000000,"state":"active","ping":73},{"user_id":48,"name":"Metacarfoe","steam_id":76561198236016496,"connected_time":649000000000,"state":"active","ping":60},{"user_id":49,"name":"toilet drinker","steam_id":76561199403589748,"connected_time":633000000000,"state":"active","ping":52},{"user_id":33,"name":"Candy Sparkles","steam_id":76561198126871264,"connected_time":1624000000000,"state":"active","ping":111},{"user_id":54,"name":"TV","steam_id":76561198177326926,"connected_time":502000000000,"state":"active","ping":91},{"user_id":35,"name":"SubWay #SaveTf2","steam_id":76561198336722096,"connected_time":1584000000000,"state":"active","ping":73},{"user_id":50,"name":"Monstertuna","steam_id":76561198079327852,"connected_time":619000000000,"state":"active","ping":66},{"user_id":37,"name":"The Business Man","steam_id":76561198059907124,"connected_time":1536000000000,"state":"active","ping":69}]},{"server_id":404,"name":"Uncletopia | Dallas | 3 | All Maps","name_short":"dal-3","host":"dal-1.us.uncletopia.com","port":27035,"enabled":true,"region":"us-central","cc":"us","latitude":32.779167,"longitude":-96.80889,"reserved":0,"last_update":"0001-01-01T00:00:00Z","name_a2s":"Uncletopia | Dallas | 3 | All Maps","protocol":17,"map":"pl_swiftwater_final1","folder":"tf","game":"Team Fortress","app_id":440,"player_count":0,"max_players":24,"Bots":0,"server_type":"Dedicated","server_os":"Linux","password":true,"vac":true,"version":"7961495","steam_id":85568392924515219,"keywords":["nocrits","nodmgspread","payload","uncletopia"],"game_id":440,"stv_port":27036,"stv_name":"Uncletopia | Dallas | 3 | All Maps | STV","players":null},{"server_id":405,"name":"Uncletopia | Dallas | 4 | Community","name_short":"dal-4","host":"dal-1.us.uncletopia.com","port":27045,"enabled":true,"region":"us-central","cc":"us","latitude":32.779167,"longitude":-96.80889,"reserved":0,"last_update":"0001-01-01T00:00:00Z","name_a2s":"Uncletopia | Dallas | 4 | Community","protocol":17,"map":"pl_pier","folder":"tf","game":"Team Fortress","app_id":440,"player_count":0,"max_players":24,"Bots":0,"server_type":"Dedicated","server_os":"Linux","password":true,"vac":true,"version":"7961495","steam_id":85568392924515220,"keywords":["nocrits","nodmgspread","payload","uncletopia"],"game_id":440,"stv_port":27046,"stv_name":"Uncletopia | Dallas | 4 | Community | STV","players":null},{"server_id":5,"name":"Uncletopia | Frankfurt | 1 | All Maps","name_short":"frk-1","host":"frk-1.de.uncletopia.com","port":27015,"enabled":true,"region":"eu","cc":"de","latitude":50.110924,"longitude":8.682127,"reserved":0,"last_update":"0001-01-01T00:00:00Z","name_a2s":"Uncletopia | Frankfurt | 1 | All Maps","protocol":17,"map":"cp_snakewater_final1","folder":"tf","game":"Team Fortress","app_id":440,"player_count":22,"max_players":24,"Bots":0,"server_type":"Dedicated","server_os":"Linux","password":true,"vac":true,"version":"7961495","steam_id":85568392924469989,"keywords":["cp","nocrits","nodmgspread","uncletopia"],"game_id":440,"stv_port":27016,"stv_name":"Uncletopia | Frankfurt | 1 | All Maps | STV","players":[{"user_id":24,"name":"WIZARD","steam_id":76561198199570742,"connected_time":2157000000000,"state":"active","ping":96},{"user_id":25,"name":"überminze","steam_id":76561198228818228,"connected_time":2044000000000,"state":"active","ping":89},{"user_id":40,"name":"NEZ","steam_id":76561198320935413,"connected_time":503000000000,"state":"active","ping":100},{"user_id":43,"name":"Saul Badsex","steam_id":76561198173218318,"connected_time":442000000000,"state":"active","ping":50},{"user_id":28,"name":"pl_badwater","steam_id":76561199407941086,"connected_time":1053000000000,"state":"active","ping":65},{"user_id":29,"name":"Peter Pammpim","steam_id":76561199103785290,"connected_time":975000000000,"state":"active","ping":75},{"user_id":42,"name":"realguy","steam_id":76561198821743257,"connected_time":456000000000,"state":"active","ping":75},{"user_id":38,"name":"Fus in Boots","steam_id":76561198053897722,"connected_time":508000000000,"state":"active","ping":59},{"user_id":34,"name":"concussion gaming","steam_id":76561198425494530,"connected_time":680000000000,"state":"active","ping":122},{"user_id":36,"name":"Gentlemanly Cow","steam_id":76561198131385351,"connected_time":609000000000,"state":"active","ping":103},{"user_id":44,"name":"burritoeater","steam_id":76561199124197813,"connected_time":419000000000,"state":"active","ping":79},{"user_id":45,"name":"elmstJP ₪ F4.exe","steam_id":76561197997909480,"connected_time":396000000000,"state":"active","ping":68},{"user_id":46,"name":"milan","steam_id":76561198858509678,"connected_time":358000000000,"state":"active","ping":67},{"user_id":47,"name":"SeT","steam_id":76561199063777003,"connected_time":304000000000,"state":"active","ping":74},{"user_id":48,"name":"CsmenNemsc","steam_id":76561199120898887,"connected_time":219000000000,"state":"active","ping":86},{"user_id":50,"name":"goblinninja110","steam_id":76561198269159354,"connected_time":80000000000,"state":"active","ping":65},{"user_id":51,"name":"c1v","steam_id":76561199085624224,"connected_time":72000000000,"state":"active","ping":64},{"user_id":52,"name":"「2XB」 Mitch","steam_id":76561197988946481,"connected_time":65000000000,"state":"active","ping":67},{"user_id":53,"name":"mrk","steam_id":76561198120166752,"connected_time":63000000000,"state":"active","ping":65},{"user_id":54,"name":"PantsPlant","steam_id":76561199199942970,"connected_time":60000000000,"state":"active","ping":102},{"user_id":55,"name":"Ghost","steam_id":76561198078007562,"connected_time":39000000000,"state":"active","ping":60},{"user_id":56,"name":"Dr Ultraman","steam_id":76561198060787567,"connected_time":38000000000,"state":"active","ping":80}]},{"server_id":110,"name":"Uncletopia | Frankfurt | 2 | All Maps","name_short":"frk-2","host":"frk-1.de.uncletopia.com","port":27025,"enabled":true,"region":"eu","cc":"de","latitude":50.110924,"longitude":8.682127,"reserved":0,"last_update":"0001-01-01T00:00:00Z","name_a2s":"Uncletopia | Frankfurt | 2 | All Maps","protocol":17,"map":"pl_swiftwater_final1","folder":"tf","game":"Team Fortress","app_id":440,"player_count":24,"max_players":24,"Bots":0,"server_type":"Dedicated","server_os":"Linux","password":true,"vac":true,"version":"7961495","steam_id":85568392924469990,"keywords":["nocrits","nodmgspread","payload","uncletopia"],"game_id":440,"stv_port":27026,"stv_name":"Uncletopia | Frankfurt | 2 | All Maps | STV","players":[{"user_id":174,"name":"Godzilla205z","steam_id":76561198338099686,"connected_time":363000000000,"state":"active","ping":76},{"user_id":171,"name":"kpf1337","steam_id":76561198267907985,"connected_time":637000000000,"state":"active","ping":59},{"user_id":140,"name":"Armored","steam_id":76561198267449130,"connected_time":2762000000000,"state":"active","ping":71},{"user_id":67,"name":"bart simpson weed","steam_id":76561198014858762,"connected_time":7432000000000,"state":"active","ping":68},{"user_id":160,"name":"PiN hEaD","steam_id":76561198834713682,"connected_time":1026000000000,"state":"active","ping":75},{"user_id":162,"name":"Wattseyy","steam_id":76561198248567360,"connected_time":990000000000,"state":"active","ping":58},{"user_id":175,"name":"peeka","steam_id":76561198221122068,"connected_time":352000000000,"state":"active","ping":63},{"user_id":159,"name":"Jughead","steam_id":76561198000355410,"connected_time":1091000000000,"state":"active","ping":57},{"user_id":113,"name":"El Gato Volador","steam_id":76561198021296882,"connected_time":5207000000000,"state":"active","ping":79},{"user_id":167,"name":"caved skull","steam_id":76561198090146457,"connected_time":906000000000,"state":"active","ping":56},{"user_id":71,"name":"Gugu gaga","steam_id":76561198161822358,"connected_time":7408000000000,"state":"active","ping":57},{"user_id":169,"name":"yumpa (no hard r)","steam_id":76561198963378933,"connected_time":802000000000,"state":"active","ping":57},{"user_id":128,"name":"Tree","steam_id":76561198060657113,"connected_time":3919000000000,"state":"active","ping":47},{"user_id":155,"name":"Mel Gibson fan","steam_id":76561198380933244,"connected_time":1425000000000,"state":"active","ping":137},{"user_id":156,"name":"Michał","steam_id":76561198320346362,"connected_time":1421000000000,"state":"active","ping":60},{"user_id":24,"name":"jona3838","steam_id":76561199097658195,"connected_time":10477000000000,"state":"active","ping":103},{"user_id":150,"name":"TheMerchant","steam_id":76561198133664392,"connected_time":1656000000000,"state":"active","ping":59},{"user_id":164,"name":"DEATH VISITS PREMATURELY","steam_id":76561198798803845,"connected_time":984000000000,"state":"active","ping":48},{"user_id":95,"name":"Kestrel","steam_id":76561198144033005,"connected_time":6169000000000,"state":"active","ping":61},{"user_id":148,"name":"CisiBoy","steam_id":76561198117753870,"connected_time":2143000000000,"state":"active","ping":123},{"user_id":165,"name":"BELADIT","steam_id":76561198011911501,"connected_time":980000000000,"state":"active","ping":62},{"user_id":176,"name":"flr","steam_id":76561198249327786,"connected_time":306000000000,"state":"active","ping":75},{"user_id":177,"name":"Visphiric","steam_id":76561198071938027,"connected_time":298000000000,"state":"active","ping":54},{"user_id":147,"name":"FWDTRKR","steam_id":76561198060369427,"connected_time":2190000000000,"state":"active","ping":149}]},{"server_id":308,"name":"Uncletopia | Frankfurt | 3 | All Maps","name_short":"frk-3","host":"frk-1.de.uncletopia.com","port":27035,"enabled":true,"region":"eu","cc":"de","latitude":50.110924,"longitude":8.682127,"reserved":0,"last_update":"0001-01-01T00:00:00Z","name_a2s":"Uncletopia | Frankfurt | 3 | All Maps","protocol":17,"map":"pl_snowycoast","folder":"tf","game":"Team Fortress","app_id":440,"player_count":24,"max_players":24,"Bots":0,"server_type":"Dedicated","server_os":"Linux","password":true,"vac":true,"version":"7961495","steam_id":85568392924504274,"keywords":["nocrits","nodmgspread","payload","uncletopia"],"game_id":440,"stv_port":27036,"stv_name":"Uncletopia | Frankfurt | 3 | All Maps | STV","players":[{"user_id":305,"name":"BŁäck..","steam_id":76561198300644952,"connected_time":205000000000,"state":"active","ping":71},{"user_id":277,"name":"Nittugai","steam_id":76561198067366462,"connected_time":2342000000000,"state":"active","ping":66},{"user_id":299,"name":"Fatmagic Mukbang ASMR","steam_id":76561198063492110,"connected_time":851000000000,"state":"active","ping":84},{"user_id":304,"name":"Monkey","steam_id":76561199008411791,"connected_time":286000000000,"state":"active","ping":56},{"user_id":306,"name":"FPFP","steam_id":76561198026073059,"connected_time":203000000000,"state":"active","ping":96},{"user_id":308,"name":"Onbeheerde_Jongeheer","steam_id":76561198051685232,"connected_time":152000000000,"state":"active","ping":45},{"user_id":271,"name":"sizeable","steam_id":76561198271527694,"connected_time":2974000000000,"state":"active","ping":60},{"user_id":303,"name":"Joe12000","steam_id":76561198160817969,"connected_time":536000000000,"state":"active","ping":70},{"user_id":260,"name":"Warrior555MainsGanon","steam_id":76561198388627786,"connected_time":3127000000000,"state":"active","ping":69},{"user_id":233,"name":"Owlet","steam_id":76561198065613974,"connected_time":4961000000000,"state":"active","ping":66},{"user_id":302,"name":"cuddles","steam_id":76561198805181599,"connected_time":657000000000,"state":"active","ping":66},{"user_id":242,"name":"Nanope","steam_id":76561198040056071,"connected_time":4729000000000,"state":"active","ping":60},{"user_id":268,"name":"Large","steam_id":76561198858024765,"connected_time":3005000000000,"state":"active","ping":48},{"user_id":256,"name":"Alyx","steam_id":76561198064654326,"connected_time":3219000000000,"state":"active","ping":55},{"user_id":213,"name":"dank pank","steam_id":76561198995052713,"connected_time":6525000000000,"state":"active","ping":84},{"user_id":298,"name":"Naty","steam_id":76561198083488307,"connected_time":999000000000,"state":"active","ping":74},{"user_id":276,"name":"keb","steam_id":76561198276137088,"connected_time":2436000000000,"state":"active","ping":85},{"user_id":310,"name":"Durashit energyfuck","steam_id":76561198845745328,"connected_time":86000000000,"state":"active","ping":82},{"user_id":309,"name":"Hebe","steam_id":76561198000777479,"connected_time":138000000000,"state":"active","ping":59},{"user_id":300,"name":"the wagoog","steam_id":76561198354604708,"connected_time":790000000000,"state":"active","ping":54},{"user_id":287,"name":"St. Pablo","steam_id":76561199009805208,"connected_time":1597000000000,"state":"active","ping":105},{"user_id":285,"name":"Larry Penus","steam_id":76561198207546233,"connected_time":1922000000000,"state":"active","ping":57},{"user_id":286,"name":"LOBZIK","steam_id":76561198114830120,"connected_time":1675000000000,"state":"active","ping":78},{"user_id":294,"name":"Armand","steam_id":76561198236126774,"connected_time":1164000000000,"state":"active","ping":71}]},{"server_id":309,"name":"Uncletopia | Frankfurt | 4 | All Maps","name_short":"frk-4","host":"frk-1.de.uncletopia.com","port":27045,"enabled":true,"region":"eu","cc":"de","latitude":50.110924,"longitude":8.682127,"reserved":0,"last_update":"0001-01-01T00:00:00Z","name_a2s":"Uncletopia | Frankfurt | 4 | All Maps","protocol":17,"map":"koth_highpass","folder":"tf","game":"Team Fortress","app_id":440,"player_count":1,"max_players":24,"Bots":0,"server_type":"Dedicated","server_os":"Linux","password":true,"vac":true,"version":"7961495","steam_id":85568392924504275,"keywords":["cp","nocrits","nodmgspread","uncletopia"],"game_id":440,"stv_port":27046,"stv_name":"Uncletopia | Frankfurt | 4 | All Maps | STV","players":[{"user_id":18,"name":"Tengen","steam_id":76561199356990346,"connected_time":194000000000,"state":"active","ping":89}]},{"server_id":310,"name":"Uncletopia | Frankfurt | 5 | All Maps","name_short":"frk-5","host":"frk-1.de.uncletopia.com","port":27055,"enabled":true,"region":"eu","cc":"de","latitude":50.110924,"longitude":8.682127,"reserved":0,"last_update":"0001-01-01T00:00:00Z","name_a2s":"Uncletopia | Frankfurt | 5 | All Maps","protocol":17,"map":"pl_thundermountain","folder":"tf","game":"Team Fortress","app_id":440,"player_count":20,"max_players":24,"Bots":0,"server_type":"Dedicated","server_os":"Linux","password":true,"vac":true,"version":"7961495","steam_id":85568392924504277,"keywords":["nocrits","nodmgspread","payload","uncletopia"],"game_id":440,"stv_port":27056,"stv_name":"Uncletopia | Frankfurt | 5 | All Maps | STV","players":[{"user_id":112,"name":"Dr. Livesey","steam_id":76561198071049943,"connected_time":297000000000,"state":"active","ping":76},{"user_id":100,"name":"✡Cpruin✡","steam_id":76561198184924239,"connected_time":1314000000000,"state":"active","ping":67},{"user_id":87,"name":"Merciz","steam_id":76561197971808715,"connected_time":2453000000000,"state":"active","ping":98},{"user_id":110,"name":"Bob Sacamano","steam_id":76561198085610701,"connected_time":327000000000,"state":"active","ping":85},{"user_id":85,"name":"Rosiii","steam_id":76561198801031508,"connected_time":2543000000000,"state":"active","ping":91},{"user_id":117,"name":"Itai","steam_id":76561198804555329,"connected_time":3000000000,"state":"spawning","ping":73},{"user_id":96,"name":"banrab","steam_id":76561198083615367,"connected_time":1912000000000,"state":"active","ping":46},{"user_id":91,"name":"HelwiiHill","steam_id":76561198066730552,"connected_time":2031000000000,"state":"active","ping":88},{"user_id":46,"name":"Der Herr Doktor","steam_id":76561198119476089,"connected_time":4550000000000,"state":"active","ping":59},{"user_id":105,"name":"Haha?","steam_id":76561198056882245,"connected_time":801000000000,"state":"active","ping":52},{"user_id":113,"name":"Whirlwind","steam_id":76561198942024930,"connected_time":242000000000,"state":"active","ping":100},{"user_id":106,"name":"MrMethor","steam_id":76561198155992717,"connected_time":777000000000,"state":"active","ping":69},{"user_id":116,"name":"heddwch","steam_id":76561198076097983,"connected_time":64000000000,"state":"active","ping":72},{"user_id":82,"name":"Carter","steam_id":76561198005243938,"connected_time":2677000000000,"state":"active","ping":74},{"user_id":111,"name":"gamerkiddo","steam_id":76561198047380360,"connected_time":307000000000,"state":"active","ping":45},{"user_id":114,"name":"Roland Deschain","steam_id":76561198023296355,"connected_time":195000000000,"state":"active","ping":86},{"user_id":68,"name":"goop","steam_id":76561198190073005,"connected_time":3729000000000,"state":"active","ping":61},{"user_id":104,"name":"Sgt. VARD","steam_id":76561198329576763,"connected_time":935000000000,"state":"active","ping":74},{"user_id":84,"name":"cool username","steam_id":76561198090179112,"connected_time":2628000000000,"state":"active","ping":76},{"user_id":94,"name":"Furno","steam_id":76561197999723047,"connected_time":2017000000000,"state":"active","ping":60}]},{"server_id":311,"name":"Uncletopia | Frankfurt | 6 | All Maps","name_short":"frk-6","host":"frk-1.de.uncletopia.com","port":27065,"enabled":true,"region":"eu","cc":"de","latitude":50.110924,"longitude":8.682127,"reserved":0,"last_update":"0001-01-01T00:00:00Z","name_a2s":"Uncletopia | Frankfurt | 6 | All Maps","protocol":17,"map":"pl_badwater","folder":"tf","game":"Team Fortress","app_id":440,"player_count":22,"max_players":24,"Bots":0,"server_type":"Dedicated","server_os":"Linux","password":true,"vac":true,"version":"7961495","steam_id":85568392924504278,"keywords":["nocrits","nodmgspread","payload","uncletopia"],"game_id":440,"stv_port":27066,"stv_name":"Uncletopia | Frankfurt | 6 | All Maps | STV","players":[{"user_id":17,"name":"Gucio","steam_id":76561198893157888,"connected_time":1930000000000,"state":"active","ping":70},{"user_id":47,"name":"Frögg-Kät","steam_id":76561198263561004,"connected_time":844000000000,"state":"active","ping":60},{"user_id":59,"name":"Mong","steam_id":76561198254497427,"connected_time":70000000000,"state":"active","ping":48},{"user_id":46,"name":"Exee","steam_id":76561198139574633,"connected_time":909000000000,"state":"active","ping":73},{"user_id":11,"name":"AwZooom","steam_id":76561198154061149,"connected_time":2155000000000,"state":"active","ping":43},{"user_id":48,"name":"Seiko Lili","steam_id":76561199097542270,"connected_time":838000000000,"state":"active","ping":118},{"user_id":49,"name":"Storm's Foreshadow","steam_id":76561198098462526,"connected_time":825000000000,"state":"active","ping":60},{"user_id":18,"name":"jedna djacka sa pavlakom","steam_id":76561199135803236,"connected_time":1802000000000,"state":"active","ping":75},{"user_id":16,"name":"H341","steam_id":76561198046754534,"connected_time":2073000000000,"state":"active","ping":75},{"user_id":53,"name":"wouris","steam_id":76561198876188003,"connected_time":709000000000,"state":"active","ping":47},{"user_id":20,"name":"skumfidusjægeren803@hotmail.dk","steam_id":76561197988733568,"connected_time":1788000000000,"state":"active","ping":62},{"user_id":21,"name":"_hannah_on_fire_","steam_id":76561198038619707,"connected_time":1788000000000,"state":"active","ping":50},{"user_id":57,"name":"Mr. Awki","steam_id":76561198061676496,"connected_time":572000000000,"state":"active","ping":68},{"user_id":23,"name":"Tobi Kool","steam_id":76561198421707721,"connected_time":1787000000000,"state":"active","ping":70},{"user_id":26,"name":"G O R E F R I E N D","steam_id":76561197989403556,"connected_time":1737000000000,"state":"active","ping":75},{"user_id":51,"name":"Dinosaur","steam_id":76561199079626189,"connected_time":770000000000,"state":"active","ping":161},{"user_id":42,"name":"Matbanan","steam_id":76561198228537672,"connected_time":1323000000000,"state":"active","ping":85},{"user_id":58,"name":"Piteras","steam_id":76561198858532207,"connected_time":552000000000,"state":"active","ping":70},{"user_id":54,"name":"Eric Catman","steam_id":76561198802117294,"connected_time":707000000000,"state":"active","ping":75},{"user_id":34,"name":"Dogdigger","steam_id":76561198032893130,"connected_time":1602000000000,"state":"active","ping":94},{"user_id":35,"name":"REDZED","steam_id":76561199434154377,"connected_time":1589000000000,"state":"active","ping":75},{"user_id":61,"name":"Tuosan","steam_id":76561198062611429,"connected_time":57000000000,"state":"active","ping":73}]},{"server_id":23,"name":"Uncletopia | Frankfurt | 7 | Stopwatch","name_short":"frk-7","host":"frk-1.de.uncletopia.com","port":27075,"enabled":true,"region":"eu","cc":"de","latitude":50.110924,"longitude":8.682127,"reserved":0,"last_update":"0001-01-01T00:00:00Z","name_a2s":"Uncletopia | Frankfurt | 7 | Stopwatch","protocol":17,"map":"workshop/koth_clearcut_b15.ugc2107050255","folder":"tf","game":"Team Fortress","app_id":440,"player_count":0,"max_players":24,"Bots":0,"server_type":"Dedicated","server_os":"Linux","password":true,"vac":true,"version":"7961495","steam_id":85568392924742827,"keywords":["cp","nocrits","nodmgspread","uncletopia"],"game_id":440,"stv_port":27076,"stv_name":"Uncletopia | Frankfurt | 7 | Stopwatch | STV","players":null},{"server_id":24,"name":"Uncletopia | Frankfurt | 8 | Community","name_short":"frk-8","host":"frk-1.de.uncletopia.com","port":27085,"enabled":true,"region":"eu","cc":"de","latitude":50.110924,"longitude":8.682127,"reserved":0,"last_update":"0001-01-01T00:00:00Z","name_a2s":"Uncletopia | Frankfurt | 8 | Community","protocol":17,"map":"workshop/pl_shoreleave_rc2.ugc1238849347","folder":"tf","game":"Team Fortress","app_id":440,"player_count":25,"max_players":24,"Bots":0,"server_type":"Dedicated","server_os":"Linux","password":true,"vac":true,"version":"7961495","steam_id":85568392924742828,"keywords":["nocrits","nodmgspread","payload","uncletopia"],"game_id":440,"stv_port":27086,"stv_name":"Uncletopia | Frankfurt | 8 | Community | STV","players":[{"user_id":79,"name":"∫cos²(2x)sin(x)dx","steam_id":76561198079937590,"connected_time":3573000000000,"state":"active","ping":53},{"user_id":127,"name":"BrianIsFruity","steam_id":76561198103706881,"connected_time":1807000000000,"state":"active","ping":63},{"user_id":61,"name":"CHRYSE","steam_id":76561198104896547,"connected_time":5019000000000,"state":"active","ping":73},{"user_id":148,"name":"asko","steam_id":76561198081966620,"connected_time":492000000000,"state":"active","ping":75},{"user_id":138,"name":"JustACoomer","steam_id":76561198151433181,"connected_time":707000000000,"state":"active","ping":61},{"user_id":140,"name":"Leibeigener","steam_id":76561199275478305,"connected_time":696000000000,"state":"active","ping":35},{"user_id":64,"name":"Teddy bear on steriods","steam_id":76561198303852438,"connected_time":4312000000000,"state":"active","ping":75},{"user_id":161,"name":"Dream:♂camik♂","steam_id":76561199211564084,"connected_time":86000000000,"state":"active","ping":102},{"user_id":70,"name":"Sim","steam_id":76561198086641180,"connected_time":4066000000000,"state":"active","ping":106},{"user_id":116,"name":"Trollstoy","steam_id":76561198072017175,"connected_time":2293000000000,"state":"active","ping":65},{"user_id":149,"name":"Artemis","steam_id":76561198199091801,"connected_time":476000000000,"state":"active","ping":45},{"user_id":163,"name":"MishKa_73Z","steam_id":76561199481443187,"connected_time":1000000000,"state":"spawning","ping":73},{"user_id":136,"name":"DavidRcv","steam_id":76561198119522337,"connected_time":1025000000000,"state":"active","ping":105},{"user_id":142,"name":"Ghost staring in car","steam_id":76561198231934444,"connected_time":678000000000,"state":"active","ping":70},{"user_id":84,"name":"Dummynation","steam_id":76561198349741126,"connected_time":3285000000000,"state":"active","ping":74},{"user_id":135,"name":"monke","steam_id":76561199098819786,"connected_time":1166000000000,"state":"active","ping":69},{"user_id":141,"name":"Kruk2","steam_id":76561198181048473,"connected_time":682000000000,"state":"active","ping":106},{"user_id":126,"name":"sloppy transgirl toppy","steam_id":76561198057092208,"connected_time":1841000000000,"state":"active","ping":70},{"user_id":150,"name":"Tyber","steam_id":76561198125886061,"connected_time":470000000000,"state":"active","ping":146},{"user_id":115,"name":"_DEI_","steam_id":76561199140785144,"connected_time":2337000000000,"state":"active","ping":108},{"user_id":145,"name":"N1xD4","steam_id":76561199047686063,"connected_time":666000000000,"state":"active","ping":63},{"user_id":146,"name":"DOБ","steam_id":76561198267230319,"connected_time":661000000000,"state":"active","ping":88},{"user_id":157,"name":"tired","steam_id":76561198046838168,"connected_time":294000000000,"state":"active","ping":45},{"user_id":153,"name":"sand","steam_id":76561199166176718,"connected_time":407000000000,"state":"active","ping":88},{"user_id":78,"name":"dibdabdeb","steam_id":76561198864272307,"connected_time":3681000000000,"state":"active","ping":63}]},{"server_id":202,"name":"Uncletopia | Hong Kong | 1 | All Maps","name_short":"hgk-1","host":"hgk-1.hk.uncletopia.com","port":27015,"enabled":true,"region":"asia","cc":"hk","latitude":22.302711,"longitude":114.177216,"reserved":0,"last_update":"0001-01-01T00:00:00Z","name_a2s":"Uncletopia | Hong Kong | 1 | All Maps","protocol":17,"map":"cp_gorge","folder":"tf","game":"Team Fortress","app_id":440,"player_count":17,"max_players":24,"Bots":0,"server_type":"Dedicated","server_os":"Linux","password":true,"vac":true,"version":"7961495","steam_id":85568392924494504,"keywords":["cp","nocrits","nodmgspread","uncletopia"],"game_id":440,"stv_port":27016,"stv_name":"Uncletopia | Hong Kong | 1 | All Maps | STV","players":[{"user_id":318,"name":"P","steam_id":76561198304514505,"connected_time":8226000000000,"state":"active","ping":72},{"user_id":442,"name":"tomato thomas","steam_id":76561198378829574,"connected_time":1041000000000,"state":"active","ping":53},{"user_id":447,"name":"tortiglioni","steam_id":76561199131857098,"connected_time":397000000000,"state":"active","ping":65},{"user_id":451,"name":"Penguinhat","steam_id":76561199201605357,"connected_time":122000000000,"state":"active","ping":98},{"user_id":446,"name":"kx","steam_id":76561199021269113,"connected_time":498000000000,"state":"active","ping":94},{"user_id":409,"name":"ArcticDolphin","steam_id":76561198203626319,"connected_time":4021000000000,"state":"active","ping":133},{"user_id":425,"name":"NOPE","steam_id":76561199244543572,"connected_time":2306000000000,"state":"active","ping":60},{"user_id":410,"name":"母の肉団子@hao123.com","steam_id":76561198069561896,"connected_time":4018000000000,"state":"active","ping":32},{"user_id":434,"name":"孤勇者","steam_id":76561198045255591,"connected_time":1720000000000,"state":"active","ping":118},{"user_id":414,"name":"Momoxhien","steam_id":76561198414997429,"connected_time":3804000000000,"state":"active","ping":61},{"user_id":420,"name":"Femboy","steam_id":76561198434637272,"connected_time":3070000000000,"state":"active","ping":96},{"user_id":402,"name":"Pillboi","steam_id":76561198011172886,"connected_time":4089000000000,"state":"active","ping":36},{"user_id":426,"name":"Flash","steam_id":76561197963608502,"connected_time":2246000000000,"state":"active","ping":50},{"user_id":422,"name":"A Businessman","steam_id":76561198165224788,"connected_time":2352000000000,"state":"active","ping":63},{"user_id":361,"name":"Stewb","steam_id":76561198131423270,"connected_time":6809000000000,"state":"active","ping":74},{"user_id":440,"name":"ihavenomouthandimustscream","steam_id":76561198172874097,"connected_time":1363000000000,"state":"active","ping":60},{"user_id":441,"name":"pyro_main69","steam_id":76561199228397589,"connected_time":1359000000000,"state":"active","ping":131}]},{"server_id":1,"name":"Uncletopia | Los Angeles | 1 | All Maps","name_short":"lax-1","host":"lax-1.us.uncletopia.com","port":27015,"enabled":true,"region":"us-west","cc":"us","latitude":33.94279,"longitude":-118.41004,"reserved":0,"last_update":"0001-01-01T00:00:00Z","name_a2s":"Uncletopia | Los Angeles | 1 | All Maps","protocol":17,"map":"pl_swiftwater_final1","folder":"tf","game":"Team Fortress","app_id":440,"player_count":0,"max_players":24,"Bots":0,"server_type":"Dedicated","server_os":"Linux","password":true,"vac":true,"version":"7961495","steam_id":85568392924469991,"keywords":["nocrits","nodmgspread","payload","uncletopia"],"game_id":440,"stv_port":27016,"stv_name":"Uncletopia | Los Angeles | 1 | All Maps | STV","players":null},{"server_id":112,"name":"Uncletopia | Los Angeles | 2 | All Maps","name_short":"lax-2","host":"lax-1.us.uncletopia.com","port":27025,"enabled":true,"region":"us-west","cc":"us","latitude":33.94279,"longitude":-118.41004,"reserved":0,"last_update":"0001-01-01T00:00:00Z","name_a2s":"Uncletopia | Los Angeles | 2 | All Maps","protocol":17,"map":"pl_borneo","folder":"tf","game":"Team Fortress","app_id":440,"player_count":0,"max_players":24,"Bots":0,"server_type":"Dedicated","server_os":"Linux","password":true,"vac":true,"version":"7961495","steam_id":85568392924469992,"keywords":["nocrits","nodmgspread","payload","uncletopia"],"game_id":440,"stv_port":27026,"stv_name":"Uncletopia | Los Angeles | 2 | All Maps | STV","players":null},{"server_id":324,"name":"Uncletopia | Los Angeles | 3 | All Maps","name_short":"lax-3","host":"lax-1.us.uncletopia.com","port":27035,"enabled":true,"region":"us-west","cc":"us","latitude":33.94279,"longitude":-118.41004,"reserved":0,"last_update":"0001-01-01T00:00:00Z","name_a2s":"Uncletopia | Los Angeles | 3 | All Maps","protocol":17,"map":"pl_frontier_final","folder":"tf","game":"Team Fortress","app_id":440,"player_count":0,"max_players":24,"Bots":0,"server_type":"Dedicated","server_os":"Linux","password":true,"vac":true,"version":"7961495","steam_id":85568392924510198,"keywords":["nocrits","nodmgspread","payload","uncletopia"],"game_id":440,"stv_port":27036,"stv_name":"Uncletopia | Los Angeles | 3 | All Maps | STV","players":null},{"server_id":25,"name":"Uncletopia | Los Angeles | 4 | Stopwatch","name_short":"lax-4","host":"lax-1.us.uncletopia.com","port":27045,"enabled":true,"region":"us-west","cc":"us","latitude":33.94279,"longitude":-118.41004,"reserved":0,"last_update":"0001-01-01T00:00:00Z","name_a2s":"Uncletopia | Los Angeles | 4 | Stopwatch","protocol":17,"map":"pl_barnblitz","folder":"tf","game":"Team Fortress","app_id":440,"player_count":0,"max_players":24,"Bots":0,"server_type":"Dedicated","server_os":"Linux","password":true,"vac":true,"version":"7961495","steam_id":85568392924510199,"keywords":["nocrits","nodmgspread","payload","uncletopia"],"game_id":440,"stv_port":27046,"stv_name":"Uncletopia | Los Angeles | 4 | Stopwatch | STV","players":null},{"server_id":11,"name":"Uncletopia | London | 1 | All Maps","name_short":"lon-1","host":"lon-1.uk.uncletopia.com","port":27015,"enabled":true,"region":"eu","cc":"gb","latitude":51.509865,"longitude":-0.118092,"reserved":0,"last_update":"0001-01-01T00:00:00Z","name_a2s":"Uncletopia | London | 1 | All Maps","protocol":17,"map":"koth_suijin","folder":"tf","game":"Team Fortress","app_id":440,"player_count":24,"max_players":24,"Bots":0,"server_type":"Dedicated","server_os":"Linux","password":true,"vac":true,"version":"7961495","steam_id":85568392924367362,"keywords":["cp","nocrits","nodmgspread","uncletopia"],"game_id":440,"stv_port":27016,"stv_name":"Uncletopia | London | 1 | All Maps | STV","players":[{"user_id":286,"name":"hasansaeedifar","steam_id":76561198974563618,"connected_time":2440000000000,"state":"active","ping":170},{"user_id":291,"name":"Someone","steam_id":76561199030195879,"connected_time":1662000000000,"state":"active","ping":49},{"user_id":311,"name":"Slifer the BIG SHOT","steam_id":76561198062255803,"connected_time":529000000000,"state":"active","ping":73},{"user_id":308,"name":"whimsy.","steam_id":76561198878171763,"connected_time":834000000000,"state":"active","ping":48},{"user_id":314,"name":"brtaba","steam_id":76561198796334790,"connected_time":118000000000,"state":"active","ping":72},{"user_id":307,"name":"pardner","steam_id":76561198451471161,"connected_time":908000000000,"state":"active","ping":57},{"user_id":246,"name":"fence_","steam_id":76561198150386379,"connected_time":4713000000000,"state":"active","ping":45},{"user_id":294,"name":"cool internet person (so cool(","steam_id":76561198053929269,"connected_time":1631000000000,"state":"active","ping":80},{"user_id":292,"name":"engineer drip","steam_id":76561198991032570,"connected_time":1658000000000,"state":"active","ping":84},{"user_id":244,"name":"permed ball hair gaming","steam_id":76561198294857933,"connected_time":4917000000000,"state":"active","ping":56},{"user_id":281,"name":"Hans Regenkurt🗿","steam_id":76561199100937553,"connected_time":2629000000000,"state":"active","ping":86},{"user_id":304,"name":"Waltism","steam_id":76561199447676489,"connected_time":992000000000,"state":"active","ping":102},{"user_id":295,"name":"yuno appreciator","steam_id":76561198083286511,"connected_time":1614000000000,"state":"active","ping":41},{"user_id":297,"name":"Dean Craig Pelton From Communit","steam_id":76561198155010055,"connected_time":1460000000000,"state":"active","ping":117},{"user_id":296,"name":"⸸aura⸸","steam_id":76561198066258544,"connected_time":1587000000000,"state":"active","ping":64},{"user_id":316,"name":"Kali","steam_id":76561198796327257,"connected_time":84000000000,"state":"active","ping":67},{"user_id":305,"name":"Gubbly Bubbins","steam_id":76561198101451654,"connected_time":979000000000,"state":"active","ping":40},{"user_id":313,"name":"png.png","steam_id":76561198444446521,"connected_time":383000000000,"state":"active","ping":108},{"user_id":258,"name":"Tomboy Mold","steam_id":76561198106455841,"connected_time":3844000000000,"state":"active","ping":80},{"user_id":306,"name":"mclovin","steam_id":76561198027307745,"connected_time":974000000000,"state":"active","ping":40},{"user_id":287,"name":"Gbus","steam_id":76561198072335838,"connected_time":2414000000000,"state":"active","ping":58},{"user_id":180,"name":"clunk","steam_id":76561198836460767,"connected_time":9231000000000,"state":"active","ping":76},{"user_id":312,"name":"DwarfInYou","steam_id":76561198966341795,"connected_time":488000000000,"state":"active","ping":62},{"user_id":262,"name":"breakfast burrito","steam_id":76561198148606969,"connected_time":3571000000000,"state":"active","ping":81}]},{"server_id":114,"name":"Uncletopia | London | 2 | All Maps","name_short":"lon-2","host":"lon-1.uk.uncletopia.com","port":27025,"enabled":true,"region":"eu","cc":"gb","latitude":51.509865,"longitude":-0.118092,"reserved":0,"last_update":"0001-01-01T00:00:00Z","name_a2s":"Uncletopia | London | 2 | All Maps","protocol":17,"map":"koth_viaduct","folder":"tf","game":"Team Fortress","app_id":440,"player_count":24,"max_players":24,"Bots":0,"server_type":"Dedicated","server_os":"Linux","password":true,"vac":true,"version":"7961495","steam_id":85568392924470941,"keywords":["cp","nocrits","nodmgspread","uncletopia"],"game_id":440,"stv_port":27026,"stv_name":"Uncletopia | London | 2 | All Maps | STV","players":[{"user_id":270,"name":"-","steam_id":76561198382509396,"connected_time":978000000000,"state":"active","ping":54},{"user_id":272,"name":"Jørn","steam_id":76561199073257952,"connected_time":429000000000,"state":"active","ping":67},{"user_id":281,"name":"Albynator","steam_id":76561199093776495,"connected_time":82000000000,"state":"active","ping":71},{"user_id":277,"name":"gman cbt","steam_id":76561198089560908,"connected_time":159000000000,"state":"active","ping":105},{"user_id":194,"name":"SuperSpartan093","steam_id":76561198365347374,"connected_time":4111000000000,"state":"active","ping":52},{"user_id":265,"name":"Yip","steam_id":76561198946540436,"connected_time":1411000000000,"state":"active","ping":49},{"user_id":210,"name":"stinko","steam_id":76561198358856044,"connected_time":3779000000000,"state":"active","ping":48},{"user_id":236,"name":"Bijeli Walter","steam_id":76561198096093342,"connected_time":2614000000000,"state":"active","ping":82},{"user_id":268,"name":"LivEssense","steam_id":76561198052476979,"connected_time":1201000000000,"state":"active","ping":81},{"user_id":239,"name":"Dr Richard Webber","steam_id":76561198214432667,"connected_time":2609000000000,"state":"active","ping":57},{"user_id":278,"name":"Hacpow","steam_id":76561198083205388,"connected_time":136000000000,"state":"active","ping":88},{"user_id":220,"name":"chad","steam_id":76561198235763492,"connected_time":3425000000000,"state":"active","ping":88},{"user_id":282,"name":"sgt. braphog","steam_id":76561198868286775,"connected_time":51000000000,"state":"active","ping":82},{"user_id":275,"name":"autistic luigi","steam_id":76561199218285040,"connected_time":244000000000,"state":"active","ping":87},{"user_id":255,"name":"q47tx","steam_id":76561199181333933,"connected_time":2160000000000,"state":"active","ping":102},{"user_id":247,"name":"melon man","steam_id":76561198834046987,"connected_time":2305000000000,"state":"active","ping":113},{"user_id":259,"name":"nefariousevilsorcerermoonGrass","steam_id":76561198799519725,"connected_time":1806000000000,"state":"active","ping":95},{"user_id":248,"name":"Super_Sheep3K","steam_id":76561198362398971,"connected_time":2300000000000,"state":"active","ping":103},{"user_id":271,"name":"Lurid","steam_id":76561198313976365,"connected_time":752000000000,"state":"active","ping":48},{"user_id":274,"name":"pine cone","steam_id":76561198168254686,"connected_time":249000000000,"state":"active","ping":160},{"user_id":264,"name":"YuraGreek","steam_id":76561198050182252,"connected_time":1602000000000,"state":"active","ping":88},{"user_id":280,"name":"oslninja8","steam_id":76561199407528463,"connected_time":94000000000,"state":"active","ping":55},{"user_id":227,"name":"Ferrariracer5f1","steam_id":76561199229815098,"connected_time":3193000000000,"state":"active","ping":61},{"user_id":231,"name":"BugMuncher","steam_id":76561198963700249,"connected_time":3158000000000,"state":"active","ping":56}]},{"server_id":320,"name":"Uncletopia | London | 3 | All Maps","name_short":"lon-3","host":"lon-1.uk.uncletopia.com","port":27035,"enabled":true,"region":"eu","cc":"gb","latitude":51.509865,"longitude":-0.118092,"reserved":0,"last_update":"0001-01-01T00:00:00Z","name_a2s":"Uncletopia | London | 3 | All Maps","protocol":17,"map":"pl_thundermountain","folder":"tf","game":"Team Fortress","app_id":440,"player_count":23,"max_players":24,"Bots":0,"server_type":"Dedicated","server_os":"Linux","password":true,"vac":true,"version":"7961495","steam_id":85568392924510192,"keywords":["nocrits","nodmgspread","payload","uncletopia"],"game_id":440,"stv_port":27036,"stv_name":"Uncletopia | London | 3 | All Maps | STV","players":[{"user_id":478,"name":"Virginty Rocks","steam_id":76561198040120219,"connected_time":873000000000,"state":"active","ping":92},{"user_id":486,"name":"Temp0_ ♥","steam_id":76561198162068639,"connected_time":437000000000,"state":"active","ping":57},{"user_id":440,"name":"Taez","steam_id":76561198261820803,"connected_time":3537000000000,"state":"active","ping":64},{"user_id":489,"name":"A literal heavy","steam_id":76561199219233587,"connected_time":382000000000,"state":"active","ping":82},{"user_id":472,"name":"Level 1 Noob","steam_id":76561198088586340,"connected_time":1143000000000,"state":"active","ping":59},{"user_id":455,"name":"Filipesko CaseOpening.com","steam_id":76561198831347261,"connected_time":2765000000000,"state":"active","ping":69},{"user_id":487,"name":"UltimateSlayer","steam_id":76561198384109309,"connected_time":427000000000,"state":"active","ping":57},{"user_id":411,"name":"teach.","steam_id":76561198058740930,"connected_time":5804000000000,"state":"active","ping":53},{"user_id":471,"name":"scungo","steam_id":76561198316654855,"connected_time":1204000000000,"state":"active","ping":146},{"user_id":454,"name":"awkward weirdo loser freak","steam_id":76561199042470246,"connected_time":2766000000000,"state":"active","ping":66},{"user_id":479,"name":"r0la","steam_id":76561198128315340,"connected_time":803000000000,"state":"active","ping":88},{"user_id":423,"name":"lion king 5 the reckoning","steam_id":76561198041040598,"connected_time":5442000000000,"state":"active","ping":86},{"user_id":462,"name":"Fran","steam_id":76561199070516960,"connected_time":2357000000000,"state":"active","ping":74},{"user_id":492,"name":"cisgender clown","steam_id":76561199469909295,"connected_time":266000000000,"state":"active","ping":65},{"user_id":442,"name":"AlfonsoM","steam_id":76561198138832894,"connected_time":3509000000000,"state":"active","ping":96},{"user_id":465,"name":"cansado","steam_id":76561198003898089,"connected_time":1984000000000,"state":"active","ping":79},{"user_id":427,"name":"Racco","steam_id":76561198198855238,"connected_time":5352000000000,"state":"active","ping":61},{"user_id":491,"name":"look at my lawyer dawg","steam_id":76561198067459427,"connected_time":288000000000,"state":"active","ping":60},{"user_id":490,"name":"TF2 Dev Commentary","steam_id":76561198414175953,"connected_time":379000000000,"state":"active","ping":56},{"user_id":365,"name":"john fortress","steam_id":76561198013237629,"connected_time":10277000000000,"state":"active","ping":100},{"user_id":475,"name":"Cocsam","steam_id":76561198050827179,"connected_time":1060000000000,"state":"active","ping":73},{"user_id":470,"name":"Mido","steam_id":76561198391465107,"connected_time":1222000000000,"state":"active","ping":93},{"user_id":481,"name":"86","steam_id":76561199084186097,"connected_time":659000000000,"state":"active","ping":38}]},{"server_id":321,"name":"Uncletopia | London | 4 | All Maps","name_short":"lon-4","host":"lon-1.uk.uncletopia.com","port":27045,"enabled":true,"region":"eu","cc":"gb","latitude":51.509865,"longitude":-0.118092,"reserved":0,"last_update":"0001-01-01T00:00:00Z","name_a2s":"Uncletopia | London | 4 | All Maps","protocol":17,"map":"pl_frontier_final","folder":"tf","game":"Team Fortress","app_id":440,"player_count":5,"max_players":24,"Bots":0,"server_type":"Dedicated","server_os":"Linux","password":true,"vac":true,"version":"7961495","steam_id":85568392924510193,"keywords":["nocrits","nodmgspread","payload","uncletopia"],"game_id":440,"stv_port":27046,"stv_name":"Uncletopia | London | 4 | All Maps | STV","players":[{"user_id":29,"name":"lipaul777","steam_id":76561199090751367,"connected_time":887000000000,"state":"active","ping":72},{"user_id":31,"name":"Kummerspeck","steam_id":76561198151952677,"connected_time":449000000000,"state":"active","ping":40},{"user_id":32,"name":"Osama bin lightskin","steam_id":76561198883094806,"connected_time":441000000000,"state":"active","ping":51},{"user_id":33,"name":"sillogamer","steam_id":76561198840129251,"connected_time":323000000000,"state":"active","ping":91},{"user_id":34,"name":"Dungdil","steam_id":76561198351930639,"connected_time":42000000000,"state":"active","ping":57}]},{"server_id":21,"name":"Uncletopia | London | 5 | All Maps","name_short":"lon-5","host":"lon-1.uk.uncletopia.com","port":27055,"enabled":true,"region":"eu","cc":"gb","latitude":51.509865,"longitude":-0.118092,"reserved":0,"last_update":"0001-01-01T00:00:00Z","name_a2s":"Uncletopia | London | 5 | All Maps","protocol":17,"map":"pl_barnblitz","folder":"tf","game":"Team Fortress","app_id":440,"player_count":1,"max_players":24,"Bots":0,"server_type":"Dedicated","server_os":"Linux","password":true,"vac":true,"version":"7961495","steam_id":85568392924742829,"keywords":["nocrits","nodmgspread","payload","uncletopia"],"game_id":440,"stv_port":27056,"stv_name":"Uncletopia | London | 5 | All Maps | STV","players":[{"user_id":112,"name":"The Wanderers","steam_id":76561198419246129,"connected_time":694000000000,"state":"active","ping":168}]},{"server_id":22,"name":"Uncletopia | London | 6 | All Maps","name_short":"lon-6","host":"lon-1.uk.uncletopia.com","port":27065,"enabled":true,"region":"eu","cc":"gb","latitude":51.509865,"longitude":-0.118092,"reserved":0,"last_update":"0001-01-01T00:00:00Z","name_a2s":"Uncletopia | London | 6 | All Maps","protocol":17,"map":"pl_upward","folder":"tf","game":"Team Fortress","app_id":440,"player_count":24,"max_players":24,"Bots":0,"server_type":"Dedicated","server_os":"Linux","password":true,"vac":true,"version":"7961495","steam_id":85568392924742830,"keywords":["nocrits","nodmgspread","payload","uncletopia"],"game_id":440,"stv_port":27066,"stv_name":"Uncletopia | London | 6 | All Maps | STV","players":[{"user_id":483,"name":"Life, Death, and Taxes","steam_id":76561198126734886,"connected_time":1216000000000,"state":"active","ping":133},{"user_id":484,"name":"GoodOldJack12","steam_id":76561198100910669,"connected_time":1204000000000,"state":"active","ping":65},{"user_id":480,"name":"jjkun786","steam_id":76561199438517484,"connected_time":1281000000000,"state":"active","ping":36},{"user_id":497,"name":"._.","steam_id":76561198300316801,"connected_time":223000000000,"state":"active","ping":101},{"user_id":489,"name":"Sex Man TF2","steam_id":76561198798657045,"connected_time":953000000000,"state":"active","ping":80},{"user_id":475,"name":"GigaLord På Golvet","steam_id":76561198153482617,"connected_time":1638000000000,"state":"active","ping":81},{"user_id":498,"name":"Arasey","steam_id":76561198996948426,"connected_time":212000000000,"state":"active","ping":89},{"user_id":444,"name":"Your Local Pybro","steam_id":76561198801472157,"connected_time":4292000000000,"state":"active","ping":37},{"user_id":429,"name":"...","steam_id":76561198405980575,"connected_time":5165000000000,"state":"active","ping":71},{"user_id":482,"name":"mingsh'allah","steam_id":76561198254011269,"connected_time":1268000000000,"state":"active","ping":90},{"user_id":490,"name":"Grillem Dafoe","steam_id":76561198306874574,"connected_time":948000000000,"state":"active","ping":64},{"user_id":440,"name":"༺♰༻","steam_id":76561198889987634,"connected_time":4344000000000,"state":"active","ping":73},{"user_id":396,"name":"Mono","steam_id":76561198114569493,"connected_time":8034000000000,"state":"active","ping":42},{"user_id":495,"name":"Stuid","steam_id":76561199427506542,"connected_time":239000000000,"state":"active","ping":85},{"user_id":477,"name":"Kaziocalvice","steam_id":76561198146425583,"connected_time":1560000000000,"state":"active","ping":69},{"user_id":478,"name":"Fissure","steam_id":76561198272595481,"connected_time":1547000000000,"state":"active","ping":67},{"user_id":467,"name":"yavaş","steam_id":76561198170334258,"connected_time":2365000000000,"state":"active","ping":76},{"user_id":469,"name":"kid bean","steam_id":76561198063328792,"connected_time":2034000000000,"state":"active","ping":102},{"user_id":418,"name":"Littleyoshifan","steam_id":76561198445491045,"connected_time":6133000000000,"state":"active","ping":45},{"user_id":470,"name":"Mury","steam_id":76561198069743049,"connected_time":2033000000000,"state":"active","ping":130},{"user_id":494,"name":"chillrend_morphs_high_lod6","steam_id":76561198452963141,"connected_time":264000000000,"state":"active","ping":90},{"user_id":493,"name":"Akira_tenjo","steam_id":76561199497289723,"connected_time":579000000000,"state":"active","ping":70},{"user_id":435,"name":"Engineer Chad","steam_id":76561199487629652,"connected_time":5004000000000,"state":"active","ping":74},{"user_id":463,"name":"DinoDion","steam_id":76561198165449931,"connected_time":2704000000000,"state":"active","ping":45}]},{"server_id":40,"name":"Uncletopia | London | 7 | Stopwatch","name_short":"lon-7","host":"lon-1.uk.uncletopia.com","port":27075,"enabled":true,"region":"eu","cc":"gb","latitude":51.509865,"longitude":-0.118092,"reserved":0,"last_update":"0001-01-01T00:00:00Z","name_a2s":"Uncletopia | London | 7 | Stopwatch","protocol":17,"map":"koth_lakeside_final","folder":"tf","game":"Team Fortress","app_id":440,"player_count":0,"max_players":24,"Bots":0,"server_type":"Dedicated","server_os":"Linux","password":true,"vac":true,"version":"7961495","steam_id":85568392924964314,"keywords":["cp","nocrits","nodmgspread","uncletopia"],"game_id":440,"stv_port":27076,"stv_name":"Uncletopia | London | 7 | Stopwatch | STV","players":null},{"server_id":41,"name":"Uncletopia | London | 8 | Community","name_short":"lon-8","host":"lon-1.uk.uncletopia.com","port":27085,"enabled":true,"region":"eu","cc":"gb","latitude":51.509865,"longitude":-0.118092,"reserved":0,"last_update":"0001-01-01T00:00:00Z","name_a2s":"Uncletopia | London | 8 | Community","protocol":17,"map":"workshop/koth_bagel_rc6.ugc2514036946","folder":"tf","game":"Team Fortress","app_id":440,"player_count":0,"max_players":24,"Bots":0,"server_type":"Dedicated","server_os":"Linux","password":true,"vac":true,"version":"7961495","steam_id":85568392924964315,"keywords":["cp","nocrits","nodmgspread","uncletopia"],"game_id":440,"stv_port":27086,"stv_name":"Uncletopia | London | 8 | Community | STV","players":null},{"server_id":300,"name":"Uncletopia | Montréal | 1 | One Thousand Uncles","name_short":"mtl-1","host":"mtl-1.ca.uncletopia.com","port":27015,"enabled":true,"region":"us-east","cc":"ca","latitude":45.50889,"longitude":-73.56167,"reserved":0,"last_update":"0001-01-01T00:00:00Z","name_a2s":"","protocol":0,"map":"","folder":"","game":"","app_id":0,"player_count":0,"max_players":0,"Bots":0,"server_type":"","server_os":"","password":false,"vac":false,"version":"","steam_id":0,"keywords":null,"game_id":0,"stv_port":0,"stv_name":"","players":null},{"server_id":301,"name":"Uncletopia | Montréal | 2 | One Thousand Uncles","name_short":"mtl-2","host":"mtl-1.ca.uncletopia.com","port":27025,"enabled":true,"region":"us-east","cc":"ca","latitude":45.50889,"longitude":-73.56167,"reserved":0,"last_update":"0001-01-01T00:00:00Z","name_a2s":"","protocol":0,"map":"","folder":"","game":"","app_id":0,"player_count":0,"max_players":0,"Bots":0,"server_type":"","server_os":"","password":false,"vac":false,"version":"","steam_id":0,"keywords":null,"game_id":0,"stv_port":0,"stv_name":"","players":null},{"server_id":302,"name":"Uncletopia | Montréal | 3 | One Thousand Uncles","name_short":"mtl-3","host":"mtl-1.ca.uncletopia.com","port":27035,"enabled":true,"region":"us-east","cc":"ca","latitude":45.50889,"longitude":-73.56167,"reserved":0,"last_update":"0001-01-01T00:00:00Z","name_a2s":"","protocol":0,"map":"","folder":"","game":"","app_id":0,"player_count":0,"max_players":0,"Bots":0,"server_type":"","server_os":"","password":false,"vac":false,"version":"","steam_id":0,"keywords":null,"game_id":0,"stv_port":0,"stv_name":"","players":null},{"server_id":13,"name":"Uncletopia | New York City | 1 | All Maps","name_short":"nyc-1","host":"nyc-1.us.uncletopia.com","port":27015,"enabled":true,"region":"us-east","cc":"us","latitude":40.73061,"longitude":-73.93524,"reserved":0,"last_update":"0001-01-01T00:00:00Z","name_a2s":"Uncletopia | New York City | 1 | All Maps","protocol":17,"map":"plr_hightower","folder":"tf","game":"Team Fortress","app_id":440,"player_count":1,"max_players":24,"Bots":0,"server_type":"Dedicated","server_os":"Linux","password":true,"vac":true,"version":"7961495","steam_id":85568392924469993,"keywords":["nocrits","nodmgspread","payload","uncletopia"],"game_id":440,"stv_port":27016,"stv_name":"Uncletopia | New York City | 1 | All Maps | STV","players":[{"user_id":5,"name":"SpaceSanctum","steam_id":76561198805242305,"connected_time":211000000000,"state":"active","ping":30}]},{"server_id":14,"name":"Uncletopia | New York City | 2 | All Maps","name_short":"nyc-2","host":"nyc-1.us.uncletopia.com","port":27025,"enabled":true,"region":"us-east","cc":"us","latitude":40.73061,"longitude":-73.93524,"reserved":0,"last_update":"0001-01-01T00:00:00Z","name_a2s":"Uncletopia | New York City | 2 | All Maps","protocol":17,"map":"cp_snakewater_final1","folder":"tf","game":"Team Fortress","app_id":440,"player_count":0,"max_players":24,"Bots":0,"server_type":"Dedicated","server_os":"Linux","password":true,"vac":true,"version":"7961495","steam_id":85568392924469994,"keywords":["cp","nocrits","nodmgspread","uncletopia"],"game_id":440,"stv_port":27026,"stv_name":"Uncletopia | New York City | 2 | All Maps | STV","players":null},{"server_id":15,"name":"Uncletopia | New York City | 3 | Stopwatch","name_short":"nyc-3","host":"nyc-1.us.uncletopia.com","port":27035,"enabled":true,"region":"us-east","cc":"us","latitude":40.73061,"longitude":-73.93524,"reserved":0,"last_update":"0001-01-01T00:00:00Z","name_a2s":"Uncletopia | New York City | 3 | Stopwatch","protocol":17,"map":"pl_snowycoast","folder":"tf","game":"Team Fortress","app_id":440,"player_count":0,"max_players":24,"Bots":0,"server_type":"Dedicated","server_os":"Linux","password":true,"vac":true,"version":"7961495","steam_id":85568392924742820,"keywords":["nocrits","nodmgspread","payload","uncletopia"],"game_id":440,"stv_port":27036,"stv_name":"Uncletopia | New York City | 3 | Stopwatch | STV","players":null},{"server_id":16,"name":"Uncletopia | New York City | 4 | Community","name_short":"nyc-4","host":"nyc-1.us.uncletopia.com","port":27045,"enabled":true,"region":"us-east","cc":"us","latitude":40.73061,"longitude":-73.93524,"reserved":0,"last_update":"0001-01-01T00:00:00Z","name_a2s":"Uncletopia | New York City | 4 | Community","protocol":17,"map":"workshop/pl_shoreleave_rc2.ugc1238849347","folder":"tf","game":"Team Fortress","app_id":440,"player_count":3,"max_players":24,"Bots":0,"server_type":"Dedicated","server_os":"Linux","password":true,"vac":true,"version":"7961495","steam_id":85568392924742821,"keywords":["nocrits","nodmgspread","payload","uncletopia"],"game_id":440,"stv_port":27046,"stv_name":"Uncletopia | New York City | 4 | Community | STV","players":[{"user_id":4,"name":"raised right hand","steam_id":76561198216758440,"connected_time":1971000000000,"state":"active","ping":47},{"user_id":5,"name":"forklift certified","steam_id":76561199080082586,"connected_time":1965000000000,"state":"active","ping":64},{"user_id":8,"name":"cakgamin","steam_id":76561199088909749,"connected_time":441000000000,"state":"active","ping":69}]},{"server_id":142,"name":"Uncletopia | São Paulo | 1 | All Maps","name_short":"sao-1","host":"sao-1.br.uncletopia.com","port":27015,"enabled":true,"region":"sa","cc":"br","latitude":-23.533773,"longitude":-46.62529,"reserved":0,"last_update":"0001-01-01T00:00:00Z","name_a2s":"Uncletopia | São Paulo | 1 | All Maps","protocol":17,"map":"cp_mountainlab","folder":"tf","game":"Team Fortress","app_id":440,"player_count":0,"max_players":24,"Bots":0,"server_type":"Dedicated","server_os":"Linux","password":true,"vac":true,"version":"7961495","steam_id":85568392924469996,"keywords":["cp","nocrits","nodmgspread","uncletopia"],"game_id":440,"stv_port":27016,"stv_name":"Uncletopia | São Paulo | 1 | All Maps | STV","players":null},{"server_id":143,"name":"Uncletopia | São Paulo | 2 | Community","name_short":"sao-2","host":"sao-2.br.uncletopia.com","port":27015,"enabled":true,"region":"sa","cc":"br","latitude":-23.533773,"longitude":-46.62529,"reserved":0,"last_update":"0001-01-01T00:00:00Z","name_a2s":"Uncletopia | São Paulo | 2 | Community","protocol":17,"map":"pl_badwater","folder":"tf","game":"Team Fortress","app_id":440,"player_count":0,"max_players":24,"Bots":0,"server_type":"Dedicated","server_os":"Linux","password":true,"vac":true,"version":"7961495","steam_id":85568392924485349,"keywords":["nocrits","nodmgspread","payload","uncletopia"],"game_id":440,"stv_port":27016,"stv_name":"Uncletopia | São Paulo | 2 | Community | STV","players":null},{"server_id":7,"name":"Uncletopia | Seattle | 1 | All Maps","name_short":"sea-1","host":"sea-1.us.uncletopia.com","port":27015,"enabled":true,"region":"us-west","cc":"us","latitude":47.608013,"longitude":-122.33517,"reserved":0,"last_update":"0001-01-01T00:00:00Z","name_a2s":"Uncletopia | Seattle | 1 | All Maps","protocol":17,"map":"pl_badwater","folder":"tf","game":"Team Fortress","app_id":440,"player_count":24,"max_players":24,"Bots":0,"server_type":"Dedicated","server_os":"Linux","password":true,"vac":true,"version":"7961495","steam_id":85568392924469997,"keywords":["nocrits","nodmgspread","payload","uncletopia"],"game_id":440,"stv_port":27016,"stv_name":"Uncletopia | Seattle | 1 | All Maps | STV","players":[{"user_id":166,"name":"Toasterduds","steam_id":76561198163477584,"connected_time":913000000000,"state":"active","ping":75},{"user_id":114,"name":"DubiousDodo","steam_id":76561198828172686,"connected_time":4684000000000,"state":"active","ping":132},{"user_id":146,"name":"lukamine","steam_id":76561198166827208,"connected_time":1815000000000,"state":"active","ping":49},{"user_id":141,"name":"my monitor is off","steam_id":76561198074499537,"connected_time":2747000000000,"state":"active","ping":63},{"user_id":147,"name":"Sir Loincloth","steam_id":76561198033073991,"connected_time":1762000000000,"state":"active","ping":74},{"user_id":172,"name":"big thighs fat wagon","steam_id":76561198248461754,"connected_time":454000000000,"state":"active","ping":76},{"user_id":161,"name":"Smashing93","steam_id":76561199058453316,"connected_time":1154000000000,"state":"active","ping":118},{"user_id":174,"name":"Kyna._","steam_id":76561198142758338,"connected_time":246000000000,"state":"active","ping":74},{"user_id":122,"name":"SeeNik","steam_id":76561198149499817,"connected_time":4082000000000,"state":"active","ping":124},{"user_id":131,"name":"PJROCK101","steam_id":76561198070616561,"connected_time":3436000000000,"state":"active","ping":47},{"user_id":169,"name":"fenn","steam_id":76561198355460424,"connected_time":731000000000,"state":"active","ping":39},{"user_id":142,"name":"BOTBOT","steam_id":76561198271928618,"connected_time":2604000000000,"state":"active","ping":120},{"user_id":158,"name":"TheMagicMrWaffle","steam_id":76561198104357256,"connected_time":1290000000000,"state":"active","ping":67},{"user_id":137,"name":"owl","steam_id":76561198088403016,"connected_time":3142000000000,"state":"active","ping":154},{"user_id":83,"name":"summerlis","steam_id":76561198165324438,"connected_time":6733000000000,"state":"active","ping":66},{"user_id":160,"name":"radiantlight123","steam_id":76561198161638571,"connected_time":1167000000000,"state":"active","ping":72},{"user_id":150,"name":"mobe","steam_id":76561198121633820,"connected_time":1698000000000,"state":"active","ping":76},{"user_id":155,"name":"Iron Sheik","steam_id":76561198069980923,"connected_time":1502000000000,"state":"active","ping":112},{"user_id":171,"name":"Cosmo","steam_id":76561199085643398,"connected_time":559000000000,"state":"active","ping":75},{"user_id":167,"name":"toes","steam_id":76561198221151676,"connected_time":889000000000,"state":"active","ping":56},{"user_id":60,"name":"DragonJimmy","steam_id":76561198272966565,"connected_time":8398000000000,"state":"active","ping":85},{"user_id":164,"name":"VisciousPotato","steam_id":76561198992859414,"connected_time":988000000000,"state":"active","ping":89},{"user_id":165,"name":"Filthy","steam_id":76561199159013724,"connected_time":930000000000,"state":"active","ping":94},{"user_id":140,"name":"[I.R.I.S]","steam_id":76561199247095754,"connected_time":2839000000000,"state":"active","ping":50}]},{"server_id":119,"name":"Uncletopia | Seattle | 2 | All Maps","name_short":"sea-2","host":"sea-1.us.uncletopia.com","port":27025,"enabled":true,"region":"us-west","cc":"us","latitude":47.608013,"longitude":-122.33517,"reserved":0,"last_update":"0001-01-01T00:00:00Z","name_a2s":"Uncletopia | Seattle | 2 | All Maps","protocol":17,"map":"koth_cascade","folder":"tf","game":"Team Fortress","app_id":440,"player_count":0,"max_players":24,"Bots":0,"server_type":"Dedicated","server_os":"Linux","password":true,"vac":true,"version":"7961495","steam_id":85568392924469998,"keywords":["cp","nocrits","nodmgspread","uncletopia"],"game_id":440,"stv_port":27026,"stv_name":"Uncletopia | Seattle | 2 | All Maps | STV","players":null},{"server_id":406,"name":"Uncletopia | Seattle | 3 | Stopwatch","name_short":"sea-3","host":"sea-1.us.uncletopia.com","port":27035,"enabled":true,"region":"us-west","cc":"us","latitude":47.608013,"longitude":-122.33517,"reserved":0,"last_update":"0001-01-01T00:00:00Z","name_a2s":"Uncletopia | Seattle | 3 | Stopwatch","protocol":17,"map":"pl_pier","folder":"tf","game":"Team Fortress","app_id":440,"player_count":0,"max_players":24,"Bots":0,"server_type":"Dedicated","server_os":"Linux","password":true,"vac":true,"version":"7961495","steam_id":85568392924515217,"keywords":["nocrits","nodmgspread","payload","uncletopia"],"game_id":440,"stv_port":27036,"stv_name":"Uncletopia | Seattle | 3 | Stopwatch | STV","players":null},{"server_id":17,"name":"Uncletopia | San Francisco | 1 | All Maps","name_short":"sfo-1","host":"sfo-1.us.uncletopia.com","port":27015,"enabled":true,"region":"us-west","cc":"us","latitude":37.77397,"longitude":-122.4313,"reserved":0,"last_update":"0001-01-01T00:00:00Z","name_a2s":"Uncletopia | San Francisco | 1 | All Maps","protocol":17,"map":"koth_cascade","folder":"tf","game":"Team Fortress","app_id":440,"player_count":0,"max_players":24,"Bots":0,"server_type":"Dedicated","server_os":"Linux","password":true,"vac":true,"version":"7961495","steam_id":85568392924469999,"keywords":["cp","nocrits","nodmgspread","uncletopia"],"game_id":440,"stv_port":27016,"stv_name":"Uncletopia | San Francisco | 1 | All Maps | STV","players":null},{"server_id":18,"name":"Uncletopia | San Francisco | 2 | All Maps","name_short":"sfo-2","host":"sfo-1.us.uncletopia.com","port":27025,"enabled":true,"region":"us-west","cc":"us","latitude":37.77397,"longitude":-122.4313,"reserved":0,"last_update":"0001-01-01T00:00:00Z","name_a2s":"Uncletopia | San Francisco | 2 | All Maps","protocol":17,"map":"pl_frontier_final","folder":"tf","game":"Team Fortress","app_id":440,"player_count":0,"max_players":24,"Bots":0,"server_type":"Dedicated","server_os":"Linux","password":true,"vac":true,"version":"7961495","steam_id":85568392924470000,"keywords":["nocrits","nodmgspread","payload","uncletopia"],"game_id":440,"stv_port":27026,"stv_name":"Uncletopia | San Francisco | 2 | All Maps | STV","players":null},{"server_id":19,"name":"Uncletopia | San Francisco | 3 | Stopwatch","name_short":"sfo-3","host":"sfo-1.us.uncletopia.com","port":27035,"enabled":true,"region":"us-west","cc":"us","latitude":37.77397,"longitude":-122.4313,"reserved":0,"last_update":"0001-01-01T00:00:00Z","name_a2s":"Uncletopia | San Francisco | 3 | Stopwatch","protocol":17,"map":"pl_pier","folder":"tf","game":"Team Fortress","app_id":440,"player_count":0,"max_players":24,"Bots":0,"server_type":"Dedicated","server_os":"Linux","password":true,"vac":true,"version":"7961495","steam_id":85568392924742824,"keywords":["nocrits","nodmgspread","payload","uncletopia"],"game_id":440,"stv_port":27036,"stv_name":"Uncletopia | San Francisco | 3 | Stopwatch | STV","players":null},{"server_id":20,"name":"Uncletopia | San Francisco | 4 | Community","name_short":"sfo-4","host":"sfo-1.us.uncletopia.com","port":27045,"enabled":true,"region":"us-west","cc":"us","latitude":37.77397,"longitude":-122.4313,"reserved":0,"last_update":"0001-01-01T00:00:00Z","name_a2s":"Uncletopia | San Francisco | 4 | Community","protocol":17,"map":"pl_pier","folder":"tf","game":"Team Fortress","app_id":440,"player_count":0,"max_players":24,"Bots":0,"server_type":"Dedicated","server_os":"Linux","password":true,"vac":true,"version":"7961495","steam_id":85568392924742826,"keywords":["nocrits","nodmgspread","payload","uncletopia"],"game_id":440,"stv_port":27046,"stv_name":"Uncletopia | San Francisco | 4 | Community | STV","players":null},{"server_id":141,"name":"Uncletopia | Sydney | 1 | All Maps","name_short":"syd-1","host":"syd-1.au.uncletopia.com","port":27015,"enabled":true,"region":"au","cc":"au","latitude":-33.865143,"longitude":151.2099,"reserved":0,"last_update":"0001-01-01T00:00:00Z","name_a2s":"Uncletopia | Sydney | 1 | All Maps","protocol":17,"map":"koth_highpass","folder":"tf","game":"Team Fortress","app_id":440,"player_count":0,"max_players":24,"Bots":0,"server_type":"Dedicated","server_os":"Linux","password":true,"vac":true,"version":"7961495","steam_id":85568392924470001,"keywords":["cp","nocrits","nodmgspread","uncletopia"],"game_id":440,"stv_port":27016,"stv_name":"Uncletopia | Sydney | 1 | All Maps | STV","players":null},{"server_id":123,"name":"Uncletopia | Sydney | 2 | All Maps","name_short":"syd-2","host":"syd-1.au.uncletopia.com","port":27025,"enabled":true,"region":"au","cc":"au","latitude":-33.865143,"longitude":151.2099,"reserved":0,"last_update":"0001-01-01T00:00:00Z","name_a2s":"Uncletopia | Sydney | 2 | All Maps","protocol":17,"map":"pl_badwater","folder":"tf","game":"Team Fortress","app_id":440,"player_count":0,"max_players":24,"Bots":0,"server_type":"Dedicated","server_os":"Linux","password":true,"vac":true,"version":"7961495","steam_id":85568392924470002,"keywords":["nocrits","nodmgspread","payload","uncletopia"],"game_id":440,"stv_port":27026,"stv_name":"Uncletopia | Sydney | 2 | All Maps | STV","players":null},{"server_id":395,"name":"Uncletopia | Sydney | 3 | All Maps","name_short":"syd-3","host":"syd-1.au.uncletopia.com","port":27035,"enabled":true,"region":"au","cc":"au","latitude":-33.865143,"longitude":151.2099,"reserved":0,"last_update":"0001-01-01T00:00:00Z","name_a2s":"Uncletopia | Sydney | 3 | All Maps","protocol":17,"map":"koth_viaduct","folder":"tf","game":"Team Fortress","app_id":440,"player_count":0,"max_players":24,"Bots":0,"server_type":"Dedicated","server_os":"Linux","password":true,"vac":true,"version":"7961495","steam_id":85568392925194467,"keywords":["cp","nocrits","nodmgspread","uncletopia"],"game_id":440,"stv_port":27036,"stv_name":"Uncletopia | Sydney | 3 | All Maps | STV","players":null},{"server_id":396,"name":"Uncletopia | Sydney | 4 | All Maps","name_short":"syd-4","host":"syd-1.au.uncletopia.com","port":27045,"enabled":true,"region":"au","cc":"au","latitude":-33.865143,"longitude":151.2099,"reserved":0,"last_update":"0001-01-01T00:00:00Z","name_a2s":"Uncletopia | Sydney | 4 | All Maps","protocol":17,"map":"koth_highpass","folder":"tf","game":"Team Fortress","app_id":440,"player_count":0,"max_players":24,"Bots":0,"server_type":"Dedicated","server_os":"Linux","password":true,"vac":true,"version":"7961495","steam_id":85568392925397958,"keywords":["cp","nocrits","nodmgspread","uncletopia"],"game_id":440,"stv_port":27046,"stv_name":"Uncletopia | Sydney | 4 | All Maps | STV","players":null},{"server_id":58,"name":"Uncletopia | Sydney | 5 | Stopwatch","name_short":"syd-5","host":"syd-1.au.uncletopia.com","port":27055,"enabled":true,"region":"au","cc":"au","latitude":-33.865143,"longitude":151.2099,"reserved":0,"last_update":"0001-01-01T00:00:00Z","name_a2s":"Uncletopia | Sydney | 5 | Stopwatch","protocol":17,"map":"pl_frontier_final","folder":"tf","game":"Team Fortress","app_id":440,"player_count":0,"max_players":24,"Bots":0,"server_type":"Dedicated","server_os":"Linux","password":true,"vac":true,"version":"7961495","steam_id":85568392925397959,"keywords":["nocrits","nodmgspread","payload","uncletopia"],"game_id":440,"stv_port":27056,"stv_name":"Uncletopia | Sydney | 5 | Stopwatch | STV","players":null},{"server_id":59,"name":"Uncletopia | Sydney | 6 | Community","name_short":"syd-6","host":"syd-1.au.uncletopia.com","port":27065,"enabled":true,"region":"au","cc":"au","latitude":-33.865143,"longitude":151.2099,"reserved":0,"last_update":"0001-01-01T00:00:00Z","name_a2s":"Uncletopia | Sydney | 6 | Community","protocol":17,"map":"workshop/koth_product_final.ugc454272353","folder":"tf","game":"Team Fortress","app_id":440,"player_count":0,"max_players":24,"Bots":0,"server_type":"Dedicated","server_os":"Linux","password":true,"vac":true,"version":"7961495","steam_id":85568392925397960,"keywords":["cp","nocrits","nodmgspread","uncletopia"],"game_id":440,"stv_port":27066,"stv_name":"Uncletopia | Sydney | 6 | Community | STV","players":null},{"server_id":49,"name":"Uncletopia | Warsaw | 1 | One Thousand Uncles","name_short":"waw-1","host":"waw-1.pl.uncletopia.com","port":27015,"enabled":true,"region":"eu","cc":"pl","latitude":52.2297,"longitude":21.017532,"reserved":0,"last_update":"0001-01-01T00:00:00Z","name_a2s":"Uncletopia | Warsaw | 1 | One Thousand Uncles","protocol":17,"map":"pl_barnblitz","folder":"tf","game":"Team Fortress","app_id":440,"player_count":27,"max_players":32,"Bots":16,"server_type":"Dedicated","server_os":"Linux","password":true,"vac":true,"version":"7961495","steam_id":85568392925397850,"keywords":["alltalk","bots","danepve","increased_maxplayers","nocrits","norespawntime","payload","uncletopia"],"game_id":440,"stv_port":0,"stv_name":"","players":[{"user_id":235,"name":"please do not the cat","steam_id":76561198089003514,"connected_time":811000000000,"state":"active","ping":59},{"user_id":209,"name":"mr.sans","steam_id":76561199204934004,"connected_time":2150000000000,"state":"active","ping":63},{"user_id":216,"name":"GAJtheSPY","steam_id":76561198256080023,"connected_time":1195000000000,"state":"active","ping":58},{"user_id":172,"name":"Max Power","steam_id":76561198019269089,"connected_time":3871000000000,"state":"active","ping":64},{"user_id":242,"name":"GeraldyJones65","steam_id":76561199122297098,"connected_time":353000000000,"state":"active","ping":149},{"user_id":239,"name":"rickle brick","steam_id":76561199038838510,"connected_time":408000000000,"state":"active","ping":61},{"user_id":208,"name":"Definition Of Sanity","steam_id":76561198078344737,"connected_time":2323000000000,"state":"active","ping":65},{"user_id":240,"name":"N","steam_id":76561198864020887,"connected_time":390000000000,"state":"active","ping":67},{"user_id":241,"name":"Iwshmar","steam_id":76561199270702676,"connected_time":385000000000,"state":"active","ping":168},{"user_id":243,"name":"Loo32","steam_id":76561199094568704,"connected_time":74000000000,"state":"active","ping":65},{"user_id":244,"name":"Samuel L. Jackson","steam_id":76561198130427881,"connected_time":68000000000,"state":"active","ping":174}]},{"server_id":50,"name":"Uncletopia | Warsaw | 2 | One Thousand Uncles","name_short":"waw-2","host":"waw-1.pl.uncletopia.com","port":27025,"enabled":true,"region":"eu","cc":"pl","latitude":52.2297,"longitude":21.017532,"reserved":0,"last_update":"0001-01-01T00:00:00Z","name_a2s":"Uncletopia | Warsaw | 2 | One Thousand Uncles","protocol":17,"map":"pl_goldrush","folder":"tf","game":"Team Fortress","app_id":440,"player_count":20,"max_players":32,"Bots":16,"server_type":"Dedicated","server_os":"Linux","password":true,"vac":true,"version":"7961495","steam_id":85568392925397851,"keywords":["alltalk","bots","danepve","increased_maxplayers","nocrits","norespawntime","payload","uncletopia"],"game_id":440,"stv_port":0,"stv_name":"","players":[{"user_id":46,"name":"TUROK","steam_id":76561199231065766,"connected_time":870000000000,"state":"active","ping":75},{"user_id":23,"name":"Marky","steam_id":76561199474556920,"connected_time":1723000000000,"state":"active","ping":96},{"user_id":44,"name":"Mabert","steam_id":76561198436058407,"connected_time":1432000000000,"state":"active","ping":47},{"user_id":49,"name":"Lukmort","steam_id":76561199191479743,"connected_time":188000000000,"state":"active","ping":51}]},{"server_id":51,"name":"Uncletopia | Warsaw | 3 | All Maps","name_short":"waw-3","host":"waw-1.pl.uncletopia.com","port":27035,"enabled":true,"region":"eu","cc":"pl","latitude":52.2297,"longitude":21.017532,"reserved":0,"last_update":"0001-01-01T00:00:00Z","name_a2s":"Uncletopia | Warsaw | 3 | All Maps","protocol":17,"map":"plr_pipeline","folder":"tf","game":"Team Fortress","app_id":440,"player_count":0,"max_players":24,"Bots":0,"server_type":"Dedicated","server_os":"Linux","password":true,"vac":true,"version":"7961495","steam_id":85568392925397852,"keywords":["nocrits","nodmgspread","payload","uncletopia"],"game_id":440,"stv_port":27036,"stv_name":"Uncletopia | Warsaw | 3 | All Maps | STV","players":null},{"server_id":52,"name":"Uncletopia | Warsaw | 4 | All Maps","name_short":"waw-4","host":"waw-1.pl.uncletopia.com","port":27045,"enabled":true,"region":"eu","cc":"pl","latitude":52.2297,"longitude":21.017532,"reserved":0,"last_update":"0001-01-01T00:00:00Z","name_a2s":"Uncletopia | Warsaw | 4 | All Maps","protocol":17,"map":"pl_borneo","folder":"tf","game":"Team Fortress","app_id":440,"player_count":0,"max_players":24,"Bots":0,"server_type":"Dedicated","server_os":"Linux","password":true,"vac":true,"version":"7961495","steam_id":85568392925397853,"keywords":["nocrits","nodmgspread","payload","uncletopia"],"game_id":440,"stv_port":27046,"stv_name":"Uncletopia | Warsaw | 4 | All Maps | STV","players":null},{"server_id":53,"name":"Uncletopia | Warsaw | 5 | Stopwatch","name_short":"waw-5","host":"waw-1.pl.uncletopia.com","port":27055,"enabled":true,"region":"eu","cc":"pl","latitude":52.2297,"longitude":21.017532,"reserved":0,"last_update":"0001-01-01T00:00:00Z","name_a2s":"Uncletopia | Warsaw | 5 | Stopwatch","protocol":17,"map":"koth_highpass","folder":"tf","game":"Team Fortress","app_id":440,"player_count":0,"max_players":24,"Bots":0,"server_type":"Dedicated","server_os":"Linux","password":true,"vac":true,"version":"7961495","steam_id":85568392925397854,"keywords":["cp","nocrits","nodmgspread","uncletopia"],"game_id":440,"stv_port":27056,"stv_name":"Uncletopia | Warsaw | 5 | Stopwatch | STV","players":null},{"server_id":54,"name":"Uncletopia | Warsaw | 6 | Community","name_short":"waw-6","host":"waw-1.pl.uncletopia.com","port":27065,"enabled":true,"region":"eu","cc":"pl","latitude":52.2297,"longitude":21.017532,"reserved":0,"last_update":"0001-01-01T00:00:00Z","name_a2s":"Uncletopia | Warsaw | 6 | Community","protocol":17,"map":"workshop/koth_synthetic_rc6a.ugc1549817316","folder":"tf","game":"Team Fortress","app_id":440,"player_count":0,"max_players":24,"Bots":0,"server_type":"Dedicated","server_os":"Linux","password":true,"vac":true,"version":"7961495","steam_id":85568392925397856,"keywords":["cp","nocrits","nodmgspread","uncletopia"],"game_id":440,"stv_port":27066,"stv_name":"Uncletopia | Warsaw | 6 | Community | STV","players":null}]}