{"status":true,"message":"","result":[{"server_id":9,"name":"Uncletopia | Atlanta | 1 | All Maps","name_short":"atl-1","host":"atl-1.us.uncletopia.com","port":27015,"enabled":true,"region":"us-east","cc":"us","latitude":33.753746,"longitude":-84.38633,"reserved":0,"last_update":"0001-01-01T00:00:00Z","name_a2s":"Uncletopia | Atlanta | 1 | All Maps","protocol":17,"map":"pl_pier","folder":"tf","game":"Team Fortress","app_id":440,"player_count":24,"max_players":24,"Bots":0,"server_type":"Dedicated","server_os":"Linux","password":true,"vac":true,"version":"7723704","steam_id":85568392924469982,"keywords":["nocrits","nodmgspread","payload","uncletopia"],"game_id":440,"stv_port":27016,"stv_name":"Uncletopia | Atlanta | 1 | All Maps | STV","players":[{"user_id":544,"name":"ATL1 | S4tisfactoree","steam_id":76561198088337557,"connected_time":427000000000,"state":"active","ping":58},{"user_id":521,"name":"ATL0 Dedi Le4n!!!","steam_id":76561198045522596,"connected_time":1444000000000,"state":"active","ping":68},{"user_id":518,"name":"Inky (Coolest)","steam_id":76561198968337022,"connected_time":1861000000000,"state":"active","ping":55},{"user_id":539,"name":"♡Alyx♡","steam_id":76561198024303978,"connected_time":631000000000,"state":"active","ping":70},{"user_id":529,"name":"zabumbo","steam_id":76561198154437495,"connected_time":668000000000,"state":"active","ping":106},{"user_id":540,"name":"ATL1 | J O V A","steam_id":76561198090333536,"connected_time":585000000000,"state":"active","ping":73},{"user_id":500,"name":"ATL1 | Psionic Present","steam_id":76561198151019322,"connected_time":3084000000000,"state":"active","ping":75},{"user_id":506,"name":"APACHE","steam_id":76561198089910625,"connected_time":2707000000000,"state":"active","ping":92},{"user_id":464,"name":"christmas.jimmy.2014","steam_id":76561199177672325,"connected_time":5061000000000,"state":"active","ping":41},{"user_id":507,"name":"ATL1 | a very merry ma0re","steam_id":76561199231971506,"connected_time":2690000000000,"state":"active","ping":73},{"user_id":545,"name":"snoops","steam_id":76561197986760351,"connected_time":426000000000,"state":"active","ping":75},{"user_id":462,"name":"ATL1 | p4ka","steam_id":76561198315291317,"connected_time":5141000000000,"state":"active","ping":80},{"user_id":520,"name":"Festive Fire Starting Rock","steam_id":76561198066547582,"connected_time":1569000000000,"state":"active","ping":108},{"user_id":535,"name":"Omnom143","steam_id":76561198097838265,"connected_time":650000000000,"state":"active","ping":75},{"user_id":483,"name":"knotsofunny","steam_id":76561198071336304,"connected_time":4208000000000,"state":"active","ping":74},{"user_id":515,"name":"McGangBang","steam_id":76561198862379865,"connected_time":2122000000000,"state":"active","ping":101},{"user_id":490,"name":"[txc] milk and cookies","steam_id":76561198127457787,"connected_time":3789000000000,"state":"active","ping":76},{"user_id":495,"name":"qawsrtfvguyhjnmik","steam_id":76561198237371386,"connected_time":3483000000000,"state":"active","ping":79},{"user_id":546,"name":"Dreszerg","steam_id":76561198838757422,"connected_time":426000000000,"state":"active","ping":84},{"user_id":526,"name":"Yukon Cornelius","steam_id":76561198261512781,"connected_time":682000000000,"state":"active","ping":48},{"user_id":491,"name":"Darkdrake","steam_id":76561198107200600,"connected_time":3742000000000,"state":"active","ping":61},{"user_id":459,"name":"festive pork trooper","steam_id":76561198150327877,"connected_time":5163000000000,"state":"active","ping":44},{"user_id":497,"name":"Wolfwu - BUFF THE SPEED","steam_id":76561198864421290,"connected_time":3214000000000,"state":"active","ping":49},{"user_id":538,"name":"glory! glory!","steam_id":76561198311004039,"connected_time":638000000000,"state":"active","ping":87}]},{"server_id":400,"name":"Uncletopia | Atlanta | 3 | All Maps","name_short":"atl-3","host":"atl-1.us.uncletopia.com","port":27035,"enabled":true,"region":"us-east","cc":"us","latitude":33.753746,"longitude":-84.38633,"reserved":0,"last_update":"0001-01-01T00:00:00Z","name_a2s":"Uncletopia | Atlanta | 3 | All Maps","protocol":17,"map":"pl_thundermountain","folder":"tf","game":"Team Fortress","app_id":440,"player_count":23,"max_players":24,"Bots":0,"server_type":"Dedicated","server_os":"Linux","password":true,"vac":true,"version":"7723704","steam_id":85568392924515187,"keywords":["nocrits","nodmgspread","payload","uncletopia"],"game_id":440,"stv_port":27036,"stv_name":"Uncletopia | Atlanta | 3 | All Maps | STV","players":[{"user_id":162,"name":"Devinish","steam_id":76561198024927243,"connected_time":2295000000000,"state":"active","ping":54},{"user_id":155,"name":"creamgravy573","steam_id":76561198093308746,"connected_time":3395000000000,"state":"active","ping":76},{"user_id":170,"name":"Walka","steam_id":76561198074325951,"connected_time":1287000000000,"state":"active","ping":91},{"user_id":180,"name":"erwebomio","steam_id":76561198071152924,"connected_time":27000000000,"state":"spawning","ping":160},{"user_id":159,"name":"ClericsRose","steam_id":76561198011013806,"connected_time":2847000000000,"state":"active","ping":74},{"user_id":111,"name":"Lion","steam_id":76561198848879603,"connected_time":7286000000000,"state":"active","ping":65},{"user_id":174,"name":"slimjim557","steam_id":76561199094710853,"connected_time":694000000000,"state":"active","ping":85},{"user_id":166,"name":"ImmBananaMan","steam_id":76561198109211767,"connected_time":2259000000000,"state":"active","ping":72},{"user_id":175,"name":"FruteBrute","steam_id":76561198803472441,"connected_time":672000000000,"state":"active","ping":75},{"user_id":161,"name":"ZekeThePlumber","steam_id":76561197995016724,"connected_time":2632000000000,"state":"active","ping":75},{"user_id":172,"name":"Rex","steam_id":76561198138365053,"connected_time":1209000000000,"state":"active","ping":117},{"user_id":177,"name":"Dingoid","steam_id":76561198065665995,"connected_time":661000000000,"state":"active","ping":82},{"user_id":169,"name":"he suckin on my rick til i mort","steam_id":76561198310711692,"connected_time":1772000000000,"state":"active","ping":157},{"user_id":176,"name":"A_Malebolgia","steam_id":76561198097722818,"connected_time":667000000000,"state":"active","ping":89},{"user_id":150,"name":"ExperimentalBunny","steam_id":76561198329460312,"connected_time":3609000000000,"state":"active","ping":80},{"user_id":151,"name":"denk","steam_id":76561198049702548,"connected_time":3606000000000,"state":"active","ping":62},{"user_id":152,"name":"Cogenheimer","steam_id":76561198146321550,"connected_time":3605000000000,"state":"active","ping":60},{"user_id":181,"name":"Snake Handler","steam_id":76561198027198306,"connected_time":14000000000,"state":"active","ping":160},{"user_id":153,"name":"Nepeta Gamer","steam_id":76561198964321336,"connected_time":3565000000000,"state":"active","ping":54},{"user_id":118,"name":"hoodie (ball eater)","steam_id":76561198354284591,"connected_time":6970000000000,"state":"active","ping":72},{"user_id":178,"name":"Socialism Doesn't Work","steam_id":76561198044115698,"connected_time":657000000000,"state":"active","ping":74},{"user_id":179,"name":"Warlock","steam_id":76561198801747883,"connected_time":633000000000,"state":"active","ping":103},{"user_id":131,"name":"A Puppy","steam_id":76561198828184456,"connected_time":5592000000000,"state":"active","ping":56}]},{"server_id":401,"name":"Uncletopia | Atlanta | 4 | No Payload","name_short":"atl-4","host":"atl-1.us.uncletopia.com","port":27045,"enabled":true,"region":"us-east","cc":"us","latitude":33.753746,"longitude":-84.38633,"reserved":0,"last_update":"0001-01-01T00:00:00Z","name_a2s":"Uncletopia | Atlanta | 4 | No Payload","protocol":17,"map":"cp_well","folder":"tf","game":"Team Fortress","app_id":440,"player_count":1,"max_players":24,"Bots":0,"server_type":"Dedicated","server_os":"Linux","password":true,"vac":true,"version":"7723704","steam_id":85568392924515188,"keywords":["cp","nocrits","nodmgspread","uncletopia"],"game_id":440,"stv_port":27046,"stv_name":"Uncletopia | Atlanta | 4 | No Payload | STV","players":[{"user_id":16,"name":"Cappy","steam_id":76561199103267418,"connected_time":614000000000,"state":"active","ping":63}]},{"server_id":2,"name":"Uncletopia | Chicago | 1 | All Maps","name_short":"chi-1","host":"chi-1.us.uncletopia.com","port":27015,"enabled":true,"region":"us-central","cc":"us","latitude":41.881832,"longitude":-87.62318,"reserved":0,"last_update":"0001-01-01T00:00:00Z","name_a2s":"Uncletopia | Chicago | 1 | All Maps","protocol":17,"map":"pl_swiftwater_final1","folder":"tf","game":"Team Fortress","app_id":440,"player_count":24,"max_players":24,"Bots":0,"server_type":"Dedicated","server_os":"Linux","password":true,"vac":true,"version":"7723704","steam_id":85568392924469984,"keywords":["nocrits","nodmgspread","payload","uncletopia"],"game_id":440,"stv_port":27016,"stv_name":"Uncletopia | Chicago | 1 | All Maps | STV","players":[{"user_id":517,"name":"Kevin Y.","steam_id":76561198364331423,"connected_time":3400000000000,"state":"active","ping":85},{"user_id":561,"name":"Pixeled","steam_id":76561198088917077,"connected_time":94000000000,"state":"active","ping":78},{"user_id":560,"name":"mineblast99","steam_id":76561199065648954,"connected_time":106000000000,"state":"active","ping":79},{"user_id":530,"name":"Now I'm a Little Motivated","steam_id":76561198069580305,"connected_time":2694000000000,"state":"active","ping":55},{"user_id":549,"name":"worst spy","steam_id":76561198165212575,"connected_time":1261000000000,"state":"active","ping":63},{"user_id":539,"name":"Cooldude_15","steam_id":76561198346713382,"connected_time":2215000000000,"state":"active","ping":41},{"user_id":537,"name":"Local","steam_id":76561198170915102,"connected_time":2351000000000,"state":"active","ping":71},{"user_id":542,"name":"Gerald Jay Sussman","steam_id":76561198114515026,"connected_time":2120000000000,"state":"active","ping":52},{"user_id":545,"name":"this","steam_id":76561198170195505,"connected_time":1324000000000,"state":"active","ping":82},{"user_id":536,"name":"Kitt(eh) ∑:3","steam_id":76561198110858518,"connected_time":2440000000000,"state":"active","ping":55},{"user_id":495,"name":"Le","steam_id":76561198817754233,"connected_time":4462000000000,"state":"active","ping":60},{"user_id":538,"name":"nalezinik","steam_id":76561198030026119,"connected_time":2253000000000,"state":"active","ping":61},{"user_id":558,"name":"Sevfront","steam_id":76561198249207818,"connected_time":144000000000,"state":"active","ping":135},{"user_id":556,"name":"deepmeta","steam_id":76561199053600691,"connected_time":622000000000,"state":"active","ping":51},{"user_id":395,"name":"Ras","steam_id":76561198123546775,"connected_time":11518000000000,"state":"active","ping":62},{"user_id":562,"name":"tres","steam_id":76561198067500833,"connected_time":8000000000,"state":"spawning","ping":64},{"user_id":527,"name":"Shitty Hanzo","steam_id":76561198145431353,"connected_time":2809000000000,"state":"active","ping":57},{"user_id":543,"name":"Dieu-Sama","steam_id":76561198002075862,"connected_time":2038000000000,"state":"active","ping":74},{"user_id":547,"name":"Zubats |TAOZ|","steam_id":76561198041819445,"connected_time":1298000000000,"state":"active","ping":52},{"user_id":513,"name":"Dude Named Bob","steam_id":76561198310448093,"connected_time":3537000000000,"state":"active","ping":47},{"user_id":487,"name":"randomperson88","steam_id":76561199228822173,"connected_time":4725000000000,"state":"active","ping":55},{"user_id":497,"name":"Cleric.UTC.TF2","steam_id":76561198045887994,"connected_time":4297000000000,"state":"active","ping":50},{"user_id":532,"name":"festive Λlxium","steam_id":76561198131272900,"connected_time":2630000000000,"state":"active","ping":48},{"user_id":550,"name":"Lia_Rein(deer)","steam_id":76561198151569597,"connected_time":1238000000000,"state":"active","ping":144}]},{"server_id":106,"name":"Uncletopia | Chicago | 2 | All Maps","name_short":"chi-2","host":"chi-1.us.uncletopia.com","port":27025,"enabled":true,"region":"us-central","cc":"us","latitude":41.881832,"longitude":-87.62318,"reserved":0,"last_update":"0001-01-01T00:00:00Z","name_a2s":"Uncletopia | Chicago | 2 | All Maps","protocol":17,"map":"pl_upward","folder":"tf","game":"Team Fortress","app_id":440,"player_count":24,"max_players":24,"Bots":0,"server_type":"Dedicated","server_os":"Linux","password":true,"vac":true,"version":"7723704","steam_id":85568392924469985,"keywords":["nocrits","nodmgspread","payload","uncletopia"],"game_id":440,"stv_port":27026,"stv_name":"Uncletopia | Chicago | 2 | All Maps | STV","players":[{"user_id":174,"name":"Qrow","steam_id":76561198355935693,"connected_time":1164000000000,"state":"active","ping":47},{"user_id":180,"name":"Shipmunk","steam_id":76561198063062670,"connected_time":1087000000000,"state":"active","ping":55},{"user_id":188,"name":"highwayman","steam_id":76561198148357768,"connected_time":135000000000,"state":"active","ping":61},{"user_id":170,"name":"rubber beast","steam_id":76561198337692867,"connected_time":1232000000000,"state":"active","ping":75},{"user_id":156,"name":"American Dad","steam_id":76561198059711448,"connected_time":2495000000000,"state":"active","ping":67},{"user_id":173,"name":"cheese.","steam_id":76561198093688740,"connected_time":1172000000000,"state":"active","ping":75},{"user_id":177,"name":"McSwingset","steam_id":76561198040417409,"connected_time":1106000000000,"state":"active","ping":56},{"user_id":161,"name":"i suffer from ligma","steam_id":76561199158496518,"connected_time":2417000000000,"state":"active","ping":89},{"user_id":182,"name":"Discourse","steam_id":76561198984286678,"connected_time":950000000000,"state":"active","ping":47},{"user_id":181,"name":"Beanboi","steam_id":76561198977881677,"connected_time":978000000000,"state":"active","ping":65},{"user_id":185,"name":"sasharudzik","steam_id":76561199126617781,"connected_time":482000000000,"state":"active","ping":71},{"user_id":63,"name":"RaddahRaddah","steam_id":76561198194462829,"connected_time":10298000000000,"state":"active","ping":56},{"user_id":178,"name":"Liam Triforce","steam_id":76561198065300748,"connected_time":1104000000000,"state":"active","ping":75},{"user_id":149,"name":"Big T","steam_id":76561199012659182,"connected_time":2698000000000,"state":"active","ping":78},{"user_id":189,"name":"sly1","steam_id":76561198049014977,"connected_time":74000000000,"state":"active","ping":67},{"user_id":142,"name":"Female Gamer","steam_id":76561199366482682,"connected_time":3481000000000,"state":"active","ping":98},{"user_id":179,"name":"Private","steam_id":76561199416393045,"connected_time":1102000000000,"state":"active","ping":104},{"user_id":164,"name":"Yaoza","steam_id":76561198085938030,"connected_time":2086000000000,"state":"active","ping":83},{"user_id":163,"name":"Neil Degrassy","steam_id":76561198132980934,"connected_time":2207000000000,"state":"active","ping":55},{"user_id":143,"name":"ShortenedName","steam_id":76561198079337360,"connected_time":3474000000000,"state":"active","ping":66},{"user_id":187,"name":"stealthy","steam_id":76561198071386492,"connected_time":296000000000,"state":"active","ping":61},{"user_id":145,"name":"w3bd3v","steam_id":76561198077982525,"connected_time":3364000000000,"state":"active","ping":77},{"user_id":166,"name":"Tourmaline Lazuli","steam_id":76561198987049358,"connected_time":1706000000000,"state":"active","ping":48},{"user_id":172,"name":"Cooki","steam_id":76561198051705314,"connected_time":1206000000000,"state":"active","ping":77}]},{"server_id":402,"name":"Uncletopia | Chicago | 3 | All Maps","name_short":"chi-3","host":"chi-1.us.uncletopia.com","port":27035,"enabled":true,"region":"us-central","cc":"us","latitude":41.881832,"longitude":-87.62318,"reserved":0,"last_update":"0001-01-01T00:00:00Z","name_a2s":"Uncletopia | Chicago | 3 | All Maps","protocol":17,"map":"pl_badwater","folder":"tf","game":"Team Fortress","app_id":440,"player_count":23,"max_players":24,"Bots":0,"server_type":"Dedicated","server_os":"Linux","password":true,"vac":true,"version":"7723704","steam_id":85568392924515191,"keywords":["nocrits","nodmgspread","payload","uncletopia"],"game_id":440,"stv_port":27036,"stv_name":"Uncletopia | Chicago | 3 | All Maps | STV","players":[{"user_id":412,"name":"Kipernicus","steam_id":76561197998180212,"connected_time":80000000000,"state":"active","ping":50},{"user_id":386,"name":"bushman","steam_id":76561197996548146,"connected_time":2255000000000,"state":"active","ping":52},{"user_id":413,"name":"the cats name is misty","steam_id":76561198366828434,"connected_time":76000000000,"state":"active","ping":109},{"user_id":379,"name":"Horus","steam_id":76561198166215370,"connected_time":2665000000000,"state":"active","ping":107},{"user_id":366,"name":"ZofoJackson","steam_id":76561197998366861,"connected_time":3668000000000,"state":"active","ping":48},{"user_id":416,"name":"golia","steam_id":76561198000264266,"connected_time":7000000000,"state":"spawning","ping":123},{"user_id":414,"name":"Gordon Freemason.","steam_id":76561199249733628,"connected_time":73000000000,"state":"active","ping":78},{"user_id":397,"name":"impossible whopper from burger ","steam_id":76561198026589960,"connected_time":1740000000000,"state":"active","ping":54},{"user_id":407,"name":"gloryted7","steam_id":76561198182327346,"connected_time":534000000000,"state":"active","ping":94},{"user_id":406,"name":"Octopoda","steam_id":76561199064758232,"connected_time":557000000000,"state":"active","ping":77},{"user_id":400,"name":"rainingmudkips","steam_id":76561198018010854,"connected_time":1579000000000,"state":"active","ping":66},{"user_id":408,"name":"Moonjump","steam_id":76561198094399352,"connected_time":524000000000,"state":"active","ping":62},{"user_id":389,"name":"jolo","steam_id":76561198042831480,"connected_time":2098000000000,"state":"active","ping":65},{"user_id":370,"name":"Assilio","steam_id":76561198371102414,"connected_time":3344000000000,"state":"active","ping":70},{"user_id":409,"name":"floppy muppet","steam_id":76561198003076261,"connected_time":519000000000,"state":"active","ping":85},{"user_id":390,"name":"Tom","steam_id":76561198070630154,"connected_time":2094000000000,"state":"active","ping":88},{"user_id":391,"name":"workin for snapple","steam_id":76561198013732450,"connected_time":2090000000000,"state":"active","ping":48},{"user_id":410,"name":"carrion goat","steam_id":76561198262064871,"connected_time":500000000000,"state":"active","ping":66},{"user_id":394,"name":"peachy","steam_id":76561198026664629,"connected_time":2064000000000,"state":"active","ping":47},{"user_id":415,"name":"Ripheart","steam_id":76561198089661561,"connected_time":58000000000,"state":"active","ping":45},{"user_id":417,"name":"Adam (Cursed Confetti Creature)","steam_id":76561198317690197,"connected_time":1000000000,"state":"spawning","ping":45},{"user_id":398,"name":"Elizabeth truss","steam_id":76561198058250979,"connected_time":1690000000000,"state":"active","ping":64},{"user_id":338,"name":"Ye (I Love Hitler) West","steam_id":76561198068830312,"connected_time":4722000000000,"state":"active","ping":46}]},{"server_id":403,"name":"Uncletopia | Chicago | 4 | All Maps","name_short":"chi-4","host":"chi-1.us.uncletopia.com","port":27045,"enabled":true,"region":"us-central","cc":"us","latitude":41.881832,"longitude":-87.62318,"reserved":0,"last_update":"0001-01-01T00:00:00Z","name_a2s":"Uncletopia | Chicago | 4 | All Maps","protocol":17,"map":"koth_cascade","folder":"tf","game":"Team Fortress","app_id":440,"player_count":0,"max_players":24,"Bots":0,"server_type":"Dedicated","server_os":"Linux","password":true,"vac":true,"version":"7723704","steam_id":85568392924515193,"keywords":["cp","nocrits","nodmgspread","uncletopia"],"game_id":440,"stv_port":27046,"stv_name":"Uncletopia | Chicago | 4 | All Maps | STV","players":null},{"server_id":36,"name":"Uncletopia | Chicago | 5 | All Maps","name_short":"chi-5","host":"chi-2.us.uncletopia.com","port":27015,"enabled":true,"region":"us-central","cc":"us","latitude":41.881832,"longitude":-87.62318,"reserved":0,"last_update":"0001-01-01T00:00:00Z","name_a2s":"Uncletopia | Chicago | 5 | All Maps","protocol":17,"map":"koth_viaduct","folder":"tf","game":"Team Fortress","app_id":440,"player_count":23,"max_players":24,"Bots":0,"server_type":"Dedicated","server_os":"Linux","password":true,"vac":true,"version":"7723704","steam_id":85568392924866362,"keywords":["cp","nocrits","nodmgspread","uncletopia"],"game_id":440,"stv_port":27016,"stv_name":"Uncletopia | Chicago | 5 | All Maps | STV","players":[{"user_id":71,"name":"Kray-Z","steam_id":76561198797699901,"connected_time":4050000000000,"state":"active","ping":70},{"user_id":57,"name":"Cat vs","steam_id":76561198172613013,"connected_time":4737000000000,"state":"active","ping":80},{"user_id":108,"name":"Kamin","steam_id":76561198255299559,"connected_time":2095000000000,"state":"active","ping":85},{"user_id":128,"name":"Halo","steam_id":76561198144909435,"connected_time":839000000000,"state":"active","ping":108},{"user_id":129,"name":"[S]Mr. X [No Monitor]","steam_id":76561197963746035,"connected_time":831000000000,"state":"active","ping":103},{"user_id":126,"name":"[FGCP]EasterEgg","steam_id":76561198074117998,"connected_time":865000000000,"state":"active","ping":78},{"user_id":107,"name":"Kohbold","steam_id":76561198996480140,"connected_time":2212000000000,"state":"active","ping":75},{"user_id":30,"name":"VellFox","steam_id":76561198057514928,"connected_time":5511000000000,"state":"active","ping":75},{"user_id":83,"name":"Jitters","steam_id":76561198078898336,"connected_time":3229000000000,"state":"active","ping":56},{"user_id":109,"name":"Deocks","steam_id":76561198082447113,"connected_time":2051000000000,"state":"active","ping":92},{"user_id":122,"name":"three three","steam_id":76561198177354155,"connected_time":885000000000,"state":"active","ping":66},{"user_id":131,"name":"A Duck Phone!?","steam_id":76561198044707749,"connected_time":731000000000,"state":"active","ping":60},{"user_id":110,"name":"bite of 87 (real NOT CLICKBAIT)","steam_id":76561198045832398,"connected_time":1664000000000,"state":"active","ping":75},{"user_id":113,"name":"A used self heating flesh-light","steam_id":76561198069918221,"connected_time":1546000000000,"state":"active","ping":69},{"user_id":136,"name":"peanut butter","steam_id":76561198117839474,"connected_time":253000000000,"state":"active","ping":74},{"user_id":89,"name":"dog-shaped dog","steam_id":76561198286166220,"connected_time":3096000000000,"state":"active","ping":68},{"user_id":138,"name":"Laft","steam_id":76561198364501558,"connected_time":179000000000,"state":"active","ping":76},{"user_id":96,"name":"CaucasianShaq","steam_id":76561198351623516,"connected_time":2953000000000,"state":"active","ping":80},{"user_id":134,"name":"The Mr. Lunch","steam_id":76561198437703253,"connected_time":620000000000,"state":"active","ping":60},{"user_id":137,"name":"asfd","steam_id":76561198012566405,"connected_time":225000000000,"state":"active","ping":75},{"user_id":139,"name":"Better","steam_id":76561198320786565,"connected_time":140000000000,"state":"active","ping":113},{"user_id":106,"name":"comically large spoon","steam_id":76561198350216657,"connected_time":2251000000000,"state":"active","ping":91},{"user_id":133,"name":"GUINNESS ANYONE?","steam_id":76561197985970131,"connected_time":654000000000,"state":"active","ping":76}]},{"server_id":37,"name":"Uncletopia | Chicago | 6 | All Maps","name_short":"chi-6","host":"chi-2.us.uncletopia.com","port":27025,"enabled":true,"region":"us-central","cc":"us","latitude":41.881832,"longitude":-87.62318,"reserved":0,"last_update":"0001-01-01T00:00:00Z","name_a2s":"Uncletopia | Chicago | 6 | All Maps","protocol":17,"map":"pl_frontier_final","folder":"tf","game":"Team Fortress","app_id":440,"player_count":0,"max_players":24,"Bots":0,"server_type":"Dedicated","server_os":"Linux","password":true,"vac":true,"version":"7723704","steam_id":85568392924866363,"keywords":["nocrits","nodmgspread","payload","uncletopia"],"game_id":440,"stv_port":27026,"stv_name":"Uncletopia | Chicago | 6 | All Maps | STV","players":null},{"server_id":38,"name":"Uncletopia | Chicago | 7 | Stopwatch (test)","name_short":"chi-7","host":"chi-2.us.uncletopia.com","port":27035,"enabled":true,"region":"us-central","cc":"us","latitude":41.881832,"longitude":-87.62318,"reserved":0,"last_update":"0001-01-01T00:00:00Z","name_a2s":"Uncletopia | Chicago | 7 | Stopwatch (test)","protocol":17,"map":"workshop/koth_clearcut_b15.ugc2107050255","folder":"tf","game":"Team Fortress","app_id":440,"player_count":0,"max_players":24,"Bots":0,"server_type":"Dedicated","server_os":"Linux","password":true,"vac":true,"version":"7723704","steam_id":85568392924866364,"keywords":["cp","nocrits","nodmgspread","uncletopia"],"game_id":440,"stv_port":27036,"stv_name":"Uncletopia | Chicago | 7 | Stopwatch (test) | STV","players":null},{"server_id":39,"name":"Uncletopia | Chicago | 8 | Community","name_short":"chi-8","host":"chi-2.us.uncletopia.com","port":27045,"enabled":true,"region":"us-central","cc":"us","latitude":41.881832,"longitude":-87.62318,"reserved":0,"last_update":"0001-01-01T00:00:00Z","name_a2s":"Uncletopia | Chicago | 8 | Community","protocol":17,"map":"pl_frontier_final","folder":"tf","game":"Team Fortress","app_id":440,"player_count":0,"max_players":24,"Bots":0,"server_type":"Dedicated","server_os":"Linux","password":true,"vac":true,"version":"7723704","steam_id":85568392924866365,"keywords":["nocrits","nodmgspread","payload","uncletopia"],"game_id":440,"stv_port":27046,"stv_name":"Uncletopia | Chicago | 8 | Community | STV","players":null},{"server_id":8,"name":"Uncletopia | Dallas | 1 | All Maps","name_short":"dal-1","host":"dal-1.us.uncletopia.com","port":27015,"enabled":true,"region":"us-central","cc":"us","latitude":32.779167,"longitude":-96.80889,"reserved":0,"last_update":"0001-01-01T00:00:00Z","name_a2s":"Uncletopia | Dallas | 1 | All Maps","protocol":17,"map":"pl_snowycoast","folder":"tf","game":"Team Fortress","app_id":440,"player_count":23,"max_players":24,"Bots":0,"server_type":"Dedicated","server_os":"Linux","password":true,"vac":true,"version":"7723704","steam_id":85568392924469986,"keywords":["nocrits","nodmgspread","payload","uncletopia"],"game_id":440,"stv_port":27016,"stv_name":"Uncletopia | Dallas | 1 | All Maps | STV","players":[{"user_id":662,"name":"El Benjador","steam_id":76561198345883103,"connected_time":3389000000000,"state":"active","ping":62},{"user_id":661,"name":"Pump","steam_id":76561198085846167,"connected_time":4192000000000,"state":"active","ping":118},{"user_id":600,"name":"Pennis the Menace","steam_id":76561198254878037,"connected_time":9100000000000,"state":"active","ping":94},{"user_id":702,"name":"chiasaurus","steam_id":76561198108685037,"connected_time":493000000000,"state":"active","ping":69},{"user_id":692,"name":"The Shiv","steam_id":76561198021385778,"connected_time":1584000000000,"state":"active","ping":85},{"user_id":697,"name":"Who's Sandar?","steam_id":76561198097160898,"connected_time":1522000000000,"state":"active","ping":88},{"user_id":665,"name":"DJ Chalice","steam_id":76561197974872458,"connected_time":3329000000000,"state":"active","ping":78},{"user_id":590,"name":"bitmappu","steam_id":76561199000786530,"connected_time":9336000000000,"state":"active","ping":71},{"user_id":708,"name":"ShiYor","steam_id":76561199117260032,"connected_time":311000000000,"state":"active","ping":138},{"user_id":700,"name":"Krow","steam_id":76561198010392099,"connected_time":591000000000,"state":"active","ping":55},{"user_id":678,"name":"2cats_2curious","steam_id":76561198027143149,"connected_time":3097000000000,"state":"active","ping":60},{"user_id":688,"name":"t4rkus","steam_id":76561198233984300,"connected_time":1603000000000,"state":"active","ping":73},{"user_id":689,"name":"The Phoenix Commissar | APP","steam_id":76561198013286146,"connected_time":1596000000000,"state":"active","ping":62},{"user_id":677,"name":"dohnuts","steam_id":76561198025965230,"connected_time":3203000000000,"state":"active","ping":88},{"user_id":694,"name":"Extant Spy","steam_id":76561198241715040,"connected_time":1567000000000,"state":"active","ping":110},{"user_id":687,"name":"Pie","steam_id":76561198054721133,"connected_time":1729000000000,"state":"active","ping":71},{"user_id":691,"name":"BlueBoi2006","steam_id":76561199150475057,"connected_time":1592000000000,"state":"active","ping":57},{"user_id":710,"name":"remedu","steam_id":76561198005152587,"connected_time":274000000000,"state":"active","ping":45},{"user_id":705,"name":"Average Reagan Youth Fan","steam_id":76561198355754259,"connected_time":464000000000,"state":"active","ping":242},{"user_id":711,"name":"Murk","steam_id":76561199214909296,"connected_time":207000000000,"state":"active","ping":78},{"user_id":690,"name":"Whorenet","steam_id":76561198090433209,"connected_time":1596000000000,"state":"active","ping":89},{"user_id":695,"name":"krakowski","steam_id":76561198119536224,"connected_time":1565000000000,"state":"active","ping":76},{"user_id":683,"name":"B.Luga™","steam_id":76561198046473460,"connected_time":2418000000000,"state":"active","ping":71}]},{"server_id":108,"name":"Uncletopia | Dallas | 2 | All Maps","name_short":"dal-2","host":"dal-1.us.uncletopia.com","port":27025,"enabled":true,"region":"us-central","cc":"us","latitude":32.779167,"longitude":-96.80889,"reserved":0,"last_update":"0001-01-01T00:00:00Z","name_a2s":"Uncletopia | Dallas | 2 | All Maps","protocol":17,"map":"pl_coal_event","folder":"tf","game":"Team Fortress","app_id":440,"player_count":19,"max_players":24,"Bots":0,"server_type":"Dedicated","server_os":"Linux","password":true,"vac":true,"version":"7723704","steam_id":85568392924469988,"keywords":["nocrits","nodmgspread","payload","uncletopia"],"game_id":440,"stv_port":27026,"stv_name":"Uncletopia | Dallas | 2 | All Maps | STV","players":[{"user_id":149,"name":"iku","steam_id":76561198847749278,"connected_time":3397000000000,"state":"active","ping":45},{"user_id":228,"name":"maxie!","steam_id":76561197962607364,"connected_time":611000000000,"state":"active","ping":60},{"user_id":243,"name":"Mr.Pan","steam_id":76561198069030613,"connected_time":36000000000,"state":"spawning","ping":80},{"user_id":191,"name":"My controller broke","steam_id":76561198157280577,"connected_time":1827000000000,"state":"active","ping":37},{"user_id":128,"name":"solveig","steam_id":76561198271713106,"connected_time":5293000000000,"state":"active","ping":97},{"user_id":130,"name":"dodecadron","steam_id":76561198027397222,"connected_time":5258000000000,"state":"active","ping":93},{"user_id":178,"name":"Orange bench","steam_id":76561198191269339,"connected_time":2062000000000,"state":"active","ping":81},{"user_id":203,"name":"Wither Maykr","steam_id":76561199076191608,"connected_time":1384000000000,"state":"active","ping":76},{"user_id":174,"name":"Nightfall","steam_id":76561198169718867,"connected_time":2250000000000,"state":"active","ping":108},{"user_id":125,"name":"Lingus Loopus","steam_id":76561198041426868,"connected_time":5561000000000,"state":"active","ping":50},{"user_id":98,"name":"Gundam Guy","steam_id":76561198178453993,"connected_time":7770000000000,"state":"active","ping":81},{"user_id":146,"name":"king shit of fuck mountain","steam_id":76561198044127000,"connected_time":4075000000000,"state":"active","ping":72},{"user_id":133,"name":"hehe :3","steam_id":76561198036901822,"connected_time":5202000000000,"state":"active","ping":46},{"user_id":232,"name":"ascro1233","steam_id":76561199373687619,"connected_time":467000000000,"state":"active","ping":81},{"user_id":244,"name":"???","steam_id":76561198200155343,"connected_time":27000000000,"state":"spawning","ping":44},{"user_id":245,"name":"argidoll","steam_id":76561198383572027,"connected_time":27000000000,"state":"active","ping":71},{"user_id":185,"name":"Akrin","steam_id":76561199254804349,"connected_time":1958000000000,"state":"spawning","ping":61},{"user_id":205,"name":"Tommy Provolone","steam_id":76561198170062377,"connected_time":1317000000000,"state":"active","ping":62},{"user_id":173,"name":"TheGrassMan (He/Him)","steam_id":76561198118984048,"connected_time":2437000000000,"state":"active","ping":77}]},{"server_id":5,"name":"Uncletopia | Frankfurt | 1 | All Maps","name_short":"frk-1","host":"frk-1.de.uncletopia.com","port":27015,"enabled":true,"region":"eu","cc":"de","latitude":50.110924,"longitude":8.682127,"reserved":0,"last_update":"0001-01-01T00:00:00Z","name_a2s":"Uncletopia | Frankfurt | 1 | All Maps","protocol":17,"map":"pl_snowycoast","folder":"tf","game":"Team Fortress","app_id":440,"player_count":24,"max_players":24,"Bots":0,"server_type":"Dedicated","server_os":"Linux","password":true,"vac":true,"version":"7723704","steam_id":85568392924469989,"keywords":["nocrits","nodmgspread","payload","uncletopia"],"game_id":440,"stv_port":27016,"stv_name":"Uncletopia | Frankfurt | 1 | All Maps | STV","players":[{"user_id":651,"name":"E1s","steam_id":76561198894958917,"connected_time":2197000000000,"state":"active","ping":42},{"user_id":654,"name":"your head will collapse","steam_id":76561198439685168,"connected_time":1933000000000,"state":"active","ping":75},{"user_id":580,"name":"nedilya","steam_id":76561198039692077,"connected_time":6671000000000,"state":"active","ping":46},{"user_id":644,"name":"lettuce at 58p","steam_id":76561199401283123,"connected_time":2345000000000,"state":"active","ping":63},{"user_id":657,"name":"mercedes ben","steam_id":76561198000147423,"connected_time":1318000000000,"state":"active","ping":52},{"user_id":656,"name":"snaake","steam_id":76561198097712283,"connected_time":1348000000000,"state":"active","ping":88},{"user_id":645,"name":"etc","steam_id":76561197998394797,"connected_time":2308000000000,"state":"active","ping":59},{"user_id":662,"name":"Polygunner","steam_id":76561199165741650,"connected_time":283000000000,"state":"active","ping":138},{"user_id":582,"name":"Proto-arc","steam_id":76561198012776747,"connected_time":6611000000000,"state":"active","ping":59},{"user_id":659,"name":"rat performance","steam_id":76561198065854668,"connected_time":467000000000,"state":"active","ping":59},{"user_id":591,"name":"Chicanery","steam_id":76561198068213670,"connected_time":6283000000000,"state":"active","ping":57},{"user_id":635,"name":"Quake 1 CTF","steam_id":76561197989948359,"connected_time":2872000000000,"state":"active","ping":81},{"user_id":640,"name":"squib","steam_id":76561198049170360,"connected_time":2678000000000,"state":"active","ping":59},{"user_id":653,"name":"wieto","steam_id":76561198050626427,"connected_time":1956000000000,"state":"active","ping":60},{"user_id":658,"name":"Buried Alive","steam_id":76561198367800260,"connected_time":1216000000000,"state":"active","ping":63},{"user_id":646,"name":"SacAlaVista","steam_id":76561198076481725,"connected_time":2305000000000,"state":"active","ping":81},{"user_id":605,"name":"Vershal Smershal","steam_id":76561198116223995,"connected_time":5742000000000,"state":"active","ping":60},{"user_id":641,"name":"murderfucker","steam_id":76561198038753296,"connected_time":2434000000000,"state":"active","ping":79},{"user_id":661,"name":"JugoTopia","steam_id":76561197996067209,"connected_time":422000000000,"state":"active","ping":158},{"user_id":655,"name":"MOLITOV","steam_id":76561198392150484,"connected_time":1435000000000,"state":"active","ping":81},{"user_id":660,"name":"Vitamin Weee","steam_id":76561199183937747,"connected_time":434000000000,"state":"active","ping":77},{"user_id":638,"name":"BD[PL]","steam_id":76561198115995871,"connected_time":2688000000000,"state":"active","ping":88},{"user_id":642,"name":"Everlife","steam_id":76561199133144948,"connected_time":2407000000000,"state":"active","ping":57}]},{"server_id":110,"name":"Uncletopia | Frankfurt | 2 | All Maps","name_short":"frk-2","host":"frk-1.de.uncletopia.com","port":27025,"enabled":true,"region":"eu","cc":"de","latitude":50.110924,"longitude":8.682127,"reserved":0,"last_update":"0001-01-01T00:00:00Z","name_a2s":"Uncletopia | Frankfurt | 2 | All Maps","protocol":17,"map":"cp_dustbowl","folder":"tf","game":"Team Fortress","app_id":440,"player_count":0,"max_players":24,"Bots":0,"server_type":"Dedicated","server_os":"Linux","password":true,"vac":true,"version":"7723704","steam_id":85568392924469990,"keywords":["cp","nocrits","nodmgspread","uncletopia"],"game_id":440,"stv_port":27026,"stv_name":"Uncletopia | Frankfurt | 2 | All Maps | STV","players":null},{"server_id":308,"name":"Uncletopia | Frankfurt | 3 | All Maps","name_short":"frk-3","host":"frk-1.de.uncletopia.com","port":27035,"enabled":true,"region":"eu","cc":"de","latitude":50.110924,"longitude":8.682127,"reserved":0,"last_update":"0001-01-01T00:00:00Z","name_a2s":"Uncletopia | Frankfurt | 3 | All Maps","protocol":17,"map":"koth_cascade","folder":"tf","game":"Team Fortress","app_id":440,"player_count":0,"max_players":24,"Bots":0,"server_type":"Dedicated","server_os":"Linux","password":true,"vac":true,"version":"7723704","steam_id":85568392924504274,"keywords":["cp","nocrits","nodmgspread","uncletopia"],"game_id":440,"stv_port":27036,"stv_name":"Uncletopia | Frankfurt | 3 | All Maps | STV","players":null},{"server_id":309,"name":"Uncletopia | Frankfurt | 4 | All Maps","name_short":"frk-4","host":"frk-1.de.uncletopia.com","port":27045,"enabled":true,"region":"eu","cc":"de","latitude":50.110924,"longitude":8.682127,"reserved":0,"last_update":"0001-01-01T00:00:00Z","name_a2s":"Uncletopia | Frankfurt | 4 | All Maps","protocol":17,"map":"koth_lakeside_final","folder":"tf","game":"Team Fortress","app_id":440,"player_count":0,"max_players":24,"Bots":0,"server_type":"Dedicated","server_os":"Linux","password":true,"vac":true,"version":"7723704","steam_id":85568392924504275,"keywords":["cp","nocrits","nodmgspread","uncletopia"],"game_id":440,"stv_port":27046,"stv_name":"Uncletopia | Frankfurt | 4 | All Maps | STV","players":null},{"server_id":310,"name":"Uncletopia | Frankfurt | 5 | All Maps","name_short":"frk-5","host":"frk-1.de.uncletopia.com","port":27055,"enabled":true,"region":"eu","cc":"de","latitude":50.110924,"longitude":8.682127,"reserved":0,"last_update":"0001-01-01T00:00:00Z","name_a2s":"Uncletopia | Frankfurt | 5 | All Maps","protocol":17,"map":"plr_hightower","folder":"tf","game":"Team Fortress","app_id":440,"player_count":0,"max_players":24,"Bots":0,"server_type":"Dedicated","server_os":"Linux","password":true,"vac":true,"version":"7723704","steam_id":85568392924504277,"keywords":["nocrits","nodmgspread","payload","uncletopia"],"game_id":440,"stv_port":27056,"stv_name":"Uncletopia | Frankfurt | 5 | All Maps | STV","players":null},{"server_id":311,"name":"Uncletopia | Frankfurt | 6 | All Maps","name_short":"frk-6","host":"frk-1.de.uncletopia.com","port":27065,"enabled":true,"region":"eu","cc":"de","latitude":50.110924,"longitude":8.682127,"reserved":0,"last_update":"0001-01-01T00:00:00Z","name_a2s":"Uncletopia | Frankfurt | 6 | All Maps","protocol":17,"map":"pl_frontier_final","folder":"tf","game":"Team Fortress","app_id":440,"player_count":0,"max_players":24,"Bots":0,"server_type":"Dedicated","server_os":"Linux","password":true,"vac":true,"version":"7723704","steam_id":85568392924504278,"keywords":["nocrits","nodmgspread","payload","uncletopia"],"game_id":440,"stv_port":27066,"stv_name":"Uncletopia | Frankfurt | 6 | All Maps | STV","players":null},{"server_id":23,"name":"Uncletopia | Frankfurt | 7 | No Payload","name_short":"frk-7","host":"frk-1.de.uncletopia.com","port":27075,"enabled":true,"region":"eu","cc":"de","latitude":50.110924,"longitude":8.682127,"reserved":0,"last_update":"0001-01-01T00:00:00Z","name_a2s":"Uncletopia | Frankfurt | 7 | No Payload","protocol":17,"map":"cp_mountainlab","folder":"tf","game":"Team Fortress","app_id":440,"player_count":0,"max_players":24,"Bots":0,"server_type":"Dedicated","server_os":"Linux","password":true,"vac":true,"version":"7723704","steam_id":85568392924742827,"keywords":["cp","nocrits","nodmgspread","uncletopia"],"game_id":440,"stv_port":27076,"stv_name":"Uncletopia | Frankfurt | 7 | No Payload | STV","players":null},{"server_id":24,"name":"Uncletopia | Frankfurt | 8 | Community","name_short":"frk-8","host":"frk-1.de.uncletopia.com","port":27085,"enabled":true,"region":"eu","cc":"de","latitude":50.110924,"longitude":8.682127,"reserved":0,"last_update":"0001-01-01T00:00:00Z","name_a2s":"Uncletopia | Frankfurt | 8 | Community","protocol":17,"map":"workshop/cp_sulfur_rc2.ugc619869471","folder":"tf","game":"Team Fortress","app_id":440,"player_count":0,"max_players":24,"Bots":0,"server_type":"Dedicated","server_os":"Linux","password":true,"vac":true,"version":"7723704","steam_id":85568392924742828,"keywords":["cp","nocrits","nodmgspread","uncletopia"],"game_id":440,"stv_port":27086,"stv_name":"Uncletopia | Frankfurt | 8 | Community | STV","players":null},{"server_id":202,"name":"Uncletopia | Hong Kong | 1 | All Maps","name_short":"hgk-1","host":"hgk-1.hk.uncletopia.com","port":27015,"enabled":true,"region":"asia","cc":"hk","latitude":22.302711,"longitude":114.177216,"reserved":0,"last_update":"0001-01-01T00:00:00Z","name_a2s":"Uncletopia | Hong Kong | 1 | All Maps","protocol":17,"map":"koth_viaduct","folder":"tf","game":"Team Fortress","app_id":440,"player_count":0,"max_players":24,"Bots":0,"server_type":"Dedicated","server_os":"Linux","password":true,"vac":true,"version":"7723704","steam_id":85568392924494504,"keywords":["cp","nocrits","nodmgspread","uncletopia"],"game_id":440,"stv_port":27016,"stv_name":"Uncletopia | Hong Kong | 1 | All Maps | STV","players":null},{"server_id":1,"name":"Uncletopia | Los Angeles | 1 | All Maps","name_short":"lax-1","host":"lax-1.us.uncletopia.com","port":27015,"enabled":true,"region":"us-west","cc":"us","latitude":33.94279,"longitude":-118.41004,"reserved":0,"last_update":"0001-01-01T00:00:00Z","name_a2s":"Uncletopia | Los Angeles | 1 | All Maps","protocol":17,"map":"cp_snakewater_final1","folder":"tf","game":"Team Fortress","app_id":440,"player_count":24,"max_players":24,"Bots":0,"server_type":"Dedicated","server_os":"Linux","password":true,"vac":true,"version":"7723704","steam_id":85568392924469991,"keywords":["cp","nocrits","nodmgspread","uncletopia"],"game_id":440,"stv_port":27016,"stv_name":"Uncletopia | Los Angeles | 1 | All Maps | STV","players":[{"user_id":82,"name":"MineAGK","steam_id":76561198128372943,"connected_time":893000000000,"state":"active","ping":125},{"user_id":81,"name":"Huntpk","steam_id":76561198340591674,"connected_time":906000000000,"state":"active","ping":99},{"user_id":43,"name":"Ninjalion245","steam_id":76561198376605350,"connected_time":2076000000000,"state":"active","ping":173},{"user_id":83,"name":"blowdie","steam_id":76561198050000610,"connected_time":788000000000,"state":"active","ping":73},{"user_id":45,"name":"Timebomb2134","steam_id":76561199065629825,"connected_time":2017000000000,"state":"active","ping":54},{"user_id":75,"name":"craxytavi","steam_id":76561198050192689,"connected_time":1009000000000,"state":"active","ping":53},{"user_id":89,"name":"Anorexic Gamer","steam_id":76561199033746817,"connected_time":583000000000,"state":"active","ping":122},{"user_id":93,"name":"Rollos","steam_id":76561198168926747,"connected_time":157000000000,"state":"active","ping":144},{"user_id":50,"name":"Professor Piper","steam_id":76561198156041205,"connected_time":1772000000000,"state":"active","ping":100},{"user_id":52,"name":"BowlzingShoes","steam_id":76561199127110073,"connected_time":1685000000000,"state":"active","ping":120},{"user_id":65,"name":"NotAWeeb","steam_id":76561198165530739,"connected_time":1578000000000,"state":"active","ping":45},{"user_id":54,"name":"Alpharius","steam_id":76561198044479864,"connected_time":1666000000000,"state":"active","ping":93},{"user_id":55,"name":"Shark Mechanicus","steam_id":76561198032392438,"connected_time":1661000000000,"state":"active","ping":110},{"user_id":90,"name":"flo rida","steam_id":76561198226169704,"connected_time":172000000000,"state":"active","ping":48},{"user_id":80,"name":"BRUH","steam_id":76561198037464856,"connected_time":922000000000,"state":"active","ping":90},{"user_id":92,"name":"Reem0h","steam_id":76561198169848690,"connected_time":171000000000,"state":"active","ping":115},{"user_id":86,"name":"BigPepperoni","steam_id":76561198891731663,"connected_time":708000000000,"state":"active","ping":109},{"user_id":63,"name":"DeathToCats","steam_id":76561198092238353,"connected_time":1600000000000,"state":"active","ping":78},{"user_id":87,"name":"SomeGamer","steam_id":76561199046743995,"connected_time":677000000000,"state":"active","ping":105},{"user_id":66,"name":"cup","steam_id":76561198121245586,"connected_time":1551000000000,"state":"active","ping":76},{"user_id":67,"name":"Roz257","steam_id":76561198842844532,"connected_time":1517000000000,"state":"active","ping":123},{"user_id":79,"name":"Sleepy Brady","steam_id":76561198867378129,"connected_time":939000000000,"state":"active","ping":109},{"user_id":69,"name":"TomTheBomb061","steam_id":76561199178716418,"connected_time":1497000000000,"state":"active","ping":118},{"user_id":73,"name":"stan the man","steam_id":76561199103281404,"connected_time":1236000000000,"state":"active","ping":78}]},{"server_id":112,"name":"Uncletopia | Los Angeles | 2 | All Maps","name_short":"lax-2","host":"lax-1.us.uncletopia.com","port":27025,"enabled":true,"region":"us-west","cc":"us","latitude":33.94279,"longitude":-118.41004,"reserved":0,"last_update":"0001-01-01T00:00:00Z","name_a2s":"Uncletopia | Los Angeles | 2 | All Maps","protocol":17,"map":"pl_snowycoast","folder":"tf","game":"Team Fortress","app_id":440,"player_count":0,"max_players":24,"Bots":0,"server_type":"Dedicated","server_os":"Linux","password":true,"vac":true,"version":"7723704","steam_id":85568392924469992,"keywords":["nocrits","nodmgspread","payload","uncletopia"],"game_id":440,"stv_port":27026,"stv_name":"Uncletopia | Los Angeles | 2 | All Maps | STV","players":null},{"server_id":324,"name":"Uncletopia | Los Angeles | 3 | All Maps","name_short":"lax-3","host":"lax-1.us.uncletopia.com","port":27035,"enabled":true,"region":"us-west","cc":"us","latitude":33.94279,"longitude":-118.41004,"reserved":0,"last_update":"0001-01-01T00:00:00Z","name_a2s":"Uncletopia | Los Angeles | 3 | All Maps","protocol":17,"map":"pl_frontier_final","folder":"tf","game":"Team Fortress","app_id":440,"player_count":23,"max_players":24,"Bots":0,"server_type":"Dedicated","server_os":"Linux","password":true,"vac":true,"version":"7723704","steam_id":85568392924510198,"keywords":["nocrits","nodmgspread","payload","uncletopia"],"game_id":440,"stv_port":27036,"stv_name":"Uncletopia | Los Angeles | 3 | All Maps | STV","players":[{"user_id":138,"name":"sentient soup","steam_id":76561198887503216,"connected_time":189000000000,"state":"active","ping":119},{"user_id":132,"name":"CSharp","steam_id":76561199185191710,"connected_time":683000000000,"state":"active","ping":102},{"user_id":133,"name":"Noelle Holiday","steam_id":76561198359994674,"connected_time":550000000000,"state":"active","ping":104},{"user_id":120,"name":"Fajita Master","steam_id":76561198329150962,"connected_time":1513000000000,"state":"active","ping":100},{"user_id":134,"name":"Pyro TF2","steam_id":76561199103122686,"connected_time":521000000000,"state":"active","ping":84},{"user_id":130,"name":"quatelhelix","steam_id":76561198066708113,"connected_time":798000000000,"state":"active","ping":112},{"user_id":125,"name":"big bertha","steam_id":76561198441032143,"connected_time":1278000000000,"state":"active","ping":62},{"user_id":122,"name":"zonk","steam_id":76561198207253121,"connected_time":1323000000000,"state":"active","ping":48},{"user_id":56,"name":"Tmiracle","steam_id":76561198052375275,"connected_time":4889000000000,"state":"active","ping":44},{"user_id":110,"name":"45 Cent","steam_id":76561198048690188,"connected_time":2028000000000,"state":"active","ping":116},{"user_id":102,"name":"Mr. Ruckus","steam_id":76561198339566190,"connected_time":2399000000000,"state":"active","ping":119},{"user_id":103,"name":"Splash Bandicoot","steam_id":76561198084469855,"connected_time":2385000000000,"state":"active","ping":167},{"user_id":123,"name":"spacetoven","steam_id":76561198115821131,"connected_time":1313000000000,"state":"active","ping":60},{"user_id":139,"name":"engie","steam_id":76561199229629045,"connected_time":168000000000,"state":"active","ping":96},{"user_id":140,"name":"Fish Lambert","steam_id":76561198098279668,"connected_time":168000000000,"state":"active","ping":60},{"user_id":141,"name":"thefruitloop","steam_id":76561199059988765,"connected_time":159000000000,"state":"active","ping":113},{"user_id":129,"name":"Lets dance to the real thing","steam_id":76561198175955138,"connected_time":850000000000,"state":"active","ping":59},{"user_id":119,"name":"ToughGuy311","steam_id":76561198131458027,"connected_time":1573000000000,"state":"active","ping":118},{"user_id":128,"name":"MayoMateo","steam_id":76561198360809933,"connected_time":865000000000,"state":"active","ping":58},{"user_id":106,"name":"Medical Asshat","steam_id":76561198004584315,"connected_time":2296000000000,"state":"active","ping":98},{"user_id":92,"name":"June","steam_id":76561198141803658,"connected_time":2861000000000,"state":"active","ping":54},{"user_id":107,"name":"❤♡･ﾟBubbles･ﾟ♡❤","steam_id":76561198041057042,"connected_time":2289000000000,"state":"active","ping":101},{"user_id":137,"name":"chiarraz","steam_id":76561198277439571,"connected_time":315000000000,"state":"active","ping":87}]},{"server_id":25,"name":"Uncletopia | Los Angeles | 4 | No Payload","name_short":"lax-4","host":"lax-1.us.uncletopia.com","port":27045,"enabled":true,"region":"us-west","cc":"us","latitude":33.94279,"longitude":-118.41004,"reserved":0,"last_update":"0001-01-01T00:00:00Z","name_a2s":"Uncletopia | Los Angeles | 4 | No Payload","protocol":17,"map":"cp_mountainlab","folder":"tf","game":"Team Fortress","app_id":440,"player_count":0,"max_players":24,"Bots":0,"server_type":"Dedicated","server_os":"Linux","password":true,"vac":true,"version":"7723704","steam_id":85568392924510199,"keywords":["cp","nocrits","nodmgspread","uncletopia"],"game_id":440,"stv_port":27046,"stv_name":"Uncletopia | Los Angeles | 4 | No Payload | STV","players":null},{"server_id":11,"name":"Uncletopia | London | 1 | All Maps","name_short":"lon-1","host":"lon-1.uk.uncletopia.com","port":27015,"enabled":true,"region":"eu","cc":"gb","latitude":51.509865,"longitude":-0.118092,"reserved":0,"last_update":"0001-01-01T00:00:00Z","name_a2s":"Uncletopia | London | 1 | All Maps","protocol":17,"map":"koth_lakeside_final","folder":"tf","game":"Team Fortress","app_id":440,"player_count":1,"max_players":24,"Bots":0,"server_type":"Dedicated","server_os":"Linux","password":true,"vac":true,"version":"7723704","steam_id":85568392924367362,"keywords":["cp","nocrits","nodmgspread","uncletopia"],"game_id":440,"stv_port":27016,"stv_name":"Uncletopia | London | 1 | All Maps | STV","players":[{"user_id":614,"name":"survived from ohio","steam_id":76561199426287786,"connected_time":103000000000,"state":"active","ping":123}]},{"server_id":114,"name":"Uncletopia | London | 2 | All Maps","name_short":"lon-2","host":"lon-1.uk.uncletopia.com","port":27025,"enabled":true,"region":"eu","cc":"gb","latitude":51.509865,"longitude":-0.118092,"reserved":0,"last_update":"0001-01-01T00:00:00Z","name_a2s":"Uncletopia | London | 2 | All Maps","protocol":17,"map":"pl_upward","folder":"tf","game":"Team Fortress","app_id":440,"player_count":21,"max_players":24,"Bots":0,"server_type":"Dedicated","server_os":"Linux","password":true,"vac":true,"version":"7723704","steam_id":85568392924470941,"keywords":["nocrits","nodmgspread","payload","uncletopia"],"game_id":440,"stv_port":27026,"stv_name":"Uncletopia | London | 2 | All Maps | STV","players":[{"user_id":327,"name":"engie?","steam_id":76561198331852832,"connected_time":3198000000000,"state":"active","ping":69},{"user_id":380,"name":"medick","steam_id":76561199380849468,"connected_time":18000000000,"state":"active","ping":64},{"user_id":337,"name":"cinny","steam_id":76561198832112629,"connected_time":2842000000000,"state":"active","ping":81},{"user_id":378,"name":"shenanigan","steam_id":76561198043452925,"connected_time":232000000000,"state":"active","ping":81},{"user_id":375,"name":"Continue?]","steam_id":76561199174579733,"connected_time":421000000000,"state":"active","ping":138},{"user_id":376,"name":"a festive pile of cans","steam_id":76561198248819872,"connected_time":377000000000,"state":"active","ping":158},{"user_id":348,"name":"Shiny Klawf","steam_id":76561198248380406,"connected_time":1996000000000,"state":"active","ping":58},{"user_id":332,"name":"business man","steam_id":76561198048250715,"connected_time":3032000000000,"state":"active","ping":60},{"user_id":323,"name":"saus","steam_id":76561198114729364,"connected_time":3645000000000,"state":"active","ping":59},{"user_id":374,"name":"Kanny","steam_id":76561198058810184,"connected_time":532000000000,"state":"active","ping":52},{"user_id":369,"name":"outlaw","steam_id":76561198323805289,"connected_time":1159000000000,"state":"active","ping":29},{"user_id":246,"name":"Samus","steam_id":76561198045943019,"connected_time":8662000000000,"state":"active","ping":59},{"user_id":351,"name":"peruna","steam_id":76561198000721196,"connected_time":1642000000000,"state":"active","ping":74},{"user_id":361,"name":"vexo","steam_id":76561198186680410,"connected_time":1355000000000,"state":"active","ping":44},{"user_id":357,"name":"r0la","steam_id":76561198128315340,"connected_time":1441000000000,"state":"active","ping":62},{"user_id":379,"name":"h4ri","steam_id":76561198811639784,"connected_time":231000000000,"state":"active","ping":45},{"user_id":247,"name":"TurboTabs","steam_id":76561198009785131,"connected_time":8651000000000,"state":"active","ping":50},{"user_id":362,"name":"name","steam_id":76561198152620745,"connected_time":1352000000000,"state":"active","ping":51},{"user_id":364,"name":"kokii","steam_id":76561198164675078,"connected_time":1322000000000,"state":"active","ping":37},{"user_id":366,"name":"Malsi","steam_id":76561199061284165,"connected_time":1271000000000,"state":"active","ping":84},{"user_id":368,"name":"murf","steam_id":76561199184831395,"connected_time":1226000000000,"state":"active","ping":44}]},{"server_id":320,"name":"Uncletopia | London | 3 | All Maps","name_short":"lon-3","host":"lon-1.uk.uncletopia.com","port":27035,"enabled":true,"region":"eu","cc":"gb","latitude":51.509865,"longitude":-0.118092,"reserved":0,"last_update":"0001-01-01T00:00:00Z","name_a2s":"Uncletopia | London | 3 | All Maps","protocol":17,"map":"cp_dustbowl","folder":"tf","game":"Team Fortress","app_id":440,"player_count":0,"max_players":24,"Bots":0,"server_type":"Dedicated","server_os":"Linux","password":true,"vac":true,"version":"7723704","steam_id":85568392924510192,"keywords":["cp","nocrits","nodmgspread","uncletopia"],"game_id":440,"stv_port":27036,"stv_name":"Uncletopia | London | 3 | All Maps | STV","players":null},{"server_id":321,"name":"Uncletopia | London | 4 | All Maps","name_short":"lon-4","host":"lon-1.uk.uncletopia.com","port":27045,"enabled":true,"region":"eu","cc":"gb","latitude":51.509865,"longitude":-0.118092,"reserved":0,"last_update":"0001-01-01T00:00:00Z","name_a2s":"Uncletopia | London | 4 | All Maps","protocol":17,"map":"koth_cascade","folder":"tf","game":"Team Fortress","app_id":440,"player_count":0,"max_players":24,"Bots":0,"server_type":"Dedicated","server_os":"Linux","password":true,"vac":true,"version":"7723704","steam_id":85568392924510193,"keywords":["cp","nocrits","nodmgspread","uncletopia"],"game_id":440,"stv_port":27046,"stv_name":"Uncletopia | London | 4 | All Maps | STV","players":null},{"server_id":21,"name":"Uncletopia | London | 5 | All Maps","name_short":"lon-5","host":"lon-1.uk.uncletopia.com","port":27055,"enabled":true,"region":"eu","cc":"gb","latitude":51.509865,"longitude":-0.118092,"reserved":0,"last_update":"0001-01-01T00:00:00Z","name_a2s":"Uncletopia | London | 5 | All Maps","protocol":17,"map":"koth_lakeside_final","folder":"tf","game":"Team Fortress","app_id":440,"player_count":0,"max_players":24,"Bots":0,"server_type":"Dedicated","server_os":"Linux","password":true,"vac":true,"version":"7723704","steam_id":85568392924742829,"keywords":["cp","nocrits","nodmgspread","uncletopia"],"game_id":440,"stv_port":27056,"stv_name":"Uncletopia | London | 5 | All Maps | STV","players":null},{"server_id":22,"name":"Uncletopia | London | 6 | All Maps","name_short":"lon-6","host":"lon-1.uk.uncletopia.com","port":27065,"enabled":true,"region":"eu","cc":"gb","latitude":51.509865,"longitude":-0.118092,"reserved":0,"last_update":"0001-01-01T00:00:00Z","name_a2s":"Uncletopia | London | 6 | All Maps","protocol":17,"map":"cp_dustbowl","folder":"tf","game":"Team Fortress","app_id":440,"player_count":0,"max_players":24,"Bots":0,"server_type":"Dedicated","server_os":"Linux","password":true,"vac":true,"version":"7723704","steam_id":85568392924742830,"keywords":["cp","nocrits","nodmgspread","uncletopia"],"game_id":440,"stv_port":27066,"stv_name":"Uncletopia | London | 6 | All Maps | STV","players":null},{"server_id":40,"name":"Uncletopia | London | 7 | No Payload","name_short":"lon-7","host":"lon-1.uk.uncletopia.com","port":27075,"enabled":true,"region":"eu","cc":"gb","latitude":51.509865,"longitude":-0.118092,"reserved":0,"last_update":"0001-01-01T00:00:00Z","name_a2s":"Uncletopia | London | 7 | No Payload","protocol":17,"map":"koth_cascade","folder":"tf","game":"Team Fortress","app_id":440,"player_count":0,"max_players":24,"Bots":0,"server_type":"Dedicated","server_os":"Linux","password":true,"vac":true,"version":"7723704","steam_id":85568392924964314,"keywords":["cp","nocrits","nodmgspread","uncletopia"],"game_id":440,"stv_port":27076,"stv_name":"Uncletopia | London | 7 | No Payload | STV","players":null},{"server_id":41,"name":"Uncletopia | London | 8 | Community","name_short":"lon-8","host":"lon-1.uk.uncletopia.com","port":27085,"enabled":true,"region":"eu","cc":"gb","latitude":51.509865,"longitude":-0.118092,"reserved":0,"last_update":"0001-01-01T00:00:00Z","name_a2s":"Uncletopia | London | 8 | Community","protocol":17,"map":"workshop/koth_ramjam_v2_b2.ugc2865676487","folder":"tf","game":"Team Fortress","app_id":440,"player_count":0,"max_players":24,"Bots":0,"server_type":"Dedicated","server_os":"Linux","password":true,"vac":true,"version":"7723704","steam_id":85568392924964315,"keywords":["cp","nocrits","nodmgspread","uncletopia"],"game_id":440,"stv_port":27086,"stv_name":"Uncletopia | London | 8 | Community | STV","players":null},{"server_id":300,"name":"Uncletopia | Montréal | 1 | All Maps","name_short":"mtl-1","host":"mtl-1.ca.uncletopia.com","port":27015,"enabled":true,"region":"us-east","cc":"ca","latitude":45.50889,"longitude":-73.56167,"reserved":0,"last_update":"0001-01-01T00:00:00Z","name_a2s":"Uncletopia | Montréal | 1 | All Maps","protocol":17,"map":"koth_highpass","folder":"tf","game":"Team Fortress","app_id":440,"player_count":0,"max_players":24,"Bots":0,"server_type":"Dedicated","server_os":"Linux","password":true,"vac":true,"version":"7723704","steam_id":85568392924500087,"keywords":["cp","nocrits","nodmgspread","uncletopia"],"game_id":440,"stv_port":27016,"stv_name":"Uncletopia | Montréal | 1 | All Maps | STV","players":null},{"server_id":301,"name":"Uncletopia | Montréal | 2 | All Maps","name_short":"mtl-2","host":"mtl-1.ca.uncletopia.com","port":27025,"enabled":true,"region":"us-east","cc":"ca","latitude":45.50889,"longitude":-73.56167,"reserved":0,"last_update":"0001-01-01T00:00:00Z","name_a2s":"Uncletopia | Montréal | 2 | All Maps","protocol":17,"map":"cp_sunshine","folder":"tf","game":"Team Fortress","app_id":440,"player_count":0,"max_players":24,"Bots":0,"server_type":"Dedicated","server_os":"Linux","password":true,"vac":true,"version":"7723704","steam_id":85568392924500088,"keywords":["cp","nocrits","nodmgspread","uncletopia"],"game_id":440,"stv_port":27026,"stv_name":"Uncletopia | Montréal | 2 | All Maps | STV","players":null},{"server_id":302,"name":"Uncletopia | Montréal | 3 | All Maps","name_short":"mtl-3","host":"mtl-1.ca.uncletopia.com","port":27035,"enabled":true,"region":"us-east","cc":"ca","latitude":45.50889,"longitude":-73.56167,"reserved":0,"last_update":"0001-01-01T00:00:00Z","name_a2s":"Uncletopia | Montréal | 3 | All Maps","protocol":17,"map":"cp_dustbowl","folder":"tf","game":"Team Fortress","app_id":440,"player_count":0,"max_players":24,"Bots":0,"server_type":"Dedicated","server_os":"Linux","password":true,"vac":true,"version":"7723704","steam_id":85568392924500089,"keywords":["cp","nocrits","nodmgspread","uncletopia"],"game_id":440,"stv_port":27036,"stv_name":"Uncletopia | Montréal | 3 | All Maps | STV","players":null},{"server_id":303,"name":"Uncletopia | Montréal | 4 | No Payload","name_short":"mtl-4","host":"mtl-1.ca.uncletopia.com","port":27045,"enabled":true,"region":"us-east","cc":"ca","latitude":45.50889,"longitude":-73.56167,"reserved":0,"last_update":"0001-01-01T00:00:00Z","name_a2s":"Uncletopia | Montréal | 4 | No Payload","protocol":17,"map":"koth_nucleus","folder":"tf","game":"Team Fortress","app_id":440,"player_count":0,"max_players":24,"Bots":0,"server_type":"Dedicated","server_os":"Linux","password":true,"vac":true,"version":"7723704","steam_id":85568392924500090,"keywords":["cp","nocrits","nodmgspread","uncletopia"],"game_id":440,"stv_port":27046,"stv_name":"Uncletopia | Montréal | 4 | No Payload | STV","players":null},{"server_id":13,"name":"Uncletopia | New York City | 1 | All Maps","name_short":"nyc-1","host":"nyc-1.us.uncletopia.com","port":27015,"enabled":true,"region":"us-east","cc":"us","latitude":40.73061,"longitude":-73.93524,"reserved":0,"last_update":"0001-01-01T00:00:00Z","name_a2s":"Uncletopia | New York City | 1 | All Maps","protocol":17,"map":"pl_frontier_final","folder":"tf","game":"Team Fortress","app_id":440,"player_count":24,"max_players":24,"Bots":0,"server_type":"Dedicated","server_os":"Linux","password":true,"vac":true,"version":"7723704","steam_id":85568392924469993,"keywords":["nocrits","nodmgspread","payload","uncletopia"],"game_id":440,"stv_port":27016,"stv_name":"Uncletopia | New York City | 1 | All Maps | STV","players":[{"user_id":505,"name":"Electric Camel","steam_id":76561198065589663,"connected_time":1906000000000,"state":"active","ping":51},{"user_id":488,"name":"kairOs.fk","steam_id":76561197972421260,"connected_time":3674000000000,"state":"active","ping":43},{"user_id":412,"name":"Ether","steam_id":76561198054806528,"connected_time":7557000000000,"state":"active","ping":48},{"user_id":507,"name":"a table","steam_id":76561198158461279,"connected_time":1781000000000,"state":"active","ping":75},{"user_id":500,"name":"Amogus The Sussy Baka ඞ","steam_id":76561198008577961,"connected_time":2144000000000,"state":"active","ping":75},{"user_id":519,"name":"Jfrvl Gvl","steam_id":76561199013465852,"connected_time":891000000000,"state":"active","ping":52},{"user_id":511,"name":"FreakyPhineas","steam_id":76561197994289562,"connected_time":1737000000000,"state":"active","ping":79},{"user_id":494,"name":"ö¿rö  ù π (NGï○á x 21","steam_id":76561198069589278,"connected_time":3042000000000,"state":"active","ping":110},{"user_id":506,"name":"Bandit","steam_id":76561198328421159,"connected_time":1816000000000,"state":"active","ping":59},{"user_id":433,"name":"BeerPowder","steam_id":76561198058129400,"connected_time":6954000000000,"state":"active","ping":44},{"user_id":520,"name":"Pork Tenderloin","steam_id":76561198138663842,"connected_time":274000000000,"state":"active","ping":45},{"user_id":518,"name":"Jaeger Bombastic","steam_id":76561198129825533,"connected_time":899000000000,"state":"active","ping":50},{"user_id":489,"name":"Pomegranate88","steam_id":76561198056385456,"connected_time":3660000000000,"state":"active","ping":59},{"user_id":512,"name":"jody","steam_id":76561198065103382,"connected_time":1722000000000,"state":"active","ping":75},{"user_id":476,"name":"Fabmilan","steam_id":76561198054487300,"connected_time":4176000000000,"state":"active","ping":175},{"user_id":499,"name":"you are loved","steam_id":76561198108524571,"connected_time":2446000000000,"state":"active","ping":61},{"user_id":517,"name":"healthy boundaries","steam_id":76561198025760608,"connected_time":901000000000,"state":"active","ping":62},{"user_id":481,"name":"RICE A RONI JABRONI","steam_id":76561198251653444,"connected_time":4071000000000,"state":"active","ping":65},{"user_id":510,"name":"dyragu","steam_id":76561198172046883,"connected_time":1764000000000,"state":"active","ping":40},{"user_id":515,"name":"Ghost","steam_id":76561198110914180,"connected_time":957000000000,"state":"active","ping":161},{"user_id":427,"name":"really hot pocket","steam_id":76561198239297686,"connected_time":7073000000000,"state":"active","ping":77},{"user_id":501,"name":"Stormartillery","steam_id":76561198408982577,"connected_time":2138000000000,"state":"active","ping":60},{"user_id":513,"name":"Big Kev","steam_id":76561198058262994,"connected_time":1626000000000,"state":"active","ping":95},{"user_id":478,"name":"Fish Fisherman","steam_id":76561198018656022,"connected_time":4153000000000,"state":"active","ping":57}]},{"server_id":14,"name":"Uncletopia | New York City | 2 | All Maps","name_short":"nyc-2","host":"nyc-1.us.uncletopia.com","port":27025,"enabled":true,"region":"us-east","cc":"us","latitude":40.73061,"longitude":-73.93524,"reserved":0,"last_update":"0001-01-01T00:00:00Z","name_a2s":"Uncletopia | New York City | 2 | All Maps","protocol":17,"map":"pl_snowycoast","folder":"tf","game":"Team Fortress","app_id":440,"player_count":24,"max_players":24,"Bots":0,"server_type":"Dedicated","server_os":"Linux","password":true,"vac":true,"version":"7723704","steam_id":85568392924469994,"keywords":["nocrits","nodmgspread","payload","uncletopia"],"game_id":440,"stv_port":27026,"stv_name":"Uncletopia | New York City | 2 | All Maps | STV","players":[{"user_id":231,"name":"Hey Kid","steam_id":76561198087089023,"connected_time":3597000000000,"state":"active","ping":65},{"user_id":256,"name":"catgirl","steam_id":76561198020736672,"connected_time":884000000000,"state":"active","ping":59},{"user_id":226,"name":"PalChumFriend","steam_id":76561198049550699,"connected_time":3682000000000,"state":"active","ping":83},{"user_id":122,"name":"Dispenser fucker","steam_id":76561198400438007,"connected_time":8555000000000,"state":"active","ping":70},{"user_id":220,"name":"PinkLemonade","steam_id":76561198799286228,"connected_time":3787000000000,"state":"active","ping":45},{"user_id":238,"name":"Ripley","steam_id":76561198080766916,"connected_time":2884000000000,"state":"active","ping":68},{"user_id":262,"name":"Ursus Ludius","steam_id":76561198025470722,"connected_time":436000000000,"state":"active","ping":64},{"user_id":254,"name":"FrostStorm","steam_id":76561198142685151,"connected_time":1235000000000,"state":"active","ping":78},{"user_id":199,"name":"quincydabest1","steam_id":76561199274999129,"connected_time":4791000000000,"state":"active","ping":78},{"user_id":264,"name":"Typical Gentleman","steam_id":76561199229771413,"connected_time":370000000000,"state":"active","ping":81},{"user_id":266,"name":"Epha","steam_id":76561198079379951,"connected_time":44000000000,"state":"active","ping":76},{"user_id":246,"name":"Kivertsy","steam_id":76561199162661290,"connected_time":1832000000000,"state":"active","ping":54},{"user_id":213,"name":"Heavy Takes Skill","steam_id":76561198241106268,"connected_time":4283000000000,"state":"active","ping":99},{"user_id":247,"name":"Owen","steam_id":76561198025446908,"connected_time":1814000000000,"state":"active","ping":48},{"user_id":258,"name":"Sleepy-pilled slumbercel","steam_id":76561199229169396,"connected_time":580000000000,"state":"active","ping":83},{"user_id":267,"name":"Corbe","steam_id":76561198353893927,"connected_time":24000000000,"state":"spawning","ping":60},{"user_id":248,"name":"Sone","steam_id":76561198069601032,"connected_time":1708000000000,"state":"active","ping":63},{"user_id":259,"name":"BOT Bot","steam_id":76561197995225620,"connected_time":519000000000,"state":"active","ping":56},{"user_id":225,"name":"Xavibite","steam_id":76561198209380493,"connected_time":3685000000000,"state":"active","ping":44},{"user_id":251,"name":"blæsterko","steam_id":76561198060733878,"connected_time":1336000000000,"state":"active","ping":74},{"user_id":243,"name":"Sorbet Shark Cookie","steam_id":76561198133082665,"connected_time":1855000000000,"state":"active","ping":54},{"user_id":265,"name":"Cool Sandals","steam_id":76561198062406448,"connected_time":348000000000,"state":"active","ping":80},{"user_id":255,"name":"toastman","steam_id":76561198207073088,"connected_time":1099000000000,"state":"active","ping":129},{"user_id":261,"name":"heywaitasecond","steam_id":76561199064548292,"connected_time":486000000000,"state":"active","ping":60}]},{"server_id":15,"name":"Uncletopia | New York City | 3 | All Maps","name_short":"nyc-3","host":"nyc-1.us.uncletopia.com","port":27035,"enabled":true,"region":"us-east","cc":"us","latitude":40.73061,"longitude":-73.93524,"reserved":0,"last_update":"0001-01-01T00:00:00Z","name_a2s":"Uncletopia | New York City | 3 | All Maps","protocol":17,"map":"pl_swiftwater_final1","folder":"tf","game":"Team Fortress","app_id":440,"player_count":0,"max_players":24,"Bots":0,"server_type":"Dedicated","server_os":"Linux","password":true,"vac":true,"version":"7723704","steam_id":85568392924742820,"keywords":["nocrits","nodmgspread","payload","uncletopia"],"game_id":440,"stv_port":27036,"stv_name":"Uncletopia | New York City | 3 | All Maps | STV","players":null},{"server_id":16,"name":"Uncletopia | New York City | 4 | Community","name_short":"nyc-4","host":"nyc-1.us.uncletopia.com","port":27045,"enabled":true,"region":"us-east","cc":"us","latitude":40.73061,"longitude":-73.93524,"reserved":0,"last_update":"0001-01-01T00:00:00Z","name_a2s":"Uncletopia | New York City | 4 | Community","protocol":17,"map":"workshop/koth_product_final.ugc454272353","folder":"tf","game":"Team Fortress","app_id":440,"player_count":0,"max_players":24,"Bots":0,"server_type":"Dedicated","server_os":"Linux","password":true,"vac":true,"version":"7723704","steam_id":85568392924742821,"keywords":["cp","nocrits","nodmgspread","uncletopia"],"game_id":440,"stv_port":27046,"stv_name":"Uncletopia | New York City | 4 | Community | STV","players":null},{"server_id":142,"name":"Uncletopia | São Paulo | 1 | All Maps","name_short":"sao-1","host":"sao-1.br.uncletopia.com","port":27015,"enabled":true,"region":"sa","cc":"br","latitude":-23.533773,"longitude":-46.62529,"reserved":0,"last_update":"0001-01-01T00:00:00Z","name_a2s":"Uncletopia | São Paulo | 1 | All Maps","protocol":17,"map":"cp_gorge","folder":"tf","game":"Team Fortress","app_id":440,"player_count":16,"max_players":24,"Bots":0,"server_type":"Dedicated","server_os":"Linux","password":true,"vac":true,"version":"7723704","steam_id":85568392924469996,"keywords":["cp","nocrits","nodmgspread","uncletopia"],"game_id":440,"stv_port":27016,"stv_name":"Uncletopia | São Paulo | 1 | All Maps | STV","players":[{"user_id":183,"name":"Pathetic","steam_id":76561198051056987,"connected_time":10538000000000,"state":"active","ping":59},{"user_id":318,"name":"Perão","steam_id":76561198044655726,"connected_time":1027000000000,"state":"active","ping":54},{"user_id":41,"name":"Zoom!","steam_id":76561198289562649,"connected_time":20303000000000,"state":"active","ping":34},{"user_id":304,"name":"flamingo","steam_id":76561198854099251,"connected_time":1867000000000,"state":"active","ping":67},{"user_id":274,"name":"RHD BRAZIL [\u003c O \u003e]","steam_id":76561198028190080,"connected_time":3544000000000,"state":"active","ping":41},{"user_id":322,"name":"ayumi","steam_id":76561197977365746,"connected_time":624000000000,"state":"active","ping":35},{"user_id":310,"name":"jr_rusty","steam_id":76561198313937899,"connected_time":1604000000000,"state":"active","ping":45},{"user_id":308,"name":"SPYRYTTS","steam_id":76561197983312920,"connected_time":1668000000000,"state":"active","ping":48},{"user_id":319,"name":"Pr通りの伝説","steam_id":76561198976110673,"connected_time":890000000000,"state":"active","ping":60},{"user_id":324,"name":"TomatoSandwich","steam_id":76561199080817141,"connected_time":370000000000,"state":"active","ping":63},{"user_id":323,"name":"tame","steam_id":76561198925005855,"connected_time":558000000000,"state":"active","ping":96},{"user_id":333,"name":"arshavin 4-4arsenal","steam_id":76561199099759205,"connected_time":34000000000,"state":"spawning","ping":95},{"user_id":332,"name":"bastard","steam_id":76561198980744750,"connected_time":116000000000,"state":"active","ping":62},{"user_id":316,"name":"zezinhoalimento","steam_id":76561198452073649,"connected_time":1199000000000,"state":"active","ping":56},{"user_id":267,"name":"ebd_Failnaught","steam_id":76561198108041555,"connected_time":4203000000000,"state":"active","ping":58},{"user_id":298,"name":"IvanDoomy","steam_id":76561198050522761,"connected_time":2552000000000,"state":"active","ping":72}]},{"server_id":143,"name":"Uncletopia | São Paulo | 2 | All Maps","name_short":"sao-2","host":"sao-2.br.uncletopia.com","port":27015,"enabled":true,"region":"sa","cc":"br","latitude":-23.533773,"longitude":-46.62529,"reserved":0,"last_update":"0001-01-01T00:00:00Z","name_a2s":"Uncletopia | São Paulo | 2 | All Maps","protocol":17,"map":"koth_viaduct","folder":"tf","game":"Team Fortress","app_id":440,"player_count":4,"max_players":24,"Bots":0,"server_type":"Dedicated","server_os":"Linux","password":true,"vac":true,"version":"7723704","steam_id":85568392924485349,"keywords":["cp","nocrits","nodmgspread","uncletopia"],"game_id":440,"stv_port":27016,"stv_name":"Uncletopia | São Paulo | 2 | All Maps | STV","players":[{"user_id":44,"name":"Alexsvid","steam_id":76561199003596992,"connected_time":92000000000,"state":"active","ping":85},{"user_id":45,"name":"Halfmatuas","steam_id":76561199165754390,"connected_time":81000000000,"state":"active","ping":83},{"user_id":46,"name":"Warrancito","steam_id":76561199215538604,"connected_time":74000000000,"state":"active","ping":91},{"user_id":47,"name":"bnja_","steam_id":76561199213700142,"connected_time":19000000000,"state":"active","ping":94}]},{"server_id":7,"name":"Uncletopia | Seattle | 1 | All Maps","name_short":"sea-1","host":"sea-1.us.uncletopia.com","port":27015,"enabled":true,"region":"us-west","cc":"us","latitude":47.608013,"longitude":-122.33517,"reserved":0,"last_update":"0001-01-01T00:00:00Z","name_a2s":"Uncletopia | Seattle | 1 | All Maps","protocol":17,"map":"pl_frontier_final","folder":"tf","game":"Team Fortress","app_id":440,"player_count":24,"max_players":24,"Bots":0,"server_type":"Dedicated","server_os":"Linux","password":true,"vac":true,"version":"7723704","steam_id":85568392924469997,"keywords":["nocrits","nodmgspread","payload","uncletopia"],"game_id":440,"stv_port":27016,"stv_name":"Uncletopia | Seattle | 1 | All Maps | STV","players":[{"user_id":219,"name":"THE NUT","steam_id":76561198067813626,"connected_time":4605000000000,"state":"active","ping":45},{"user_id":255,"name":"Naffers","steam_id":76561198195957335,"connected_time":2155000000000,"state":"active","ping":44},{"user_id":270,"name":"JAB.exe #Savetf2","steam_id":76561198407652409,"connected_time":740000000000,"state":"active","ping":117},{"user_id":248,"name":"yesh","steam_id":76561198108926840,"connected_time":2807000000000,"state":"active","ping":74},{"user_id":155,"name":"Thezest","steam_id":76561198043895839,"connected_time":9918000000000,"state":"active","ping":40},{"user_id":257,"name":"Bubbamanme","steam_id":76561198119778504,"connected_time":1896000000000,"state":"active","ping":50},{"user_id":264,"name":"Korky Buchek","steam_id":76561198164689254,"connected_time":1132000000000,"state":"active","ping":125},{"user_id":271,"name":"animeisbad","steam_id":76561199198005106,"connected_time":726000000000,"state":"active","ping":124},{"user_id":277,"name":"Escher","steam_id":76561198045058061,"connected_time":441000000000,"state":"active","ping":31},{"user_id":262,"name":"Sentry Gun (Engineer)","steam_id":76561199004395829,"connected_time":1253000000000,"state":"active","ping":95},{"user_id":281,"name":"Jones","steam_id":76561198046037216,"connected_time":208000000000,"state":"active","ping":63},{"user_id":268,"name":"sock","steam_id":76561199117597830,"connected_time":882000000000,"state":"active","ping":108},{"user_id":185,"name":"Soto101","steam_id":76561198141538280,"connected_time":6952000000000,"state":"active","ping":105},{"user_id":276,"name":"Eggnog","steam_id":76561197968179862,"connected_time":512000000000,"state":"active","ping":85},{"user_id":274,"name":"RedMustrd","steam_id":76561199246218857,"connected_time":595000000000,"state":"active","ping":125},{"user_id":275,"name":"TTV/That_Guy_Ky","steam_id":76561198825504559,"connected_time":574000000000,"state":"active","ping":59},{"user_id":243,"name":"MCman","steam_id":76561198412110305,"connected_time":3018000000000,"state":"active","ping":84},{"user_id":278,"name":"LaddyMacDeth","steam_id":76561198069386739,"connected_time":422000000000,"state":"active","ping":124},{"user_id":259,"name":"E4Estrogen","steam_id":76561198085813708,"connected_time":1874000000000,"state":"active","ping":107},{"user_id":279,"name":"Jimbo","steam_id":76561198136560547,"connected_time":408000000000,"state":"active","ping":91},{"user_id":266,"name":"AnnoyingOkami","steam_id":76561199061318038,"connected_time":1095000000000,"state":"active","ping":77},{"user_id":261,"name":"Huggernaut","steam_id":76561198043998084,"connected_time":1496000000000,"state":"active","ping":81},{"user_id":241,"name":"Slay all day!","steam_id":76561198075582076,"connected_time":3096000000000,"state":"active","ping":83},{"user_id":267,"name":"BasedGod","steam_id":76561198061177973,"connected_time":1093000000000,"state":"active","ping":63}]},{"server_id":119,"name":"Uncletopia | Seattle | 2 | All Maps","name_short":"sea-2","host":"sea-1.us.uncletopia.com","port":27025,"enabled":true,"region":"us-west","cc":"us","latitude":47.608013,"longitude":-122.33517,"reserved":0,"last_update":"0001-01-01T00:00:00Z","name_a2s":"Uncletopia | Seattle | 2 | All Maps","protocol":17,"map":"pl_borneo","folder":"tf","game":"Team Fortress","app_id":440,"player_count":15,"max_players":24,"Bots":0,"server_type":"Dedicated","server_os":"Linux","password":true,"vac":true,"version":"7723704","steam_id":85568392924469998,"keywords":["nocrits","nodmgspread","payload","uncletopia"],"game_id":440,"stv_port":27026,"stv_name":"Uncletopia | Seattle | 2 | All Maps | STV","players":[{"user_id":75,"name":"A UsedNom","steam_id":76561198402832756,"connected_time":5245000000000,"state":"active","ping":44},{"user_id":148,"name":"lili.winters","steam_id":76561199391478575,"connected_time":6000000000,"state":"spawning","ping":51},{"user_id":121,"name":"Andreshatesmondays","steam_id":76561198889349797,"connected_time":2234000000000,"state":"active","ping":69},{"user_id":122,"name":"\u003cM\u003e","steam_id":76561198028068603,"connected_time":2205000000000,"state":"active","ping":64},{"user_id":118,"name":"DylChill616","steam_id":76561198194576953,"connected_time":2436000000000,"state":"active","ping":57},{"user_id":141,"name":"ArchmageF","steam_id":76561197992246851,"connected_time":702000000000,"state":"active","ping":49},{"user_id":123,"name":"Sgt Autmn","steam_id":76561198072047939,"connected_time":2193000000000,"state":"active","ping":44},{"user_id":101,"name":"dust","steam_id":76561198045218909,"connected_time":3308000000000,"state":"active","ping":34},{"user_id":139,"name":"Crake","steam_id":76561198001959071,"connected_time":1532000000000,"state":"active","ping":48},{"user_id":82,"name":"DeckofDragons","steam_id":76561198057398213,"connected_time":5076000000000,"state":"active","ping":75},{"user_id":138,"name":"hosewater","steam_id":76561198023383126,"connected_time":1557000000000,"state":"active","ping":59},{"user_id":147,"name":"Idontknow","steam_id":76561199207044048,"connected_time":19000000000,"state":"active","ping":51},{"user_id":142,"name":"tobrehto","steam_id":76561198097544038,"connected_time":657000000000,"state":"active","ping":80},{"user_id":127,"name":"Hiryuu","steam_id":76561198025267260,"connected_time":2115000000000,"state":"active","ping":126},{"user_id":131,"name":"nothowon","steam_id":76561198937601452,"connected_time":1966000000000,"state":"active","ping":118}]},{"server_id":17,"name":"Uncletopia | San Francisco | 1 | All Maps","name_short":"sfo-1","host":"sfo-1.us.uncletopia.com","port":27015,"enabled":true,"region":"us-west","cc":"us","latitude":37.77397,"longitude":-122.4313,"reserved":0,"last_update":"0001-01-01T00:00:00Z","name_a2s":"Uncletopia | San Francisco | 1 | All Maps","protocol":17,"map":"koth_viaduct","folder":"tf","game":"Team Fortress","app_id":440,"player_count":0,"max_players":24,"Bots":0,"server_type":"Dedicated","server_os":"Linux","password":true,"vac":true,"version":"7723704","steam_id":85568392924469999,"keywords":["cp","nocrits","nodmgspread","uncletopia"],"game_id":440,"stv_port":27016,"stv_name":"Uncletopia | San Francisco | 1 | All Maps | STV","players":null},{"server_id":18,"name":"Uncletopia | San Francisco | 2 | All Maps","name_short":"sfo-2","host":"sfo-1.us.uncletopia.com","port":27025,"enabled":true,"region":"us-west","cc":"us","latitude":37.77397,"longitude":-122.4313,"reserved":0,"last_update":"0001-01-01T00:00:00Z","name_a2s":"Uncletopia | San Francisco | 2 | All Maps","protocol":17,"map":"cp_altitude","folder":"tf","game":"Team Fortress","app_id":440,"player_count":0,"max_players":24,"Bots":0,"server_type":"Dedicated","server_os":"Linux","password":true,"vac":true,"version":"7723704","steam_id":85568392924470000,"keywords":["cp","nocrits","nodmgspread","uncletopia"],"game_id":440,"stv_port":27026,"stv_name":"Uncletopia | San Francisco | 2 | All Maps | STV","players":null},{"server_id":19,"name":"Uncletopia | San Francisco | 3 | No Payload","name_short":"sfo-3","host":"sfo-1.us.uncletopia.com","port":27035,"enabled":true,"region":"us-west","cc":"us","latitude":37.77397,"longitude":-122.4313,"reserved":0,"last_update":"0001-01-01T00:00:00Z","name_a2s":"Uncletopia | San Francisco | 3 | No Payload","protocol":17,"map":"cp_foundry","folder":"tf","game":"Team Fortress","app_id":440,"player_count":0,"max_players":24,"Bots":0,"server_type":"Dedicated","server_os":"Linux","password":true,"vac":true,"version":"7723704","steam_id":85568392924742824,"keywords":["cp","nocrits","nodmgspread","uncletopia"],"game_id":440,"stv_port":27036,"stv_name":"Uncletopia | San Francisco | 3 | No Payload | STV","players":null},{"server_id":20,"name":"Uncletopia | San Francisco | 4 | Community","name_short":"sfo-4","host":"sfo-1.us.uncletopia.com","port":27045,"enabled":true,"region":"us-west","cc":"us","latitude":37.77397,"longitude":-122.4313,"reserved":0,"last_update":"0001-01-01T00:00:00Z","name_a2s":"Uncletopia | San Francisco | 4 | Community","protocol":17,"map":"workshop/cp_villa_b19.ugc2113052569","folder":"tf","game":"Team Fortress","app_id":440,"player_count":0,"max_players":24,"Bots":0,"server_type":"Dedicated","server_os":"Linux","password":true,"vac":true,"version":"7723704","steam_id":85568392924742826,"keywords":["cp","nocrits","nodmgspread","uncletopia"],"game_id":440,"stv_port":27046,"stv_name":"Uncletopia | San Francisco | 4 | Community | STV","players":null},{"server_id":141,"name":"Uncletopia | Sydney | 1 | All Maps","name_short":"syd-1","host":"syd-1.au.uncletopia.com","port":27015,"enabled":true,"region":"au","cc":"au","latitude":-33.865143,"longitude":151.2099,"reserved":0,"last_update":"0001-01-01T00:00:00Z","name_a2s":"Uncletopia | Sydney | 1 | All Maps","protocol":17,"map":"pl_pier","folder":"tf","game":"Team Fortress","app_id":440,"player_count":24,"max_players":24,"Bots":0,"server_type":"Dedicated","server_os":"Linux","password":true,"vac":true,"version":"7723704","steam_id":85568392924470001,"keywords":["nocrits","nodmgspread","payload","uncletopia"],"game_id":440,"stv_port":27016,"stv_name":"Uncletopia | Sydney | 1 | All Maps | STV","players":[{"user_id":66,"name":"B4SIC","steam_id":76561198859236021,"connected_time":475000000000,"state":"active","ping":58},{"user_id":43,"name":"hendog","steam_id":76561198063477445,"connected_time":1470000000000,"state":"active","ping":61},{"user_id":63,"name":"hadouken","steam_id":76561198019740135,"connected_time":555000000000,"state":"active","ping":58},{"user_id":61,"name":"The Goodnight Kiwi","steam_id":76561198866433807,"connected_time":596000000000,"state":"active","ping":61},{"user_id":34,"name":"Marto","steam_id":76561198147912019,"connected_time":2425000000000,"state":"active","ping":49},{"user_id":37,"name":"Count Shade","steam_id":76561199201039393,"connected_time":2046000000000,"state":"active","ping":39},{"user_id":45,"name":"Faze_Jewbacca","steam_id":76561198151745989,"connected_time":1399000000000,"state":"active","ping":58},{"user_id":39,"name":"P'pot","steam_id":76561198117278590,"connected_time":1843000000000,"state":"active","ping":46},{"user_id":46,"name":"J''''","steam_id":76561198047565137,"connected_time":1369000000000,"state":"active","ping":62},{"user_id":47,"name":"Wrainbow","steam_id":76561199039385168,"connected_time":1334000000000,"state":"active","ping":75},{"user_id":48,"name":"KuraiGOD","steam_id":76561198067641096,"connected_time":1309000000000,"state":"active","ping":51},{"user_id":49,"name":"badmn","steam_id":76561198056462343,"connected_time":1284000000000,"state":"active","ping":58},{"user_id":60,"name":"NewChris","steam_id":76561198254754182,"connected_time":680000000000,"state":"active","ping":77},{"user_id":51,"name":"starcam19","steam_id":76561198117782545,"connected_time":1230000000000,"state":"active","ping":94},{"user_id":55,"name":"yaero","steam_id":76561198047462865,"connected_time":953000000000,"state":"active","ping":54},{"user_id":53,"name":"groggy gary","steam_id":76561198311152272,"connected_time":1143000000000,"state":"active","ping":71},{"user_id":57,"name":"Dangerous DPad","steam_id":76561198452829128,"connected_time":871000000000,"state":"active","ping":65},{"user_id":62,"name":"LeCarz","steam_id":76561198091515229,"connected_time":595000000000,"state":"active","ping":66},{"user_id":59,"name":"alqwnq","steam_id":76561198133867907,"connected_time":847000000000,"state":"active","ping":65},{"user_id":64,"name":"bweegus wagoogus glumbus","steam_id":76561198063481761,"connected_time":554000000000,"state":"active","ping":45},{"user_id":65,"name":"K.K.","steam_id":76561198136654050,"connected_time":503000000000,"state":"active","ping":57},{"user_id":67,"name":"SpacePan","steam_id":76561199164052617,"connected_time":459000000000,"state":"active","ping":64},{"user_id":68,"name":"Jacob","steam_id":76561198059341907,"connected_time":420000000000,"state":"active","ping":35},{"user_id":69,"name":"james16","steam_id":76561198362678073,"connected_time":353000000000,"state":"active","ping":34}]},{"server_id":123,"name":"Uncletopia | Sydney | 2 | All Maps","name_short":"syd-2","host":"syd-1.au.uncletopia.com","port":27025,"enabled":true,"region":"au","cc":"au","latitude":-33.865143,"longitude":151.2099,"reserved":0,"last_update":"0001-01-01T00:00:00Z","name_a2s":"Uncletopia | Sydney | 2 | All Maps","protocol":17,"map":"pl_wutville_event","folder":"tf","game":"Team Fortress","app_id":440,"player_count":0,"max_players":24,"Bots":0,"server_type":"Dedicated","server_os":"Linux","password":true,"vac":true,"version":"7723704","steam_id":85568392924470002,"keywords":["nocrits","nodmgspread","payload","uncletopia"],"game_id":440,"stv_port":27026,"stv_name":"Uncletopia | Sydney | 2 | All Maps | STV","players":null},{"server_id":395,"name":"Uncletopia | Sydney | 3 | All Maps","name_short":"syd-3","host":"syd-1.au.uncletopia.com","port":27035,"enabled":true,"region":"au","cc":"au","latitude":-33.865143,"longitude":151.2099,"reserved":0,"last_update":"0001-01-01T00:00:00Z","name_a2s":"Uncletopia | Sydney | 3 | All Maps","protocol":17,"map":"pl_wutville_event","folder":"tf","game":"Team Fortress","app_id":440,"player_count":0,"max_players":24,"Bots":0,"server_type":"Dedicated","server_os":"Linux","password":true,"vac":true,"version":"7723704","steam_id":85568392925194467,"keywords":["nocrits","nodmgspread","payload","uncletopia"],"game_id":440,"stv_port":27036,"stv_name":"Uncletopia | Sydney | 3 | All Maps | STV","players":null},{"server_id":396,"name":"Uncletopia | Sydney | 4 | All Maps","name_short":"syd-4","host":"syd-1.au.uncletopia.com","port":27045,"enabled":true,"region":"au","cc":"au","latitude":-33.865143,"longitude":151.2099,"reserved":0,"last_update":"0001-01-01T00:00:00Z","name_a2s":"Uncletopia | Sydney | 4 | All Maps","protocol":17,"map":"pl_wutville_event","folder":"tf","game":"Team Fortress","app_id":440,"player_count":0,"max_players":24,"Bots":0,"server_type":"Dedicated","server_os":"Linux","password":true,"vac":true,"version":"7723704","steam_id":85568392925397958,"keywords":["nocrits","nodmgspread","payload","uncletopia"],"game_id":440,"stv_port":27046,"stv_name":"Uncletopia | Sydney | 4 | All Maps | STV","players":null},{"server_id":58,"name":"Uncletopia | Sydney | 5 | No Payload","name_short":"syd-5","host":"syd-1.au.uncletopia.com","port":27055,"enabled":true,"region":"au","cc":"au","latitude":-33.865143,"longitude":151.2099,"reserved":0,"last_update":"0001-01-01T00:00:00Z","name_a2s":"Uncletopia | Sydney | 5 | No Payload","protocol":17,"map":"koth_sawmill","folder":"tf","game":"Team Fortress","app_id":440,"player_count":0,"max_players":24,"Bots":0,"server_type":"Dedicated","server_os":"Linux","password":true,"vac":true,"version":"7723704","steam_id":85568392925397959,"keywords":["cp","nocrits","nodmgspread","uncletopia"],"game_id":440,"stv_port":27056,"stv_name":"Uncletopia | Sydney | 5 | No Payload | STV","players":null},{"server_id":59,"name":"Uncletopia | Sydney | 6 | Community","name_short":"syd-6","host":"syd-1.au.uncletopia.com","port":27065,"enabled":true,"region":"au","cc":"au","latitude":-33.865143,"longitude":151.2099,"reserved":0,"last_update":"0001-01-01T00:00:00Z","name_a2s":"Uncletopia | Sydney | 6 | Community","protocol":17,"map":"workshop/rd_asteroid_redux_rc9.ugc2154902912","folder":"tf","game":"Team Fortress","app_id":440,"player_count":0,"max_players":24,"Bots":0,"server_type":"Dedicated","server_os":"Linux","password":true,"vac":true,"version":"7723704","steam_id":85568392925397960,"keywords":["beta","nocrits","nodmgspread","rd","uncletopia"],"game_id":440,"stv_port":27066,"stv_name":"Uncletopia | Sydney | 6 | Community | STV","players":null},{"server_id":49,"name":"Uncletopia | Warsaw | 1 | All Maps","name_short":"waw-1","host":"waw-1.pl.uncletopia.com","port":27015,"enabled":true,"region":"eu","cc":"pl","latitude":52.2297,"longitude":21.017532,"reserved":0,"last_update":"0001-01-01T00:00:00Z","name_a2s":"Uncletopia | Warsaw | 1 | All Maps","protocol":17,"map":"koth_cascade","folder":"tf","game":"Team Fortress","app_id":440,"player_count":0,"max_players":24,"Bots":0,"server_type":"Dedicated","server_os":"Linux","password":true,"vac":true,"version":"7723704","steam_id":85568392925397850,"keywords":["cp","nocrits","nodmgspread","uncletopia"],"game_id":440,"stv_port":27016,"stv_name":"Uncletopia | Warsaw | 1 | All Maps | STV","players":null},{"server_id":50,"name":"Uncletopia | Warsaw | 2 | All Maps","name_short":"waw-2","host":"waw-1.pl.uncletopia.com","port":27025,"enabled":true,"region":"eu","cc":"pl","latitude":52.2297,"longitude":21.017532,"reserved":0,"last_update":"0001-01-01T00:00:00Z","name_a2s":"Uncletopia | Warsaw | 2 | All Maps","protocol":17,"map":"koth_highpass","folder":"tf","game":"Team Fortress","app_id":440,"player_count":0,"max_players":24,"Bots":0,"server_type":"Dedicated","server_os":"Linux","password":true,"vac":true,"version":"7723704","steam_id":85568392925397851,"keywords":["cp","nocrits","nodmgspread","uncletopia"],"game_id":440,"stv_port":27026,"stv_name":"Uncletopia | Warsaw | 2 | All Maps | STV","players":null},{"server_id":51,"name":"Uncletopia | Warsaw | 3 | All Maps","name_short":"waw-3","host":"waw-1.pl.uncletopia.com","port":27035,"enabled":true,"region":"eu","cc":"pl","latitude":52.2297,"longitude":21.017532,"reserved":0,"last_update":"0001-01-01T00:00:00Z","name_a2s":"Uncletopia | Warsaw | 3 | All Maps","protocol":17,"map":"koth_lakeside_final","folder":"tf","game":"Team Fortress","app_id":440,"player_count":0,"max_players":24,"Bots":0,"server_type":"Dedicated","server_os":"Linux","password":true,"vac":true,"version":"7723704","steam_id":85568392925397852,"keywords":["cp","nocrits","nodmgspread","uncletopia"],"game_id":440,"stv_port":27036,"stv_name":"Uncletopia | Warsaw | 3 | All Maps | STV","players":null},{"server_id":52,"name":"Uncletopia | Warsaw | 4 | All Maps","name_short":"waw-4","host":"waw-1.pl.uncletopia.com","port":27045,"enabled":true,"region":"eu","cc":"pl","latitude":52.2297,"longitude":21.017532,"reserved":0,"last_update":"0001-01-01T00:00:00Z","name_a2s":"Uncletopia | Warsaw | 4 | All Maps","protocol":17,"map":"pl_frontier_final","folder":"tf","game":"Team Fortress","app_id":440,"player_count":0,"max_players":24,"Bots":0,"server_type":"Dedicated","server_os":"Linux","password":true,"vac":true,"version":"7723704","steam_id":85568392925397853,"keywords":["nocrits","nodmgspread","payload","uncletopia"],"game_id":440,"stv_port":27046,"stv_name":"Uncletopia | Warsaw | 4 | All Maps | STV","players":null},{"server_id":53,"name":"Uncletopia | Warsaw | 5 | No Payload","name_short":"waw-5","host":"waw-1.pl.uncletopia.com","port":27055,"enabled":true,"region":"eu","cc":"pl","latitude":52.2297,"longitude":21.017532,"reserved":0,"last_update":"0001-01-01T00:00:00Z","name_a2s":"Uncletopia | Warsaw | 5 | No Payload","protocol":17,"map":"koth_highpass","folder":"tf","game":"Team Fortress","app_id":440,"player_count":0,"max_players":24,"Bots":0,"server_type":"Dedicated","server_os":"Linux","password":true,"vac":true,"version":"7723704","steam_id":85568392925397854,"keywords":["cp","nocrits","nodmgspread","uncletopia"],"game_id":440,"stv_port":27056,"stv_name":"Uncletopia | Warsaw | 5 | No Payload | STV","players":null},{"server_id":54,"name":"Uncletopia | Warsaw | 6 | Community","name_short":"waw-6","host":"waw-1.pl.uncletopia.com","port":27065,"enabled":true,"region":"eu","cc":"pl","latitude":52.2297,"longitude":21.017532,"reserved":0,"last_update":"0001-01-01T00:00:00Z","name_a2s":"Uncletopia | Warsaw | 6 | Community","protocol":17,"map":"workshop/pl_fifthcurve_rc1.ugc648227046","folder":"tf","game":"Team Fortress","app_id":440,"player_count":0,"max_players":24,"Bots":0,"server_type":"Dedicated","server_os":"Linux","password":true,"vac":true,"version":"7723704","steam_id":85568392925397856,"keywords":["nocrits","nodmgspread","payload","uncletopia"],"game_id":440,"stv_port":27066,"stv_name":"Uncletopia | Warsaw | 6 | Community | STV","players":null}]}