{"status":true,"message":"","result":[{"server_id":2,"name":"Uncletopia | Chicago | 1 | All Maps","name_short":"chi-1","host":"chi-1.us.uncletopia.com","port":27015,"enabled":true,"region":"us-central","cc":"us","latitude":41.881832,"longitude":-87.62318,"reserved":0,"last_update":"0001-01-01T00:00:00Z","name_a2s":"Uncletopia | Chicago | 1 | All Maps","protocol":17,"map":"pl_frontier_final","folder":"tf","game":"Team Fortress","app_id":440,"player_count":24,"max_players":24,"Bots":0,"server_type":"Dedicated","server_os":"Linux","password":true,"vac":true,"version":"7932396","steam_id":85568392924469984,"keywords":["nocrits","nodmgspread","payload","uncletopia"],"game_id":440,"stv_port":27016,"stv_name":"Uncletopia | Chicago | 1 | All Maps | STV","players":[{"user_id":183,"name":"deadmian.","steam_id":76561198089098014,"connected_time":3669000000000,"state":"active","ping":88},{"user_id":186,"name":"Shaunt","steam_id":76561198171551057,"connected_time":3631000000000,"state":"active","ping":52},{"user_id":189,"name":"SСАТТЕR","steam_id":76561198405168492,"connected_time":3578000000000,"state":"active","ping":82},{"user_id":140,"name":"Girl gamer","steam_id":76561198237827742,"connected_time":8636000000000,"state":"active","ping":59},{"user_id":229,"name":"Chaos","steam_id":76561199068325065,"connected_time":343000000000,"state":"active","ping":101},{"user_id":220,"name":"Im High","steam_id":76561198049954886,"connected_time":641000000000,"state":"active","ping":69},{"user_id":206,"name":"AdorableMew","steam_id":76561198186706405,"connected_time":2216000000000,"state":"active","ping":72},{"user_id":193,"name":"your local forecast","steam_id":76561198042243083,"connected_time":3460000000000,"state":"active","ping":63},{"user_id":202,"name":"Barbados Slim","steam_id":76561199483183459,"connected_time":2293000000000,"state":"active","ping":87},{"user_id":221,"name":"Elevator","steam_id":76561198974286387,"connected_time":638000000000,"state":"active","ping":70},{"user_id":227,"name":"LVL 4 Dispenser Gaming","steam_id":76561198044244547,"connected_time":369000000000,"state":"active","ping":75},{"user_id":163,"name":"Ridna","steam_id":76561198131627599,"connected_time":5365000000000,"state":"active","ping":87},{"user_id":230,"name":"wG silentes","steam_id":76561199061380038,"connected_time":235000000000,"state":"active","ping":165},{"user_id":215,"name":"Bibleboy","steam_id":76561198049289869,"connected_time":1178000000000,"state":"active","ping":67},{"user_id":205,"name":"Acolyte Of Pain","steam_id":76561198143094194,"connected_time":2265000000000,"state":"active","ping":71},{"user_id":233,"name":"DNA","steam_id":76561198889418752,"connected_time":90000000000,"state":"active","ping":89},{"user_id":225,"name":"i wish you obelisk","steam_id":76561198032482394,"connected_time":574000000000,"state":"active","ping":73},{"user_id":217,"name":"Draconic Ballad","steam_id":76561198027191515,"connected_time":972000000000,"state":"active","ping":57},{"user_id":222,"name":"William Wallace","steam_id":76561199343316814,"connected_time":637000000000,"state":"active","ping":74},{"user_id":196,"name":"RandyPickleshoes","steam_id":76561198064139260,"connected_time":3404000000000,"state":"active","ping":76},{"user_id":224,"name":"THE CUMEST LORD","steam_id":76561198061412592,"connected_time":615000000000,"state":"active","ping":70},{"user_id":234,"name":"Genuine","steam_id":76561198253471115,"connected_time":86000000000,"state":"active","ping":71},{"user_id":197,"name":"TearyMov39","steam_id":76561198043760995,"connected_time":3401000000000,"state":"active","ping":72},{"user_id":209,"name":"Temujin","steam_id":76561198030936583,"connected_time":2110000000000,"state":"active","ping":48}]},{"server_id":106,"name":"Uncletopia | Chicago | 2 | All Maps","name_short":"chi-2","host":"chi-1.us.uncletopia.com","port":27025,"enabled":true,"region":"us-central","cc":"us","latitude":41.881832,"longitude":-87.62318,"reserved":0,"last_update":"0001-01-01T00:00:00Z","name_a2s":"Uncletopia | Chicago | 2 | All Maps","protocol":17,"map":"pl_barnblitz","folder":"tf","game":"Team Fortress","app_id":440,"player_count":24,"max_players":24,"Bots":0,"server_type":"Dedicated","server_os":"Linux","password":true,"vac":true,"version":"7932396","steam_id":85568392924469985,"keywords":["nocrits","nodmgspread","payload","uncletopia"],"game_id":440,"stv_port":27026,"stv_name":"Uncletopia | Chicago | 2 | All Maps | STV","players":[{"user_id":64,"name":"Rat Gaming","steam_id":76561198997885594,"connected_time":1768000000000,"state":"active","ping":137},{"user_id":55,"name":"Grease Monkey","steam_id":76561199073112578,"connected_time":2035000000000,"state":"active","ping":84},{"user_id":73,"name":"wearing my sunday pants","steam_id":76561198834106533,"connected_time":918000000000,"state":"active","ping":82},{"user_id":65,"name":"favored daughter","steam_id":76561199489506838,"connected_time":1575000000000,"state":"active","ping":73},{"user_id":9,"name":"gen","steam_id":76561199118569153,"connected_time":4492000000000,"state":"active","ping":61},{"user_id":31,"name":"Provocator","steam_id":76561197961830410,"connected_time":3282000000000,"state":"active","ping":75},{"user_id":68,"name":"Milk","steam_id":76561198892311722,"connected_time":1491000000000,"state":"active","ping":93},{"user_id":74,"name":"StealthyZeroTwo","steam_id":76561198942692649,"connected_time":695000000000,"state":"active","ping":72},{"user_id":14,"name":"Drachma","steam_id":76561198007310514,"connected_time":4300000000000,"state":"active","ping":58},{"user_id":72,"name":"fanta thor","steam_id":76561199000379983,"connected_time":1019000000000,"state":"active","ping":53},{"user_id":66,"name":"Sunflower","steam_id":76561198081223793,"connected_time":1562000000000,"state":"active","ping":59},{"user_id":29,"name":"eWVra2Vy","steam_id":76561198453565942,"connected_time":3350000000000,"state":"active","ping":79},{"user_id":26,"name":"bear 5","steam_id":76561198066566813,"connected_time":3452000000000,"state":"active","ping":128},{"user_id":67,"name":"RadiatorBob","steam_id":76561198254670470,"connected_time":1508000000000,"state":"active","ping":56},{"user_id":27,"name":"TJGSASQUATCH","steam_id":76561198077806921,"connected_time":3451000000000,"state":"active","ping":73},{"user_id":28,"name":"hey is that one purple?","steam_id":76561198084849541,"connected_time":3446000000000,"state":"active","ping":61},{"user_id":70,"name":"littlesack","steam_id":76561197960270526,"connected_time":1419000000000,"state":"active","ping":75},{"user_id":33,"name":"Andrew","steam_id":76561198070615190,"connected_time":3159000000000,"state":"active","ping":59},{"user_id":41,"name":"Epifiny","steam_id":76561198027958086,"connected_time":2948000000000,"state":"active","ping":66},{"user_id":71,"name":"Pumpkin Spice","steam_id":76561198058356815,"connected_time":1406000000000,"state":"active","ping":68},{"user_id":75,"name":"Duncan Idaho","steam_id":76561197988963861,"connected_time":409000000000,"state":"active","ping":75},{"user_id":78,"name":"Enzo","steam_id":76561197975076681,"connected_time":18000000000,"state":"spawning","ping":44},{"user_id":39,"name":"._.","steam_id":76561198110775575,"connected_time":3027000000000,"state":"active","ping":55},{"user_id":40,"name":"Prsm","steam_id":76561198053344995,"connected_time":3026000000000,"state":"active","ping":58}]},{"server_id":402,"name":"Uncletopia | Chicago | 3 | All Maps","name_short":"chi-3","host":"chi-1.us.uncletopia.com","port":27035,"enabled":true,"region":"us-central","cc":"us","latitude":41.881832,"longitude":-87.62318,"reserved":0,"last_update":"0001-01-01T00:00:00Z","name_a2s":"Uncletopia | Chicago | 3 | All Maps","protocol":17,"map":"pl_swiftwater_final1","folder":"tf","game":"Team Fortress","app_id":440,"player_count":2,"max_players":24,"Bots":0,"server_type":"Dedicated","server_os":"Linux","password":true,"vac":true,"version":"7932396","steam_id":85568392924515191,"keywords":["nocrits","nodmgspread","payload","uncletopia"],"game_id":440,"stv_port":27036,"stv_name":"Uncletopia | Chicago | 3 | All Maps | STV","players":[{"user_id":8,"name":"Nelson","steam_id":76561198850327678,"connected_time":333000000000,"state":"active","ping":91},{"user_id":9,"name":"Varie","steam_id":76561199454930210,"connected_time":291000000000,"state":"active","ping":75}]},{"server_id":403,"name":"Uncletopia | Chicago | 4 | All Maps","name_short":"chi-4","host":"chi-1.us.uncletopia.com","port":27045,"enabled":true,"region":"us-central","cc":"us","latitude":41.881832,"longitude":-87.62318,"reserved":0,"last_update":"0001-01-01T00:00:00Z","name_a2s":"Uncletopia | Chicago | 4 | All Maps","protocol":17,"map":"pl_frontier_final","folder":"tf","game":"Team Fortress","app_id":440,"player_count":24,"max_players":24,"Bots":0,"server_type":"Dedicated","server_os":"Linux","password":true,"vac":true,"version":"7932396","steam_id":85568392924515193,"keywords":["nocrits","nodmgspread","payload","uncletopia"],"game_id":440,"stv_port":27046,"stv_name":"Uncletopia | Chicago | 4 | All Maps | STV","players":[{"user_id":227,"name":"WanderStorm","steam_id":76561198369227367,"connected_time":1955000000000,"state":"active","ping":163},{"user_id":225,"name":"StompOnYourFace!!!!","steam_id":76561198065581117,"connected_time":2039000000000,"state":"active","ping":70},{"user_id":222,"name":"DSM-IVCE","steam_id":76561199438515797,"connected_time":2547000000000,"state":"active","ping":126},{"user_id":243,"name":"Default Spy Bot","steam_id":76561198104086771,"connected_time":1161000000000,"state":"active","ping":99},{"user_id":198,"name":"Jasper Zawn","steam_id":76561198077651204,"connected_time":4713000000000,"state":"active","ping":62},{"user_id":241,"name":"Nolan","steam_id":76561198169648081,"connected_time":1260000000000,"state":"active","ping":88},{"user_id":240,"name":"Antiochus","steam_id":76561198352544325,"connected_time":1580000000000,"state":"active","ping":84},{"user_id":168,"name":"Fangirl","steam_id":76561198253710690,"connected_time":6457000000000,"state":"active","ping":95},{"user_id":238,"name":"wfaawj8f09h308fa","steam_id":76561198165212575,"connected_time":1650000000000,"state":"active","ping":73},{"user_id":244,"name":"TheSynthMann","steam_id":76561198046411146,"connected_time":1134000000000,"state":"active","ping":75},{"user_id":231,"name":"Broadway Rose","steam_id":76561198046083342,"connected_time":1917000000000,"state":"active","ping":59},{"user_id":248,"name":"crayonnipple","steam_id":76561198070253331,"connected_time":806000000000,"state":"active","ping":75},{"user_id":235,"name":"DistantJragon","steam_id":76561198117563641,"connected_time":1821000000000,"state":"active","ping":55},{"user_id":233,"name":"SleepyCanary","steam_id":76561198071770434,"connected_time":1905000000000,"state":"active","ping":127},{"user_id":197,"name":"Kidjays","steam_id":76561198124941901,"connected_time":4752000000000,"state":"active","ping":94},{"user_id":249,"name":"SSBM Pelican","steam_id":76561198040697907,"connected_time":577000000000,"state":"active","ping":77},{"user_id":234,"name":"Acro","steam_id":76561198092451804,"connected_time":1905000000000,"state":"active","ping":69},{"user_id":214,"name":"Atlas","steam_id":76561198127975050,"connected_time":3402000000000,"state":"active","ping":72},{"user_id":237,"name":"Monolith Soldier","steam_id":76561198171898155,"connected_time":1726000000000,"state":"active","ping":55},{"user_id":136,"name":"creepycrawler","steam_id":76561198352016831,"connected_time":9239000000000,"state":"active","ping":60},{"user_id":250,"name":"Milkmur","steam_id":76561198210043821,"connected_time":179000000000,"state":"active","ping":64},{"user_id":223,"name":"Chiki","steam_id":76561198063590320,"connected_time":2534000000000,"state":"active","ping":64},{"user_id":185,"name":"spider_murphy","steam_id":76561198079057101,"connected_time":5319000000000,"state":"active","ping":76},{"user_id":246,"name":"cofi","steam_id":76561198077504898,"connected_time":1121000000000,"state":"active","ping":64}]},{"server_id":36,"name":"Uncletopia | Chicago | 5 | All Maps","name_short":"chi-5","host":"chi-2.us.uncletopia.com","port":27015,"enabled":true,"region":"us-central","cc":"us","latitude":41.881832,"longitude":-87.62318,"reserved":0,"last_update":"0001-01-01T00:00:00Z","name_a2s":"Uncletopia | Chicago | 5 | All Maps","protocol":17,"map":"cp_altitude","folder":"tf","game":"Team Fortress","app_id":440,"player_count":0,"max_players":24,"Bots":0,"server_type":"Dedicated","server_os":"Linux","password":true,"vac":true,"version":"7932396","steam_id":85568392924866362,"keywords":["cp","nocrits","nodmgspread","uncletopia"],"game_id":440,"stv_port":27016,"stv_name":"Uncletopia | Chicago | 5 | All Maps | STV","players":null},{"server_id":37,"name":"Uncletopia | Chicago | 6 | All Maps","name_short":"chi-6","host":"chi-2.us.uncletopia.com","port":27025,"enabled":true,"region":"us-central","cc":"us","latitude":41.881832,"longitude":-87.62318,"reserved":0,"last_update":"0001-01-01T00:00:00Z","name_a2s":"Uncletopia | Chicago | 6 | All Maps","protocol":17,"map":"cp_dustbowl","folder":"tf","game":"Team Fortress","app_id":440,"player_count":0,"max_players":24,"Bots":0,"server_type":"Dedicated","server_os":"Linux","password":true,"vac":true,"version":"7932396","steam_id":85568392924866363,"keywords":["cp","nocrits","nodmgspread","uncletopia"],"game_id":440,"stv_port":27026,"stv_name":"Uncletopia | Chicago | 6 | All Maps | STV","players":null},{"server_id":38,"name":"Uncletopia | Chicago | 7 | Stopwatch Beta","name_short":"chi-7","host":"chi-2.us.uncletopia.com","port":27035,"enabled":true,"region":"us-central","cc":"us","latitude":41.881832,"longitude":-87.62318,"reserved":0,"last_update":"0001-01-01T00:00:00Z","name_a2s":"Uncletopia | Chicago | 7 | Stopwatch Beta","protocol":17,"map":"pl_borneo","folder":"tf","game":"Team Fortress","app_id":440,"player_count":0,"max_players":24,"Bots":0,"server_type":"Dedicated","server_os":"Linux","password":true,"vac":true,"version":"7932396","steam_id":85568392924866364,"keywords":["nocrits","nodmgspread","payload","uncletopia"],"game_id":440,"stv_port":27036,"stv_name":"Uncletopia | Chicago | 7 | Stopwatch Beta | STV","players":null},{"server_id":39,"name":"Uncletopia | Chicago | 8 | Community","name_short":"chi-8","host":"chi-2.us.uncletopia.com","port":27045,"enabled":true,"region":"us-central","cc":"us","latitude":41.881832,"longitude":-87.62318,"reserved":0,"last_update":"0001-01-01T00:00:00Z","name_a2s":"Uncletopia | Chicago | 8 | Community","protocol":17,"map":"koth_viaduct","folder":"tf","game":"Team Fortress","app_id":440,"player_count":0,"max_players":24,"Bots":0,"server_type":"Dedicated","server_os":"Linux","password":true,"vac":true,"version":"7932396","steam_id":85568392924866365,"keywords":["cp","nocrits","nodmgspread","uncletopia"],"game_id":440,"stv_port":27046,"stv_name":"Uncletopia | Chicago | 8 | Community | STV","players":null},{"server_id":8,"name":"Uncletopia | Dallas | 1 | All Maps","name_short":"dal-1","host":"dal-1.us.uncletopia.com","port":27015,"enabled":true,"region":"us-central","cc":"us","latitude":32.779167,"longitude":-96.80889,"reserved":0,"last_update":"0001-01-01T00:00:00Z","name_a2s":"Uncletopia | Dallas | 1 | All Maps","protocol":17,"map":"pl_frontier_final","folder":"tf","game":"Team Fortress","app_id":440,"player_count":24,"max_players":24,"Bots":0,"server_type":"Dedicated","server_os":"Linux","password":true,"vac":true,"version":"7932396","steam_id":85568392924469986,"keywords":["nocrits","nodmgspread","payload","uncletopia"],"game_id":440,"stv_port":27016,"stv_name":"Uncletopia | Dallas | 1 | All Maps | STV","players":[{"user_id":275,"name":"strive","steam_id":76561199020439576,"connected_time":518000000000,"state":"active","ping":88},{"user_id":284,"name":"CherryCoke","steam_id":76561198080905697,"connected_time":114000000000,"state":"active","ping":75},{"user_id":270,"name":"精液Blev Blev精液","steam_id":76561198208972565,"connected_time":1304000000000,"state":"active","ping":99},{"user_id":276,"name":"FI LO","steam_id":76561198976530881,"connected_time":461000000000,"state":"active","ping":71},{"user_id":263,"name":"CheeseCake488","steam_id":76561199407617942,"connected_time":1604000000000,"state":"active","ping":108},{"user_id":280,"name":"cryptidTD","steam_id":76561199094314945,"connected_time":318000000000,"state":"active","ping":175},{"user_id":247,"name":"kiv","steam_id":76561198838223023,"connected_time":2533000000000,"state":"active","ping":78},{"user_id":274,"name":"hoboways","steam_id":76561198168035195,"connected_time":967000000000,"state":"active","ping":90},{"user_id":283,"name":"the oiler","steam_id":76561198387782040,"connected_time":182000000000,"state":"active","ping":107},{"user_id":278,"name":"Boomer Gaming","steam_id":76561198037803087,"connected_time":430000000000,"state":"active","ping":62},{"user_id":272,"name":"Joe Biden","steam_id":76561198286230515,"connected_time":1183000000000,"state":"active","ping":68},{"user_id":279,"name":"Flopper","steam_id":76561197974874355,"connected_time":358000000000,"state":"active","ping":87},{"user_id":249,"name":"hihohe","steam_id":76561197987823936,"connected_time":2517000000000,"state":"active","ping":61},{"user_id":250,"name":"retaW","steam_id":76561198308097092,"connected_time":2504000000000,"state":"active","ping":61},{"user_id":251,"name":"wehNirate","steam_id":76561197999730721,"connected_time":2504000000000,"state":"active","ping":63},{"user_id":182,"name":"TheFriendlyPybro","steam_id":76561198119425604,"connected_time":6074000000000,"state":"active","ping":93},{"user_id":277,"name":"The Sinister Potion","steam_id":76561198131280715,"connected_time":456000000000,"state":"active","ping":96},{"user_id":259,"name":"Thewaffleman141","steam_id":76561198083068694,"connected_time":2076000000000,"state":"active","ping":52},{"user_id":265,"name":"MyTeamIsAzz","steam_id":76561198241921220,"connected_time":1595000000000,"state":"active","ping":87},{"user_id":282,"name":"ebbaxter13","steam_id":76561198839647688,"connected_time":281000000000,"state":"active","ping":96},{"user_id":266,"name":"NuclearAdventures","steam_id":76561198995920452,"connected_time":1557000000000,"state":"active","ping":96},{"user_id":281,"name":"Ape on Percs","steam_id":76561198133849894,"connected_time":313000000000,"state":"active","ping":75},{"user_id":253,"name":"Eiann","steam_id":76561198360762316,"connected_time":2502000000000,"state":"active","ping":47},{"user_id":255,"name":"DJ-Whatchya #rEtiReD","steam_id":76561198060355298,"connected_time":2431000000000,"state":"active","ping":85}]},{"server_id":108,"name":"Uncletopia | Dallas | 2 | All Maps","name_short":"dal-2","host":"dal-1.us.uncletopia.com","port":27025,"enabled":true,"region":"us-central","cc":"us","latitude":32.779167,"longitude":-96.80889,"reserved":0,"last_update":"0001-01-01T00:00:00Z","name_a2s":"Uncletopia | Dallas | 2 | All Maps","protocol":17,"map":"cp_sunshine","folder":"tf","game":"Team Fortress","app_id":440,"player_count":0,"max_players":24,"Bots":0,"server_type":"Dedicated","server_os":"Linux","password":true,"vac":true,"version":"7932396","steam_id":85568392924469988,"keywords":["cp","nocrits","nodmgspread","uncletopia"],"game_id":440,"stv_port":27026,"stv_name":"Uncletopia | Dallas | 2 | All Maps | STV","players":null},{"server_id":5,"name":"Uncletopia | Frankfurt | 1 | All Maps","name_short":"frk-1","host":"frk-1.de.uncletopia.com","port":27015,"enabled":true,"region":"eu","cc":"de","latitude":50.110924,"longitude":8.682127,"reserved":0,"last_update":"0001-01-01T00:00:00Z","name_a2s":"Uncletopia | Frankfurt | 1 | All Maps","protocol":17,"map":"pl_rumford_event","folder":"tf","game":"Team Fortress","app_id":440,"player_count":24,"max_players":24,"Bots":0,"server_type":"Dedicated","server_os":"Linux","password":true,"vac":true,"version":"7932396","steam_id":85568392924469989,"keywords":["nocrits","nodmgspread","payload","uncletopia"],"game_id":440,"stv_port":27016,"stv_name":"Uncletopia | Frankfurt | 1 | All Maps | STV","players":[{"user_id":458,"name":"Pineappleman","steam_id":76561199074651648,"connected_time":1319000000000,"state":"active","ping":57},{"user_id":477,"name":"strigoi2","steam_id":76561198351880994,"connected_time":266000000000,"state":"active","ping":87},{"user_id":440,"name":"Brinier","steam_id":76561199012604288,"connected_time":1889000000000,"state":"active","ping":64},{"user_id":373,"name":"Skippy","steam_id":76561199245844181,"connected_time":5292000000000,"state":"active","ping":69},{"user_id":486,"name":"Romultra","steam_id":76561198354105082,"connected_time":86000000000,"state":"active","ping":60},{"user_id":482,"name":"e36 1.8","steam_id":76561198134203031,"connected_time":194000000000,"state":"active","ping":55},{"user_id":481,"name":"TF2","steam_id":76561198256328990,"connected_time":226000000000,"state":"active","ping":84},{"user_id":375,"name":"Darrel","steam_id":76561199059399432,"connected_time":5205000000000,"state":"active","ping":154},{"user_id":479,"name":"Wattoz","steam_id":76561198127779511,"connected_time":247000000000,"state":"active","ping":75},{"user_id":480,"name":"askulap","steam_id":76561197992018795,"connected_time":234000000000,"state":"active","ping":79},{"user_id":474,"name":"yush","steam_id":76561198121688934,"connected_time":286000000000,"state":"active","ping":76},{"user_id":475,"name":"Kron Krian","steam_id":76561198122541754,"connected_time":284000000000,"state":"active","ping":62},{"user_id":397,"name":"Jānis Aizups | LV","steam_id":76561198129947877,"connected_time":4368000000000,"state":"active","ping":79},{"user_id":438,"name":"Xx_EpicGaymer_xX","steam_id":76561198846784757,"connected_time":1961000000000,"state":"active","ping":80},{"user_id":453,"name":"SoupER","steam_id":76561198063056668,"connected_time":1723000000000,"state":"active","ping":55},{"user_id":454,"name":"intel™ - \u003c3Omega\u003c3","steam_id":76561197996390224,"connected_time":1713000000000,"state":"active","ping":73},{"user_id":471,"name":"wouris","steam_id":76561198876188003,"connected_time":433000000000,"state":"active","ping":60},{"user_id":435,"name":"Skeletros","steam_id":76561198130969152,"connected_time":2245000000000,"state":"active","ping":139},{"user_id":342,"name":"Go20","steam_id":76561198996120970,"connected_time":7787000000000,"state":"active","ping":114},{"user_id":483,"name":"Chopperson_","steam_id":76561198873728497,"connected_time":191000000000,"state":"active","ping":109},{"user_id":445,"name":"Elix","steam_id":76561199072306920,"connected_time":1835000000000,"state":"active","ping":103},{"user_id":487,"name":"Jughead","steam_id":76561198000355410,"connected_time":9000000000,"state":"spawning","ping":88},{"user_id":472,"name":"Animatic","steam_id":76561198186421601,"connected_time":355000000000,"state":"active","ping":201},{"user_id":449,"name":"[O\u0026O]YaboiDucki","steam_id":76561198195976589,"connected_time":1782000000000,"state":"active","ping":102}]},{"server_id":110,"name":"Uncletopia | Frankfurt | 2 | All Maps","name_short":"frk-2","host":"frk-1.de.uncletopia.com","port":27025,"enabled":true,"region":"eu","cc":"de","latitude":50.110924,"longitude":8.682127,"reserved":0,"last_update":"0001-01-01T00:00:00Z","name_a2s":"Uncletopia | Frankfurt | 2 | All Maps","protocol":17,"map":"pl_badwater","folder":"tf","game":"Team Fortress","app_id":440,"player_count":24,"max_players":24,"Bots":0,"server_type":"Dedicated","server_os":"Linux","password":true,"vac":true,"version":"7932396","steam_id":85568392924469990,"keywords":["nocrits","nodmgspread","payload","uncletopia"],"game_id":440,"stv_port":27026,"stv_name":"Uncletopia | Frankfurt | 2 | All Maps | STV","players":[{"user_id":220,"name":"Kabachok Aeronavt","steam_id":76561198123659806,"connected_time":1567000000000,"state":"active","ping":90},{"user_id":216,"name":"miiq130","steam_id":76561198188010666,"connected_time":2181000000000,"state":"active","ping":75},{"user_id":222,"name":"P3rsErkki","steam_id":76561198063093495,"connected_time":1235000000000,"state":"active","ping":60},{"user_id":186,"name":"♣Генсек Поноса","steam_id":76561198796404149,"connected_time":4661000000000,"state":"active","ping":107},{"user_id":183,"name":"Bad Guy","steam_id":76561199039772329,"connected_time":4824000000000,"state":"active","ping":129},{"user_id":218,"name":"Gosman","steam_id":76561198062956955,"connected_time":1844000000000,"state":"active","ping":74},{"user_id":207,"name":"KiT","steam_id":76561198043770371,"connected_time":2909000000000,"state":"active","ping":69},{"user_id":179,"name":"medicinal man","steam_id":76561198202668788,"connected_time":5187000000000,"state":"active","ping":55},{"user_id":237,"name":"mesλ","steam_id":76561198324582918,"connected_time":163000000000,"state":"active","ping":102},{"user_id":225,"name":"koji","steam_id":76561198051636999,"connected_time":1137000000000,"state":"active","ping":51},{"user_id":238,"name":"eva.","steam_id":76561198054474684,"connected_time":155000000000,"state":"active","ping":70},{"user_id":152,"name":"EEEEEH","steam_id":76561198126717413,"connected_time":5990000000000,"state":"active","ping":82},{"user_id":226,"name":"NukePigg","steam_id":76561198131324143,"connected_time":1132000000000,"state":"active","ping":53},{"user_id":227,"name":"Avitz","steam_id":76561197986150359,"connected_time":1130000000000,"state":"active","ping":57},{"user_id":230,"name":"ninjacat424","steam_id":76561198339467815,"connected_time":1119000000000,"state":"active","ping":76},{"user_id":217,"name":"jt7","steam_id":76561198073655162,"connected_time":1992000000000,"state":"active","ping":69},{"user_id":221,"name":"laza's boy","steam_id":76561199074095198,"connected_time":1347000000000,"state":"active","ping":129},{"user_id":231,"name":"JohnTraveltime","steam_id":76561199244281754,"connected_time":1108000000000,"state":"active","ping":84},{"user_id":234,"name":"Doombringer","steam_id":76561198041583294,"connected_time":1038000000000,"state":"active","ping":116},{"user_id":235,"name":"meatsoupcube","steam_id":76561198276802249,"connected_time":1036000000000,"state":"active","ping":104},{"user_id":194,"name":"Salamon","steam_id":76561198280756561,"connected_time":4037000000000,"state":"active","ping":106},{"user_id":174,"name":"Mac Bean","steam_id":76561198133782205,"connected_time":5269000000000,"state":"active","ping":117},{"user_id":206,"name":"simon.saperest","steam_id":76561199013526134,"connected_time":2925000000000,"state":"active","ping":47},{"user_id":236,"name":"Zerkath","steam_id":76561198040883286,"connected_time":1033000000000,"state":"active","ping":85}]},{"server_id":308,"name":"Uncletopia | Frankfurt | 3 | All Maps","name_short":"frk-3","host":"frk-1.de.uncletopia.com","port":27035,"enabled":true,"region":"eu","cc":"de","latitude":50.110924,"longitude":8.682127,"reserved":0,"last_update":"0001-01-01T00:00:00Z","name_a2s":"Uncletopia | Frankfurt | 3 | All Maps","protocol":17,"map":"pl_badwater","folder":"tf","game":"Team Fortress","app_id":440,"player_count":19,"max_players":24,"Bots":0,"server_type":"Dedicated","server_os":"Linux","password":true,"vac":true,"version":"7932396","steam_id":85568392924504274,"keywords":["nocrits","nodmgspread","payload","uncletopia"],"game_id":440,"stv_port":27036,"stv_name":"Uncletopia | Frankfurt | 3 | All Maps | STV","players":[{"user_id":297,"name":"Miiukade","steam_id":76561198089157860,"connected_time":229000000000,"state":"active","ping":135},{"user_id":279,"name":"Roland Deschain","steam_id":76561198023296355,"connected_time":637000000000,"state":"active","ping":102},{"user_id":283,"name":"HUGO","steam_id":76561198317134996,"connected_time":571000000000,"state":"active","ping":78},{"user_id":271,"name":"majo84321","steam_id":76561198071336437,"connected_time":1206000000000,"state":"active","ping":69},{"user_id":261,"name":"DiDönerrei","steam_id":76561198954416604,"connected_time":1864000000000,"state":"active","ping":43},{"user_id":303,"name":"Da Juice","steam_id":76561198077501660,"connected_time":3000000000,"state":"spawning","ping":55},{"user_id":285,"name":"♂ Animan ♂ Studios ♂","steam_id":76561198308302932,"connected_time":565000000000,"state":"active","ping":116},{"user_id":289,"name":"Dolcelatte","steam_id":76561198038501770,"connected_time":454000000000,"state":"active","ping":51},{"user_id":286,"name":"Ishbel","steam_id":76561198211990879,"connected_time":547000000000,"state":"active","ping":60},{"user_id":299,"name":"Doggo225","steam_id":76561198166707002,"connected_time":116000000000,"state":"active","ping":45},{"user_id":301,"name":"KMP","steam_id":76561198278707199,"connected_time":93000000000,"state":"active","ping":67},{"user_id":287,"name":"piss gaming","steam_id":76561198380659304,"connected_time":546000000000,"state":"active","ping":177},{"user_id":263,"name":"After8","steam_id":76561198090750865,"connected_time":1857000000000,"state":"active","ping":62},{"user_id":238,"name":"Türk tanrısı","steam_id":76561198093458326,"connected_time":2680000000000,"state":"active","ping":48},{"user_id":253,"name":"Sirzen","steam_id":76561198170155434,"connected_time":2033000000000,"state":"active","ping":57},{"user_id":282,"name":"slorp","steam_id":76561198239927434,"connected_time":613000000000,"state":"active","ping":78},{"user_id":288,"name":"perry the platypus","steam_id":76561199379159771,"connected_time":536000000000,"state":"active","ping":159},{"user_id":276,"name":"Zdupal","steam_id":76561198067124302,"connected_time":1011000000000,"state":"active","ping":96},{"user_id":296,"name":"Akker","steam_id":76561199000630792,"connected_time":280000000000,"state":"active","ping":50}]},{"server_id":309,"name":"Uncletopia | Frankfurt | 4 | All Maps","name_short":"frk-4","host":"frk-1.de.uncletopia.com","port":27045,"enabled":true,"region":"eu","cc":"de","latitude":50.110924,"longitude":8.682127,"reserved":0,"last_update":"0001-01-01T00:00:00Z","name_a2s":"Uncletopia | Frankfurt | 4 | All Maps","protocol":17,"map":"pl_rumford_event","folder":"tf","game":"Team Fortress","app_id":440,"player_count":20,"max_players":24,"Bots":0,"server_type":"Dedicated","server_os":"Linux","password":true,"vac":true,"version":"7932396","steam_id":85568392924504275,"keywords":["nocrits","nodmgspread","payload","uncletopia"],"game_id":440,"stv_port":27046,"stv_name":"Uncletopia | Frankfurt | 4 | All Maps | STV","players":[{"user_id":167,"name":"galad.game","steam_id":76561198336324159,"connected_time":226000000000,"state":"active","ping":67},{"user_id":157,"name":"ASS?!?!?!?!?","steam_id":76561199159262388,"connected_time":613000000000,"state":"active","ping":96},{"user_id":172,"name":"V4ren","steam_id":76561198063138371,"connected_time":66000000000,"state":"active","ping":61},{"user_id":159,"name":"Jannisxxl","steam_id":76561198048377916,"connected_time":477000000000,"state":"active","ping":70},{"user_id":160,"name":"Gugu","steam_id":76561198161822358,"connected_time":436000000000,"state":"active","ping":60},{"user_id":152,"name":"mike had a dad :(","steam_id":76561199087364410,"connected_time":822000000000,"state":"active","ping":181},{"user_id":161,"name":"Cursed","steam_id":76561198381491880,"connected_time":434000000000,"state":"active","ping":91},{"user_id":173,"name":"Robby","steam_id":76561199152605617,"connected_time":45000000000,"state":"active","ping":162},{"user_id":169,"name":"race car driver jerry","steam_id":76561198054047446,"connected_time":106000000000,"state":"active","ping":65},{"user_id":135,"name":"porta","steam_id":76561198876318011,"connected_time":1724000000000,"state":"active","ping":51},{"user_id":166,"name":"Đesmond","steam_id":76561198097676225,"connected_time":265000000000,"state":"active","ping":63},{"user_id":168,"name":"f l я n","steam_id":76561198079595755,"connected_time":119000000000,"state":"active","ping":47},{"user_id":141,"name":"james","steam_id":76561198392867058,"connected_time":1638000000000,"state":"active","ping":70},{"user_id":170,"name":"Angie \u003c3","steam_id":76561197990861857,"connected_time":100000000000,"state":"active","ping":94},{"user_id":171,"name":"bass rattle soldier out the sky","steam_id":76561199013457963,"connected_time":100000000000,"state":"active","ping":60},{"user_id":174,"name":"green demon","steam_id":76561198203353732,"connected_time":45000000000,"state":"active","ping":152},{"user_id":175,"name":"Marky","steam_id":76561199474556920,"connected_time":40000000000,"state":"active","ping":117},{"user_id":176,"name":"Under","steam_id":76561199062841068,"connected_time":22000000000,"state":"spawning","ping":171},{"user_id":177,"name":"truebosnianking","steam_id":76561199440060597,"connected_time":16000000000,"state":"spawning","ping":74},{"user_id":178,"name":"Aeglos","steam_id":76561198248698294,"connected_time":4000000000,"state":"spawning","ping":59}]},{"server_id":310,"name":"Uncletopia | Frankfurt | 5 | All Maps","name_short":"frk-5","host":"frk-1.de.uncletopia.com","port":27055,"enabled":true,"region":"eu","cc":"de","latitude":50.110924,"longitude":8.682127,"reserved":0,"last_update":"0001-01-01T00:00:00Z","name_a2s":"Uncletopia | Frankfurt | 5 | All Maps","protocol":17,"map":"pl_swiftwater_final1","folder":"tf","game":"Team Fortress","app_id":440,"player_count":23,"max_players":24,"Bots":0,"server_type":"Dedicated","server_os":"Linux","password":true,"vac":true,"version":"7932396","steam_id":85568392924504277,"keywords":["nocrits","nodmgspread","payload","uncletopia"],"game_id":440,"stv_port":27056,"stv_name":"Uncletopia | Frankfurt | 5 | All Maps | STV","players":[{"user_id":272,"name":"Will","steam_id":76561198173329977,"connected_time":1739000000000,"state":"active","ping":63},{"user_id":292,"name":"RussianPingLord","steam_id":76561199055517485,"connected_time":734000000000,"state":"active","ping":126},{"user_id":293,"name":"Troop","steam_id":76561198031303282,"connected_time":670000000000,"state":"active","ping":41},{"user_id":295,"name":"Mega Man Legends 3","steam_id":76561198014110199,"connected_time":640000000000,"state":"active","ping":45},{"user_id":274,"name":"James","steam_id":76561198138558005,"connected_time":1415000000000,"state":"active","ping":63},{"user_id":304,"name":"kaiser18887","steam_id":76561199482346702,"connected_time":25000000000,"state":"active","ping":99},{"user_id":279,"name":"Senator_Piss","steam_id":76561199014174589,"connected_time":884000000000,"state":"active","ping":110},{"user_id":252,"name":"ramadan.legend.17","steam_id":76561198403897120,"connected_time":2548000000000,"state":"active","ping":69},{"user_id":294,"name":"EχSpecula","steam_id":76561198040669766,"connected_time":663000000000,"state":"active","ping":108},{"user_id":260,"name":"dinorno","steam_id":76561198146276830,"connected_time":2261000000000,"state":"active","ping":67},{"user_id":247,"name":"Flashy","steam_id":76561198099396919,"connected_time":3048000000000,"state":"active","ping":49},{"user_id":280,"name":"Irgend so n Trottel","steam_id":76561197997126444,"connected_time":883000000000,"state":"active","ping":65},{"user_id":288,"name":"Carter","steam_id":76561198005243938,"connected_time":817000000000,"state":"active","ping":68},{"user_id":282,"name":"SlwoFø","steam_id":76561198049663931,"connected_time":861000000000,"state":"active","ping":54},{"user_id":301,"name":"andreaswack","steam_id":76561199050454503,"connected_time":276000000000,"state":"active","ping":46},{"user_id":297,"name":"part time roach","steam_id":76561198235739036,"connected_time":629000000000,"state":"active","ping":65},{"user_id":284,"name":"Pain in a Box","steam_id":76561197990777173,"connected_time":831000000000,"state":"active","ping":96},{"user_id":306,"name":"agent of trolling","steam_id":76561199042470246,"connected_time":9000000000,"state":"active","ping":96},{"user_id":298,"name":"Genesis","steam_id":76561198999652040,"connected_time":610000000000,"state":"active","ping":45},{"user_id":286,"name":"wasps","steam_id":76561198049485054,"connected_time":830000000000,"state":"active","ping":75},{"user_id":259,"name":"cuddle","steam_id":76561198805181599,"connected_time":2325000000000,"state":"active","ping":71},{"user_id":302,"name":"skill based","steam_id":76561198341178432,"connected_time":181000000000,"state":"active","ping":60},{"user_id":303,"name":"Pan Piotr","steam_id":76561198140016126,"connected_time":122000000000,"state":"active","ping":62}]},{"server_id":311,"name":"Uncletopia | Frankfurt | 6 | All Maps","name_short":"frk-6","host":"frk-1.de.uncletopia.com","port":27065,"enabled":true,"region":"eu","cc":"de","latitude":50.110924,"longitude":8.682127,"reserved":0,"last_update":"0001-01-01T00:00:00Z","name_a2s":"Uncletopia | Frankfurt | 6 | All Maps","protocol":17,"map":"koth_viaduct","folder":"tf","game":"Team Fortress","app_id":440,"player_count":0,"max_players":24,"Bots":0,"server_type":"Dedicated","server_os":"Linux","password":true,"vac":true,"version":"7932396","steam_id":85568392924504278,"keywords":["cp","nocrits","nodmgspread","uncletopia"],"game_id":440,"stv_port":27066,"stv_name":"Uncletopia | Frankfurt | 6 | All Maps | STV","players":null},{"server_id":23,"name":"Uncletopia | Frankfurt | 7 | Stopwatch Beta","name_short":"frk-7","host":"frk-1.de.uncletopia.com","port":27075,"enabled":true,"region":"eu","cc":"de","latitude":50.110924,"longitude":8.682127,"reserved":0,"last_update":"0001-01-01T00:00:00Z","name_a2s":"Uncletopia | Frankfurt | 7 | Stopwatch Beta","protocol":17,"map":"pl_snowycoast","folder":"tf","game":"Team Fortress","app_id":440,"player_count":0,"max_players":24,"Bots":0,"server_type":"Dedicated","server_os":"Linux","password":true,"vac":true,"version":"7932396","steam_id":85568392924742827,"keywords":["nocrits","nodmgspread","payload","uncletopia"],"game_id":440,"stv_port":27076,"stv_name":"Uncletopia | Frankfurt | 7 | Stopwatch Beta | STV","players":null},{"server_id":24,"name":"Uncletopia | Frankfurt | 8 | Community","name_short":"frk-8","host":"frk-1.de.uncletopia.com","port":27085,"enabled":true,"region":"eu","cc":"de","latitude":50.110924,"longitude":8.682127,"reserved":0,"last_update":"0001-01-01T00:00:00Z","name_a2s":"Uncletopia | Frankfurt | 8 | Community","protocol":17,"map":"pl_barnblitz","folder":"tf","game":"Team Fortress","app_id":440,"player_count":0,"max_players":24,"Bots":0,"server_type":"Dedicated","server_os":"Linux","password":true,"vac":true,"version":"7932396","steam_id":85568392924742828,"keywords":["nocrits","nodmgspread","payload","uncletopia"],"game_id":440,"stv_port":27086,"stv_name":"Uncletopia | Frankfurt | 8 | Community | STV","players":null},{"server_id":202,"name":"Uncletopia | Hong Kong | 1 | All Maps","name_short":"hgk-1","host":"hgk-1.hk.uncletopia.com","port":27015,"enabled":true,"region":"asia","cc":"hk","latitude":22.302711,"longitude":114.177216,"reserved":0,"last_update":"0001-01-01T00:00:00Z","name_a2s":"Uncletopia | Hong Kong | 1 | All Maps","protocol":17,"map":"koth_viaduct","folder":"tf","game":"Team Fortress","app_id":440,"player_count":0,"max_players":24,"Bots":0,"server_type":"Dedicated","server_os":"Linux","password":true,"vac":true,"version":"7932396","steam_id":85568392924494504,"keywords":["cp","nocrits","nodmgspread","uncletopia"],"game_id":440,"stv_port":27016,"stv_name":"Uncletopia | Hong Kong | 1 | All Maps | STV","players":null},{"server_id":1,"name":"Uncletopia | Los Angeles | 1 | All Maps","name_short":"lax-1","host":"lax-1.us.uncletopia.com","port":27015,"enabled":true,"region":"us-west","cc":"us","latitude":33.94279,"longitude":-118.41004,"reserved":0,"last_update":"0001-01-01T00:00:00Z","name_a2s":"Uncletopia | Los Angeles | 1 | All Maps","protocol":17,"map":"pl_swiftwater_final1","folder":"tf","game":"Team Fortress","app_id":440,"player_count":0,"max_players":24,"Bots":0,"server_type":"Dedicated","server_os":"Linux","password":true,"vac":true,"version":"7932396","steam_id":85568392924469991,"keywords":["nocrits","nodmgspread","payload","uncletopia"],"game_id":440,"stv_port":27016,"stv_name":"Uncletopia | Los Angeles | 1 | All Maps | STV","players":null},{"server_id":112,"name":"Uncletopia | Los Angeles | 2 | All Maps","name_short":"lax-2","host":"lax-1.us.uncletopia.com","port":27025,"enabled":true,"region":"us-west","cc":"us","latitude":33.94279,"longitude":-118.41004,"reserved":0,"last_update":"0001-01-01T00:00:00Z","name_a2s":"Uncletopia | Los Angeles | 2 | All Maps","protocol":17,"map":"pl_borneo","folder":"tf","game":"Team Fortress","app_id":440,"player_count":0,"max_players":24,"Bots":0,"server_type":"Dedicated","server_os":"Linux","password":true,"vac":true,"version":"7932396","steam_id":85568392924469992,"keywords":["nocrits","nodmgspread","payload","uncletopia"],"game_id":440,"stv_port":27026,"stv_name":"Uncletopia | Los Angeles | 2 | All Maps | STV","players":null},{"server_id":324,"name":"Uncletopia | Los Angeles | 3 | All Maps","name_short":"lax-3","host":"lax-1.us.uncletopia.com","port":27035,"enabled":true,"region":"us-west","cc":"us","latitude":33.94279,"longitude":-118.41004,"reserved":0,"last_update":"0001-01-01T00:00:00Z","name_a2s":"Uncletopia | Los Angeles | 3 | All Maps","protocol":17,"map":"pl_borneo","folder":"tf","game":"Team Fortress","app_id":440,"player_count":0,"max_players":24,"Bots":0,"server_type":"Dedicated","server_os":"Linux","password":true,"vac":true,"version":"7932396","steam_id":85568392924510198,"keywords":["nocrits","nodmgspread","payload","uncletopia"],"game_id":440,"stv_port":27036,"stv_name":"Uncletopia | Los Angeles | 3 | All Maps | STV","players":null},{"server_id":25,"name":"Uncletopia | Los Angeles | 4 | Stopwatch Beta","name_short":"lax-4","host":"lax-1.us.uncletopia.com","port":27045,"enabled":true,"region":"us-west","cc":"us","latitude":33.94279,"longitude":-118.41004,"reserved":0,"last_update":"0001-01-01T00:00:00Z","name_a2s":"Uncletopia | Los Angeles | 4 | Stopwatch Beta","protocol":17,"map":"cp_altitude","folder":"tf","game":"Team Fortress","app_id":440,"player_count":0,"max_players":24,"Bots":0,"server_type":"Dedicated","server_os":"Linux","password":true,"vac":true,"version":"7932396","steam_id":85568392924510199,"keywords":["cp","nocrits","nodmgspread","uncletopia"],"game_id":440,"stv_port":27046,"stv_name":"Uncletopia | Los Angeles | 4 | Stopwatch Beta | STV","players":null},{"server_id":11,"name":"Uncletopia | London | 1 | All Maps","name_short":"lon-1","host":"lon-1.uk.uncletopia.com","port":27015,"enabled":true,"region":"eu","cc":"gb","latitude":51.509865,"longitude":-0.118092,"reserved":0,"last_update":"0001-01-01T00:00:00Z","name_a2s":"Uncletopia | London | 1 | All Maps","protocol":17,"map":"pl_frontier_final","folder":"tf","game":"Team Fortress","app_id":440,"player_count":24,"max_players":24,"Bots":0,"server_type":"Dedicated","server_os":"Linux","password":true,"vac":true,"version":"7932396","steam_id":85568392924367362,"keywords":["nocrits","nodmgspread","payload","uncletopia"],"game_id":440,"stv_port":27016,"stv_name":"Uncletopia | London | 1 | All Maps | STV","players":[{"user_id":181,"name":"quickfast","steam_id":76561199438900919,"connected_time":438000000000,"state":"active","ping":46},{"user_id":168,"name":"voco","steam_id":76561198179250642,"connected_time":1266000000000,"state":"active","ping":111},{"user_id":173,"name":"sushii","steam_id":76561198297987372,"connected_time":820000000000,"state":"active","ping":53},{"user_id":132,"name":"Puss in Boots","steam_id":76561198211599767,"connected_time":3472000000000,"state":"active","ping":54},{"user_id":149,"name":"jimmy bob","steam_id":76561198319583692,"connected_time":2011000000000,"state":"active","ping":49},{"user_id":113,"name":"wal","steam_id":76561198066043883,"connected_time":5206000000000,"state":"active","ping":49},{"user_id":174,"name":"ahcenetupe","steam_id":76561198916501470,"connected_time":801000000000,"state":"active","ping":56},{"user_id":189,"name":"Tristanesque","steam_id":76561198995612942,"connected_time":246000000000,"state":"active","ping":70},{"user_id":104,"name":"Cutlass","steam_id":76561197979392696,"connected_time":5593000000000,"state":"active","ping":53},{"user_id":169,"name":"_Draco","steam_id":76561198146948895,"connected_time":1228000000000,"state":"active","ping":68},{"user_id":103,"name":"neJ","steam_id":76561198003397488,"connected_time":5605000000000,"state":"active","ping":75},{"user_id":153,"name":"okutanse","steam_id":76561198360957536,"connected_time":1893000000000,"state":"active","ping":114},{"user_id":182,"name":"Covetousix","steam_id":76561198293936824,"connected_time":347000000000,"state":"active","ping":74},{"user_id":192,"name":"dog","steam_id":76561198098065932,"connected_time":183000000000,"state":"active","ping":45},{"user_id":187,"name":"Rex Z'Beq","steam_id":76561199300590000,"connected_time":274000000000,"state":"active","ping":85},{"user_id":141,"name":"Minimi","steam_id":76561198873850443,"connected_time":2263000000000,"state":"active","ping":43},{"user_id":175,"name":"Nik1","steam_id":76561198970762992,"connected_time":787000000000,"state":"active","ping":82},{"user_id":183,"name":"Speed Wagon","steam_id":76561198064444787,"connected_time":344000000000,"state":"active","ping":132},{"user_id":191,"name":"germinator","steam_id":76561199387893648,"connected_time":241000000000,"state":"active","ping":99},{"user_id":170,"name":"Maldom","steam_id":76561198000687053,"connected_time":1116000000000,"state":"active","ping":57},{"user_id":166,"name":"Sarahtonin","steam_id":76561197992144115,"connected_time":1474000000000,"state":"active","ping":70},{"user_id":186,"name":"xulera","steam_id":76561198080736030,"connected_time":282000000000,"state":"active","ping":60},{"user_id":94,"name":"Noob_with_source","steam_id":76561198870362103,"connected_time":6333000000000,"state":"active","ping":56},{"user_id":179,"name":"PASTAMAN!!!","steam_id":76561198995641765,"connected_time":489000000000,"state":"active","ping":60}]},{"server_id":114,"name":"Uncletopia | London | 2 | All Maps","name_short":"lon-2","host":"lon-1.uk.uncletopia.com","port":27025,"enabled":true,"region":"eu","cc":"gb","latitude":51.509865,"longitude":-0.118092,"reserved":0,"last_update":"0001-01-01T00:00:00Z","name_a2s":"Uncletopia | London | 2 | All Maps","protocol":17,"map":"koth_highpass","folder":"tf","game":"Team Fortress","app_id":440,"player_count":0,"max_players":24,"Bots":0,"server_type":"Dedicated","server_os":"Linux","password":true,"vac":true,"version":"7932396","steam_id":85568392924470941,"keywords":["cp","nocrits","nodmgspread","uncletopia"],"game_id":440,"stv_port":27026,"stv_name":"Uncletopia | London | 2 | All Maps | STV","players":null},{"server_id":320,"name":"Uncletopia | London | 3 | All Maps","name_short":"lon-3","host":"lon-1.uk.uncletopia.com","port":27035,"enabled":true,"region":"eu","cc":"gb","latitude":51.509865,"longitude":-0.118092,"reserved":0,"last_update":"0001-01-01T00:00:00Z","name_a2s":"Uncletopia | London | 3 | All Maps","protocol":17,"map":"cp_process_final","folder":"tf","game":"Team Fortress","app_id":440,"player_count":0,"max_players":24,"Bots":0,"server_type":"Dedicated","server_os":"Linux","password":true,"vac":true,"version":"7932396","steam_id":85568392924510192,"keywords":["cp","nocrits","nodmgspread","uncletopia"],"game_id":440,"stv_port":27036,"stv_name":"Uncletopia | London | 3 | All Maps | STV","players":null},{"server_id":321,"name":"Uncletopia | London | 4 | All Maps","name_short":"lon-4","host":"lon-1.uk.uncletopia.com","port":27045,"enabled":true,"region":"eu","cc":"gb","latitude":51.509865,"longitude":-0.118092,"reserved":0,"last_update":"0001-01-01T00:00:00Z","name_a2s":"Uncletopia | London | 4 | All Maps","protocol":17,"map":"pl_snowycoast","folder":"tf","game":"Team Fortress","app_id":440,"player_count":0,"max_players":24,"Bots":0,"server_type":"Dedicated","server_os":"Linux","password":true,"vac":true,"version":"7932396","steam_id":85568392924510193,"keywords":["nocrits","nodmgspread","payload","uncletopia"],"game_id":440,"stv_port":27046,"stv_name":"Uncletopia | London | 4 | All Maps | STV","players":null},{"server_id":21,"name":"Uncletopia | London | 5 | All Maps","name_short":"lon-5","host":"lon-1.uk.uncletopia.com","port":27055,"enabled":true,"region":"eu","cc":"gb","latitude":51.509865,"longitude":-0.118092,"reserved":0,"last_update":"0001-01-01T00:00:00Z","name_a2s":"Uncletopia | London | 5 | All Maps","protocol":17,"map":"koth_lakeside_final","folder":"tf","game":"Team Fortress","app_id":440,"player_count":3,"max_players":24,"Bots":0,"server_type":"Dedicated","server_os":"Linux","password":true,"vac":true,"version":"7932396","steam_id":85568392924742829,"keywords":["cp","nocrits","nodmgspread","uncletopia"],"game_id":440,"stv_port":27056,"stv_name":"Uncletopia | London | 5 | All Maps | STV","players":[{"user_id":13,"name":"2fort's silliest soldier","steam_id":76561198128613675,"connected_time":538000000000,"state":"active","ping":83},{"user_id":14,"name":"Aisforlike","steam_id":76561199482110668,"connected_time":128000000000,"state":"active","ping":136},{"user_id":15,"name":"Warpzel65","steam_id":76561198799303596,"connected_time":107000000000,"state":"active","ping":107}]},{"server_id":22,"name":"Uncletopia | London | 6 | All Maps","name_short":"lon-6","host":"lon-1.uk.uncletopia.com","port":27065,"enabled":true,"region":"eu","cc":"gb","latitude":51.509865,"longitude":-0.118092,"reserved":0,"last_update":"0001-01-01T00:00:00Z","name_a2s":"Uncletopia | London | 6 | All Maps","protocol":17,"map":"pl_badwater","folder":"tf","game":"Team Fortress","app_id":440,"player_count":24,"max_players":24,"Bots":0,"server_type":"Dedicated","server_os":"Linux","password":true,"vac":true,"version":"7932396","steam_id":85568392924742830,"keywords":["nocrits","nodmgspread","payload","uncletopia"],"game_id":440,"stv_port":27066,"stv_name":"Uncletopia | London | 6 | All Maps | STV","players":[{"user_id":462,"name":"EmmetTheSeal","steam_id":76561199021581320,"connected_time":2381000000000,"state":"active","ping":42},{"user_id":465,"name":"MeBandae","steam_id":76561198910770432,"connected_time":1944000000000,"state":"active","ping":67},{"user_id":463,"name":"Munibe","steam_id":76561198107967904,"connected_time":2264000000000,"state":"active","ping":59},{"user_id":474,"name":"WarHawk981","steam_id":76561198068785809,"connected_time":1718000000000,"state":"active","ping":160},{"user_id":500,"name":"The SexHaver Gamer","steam_id":76561198093735871,"connected_time":250000000000,"state":"active","ping":60},{"user_id":476,"name":"TuRnIp Maybe?","steam_id":76561199103094723,"connected_time":1620000000000,"state":"active","ping":176},{"user_id":470,"name":"kornetov.vitalya","steam_id":76561199286034833,"connected_time":1770000000000,"state":"active","ping":101},{"user_id":496,"name":"Bobirulez","steam_id":76561198009125458,"connected_time":767000000000,"state":"active","ping":75},{"user_id":501,"name":"chess club manager","steam_id":76561198011047413,"connected_time":238000000000,"state":"active","ping":84},{"user_id":466,"name":"ROX","steam_id":76561198272289320,"connected_time":1932000000000,"state":"active","ping":64},{"user_id":498,"name":"Lukas","steam_id":76561198009118452,"connected_time":323000000000,"state":"active","ping":68},{"user_id":497,"name":"Lyncurion","steam_id":76561199260022725,"connected_time":338000000000,"state":"active","ping":79},{"user_id":461,"name":"Soaya","steam_id":76561199101510855,"connected_time":2391000000000,"state":"active","ping":49},{"user_id":504,"name":"generic alias","steam_id":76561198271607226,"connected_time":214000000000,"state":"active","ping":93},{"user_id":499,"name":"stoneflower","steam_id":76561198046250873,"connected_time":273000000000,"state":"active","ping":81},{"user_id":475,"name":"AwterSix","steam_id":76561198042561678,"connected_time":1697000000000,"state":"active","ping":65},{"user_id":502,"name":"Lyell","steam_id":76561198350329389,"connected_time":232000000000,"state":"active","ping":78},{"user_id":494,"name":"MovingIsOverRated","steam_id":76561198385633292,"connected_time":934000000000,"state":"active","ping":85},{"user_id":480,"name":"DelaNo","steam_id":76561199125086655,"connected_time":1468000000000,"state":"active","ping":41},{"user_id":481,"name":"Lactose Man","steam_id":76561198169855930,"connected_time":1440000000000,"state":"active","ping":163},{"user_id":492,"name":"Veef Beffer","steam_id":76561198044442995,"connected_time":983000000000,"state":"active","ping":67},{"user_id":503,"name":"Terminally Offline","steam_id":76561198146194820,"connected_time":230000000000,"state":"active","ping":65},{"user_id":486,"name":"please do not the cat","steam_id":76561198089003514,"connected_time":1173000000000,"state":"active","ping":49},{"user_id":493,"name":"Roachy","steam_id":76561198004508448,"connected_time":970000000000,"state":"active","ping":41}]},{"server_id":40,"name":"Uncletopia | London | 7 | No Payload","name_short":"lon-7","host":"lon-1.uk.uncletopia.com","port":27075,"enabled":true,"region":"eu","cc":"gb","latitude":51.509865,"longitude":-0.118092,"reserved":0,"last_update":"0001-01-01T00:00:00Z","name_a2s":"Uncletopia | London | 7 | No Payload","protocol":17,"map":"pl_snowycoast","folder":"tf","game":"Team Fortress","app_id":440,"player_count":0,"max_players":24,"Bots":0,"server_type":"Dedicated","server_os":"Linux","password":true,"vac":true,"version":"7932396","steam_id":85568392924964314,"keywords":["nocrits","nodmgspread","payload","uncletopia"],"game_id":440,"stv_port":27076,"stv_name":"Uncletopia | London | 7 | No Payload | STV","players":null},{"server_id":41,"name":"Uncletopia | London | 8 | Community","name_short":"lon-8","host":"lon-1.uk.uncletopia.com","port":27085,"enabled":true,"region":"eu","cc":"gb","latitude":51.509865,"longitude":-0.118092,"reserved":0,"last_update":"0001-01-01T00:00:00Z","name_a2s":"Uncletopia | London | 8 | Community","protocol":17,"map":"workshop/pl_badwater_pro_v12.ugc2142942074","folder":"tf","game":"Team Fortress","app_id":440,"player_count":0,"max_players":24,"Bots":0,"server_type":"Dedicated","server_os":"Linux","password":true,"vac":true,"version":"7932396","steam_id":85568392924964315,"keywords":["nocrits","nodmgspread","payload","uncletopia"],"game_id":440,"stv_port":27086,"stv_name":"Uncletopia | London | 8 | Community | STV","players":null},{"server_id":300,"name":"Uncletopia | Montréal | 1 | All Maps","name_short":"mtl-1","host":"mtl-1.ca.uncletopia.com","port":27015,"enabled":true,"region":"us-east","cc":"ca","latitude":45.50889,"longitude":-73.56167,"reserved":0,"last_update":"0001-01-01T00:00:00Z","name_a2s":"Uncletopia | Montréal | 1 | All Maps","protocol":17,"map":"cp_altitude","folder":"tf","game":"Team Fortress","app_id":440,"player_count":0,"max_players":24,"Bots":0,"server_type":"Dedicated","server_os":"Linux","password":true,"vac":true,"version":"7932396","steam_id":85568392924500087,"keywords":["cp","nocrits","nodmgspread","uncletopia"],"game_id":440,"stv_port":27016,"stv_name":"Uncletopia | Montréal | 1 | All Maps | STV","players":null},{"server_id":301,"name":"Uncletopia | Montréal | 2 | All Maps","name_short":"mtl-2","host":"mtl-1.ca.uncletopia.com","port":27025,"enabled":true,"region":"us-east","cc":"ca","latitude":45.50889,"longitude":-73.56167,"reserved":0,"last_update":"0001-01-01T00:00:00Z","name_a2s":"Uncletopia | Montréal | 2 | All Maps","protocol":17,"map":"koth_lakeside_final","folder":"tf","game":"Team Fortress","app_id":440,"player_count":0,"max_players":24,"Bots":0,"server_type":"Dedicated","server_os":"Linux","password":true,"vac":true,"version":"7932396","steam_id":85568392924500088,"keywords":["cp","nocrits","nodmgspread","uncletopia"],"game_id":440,"stv_port":27026,"stv_name":"Uncletopia | Montréal | 2 | All Maps | STV","players":null},{"server_id":302,"name":"Uncletopia | Montréal | 3 | All Maps","name_short":"mtl-3","host":"mtl-1.ca.uncletopia.com","port":27035,"enabled":true,"region":"us-east","cc":"ca","latitude":45.50889,"longitude":-73.56167,"reserved":0,"last_update":"0001-01-01T00:00:00Z","name_a2s":"Uncletopia | Montréal | 3 | All Maps","protocol":17,"map":"cp_process_final","folder":"tf","game":"Team Fortress","app_id":440,"player_count":0,"max_players":24,"Bots":0,"server_type":"Dedicated","server_os":"Linux","password":true,"vac":true,"version":"7932396","steam_id":85568392924500089,"keywords":["cp","nocrits","nodmgspread","uncletopia"],"game_id":440,"stv_port":27036,"stv_name":"Uncletopia | Montréal | 3 | All Maps | STV","players":null},{"server_id":303,"name":"Uncletopia | Montréal | 4 | No Payload","name_short":"mtl-4","host":"mtl-1.ca.uncletopia.com","port":27045,"enabled":true,"region":"us-east","cc":"ca","latitude":45.50889,"longitude":-73.56167,"reserved":0,"last_update":"0001-01-01T00:00:00Z","name_a2s":"Uncletopia | Montréal | 4 | No Payload","protocol":17,"map":"ctf_landfall","folder":"tf","game":"Team Fortress","app_id":440,"player_count":0,"max_players":24,"Bots":0,"server_type":"Dedicated","server_os":"Linux","password":true,"vac":true,"version":"7932396","steam_id":85568392924500090,"keywords":["ctf","nocrits","nodmgspread","uncletopia"],"game_id":440,"stv_port":27046,"stv_name":"Uncletopia | Montréal | 4 | No Payload | STV","players":null},{"server_id":13,"name":"Uncletopia | New York City | 1 | All Maps","name_short":"nyc-1","host":"nyc-1.us.uncletopia.com","port":27015,"enabled":true,"region":"us-east","cc":"us","latitude":40.73061,"longitude":-73.93524,"reserved":0,"last_update":"0001-01-01T00:00:00Z","name_a2s":"Uncletopia | New York City | 1 | All Maps","protocol":17,"map":"pl_snowycoast","folder":"tf","game":"Team Fortress","app_id":440,"player_count":0,"max_players":24,"Bots":0,"server_type":"Dedicated","server_os":"Linux","password":true,"vac":true,"version":"7932396","steam_id":85568392924469993,"keywords":["nocrits","nodmgspread","payload","uncletopia"],"game_id":440,"stv_port":27016,"stv_name":"Uncletopia | New York City | 1 | All Maps | STV","players":null},{"server_id":14,"name":"Uncletopia | New York City | 2 | All Maps","name_short":"nyc-2","host":"nyc-1.us.uncletopia.com","port":27025,"enabled":true,"region":"us-east","cc":"us","latitude":40.73061,"longitude":-73.93524,"reserved":0,"last_update":"0001-01-01T00:00:00Z","name_a2s":"Uncletopia | New York City | 2 | All Maps","protocol":17,"map":"koth_lakeside_final","folder":"tf","game":"Team Fortress","app_id":440,"player_count":0,"max_players":24,"Bots":0,"server_type":"Dedicated","server_os":"Linux","password":true,"vac":true,"version":"7932396","steam_id":85568392924469994,"keywords":["cp","nocrits","nodmgspread","uncletopia"],"game_id":440,"stv_port":27026,"stv_name":"Uncletopia | New York City | 2 | All Maps | STV","players":null},{"server_id":15,"name":"Uncletopia | New York City | 3 | Stopwatch Beta","name_short":"nyc-3","host":"nyc-1.us.uncletopia.com","port":27035,"enabled":true,"region":"us-east","cc":"us","latitude":40.73061,"longitude":-73.93524,"reserved":0,"last_update":"0001-01-01T00:00:00Z","name_a2s":"Uncletopia | New York City | 3 | Stopwatch Beta","protocol":17,"map":"cp_sunshine","folder":"tf","game":"Team Fortress","app_id":440,"player_count":0,"max_players":24,"Bots":0,"server_type":"Dedicated","server_os":"Linux","password":true,"vac":true,"version":"7932396","steam_id":85568392924742820,"keywords":["cp","nocrits","nodmgspread","uncletopia"],"game_id":440,"stv_port":27036,"stv_name":"Uncletopia | New York City | 3 | Stopwatch Beta | STV","players":null},{"server_id":16,"name":"Uncletopia | New York City | 4 | Community","name_short":"nyc-4","host":"nyc-1.us.uncletopia.com","port":27045,"enabled":true,"region":"us-east","cc":"us","latitude":40.73061,"longitude":-73.93524,"reserved":0,"last_update":"0001-01-01T00:00:00Z","name_a2s":"Uncletopia | New York City | 4 | Community","protocol":17,"map":"workshop/cp_glacier_rc6.ugc2905735376","folder":"tf","game":"Team Fortress","app_id":440,"player_count":0,"max_players":24,"Bots":0,"server_type":"Dedicated","server_os":"Linux","password":true,"vac":true,"version":"7932396","steam_id":85568392924742821,"keywords":["cp","nocrits","nodmgspread","uncletopia"],"game_id":440,"stv_port":27046,"stv_name":"Uncletopia | New York City | 4 | Community | STV","players":null},{"server_id":142,"name":"Uncletopia | São Paulo | 1 | All Maps","name_short":"sao-1","host":"sao-1.br.uncletopia.com","port":27015,"enabled":true,"region":"sa","cc":"br","latitude":-23.533773,"longitude":-46.62529,"reserved":0,"last_update":"0001-01-01T00:00:00Z","name_a2s":"Uncletopia | São Paulo | 1 | All Maps","protocol":17,"map":"koth_lakeside_final","folder":"tf","game":"Team Fortress","app_id":440,"player_count":0,"max_players":24,"Bots":0,"server_type":"Dedicated","server_os":"Linux","password":true,"vac":true,"version":"7932396","steam_id":85568392924469996,"keywords":["cp","nocrits","nodmgspread","uncletopia"],"game_id":440,"stv_port":27016,"stv_name":"Uncletopia | São Paulo | 1 | All Maps | STV","players":null},{"server_id":143,"name":"Uncletopia | São Paulo | 2 | All Maps","name_short":"sao-2","host":"sao-2.br.uncletopia.com","port":27015,"enabled":true,"region":"sa","cc":"br","latitude":-23.533773,"longitude":-46.62529,"reserved":0,"last_update":"0001-01-01T00:00:00Z","name_a2s":"Uncletopia | São Paulo | 2 | All Maps","protocol":17,"map":"pl_swiftwater_final1","folder":"tf","game":"Team Fortress","app_id":440,"player_count":0,"max_players":24,"Bots":0,"server_type":"Dedicated","server_os":"Linux","password":true,"vac":true,"version":"7932396","steam_id":85568392924485349,"keywords":["nocrits","nodmgspread","payload","uncletopia"],"game_id":440,"stv_port":27016,"stv_name":"Uncletopia | São Paulo | 2 | All Maps | STV","players":null},{"server_id":7,"name":"Uncletopia | Seattle | 1 | All Maps","name_short":"sea-1","host":"sea-1.us.uncletopia.com","port":27015,"enabled":true,"region":"us-west","cc":"us","latitude":47.608013,"longitude":-122.33517,"reserved":0,"last_update":"0001-01-01T00:00:00Z","name_a2s":"Uncletopia | Seattle | 1 | All Maps","protocol":17,"map":"pl_badwater","folder":"tf","game":"Team Fortress","app_id":440,"player_count":24,"max_players":24,"Bots":0,"server_type":"Dedicated","server_os":"Linux","password":true,"vac":true,"version":"7932396","steam_id":85568392924469997,"keywords":["nocrits","nodmgspread","payload","uncletopia"],"game_id":440,"stv_port":27016,"stv_name":"Uncletopia | Seattle | 1 | All Maps | STV","players":[{"user_id":69,"name":"Kintsugi","steam_id":76561198301867054,"connected_time":744000000000,"state":"active","ping":64},{"user_id":41,"name":"Gaiduk","steam_id":76561198112323877,"connected_time":1608000000000,"state":"active","ping":117},{"user_id":68,"name":"Wall Beavers","steam_id":76561198154813241,"connected_time":792000000000,"state":"active","ping":98},{"user_id":70,"name":"alset333","steam_id":76561198405345260,"connected_time":743000000000,"state":"active","ping":112},{"user_id":33,"name":"Awesome Style Gaming","steam_id":76561198311537713,"connected_time":1844000000000,"state":"active","ping":110},{"user_id":24,"name":"Peppino Spaghetti","steam_id":76561198097968551,"connected_time":2428000000000,"state":"active","ping":106},{"user_id":38,"name":"Caterpillar Smoking a Blunt","steam_id":76561198369511235,"connected_time":1744000000000,"state":"active","ping":123},{"user_id":71,"name":"BIG HOG","steam_id":76561198079923652,"connected_time":704000000000,"state":"active","ping":101},{"user_id":75,"name":"Jerphf","steam_id":76561198328825964,"connected_time":528000000000,"state":"active","ping":106},{"user_id":58,"name":"s71nk3y / Stinky / Apestoso","steam_id":76561198060954715,"connected_time":1149000000000,"state":"active","ping":128},{"user_id":81,"name":"Meet The Kazoo","steam_id":76561199229748300,"connected_time":294000000000,"state":"active","ping":103},{"user_id":79,"name":"dep","steam_id":76561198044106812,"connected_time":342000000000,"state":"active","ping":108},{"user_id":57,"name":"downhillchaos","steam_id":76561198079462284,"connected_time":1220000000000,"state":"active","ping":57},{"user_id":74,"name":"Smug Pug","steam_id":76561198059423334,"connected_time":544000000000,"state":"active","ping":103},{"user_id":67,"name":"Speedy","steam_id":76561198080761661,"connected_time":814000000000,"state":"active","ping":143},{"user_id":83,"name":"Deltaco","steam_id":76561198094572694,"connected_time":245000000000,"state":"active","ping":165},{"user_id":60,"name":"Jesus Hooves (She/Her)","steam_id":76561198884198807,"connected_time":1051000000000,"state":"active","ping":45},{"user_id":77,"name":"dankalopacus","steam_id":76561198099254868,"connected_time":516000000000,"state":"active","ping":88},{"user_id":62,"name":"LarryOfAllTrades","steam_id":76561198325492137,"connected_time":973000000000,"state":"active","ping":89},{"user_id":73,"name":"The Collective(Hypnotist)","steam_id":76561198170423483,"connected_time":648000000000,"state":"active","ping":124},{"user_id":80,"name":"flobbly wobbly","steam_id":76561199013819103,"connected_time":341000000000,"state":"active","ping":35},{"user_id":53,"name":"o o o o o o o o o","steam_id":76561197993757506,"connected_time":1289000000000,"state":"active","ping":76},{"user_id":84,"name":"SaaxoM","steam_id":76561198208256603,"connected_time":150000000000,"state":"active","ping":98},{"user_id":65,"name":"Mediarch","steam_id":76561198050765729,"connected_time":938000000000,"state":"active","ping":48}]},{"server_id":119,"name":"Uncletopia | Seattle | 2 | All Maps","name_short":"sea-2","host":"sea-1.us.uncletopia.com","port":27025,"enabled":true,"region":"us-west","cc":"us","latitude":47.608013,"longitude":-122.33517,"reserved":0,"last_update":"0001-01-01T00:00:00Z","name_a2s":"Uncletopia | Seattle | 2 | All Maps","protocol":17,"map":"pl_badwater","folder":"tf","game":"Team Fortress","app_id":440,"player_count":0,"max_players":24,"Bots":0,"server_type":"Dedicated","server_os":"Linux","password":true,"vac":true,"version":"7932396","steam_id":85568392924469998,"keywords":["nocrits","nodmgspread","payload","uncletopia"],"game_id":440,"stv_port":27026,"stv_name":"Uncletopia | Seattle | 2 | All Maps | STV","players":null},{"server_id":406,"name":"Uncletopia | Seattle | 3 | Stopwatch Beta","name_short":"sea-3","host":"sea-1.us.uncletopia.com","port":27035,"enabled":true,"region":"us-west","cc":"us","latitude":47.608013,"longitude":-122.33517,"reserved":0,"last_update":"0001-01-01T00:00:00Z","name_a2s":"Uncletopia | Seattle | 3 | Stopwatch Beta","protocol":17,"map":"cp_mountainlab","folder":"tf","game":"Team Fortress","app_id":440,"player_count":0,"max_players":24,"Bots":0,"server_type":"Dedicated","server_os":"Linux","password":true,"vac":true,"version":"7932396","steam_id":85568392924515217,"keywords":["cp","nocrits","nodmgspread","uncletopia"],"game_id":440,"stv_port":27036,"stv_name":"Uncletopia | Seattle | 3 | Stopwatch Beta | STV","players":null},{"server_id":17,"name":"Uncletopia | San Francisco | 1 | All Maps","name_short":"sfo-1","host":"sfo-1.us.uncletopia.com","port":27015,"enabled":true,"region":"us-west","cc":"us","latitude":37.77397,"longitude":-122.4313,"reserved":0,"last_update":"0001-01-01T00:00:00Z","name_a2s":"Uncletopia | San Francisco | 1 | All Maps","protocol":17,"map":"pl_frontier_final","folder":"tf","game":"Team Fortress","app_id":440,"player_count":0,"max_players":24,"Bots":0,"server_type":"Dedicated","server_os":"Linux","password":true,"vac":true,"version":"7932396","steam_id":85568392924469999,"keywords":["nocrits","nodmgspread","payload","uncletopia"],"game_id":440,"stv_port":27016,"stv_name":"Uncletopia | San Francisco | 1 | All Maps | STV","players":null},{"server_id":18,"name":"Uncletopia | San Francisco | 2 | All Maps","name_short":"sfo-2","host":"sfo-1.us.uncletopia.com","port":27025,"enabled":true,"region":"us-west","cc":"us","latitude":37.77397,"longitude":-122.4313,"reserved":0,"last_update":"0001-01-01T00:00:00Z","name_a2s":"Uncletopia | San Francisco | 2 | All Maps","protocol":17,"map":"cp_snakewater_final1","folder":"tf","game":"Team Fortress","app_id":440,"player_count":0,"max_players":24,"Bots":0,"server_type":"Dedicated","server_os":"Linux","password":true,"vac":true,"version":"7932396","steam_id":85568392924470000,"keywords":["cp","nocrits","nodmgspread","uncletopia"],"game_id":440,"stv_port":27026,"stv_name":"Uncletopia | San Francisco | 2 | All Maps | STV","players":null},{"server_id":19,"name":"Uncletopia | San Francisco | 3 | Stopwatch Beta","name_short":"sfo-3","host":"sfo-1.us.uncletopia.com","port":27035,"enabled":true,"region":"us-west","cc":"us","latitude":37.77397,"longitude":-122.4313,"reserved":0,"last_update":"0001-01-01T00:00:00Z","name_a2s":"Uncletopia | San Francisco | 3 | Stopwatch Beta","protocol":17,"map":"koth_lakeside_final","folder":"tf","game":"Team Fortress","app_id":440,"player_count":0,"max_players":24,"Bots":0,"server_type":"Dedicated","server_os":"Linux","password":true,"vac":true,"version":"7932396","steam_id":85568392924742824,"keywords":["cp","nocrits","nodmgspread","uncletopia"],"game_id":440,"stv_port":27036,"stv_name":"Uncletopia | San Francisco | 3 | Stopwatch Beta | STV","players":null},{"server_id":20,"name":"Uncletopia | San Francisco | 4 | Community","name_short":"sfo-4","host":"sfo-1.us.uncletopia.com","port":27045,"enabled":true,"region":"us-west","cc":"us","latitude":37.77397,"longitude":-122.4313,"reserved":0,"last_update":"0001-01-01T00:00:00Z","name_a2s":"Uncletopia | San Francisco | 4 | Community","protocol":17,"map":"workshop/pl_boundary_final1.ugc456799153","folder":"tf","game":"Team Fortress","app_id":440,"player_count":9,"max_players":24,"Bots":0,"server_type":"Dedicated","server_os":"Linux","password":true,"vac":true,"version":"7932396","steam_id":85568392924742826,"keywords":["nocrits","nodmgspread","payload","uncletopia"],"game_id":440,"stv_port":27046,"stv_name":"Uncletopia | San Francisco | 4 | Community | STV","players":[{"user_id":13,"name":"fish","steam_id":76561198194508197,"connected_time":620000000000,"state":"active","ping":55},{"user_id":14,"name":"Fizpaz","steam_id":76561198833503696,"connected_time":502000000000,"state":"active","ping":380},{"user_id":7,"name":"Hay2.0","steam_id":76561199167964233,"connected_time":4617000000000,"state":"active","ping":78},{"user_id":10,"name":"Thequirka","steam_id":76561198968058652,"connected_time":2948000000000,"state":"active","ping":63},{"user_id":15,"name":"PieTheMan","steam_id":76561198027825469,"connected_time":451000000000,"state":"active","ping":150},{"user_id":16,"name":"error666alpha","steam_id":76561199380336197,"connected_time":331000000000,"state":"active","ping":249},{"user_id":17,"name":"name420","steam_id":76561198129374525,"connected_time":122000000000,"state":"active","ping":92},{"user_id":18,"name":"Shalashaska","steam_id":76561199074568629,"connected_time":36000000000,"state":"active","ping":93},{"user_id":19,"name":"Rain","steam_id":76561198032318897,"connected_time":12000000000,"state":"spawning","ping":159}]},{"server_id":141,"name":"Uncletopia | Sydney | 1 | All Maps","name_short":"syd-1","host":"syd-1.au.uncletopia.com","port":27015,"enabled":true,"region":"au","cc":"au","latitude":-33.865143,"longitude":151.2099,"reserved":0,"last_update":"0001-01-01T00:00:00Z","name_a2s":"Uncletopia | Sydney | 1 | All Maps","protocol":17,"map":"koth_lakeside_final","folder":"tf","game":"Team Fortress","app_id":440,"player_count":0,"max_players":24,"Bots":0,"server_type":"Dedicated","server_os":"Linux","password":true,"vac":true,"version":"7932396","steam_id":85568392924470001,"keywords":["cp","nocrits","nodmgspread","uncletopia"],"game_id":440,"stv_port":27016,"stv_name":"Uncletopia | Sydney | 1 | All Maps | STV","players":null},{"server_id":123,"name":"Uncletopia | Sydney | 2 | All Maps","name_short":"syd-2","host":"syd-1.au.uncletopia.com","port":27025,"enabled":true,"region":"au","cc":"au","latitude":-33.865143,"longitude":151.2099,"reserved":0,"last_update":"0001-01-01T00:00:00Z","name_a2s":"Uncletopia | Sydney | 2 | All Maps","protocol":17,"map":"pl_pier","folder":"tf","game":"Team Fortress","app_id":440,"player_count":0,"max_players":24,"Bots":0,"server_type":"Dedicated","server_os":"Linux","password":true,"vac":true,"version":"7932396","steam_id":85568392924470002,"keywords":["nocrits","nodmgspread","payload","uncletopia"],"game_id":440,"stv_port":27026,"stv_name":"Uncletopia | Sydney | 2 | All Maps | STV","players":null},{"server_id":395,"name":"Uncletopia | Sydney | 3 | All Maps","name_short":"syd-3","host":"syd-1.au.uncletopia.com","port":27035,"enabled":true,"region":"au","cc":"au","latitude":-33.865143,"longitude":151.2099,"reserved":0,"last_update":"0001-01-01T00:00:00Z","name_a2s":"Uncletopia | Sydney | 3 | All Maps","protocol":17,"map":"koth_viaduct","folder":"tf","game":"Team Fortress","app_id":440,"player_count":0,"max_players":24,"Bots":0,"server_type":"Dedicated","server_os":"Linux","password":true,"vac":true,"version":"7932396","steam_id":85568392925194467,"keywords":["cp","nocrits","nodmgspread","uncletopia"],"game_id":440,"stv_port":27036,"stv_name":"Uncletopia | Sydney | 3 | All Maps | STV","players":null},{"server_id":396,"name":"Uncletopia | Sydney | 4 | All Maps","name_short":"syd-4","host":"syd-1.au.uncletopia.com","port":27045,"enabled":true,"region":"au","cc":"au","latitude":-33.865143,"longitude":151.2099,"reserved":0,"last_update":"0001-01-01T00:00:00Z","name_a2s":"Uncletopia | Sydney | 4 | All Maps","protocol":17,"map":"koth_lakeside_final","folder":"tf","game":"Team Fortress","app_id":440,"player_count":0,"max_players":24,"Bots":0,"server_type":"Dedicated","server_os":"Linux","password":true,"vac":true,"version":"7932396","steam_id":85568392925397958,"keywords":["cp","nocrits","nodmgspread","uncletopia"],"game_id":440,"stv_port":27046,"stv_name":"Uncletopia | Sydney | 4 | All Maps | STV","players":null},{"server_id":58,"name":"Uncletopia | Sydney | 5 | Stopwatch Beta","name_short":"syd-5","host":"syd-1.au.uncletopia.com","port":27055,"enabled":true,"region":"au","cc":"au","latitude":-33.865143,"longitude":151.2099,"reserved":0,"last_update":"0001-01-01T00:00:00Z","name_a2s":"Uncletopia | Sydney | 5 | Stopwatch Beta","protocol":17,"map":"pl_borneo","folder":"tf","game":"Team Fortress","app_id":440,"player_count":0,"max_players":24,"Bots":0,"server_type":"Dedicated","server_os":"Linux","password":true,"vac":true,"version":"7932396","steam_id":85568392925397959,"keywords":["nocrits","nodmgspread","payload","uncletopia"],"game_id":440,"stv_port":27056,"stv_name":"Uncletopia | Sydney | 5 | Stopwatch Beta | STV","players":null},{"server_id":59,"name":"Uncletopia | Sydney | 6 | Community","name_short":"syd-6","host":"syd-1.au.uncletopia.com","port":27065,"enabled":true,"region":"au","cc":"au","latitude":-33.865143,"longitude":151.2099,"reserved":0,"last_update":"0001-01-01T00:00:00Z","name_a2s":"Uncletopia | Sydney | 6 | Community","protocol":17,"map":"workshop/cp_sulfur_rc2.ugc619869471","folder":"tf","game":"Team Fortress","app_id":440,"player_count":0,"max_players":24,"Bots":0,"server_type":"Dedicated","server_os":"Linux","password":true,"vac":true,"version":"7932396","steam_id":85568392925397960,"keywords":["cp","nocrits","nodmgspread","uncletopia"],"game_id":440,"stv_port":27066,"stv_name":"Uncletopia | Sydney | 6 | Community | STV","players":null},{"server_id":49,"name":"Uncletopia | Warsaw | 1 | All Maps","name_short":"waw-1","host":"waw-1.pl.uncletopia.com","port":27015,"enabled":true,"region":"eu","cc":"pl","latitude":52.2297,"longitude":21.017532,"reserved":0,"last_update":"0001-01-01T00:00:00Z","name_a2s":"","protocol":0,"map":"","folder":"","game":"","app_id":0,"player_count":0,"max_players":0,"Bots":0,"server_type":"","server_os":"","password":false,"vac":false,"version":"","steam_id":0,"keywords":null,"game_id":0,"stv_port":0,"stv_name":"","players":null},{"server_id":50,"name":"Uncletopia | Warsaw | 2 | All Maps","name_short":"waw-2","host":"waw-1.pl.uncletopia.com","port":27025,"enabled":true,"region":"eu","cc":"pl","latitude":52.2297,"longitude":21.017532,"reserved":0,"last_update":"0001-01-01T00:00:00Z","name_a2s":"Uncletopia | Warsaw | 2 | All Maps","protocol":17,"map":"koth_cascade","folder":"tf","game":"Team Fortress","app_id":440,"player_count":0,"max_players":24,"Bots":0,"server_type":"Dedicated","server_os":"Linux","password":true,"vac":true,"version":"7932396","steam_id":85568392925397851,"keywords":["cp","nocrits","nodmgspread","uncletopia"],"game_id":440,"stv_port":27026,"stv_name":"Uncletopia | Warsaw | 2 | All Maps | STV","players":null},{"server_id":51,"name":"Uncletopia | Warsaw | 3 | All Maps","name_short":"waw-3","host":"waw-1.pl.uncletopia.com","port":27035,"enabled":true,"region":"eu","cc":"pl","latitude":52.2297,"longitude":21.017532,"reserved":0,"last_update":"0001-01-01T00:00:00Z","name_a2s":"Uncletopia | Warsaw | 3 | All Maps","protocol":17,"map":"koth_lakeside_final","folder":"tf","game":"Team Fortress","app_id":440,"player_count":0,"max_players":24,"Bots":0,"server_type":"Dedicated","server_os":"Linux","password":true,"vac":true,"version":"7932396","steam_id":85568392925397852,"keywords":["cp","nocrits","nodmgspread","uncletopia"],"game_id":440,"stv_port":27036,"stv_name":"Uncletopia | Warsaw | 3 | All Maps | STV","players":null},{"server_id":52,"name":"Uncletopia | Warsaw | 4 | All Maps","name_short":"waw-4","host":"waw-1.pl.uncletopia.com","port":27045,"enabled":true,"region":"eu","cc":"pl","latitude":52.2297,"longitude":21.017532,"reserved":0,"last_update":"0001-01-01T00:00:00Z","name_a2s":"Uncletopia | Warsaw | 4 | All Maps","protocol":17,"map":"pl_swiftwater_final1","folder":"tf","game":"Team Fortress","app_id":440,"player_count":0,"max_players":24,"Bots":0,"server_type":"Dedicated","server_os":"Linux","password":true,"vac":true,"version":"7932396","steam_id":85568392925397853,"keywords":["nocrits","nodmgspread","payload","uncletopia"],"game_id":440,"stv_port":27046,"stv_name":"Uncletopia | Warsaw | 4 | All Maps | STV","players":null},{"server_id":53,"name":"Uncletopia | Warsaw | 5 | Stopwatch Beta","name_short":"waw-5","host":"waw-1.pl.uncletopia.com","port":27055,"enabled":true,"region":"eu","cc":"pl","latitude":52.2297,"longitude":21.017532,"reserved":0,"last_update":"0001-01-01T00:00:00Z","name_a2s":"Uncletopia | Warsaw | 5 | Stopwatch Beta","protocol":17,"map":"koth_highpass","folder":"tf","game":"Team Fortress","app_id":440,"player_count":0,"max_players":24,"Bots":0,"server_type":"Dedicated","server_os":"Linux","password":true,"vac":true,"version":"7932396","steam_id":85568392925397854,"keywords":["cp","nocrits","nodmgspread","uncletopia"],"game_id":440,"stv_port":27056,"stv_name":"Uncletopia | Warsaw | 5 | Stopwatch Beta | STV","players":null},{"server_id":54,"name":"Uncletopia | Warsaw | 6 | Community","name_short":"waw-6","host":"waw-1.pl.uncletopia.com","port":27065,"enabled":true,"region":"eu","cc":"pl","latitude":52.2297,"longitude":21.017532,"reserved":0,"last_update":"0001-01-01T00:00:00Z","name_a2s":"Uncletopia | Warsaw | 6 | Community","protocol":17,"map":"pl_upward","folder":"tf","game":"Team Fortress","app_id":440,"player_count":0,"max_players":24,"Bots":0,"server_type":"Dedicated","server_os":"Linux","password":true,"vac":true,"version":"7932396","steam_id":85568392925397856,"keywords":["nocrits","nodmgspread","payload","uncletopia"],"game_id":440,"stv_port":27066,"stv_name":"Uncletopia | Warsaw | 6 | Community | STV","players":null}]}