{"status":true,"message":"","result":[{"server_id":9,"name":"Uncletopia | Atlanta | 1 | All Maps","name_short":"atl-1","host":"atl-1.us.uncletopia.com","port":27015,"enabled":true,"region":"us-east","cc":"us","latitude":33.753746,"longitude":-84.38633,"reserved":0,"last_update":"0001-01-01T00:00:00Z","name_a2s":"Uncletopia | Atlanta | 1 | All Maps","protocol":17,"map":"pl_frontier_final","folder":"tf","game":"Team Fortress","app_id":440,"player_count":24,"max_players":24,"Bots":0,"server_type":"Dedicated","server_os":"Linux","password":true,"vac":true,"version":"7757534","steam_id":85568392924469982,"keywords":["nocrits","nodmgspread","payload","uncletopia"],"game_id":440,"stv_port":27016,"stv_name":"Uncletopia | Atlanta | 1 | All Maps | STV","players":[{"user_id":171,"name":"Wumbologist","steam_id":76561198188729514,"connected_time":1386000000000,"state":"active","ping":45},{"user_id":173,"name":"BOT Positronic♥June (they/she","steam_id":76561198042556857,"connected_time":1078000000000,"state":"active","ping":74},{"user_id":139,"name":"Mr. Dry Lips","steam_id":76561198028157625,"connected_time":3993000000000,"state":"active","ping":100},{"user_id":165,"name":"Bloo","steam_id":76561199015827567,"connected_time":1730000000000,"state":"active","ping":72},{"user_id":147,"name":"PunchTrees 7","steam_id":76561198054328901,"connected_time":3124000000000,"state":"active","ping":60},{"user_id":150,"name":"submissive femboy","steam_id":76561199105702683,"connected_time":2879000000000,"state":"active","ping":63},{"user_id":156,"name":"Squiliam Fancyson","steam_id":76561199029458936,"connected_time":2054000000000,"state":"active","ping":55},{"user_id":160,"name":"Whatrus","steam_id":76561198340908301,"connected_time":1965000000000,"state":"active","ping":86},{"user_id":154,"name":"❀TheFlyingSpaghettiMonster❀","steam_id":76561198094145477,"connected_time":2422000000000,"state":"active","ping":60},{"user_id":132,"name":"citrus","steam_id":76561198294606679,"connected_time":4179000000000,"state":"active","ping":76},{"user_id":175,"name":"ATL1 | Pango","steam_id":76561198069811545,"connected_time":630000000000,"state":"active","ping":48},{"user_id":161,"name":"creeeeeee","steam_id":76561198392539722,"connected_time":1961000000000,"state":"active","ping":75},{"user_id":174,"name":"DO THE DEVIL CHALLENGE","steam_id":76561198045437723,"connected_time":1073000000000,"state":"active","ping":67},{"user_id":162,"name":"Trove","steam_id":76561198110970476,"connected_time":1906000000000,"state":"active","ping":44},{"user_id":112,"name":"marguerite","steam_id":76561198170873495,"connected_time":5416000000000,"state":"active","ping":58},{"user_id":176,"name":"Towns","steam_id":76561198984662863,"connected_time":621000000000,"state":"active","ping":57},{"user_id":178,"name":"William Wallace","steam_id":76561199343316814,"connected_time":416000000000,"state":"active","ping":56},{"user_id":177,"name":"Pineapple Pancakes","steam_id":76561198860470713,"connected_time":571000000000,"state":"active","ping":44},{"user_id":135,"name":"Doc{MDW}","steam_id":76561198075049640,"connected_time":4138000000000,"state":"active","ping":75},{"user_id":134,"name":"--_Cook_--","steam_id":76561198080855748,"connected_time":4156000000000,"state":"active","ping":49},{"user_id":164,"name":"Ashes!","steam_id":76561197998475441,"connected_time":1877000000000,"state":"active","ping":77},{"user_id":170,"name":"Earth Denier","steam_id":76561198273411260,"connected_time":1510000000000,"state":"active","ping":64},{"user_id":141,"name":"Damian","steam_id":76561198159390231,"connected_time":3966000000000,"state":"active","ping":73},{"user_id":145,"name":"Λlxium","steam_id":76561198131272900,"connected_time":3159000000000,"state":"active","ping":70}]},{"server_id":104,"name":"Uncletopia | Atlanta | 2 | All Maps","name_short":"atl-2","host":"atl-1.us.uncletopia.com","port":27025,"enabled":true,"region":"us-east","cc":"us","latitude":33.753746,"longitude":-84.38633,"reserved":0,"last_update":"0001-01-01T00:00:00Z","name_a2s":"Uncletopia | Atlanta | 2 | All Maps","protocol":17,"map":"pl_badwater","folder":"tf","game":"Team Fortress","app_id":440,"player_count":0,"max_players":24,"Bots":0,"server_type":"Dedicated","server_os":"Linux","password":true,"vac":true,"version":"7757534","steam_id":85568392924469983,"keywords":["nocrits","nodmgspread","payload","uncletopia"],"game_id":440,"stv_port":27026,"stv_name":"Uncletopia | Atlanta | 2 | All Maps | STV","players":null},{"server_id":400,"name":"Uncletopia | Atlanta | 3 | Community","name_short":"atl-3","host":"atl-1.us.uncletopia.com","port":27035,"enabled":true,"region":"us-east","cc":"us","latitude":33.753746,"longitude":-84.38633,"reserved":0,"last_update":"0001-01-01T00:00:00Z","name_a2s":"Uncletopia | Atlanta | 3 | Community","protocol":17,"map":"workshop/koth_kemptown_rc1.ugc767410655","folder":"tf","game":"Team Fortress","app_id":440,"player_count":0,"max_players":24,"Bots":0,"server_type":"Dedicated","server_os":"Linux","password":true,"vac":true,"version":"7757534","steam_id":85568392924515187,"keywords":["cp","nocrits","nodmgspread","uncletopia"],"game_id":440,"stv_port":27036,"stv_name":"Uncletopia | Atlanta | 3 | Community | STV","players":null},{"server_id":401,"name":"Uncletopia | Atlanta | 4 | No Payload","name_short":"atl-4","host":"atl-1.us.uncletopia.com","port":27045,"enabled":true,"region":"us-east","cc":"us","latitude":33.753746,"longitude":-84.38633,"reserved":0,"last_update":"0001-01-01T00:00:00Z","name_a2s":"","protocol":0,"map":"","folder":"","game":"","app_id":0,"player_count":0,"max_players":0,"Bots":0,"server_type":"","server_os":"","password":false,"vac":false,"version":"","steam_id":0,"keywords":null,"game_id":0,"stv_port":0,"stv_name":"","players":null},{"server_id":2,"name":"Uncletopia | Chicago | 1 | All Maps","name_short":"chi-1","host":"chi-1.us.uncletopia.com","port":27015,"enabled":true,"region":"us-central","cc":"us","latitude":41.881832,"longitude":-87.62318,"reserved":0,"last_update":"0001-01-01T00:00:00Z","name_a2s":"Uncletopia | Chicago | 1 | All Maps","protocol":17,"map":"cp_steel","folder":"tf","game":"Team Fortress","app_id":440,"player_count":21,"max_players":24,"Bots":0,"server_type":"Dedicated","server_os":"Linux","password":true,"vac":true,"version":"7757534","steam_id":85568392924469984,"keywords":["cp","nocrits","nodmgspread","uncletopia"],"game_id":440,"stv_port":27016,"stv_name":"Uncletopia | Chicago | 1 | All Maps | STV","players":[{"user_id":106,"name":"Tilly","steam_id":76561198054825100,"connected_time":1948000000000,"state":"active","ping":59},{"user_id":121,"name":"Sychke","steam_id":76561198067144055,"connected_time":376000000000,"state":"active","ping":45},{"user_id":120,"name":"Menachem","steam_id":76561198041226420,"connected_time":517000000000,"state":"active","ping":45},{"user_id":93,"name":"his flatulence","steam_id":76561198799404824,"connected_time":2849000000000,"state":"active","ping":64},{"user_id":95,"name":"HeisenBurger","steam_id":76561198040632080,"connected_time":2755000000000,"state":"active","ping":46},{"user_id":16,"name":"katryna","steam_id":76561198023440304,"connected_time":6985000000000,"state":"active","ping":47},{"user_id":104,"name":"Dude Named Bob","steam_id":76561198310448093,"connected_time":1992000000000,"state":"active","ping":44},{"user_id":117,"name":"kivee","steam_id":76561198838223023,"connected_time":555000000000,"state":"active","ping":46},{"user_id":114,"name":"Garfield","steam_id":76561198037803087,"connected_time":639000000000,"state":"active","ping":73},{"user_id":89,"name":"Rornir","steam_id":76561198081829615,"connected_time":3232000000000,"state":"active","ping":32},{"user_id":90,"name":"richard clock","steam_id":76561198048455671,"connected_time":3201000000000,"state":"active","ping":47},{"user_id":123,"name":"Big G","steam_id":76561198067496197,"connected_time":50000000000,"state":"active","ping":45},{"user_id":80,"name":"Weerk","steam_id":76561199209543551,"connected_time":3713000000000,"state":"active","ping":79},{"user_id":57,"name":"moe5x","steam_id":76561198316877833,"connected_time":5650000000000,"state":"active","ping":99},{"user_id":118,"name":"Dwaggy","steam_id":76561198027369555,"connected_time":555000000000,"state":"active","ping":61},{"user_id":116,"name":"Veirū Viseris","steam_id":76561197989857176,"connected_time":570000000000,"state":"active","ping":167},{"user_id":119,"name":"Nen","steam_id":76561198893347370,"connected_time":531000000000,"state":"active","ping":109},{"user_id":108,"name":"Omni","steam_id":76561198035774007,"connected_time":1574000000000,"state":"active","ping":72},{"user_id":105,"name":"WAKARU WAWAWAWA","steam_id":76561198046055673,"connected_time":1984000000000,"state":"active","ping":71},{"user_id":112,"name":"Doctor Bear ʕ •ᴥ•ʔ","steam_id":76561197968103161,"connected_time":864000000000,"state":"active","ping":64},{"user_id":69,"name":"Drachma","steam_id":76561198007310514,"connected_time":4630000000000,"state":"active","ping":72}]},{"server_id":106,"name":"Uncletopia | Chicago | 2 | All Maps","name_short":"chi-2","host":"chi-1.us.uncletopia.com","port":27025,"enabled":true,"region":"us-central","cc":"us","latitude":41.881832,"longitude":-87.62318,"reserved":0,"last_update":"0001-01-01T00:00:00Z","name_a2s":"Uncletopia | Chicago | 2 | All Maps","protocol":17,"map":"pl_upward","folder":"tf","game":"Team Fortress","app_id":440,"player_count":0,"max_players":24,"Bots":0,"server_type":"Dedicated","server_os":"Linux","password":true,"vac":true,"version":"7757534","steam_id":85568392924469985,"keywords":["nocrits","nodmgspread","payload","uncletopia"],"game_id":440,"stv_port":27026,"stv_name":"Uncletopia | Chicago | 2 | All Maps | STV","players":null},{"server_id":402,"name":"Uncletopia | Chicago | 3 | All Maps","name_short":"chi-3","host":"chi-1.us.uncletopia.com","port":27035,"enabled":true,"region":"us-central","cc":"us","latitude":41.881832,"longitude":-87.62318,"reserved":0,"last_update":"0001-01-01T00:00:00Z","name_a2s":"Uncletopia | Chicago | 3 | All Maps","protocol":17,"map":"cp_snakewater_final1","folder":"tf","game":"Team Fortress","app_id":440,"player_count":0,"max_players":24,"Bots":0,"server_type":"Dedicated","server_os":"Linux","password":true,"vac":true,"version":"7757534","steam_id":85568392924515191,"keywords":["cp","nocrits","nodmgspread","uncletopia"],"game_id":440,"stv_port":27036,"stv_name":"Uncletopia | Chicago | 3 | All Maps | STV","players":null},{"server_id":403,"name":"Uncletopia | Chicago | 4 | All Maps","name_short":"chi-4","host":"chi-1.us.uncletopia.com","port":27045,"enabled":true,"region":"us-central","cc":"us","latitude":41.881832,"longitude":-87.62318,"reserved":0,"last_update":"0001-01-01T00:00:00Z","name_a2s":"Uncletopia | Chicago | 4 | All Maps","protocol":17,"map":"koth_lakeside_final","folder":"tf","game":"Team Fortress","app_id":440,"player_count":0,"max_players":24,"Bots":0,"server_type":"Dedicated","server_os":"Linux","password":true,"vac":true,"version":"7757534","steam_id":85568392924515193,"keywords":["cp","nocrits","nodmgspread","uncletopia"],"game_id":440,"stv_port":27046,"stv_name":"Uncletopia | Chicago | 4 | All Maps | STV","players":null},{"server_id":36,"name":"Uncletopia | Chicago | 5 | All Maps","name_short":"chi-5","host":"chi-2.us.uncletopia.com","port":27015,"enabled":true,"region":"us-central","cc":"us","latitude":41.881832,"longitude":-87.62318,"reserved":0,"last_update":"0001-01-01T00:00:00Z","name_a2s":"Uncletopia | Chicago | 5 | All Maps","protocol":17,"map":"pl_frontier_final","folder":"tf","game":"Team Fortress","app_id":440,"player_count":24,"max_players":24,"Bots":0,"server_type":"Dedicated","server_os":"Linux","password":true,"vac":true,"version":"7757534","steam_id":85568392924866362,"keywords":["nocrits","nodmgspread","payload","uncletopia"],"game_id":440,"stv_port":27016,"stv_name":"Uncletopia | Chicago | 5 | All Maps | STV","players":[{"user_id":323,"name":"OttoDogX","steam_id":76561198042007578,"connected_time":2410000000000,"state":"active","ping":88},{"user_id":309,"name":"vv","steam_id":76561198134813102,"connected_time":3095000000000,"state":"active","ping":57},{"user_id":234,"name":"Uso","steam_id":76561198012093238,"connected_time":4106000000000,"state":"active","ping":58},{"user_id":348,"name":"kametro4","steam_id":76561198835430429,"connected_time":736000000000,"state":"active","ping":77},{"user_id":325,"name":"Yiff Police","steam_id":76561198103938356,"connected_time":2340000000000,"state":"active","ping":93},{"user_id":351,"name":"afterglow","steam_id":76561198077902438,"connected_time":542000000000,"state":"active","ping":75},{"user_id":320,"name":"pepsibobby","steam_id":76561198853864511,"connected_time":2677000000000,"state":"active","ping":80},{"user_id":352,"name":"Bozanimal","steam_id":76561198044096897,"connected_time":450000000000,"state":"active","ping":57},{"user_id":328,"name":"liftin'","steam_id":76561199089515791,"connected_time":2283000000000,"state":"active","ping":103},{"user_id":175,"name":"Coffee with a Stranger","steam_id":76561198307422313,"connected_time":8153000000000,"state":"active","ping":72},{"user_id":349,"name":"merlin","steam_id":76561198334511480,"connected_time":728000000000,"state":"active","ping":75},{"user_id":342,"name":"Goodboish","steam_id":76561198170403119,"connected_time":1162000000000,"state":"active","ping":82},{"user_id":343,"name":"Alina Rin","steam_id":76561198936412406,"connected_time":1016000000000,"state":"active","ping":84},{"user_id":344,"name":"Acro Banwagon","steam_id":76561198092451804,"connected_time":1014000000000,"state":"active","ping":68},{"user_id":354,"name":"Pep Seeman","steam_id":76561198038393007,"connected_time":36000000000,"state":"active","ping":49},{"user_id":353,"name":"Newfreaks","steam_id":76561199050174626,"connected_time":66000000000,"state":"active","ping":62},{"user_id":337,"name":"Ejaculation Zach","steam_id":76561198203765200,"connected_time":1811000000000,"state":"active","ping":62},{"user_id":345,"name":"Romo","steam_id":76561198243101572,"connected_time":998000000000,"state":"active","ping":87},{"user_id":241,"name":"narca","steam_id":76561198313400099,"connected_time":4002000000000,"state":"active","ping":60},{"user_id":318,"name":"Deltaco","steam_id":76561198094572694,"connected_time":2734000000000,"state":"active","ping":112},{"user_id":334,"name":"Nassu","steam_id":76561198147367577,"connected_time":1925000000000,"state":"active","ping":70},{"user_id":321,"name":"THEDINKY","steam_id":76561198190077399,"connected_time":2600000000000,"state":"active","ping":73},{"user_id":314,"name":"money getter","steam_id":76561199065645094,"connected_time":2876000000000,"state":"active","ping":81},{"user_id":243,"name":"ARGON Soulidity","steam_id":76561198429603550,"connected_time":4000000000000,"state":"active","ping":73}]},{"server_id":37,"name":"Uncletopia | Chicago | 6 | All Maps","name_short":"chi-6","host":"chi-2.us.uncletopia.com","port":27025,"enabled":true,"region":"us-central","cc":"us","latitude":41.881832,"longitude":-87.62318,"reserved":0,"last_update":"0001-01-01T00:00:00Z","name_a2s":"Uncletopia | Chicago | 6 | All Maps","protocol":17,"map":"pl_borneo","folder":"tf","game":"Team Fortress","app_id":440,"player_count":1,"max_players":24,"Bots":0,"server_type":"Dedicated","server_os":"Linux","password":true,"vac":true,"version":"7757534","steam_id":85568392924866363,"keywords":["nocrits","nodmgspread","payload","uncletopia"],"game_id":440,"stv_port":27026,"stv_name":"Uncletopia | Chicago | 6 | All Maps | STV","players":[{"user_id":10,"name":"ubbers","steam_id":76561199014978136,"connected_time":3000000000,"state":"spawning","ping":215}]},{"server_id":38,"name":"Uncletopia | Chicago | 7 | Stopwatch Beta","name_short":"chi-7","host":"chi-2.us.uncletopia.com","port":27035,"enabled":true,"region":"us-central","cc":"us","latitude":41.881832,"longitude":-87.62318,"reserved":0,"last_update":"0001-01-01T00:00:00Z","name_a2s":"Uncletopia | Chicago | 7 | Stopwatch Beta","protocol":17,"map":"pl_barnblitz","folder":"tf","game":"Team Fortress","app_id":440,"player_count":0,"max_players":24,"Bots":0,"server_type":"Dedicated","server_os":"Linux","password":true,"vac":true,"version":"7757534","steam_id":85568392924866364,"keywords":["nocrits","nodmgspread","payload","uncletopia"],"game_id":440,"stv_port":27036,"stv_name":"Uncletopia | Chicago | 7 | Stopwatch Beta | STV","players":null},{"server_id":39,"name":"Uncletopia | Chicago | 8 | Community","name_short":"chi-8","host":"chi-2.us.uncletopia.com","port":27045,"enabled":true,"region":"us-central","cc":"us","latitude":41.881832,"longitude":-87.62318,"reserved":0,"last_update":"0001-01-01T00:00:00Z","name_a2s":"Uncletopia | Chicago | 8 | Community","protocol":17,"map":"koth_cascade","folder":"tf","game":"Team Fortress","app_id":440,"player_count":0,"max_players":24,"Bots":0,"server_type":"Dedicated","server_os":"Linux","password":true,"vac":true,"version":"7757534","steam_id":85568392924866365,"keywords":["cp","nocrits","nodmgspread","uncletopia"],"game_id":440,"stv_port":27046,"stv_name":"Uncletopia | Chicago | 8 | Community | STV","players":null},{"server_id":8,"name":"Uncletopia | Dallas | 1 | All Maps","name_short":"dal-1","host":"dal-1.us.uncletopia.com","port":27015,"enabled":true,"region":"us-central","cc":"us","latitude":32.779167,"longitude":-96.80889,"reserved":0,"last_update":"0001-01-01T00:00:00Z","name_a2s":"Uncletopia | Dallas | 1 | All Maps","protocol":17,"map":"koth_cascade","folder":"tf","game":"Team Fortress","app_id":440,"player_count":0,"max_players":24,"Bots":0,"server_type":"Dedicated","server_os":"Linux","password":true,"vac":true,"version":"7757534","steam_id":85568392924469986,"keywords":["cp","nocrits","nodmgspread","uncletopia"],"game_id":440,"stv_port":27016,"stv_name":"Uncletopia | Dallas | 1 | All Maps | STV","players":null},{"server_id":108,"name":"Uncletopia | Dallas | 2 | All Maps","name_short":"dal-2","host":"dal-1.us.uncletopia.com","port":27025,"enabled":true,"region":"us-central","cc":"us","latitude":32.779167,"longitude":-96.80889,"reserved":0,"last_update":"0001-01-01T00:00:00Z","name_a2s":"Uncletopia | Dallas | 2 | All Maps","protocol":17,"map":"pl_upward","folder":"tf","game":"Team Fortress","app_id":440,"player_count":0,"max_players":24,"Bots":0,"server_type":"Dedicated","server_os":"Linux","password":true,"vac":true,"version":"7757534","steam_id":85568392924469988,"keywords":["nocrits","nodmgspread","payload","uncletopia"],"game_id":440,"stv_port":27026,"stv_name":"Uncletopia | Dallas | 2 | All Maps | STV","players":null},{"server_id":5,"name":"Uncletopia | Frankfurt | 1 | All Maps","name_short":"frk-1","host":"frk-1.de.uncletopia.com","port":27015,"enabled":true,"region":"eu","cc":"de","latitude":50.110924,"longitude":8.682127,"reserved":0,"last_update":"0001-01-01T00:00:00Z","name_a2s":"Uncletopia | Frankfurt | 1 | All Maps","protocol":17,"map":"pl_swiftwater_final1","folder":"tf","game":"Team Fortress","app_id":440,"player_count":24,"max_players":24,"Bots":0,"server_type":"Dedicated","server_os":"Linux","password":true,"vac":true,"version":"7757534","steam_id":85568392924469989,"keywords":["nocrits","nodmgspread","payload","uncletopia"],"game_id":440,"stv_port":27016,"stv_name":"Uncletopia | Frankfurt | 1 | All Maps | STV","players":[{"user_id":201,"name":"Muslim Bale","steam_id":76561198160830606,"connected_time":882000000000,"state":"active","ping":72},{"user_id":210,"name":"Juno4","steam_id":76561198034518616,"connected_time":13000000000,"state":"spawning","ping":72},{"user_id":197,"name":"He could be any one of us","steam_id":76561198320506848,"connected_time":1009000000000,"state":"active","ping":56},{"user_id":206,"name":"Thors","steam_id":76561197968739075,"connected_time":64000000000,"state":"active","ping":45},{"user_id":190,"name":"Doctor Sex","steam_id":76561198206515505,"connected_time":1657000000000,"state":"active","ping":76},{"user_id":181,"name":"basiunia.gorska","steam_id":76561199092907501,"connected_time":2112000000000,"state":"active","ping":58},{"user_id":196,"name":"Frobmiak","steam_id":76561198088811544,"connected_time":1022000000000,"state":"active","ping":64},{"user_id":202,"name":"j100j","steam_id":76561198338726444,"connected_time":811000000000,"state":"active","ping":93},{"user_id":182,"name":"FoOzTV","steam_id":76561197998636728,"connected_time":1922000000000,"state":"active","ping":71},{"user_id":166,"name":"zek","steam_id":76561198862763731,"connected_time":2742000000000,"state":"active","ping":58},{"user_id":211,"name":"Never Über Me","steam_id":76561198140522687,"connected_time":8000000000,"state":"active","ping":154},{"user_id":198,"name":"yusef","steam_id":76561198108481078,"connected_time":984000000000,"state":"active","ping":108},{"user_id":194,"name":"ginger cunt","steam_id":76561198334528186,"connected_time":1238000000000,"state":"active","ping":64},{"user_id":176,"name":"Weenie Hut Jr's","steam_id":76561198050515739,"connected_time":2272000000000,"state":"active","ping":69},{"user_id":168,"name":"anders McFlanders","steam_id":76561198022811995,"connected_time":2642000000000,"state":"active","ping":64},{"user_id":174,"name":"Tekky","steam_id":76561197990987315,"connected_time":2415000000000,"state":"active","ping":53},{"user_id":193,"name":"TheShadowScribe","steam_id":76561199037525945,"connected_time":1434000000000,"state":"active","ping":114},{"user_id":163,"name":"Vitamin Weee","steam_id":76561199183937747,"connected_time":2918000000000,"state":"active","ping":81},{"user_id":203,"name":"akakez","steam_id":76561198095432821,"connected_time":791000000000,"state":"active","ping":120},{"user_id":208,"name":"kotamine","steam_id":76561198068907991,"connected_time":43000000000,"state":"active","ping":68},{"user_id":209,"name":"глеб","steam_id":76561198291044793,"connected_time":37000000000,"state":"active","ping":78},{"user_id":177,"name":"euroshopper","steam_id":76561198061197114,"connected_time":2250000000000,"state":"active","ping":73},{"user_id":149,"name":"Skuld","steam_id":76561198064734905,"connected_time":3663000000000,"state":"active","ping":92},{"user_id":162,"name":"Wyro","steam_id":76561199176835169,"connected_time":2962000000000,"state":"active","ping":65}]},{"server_id":110,"name":"Uncletopia | Frankfurt | 2 | All Maps","name_short":"frk-2","host":"frk-1.de.uncletopia.com","port":27025,"enabled":true,"region":"eu","cc":"de","latitude":50.110924,"longitude":8.682127,"reserved":0,"last_update":"0001-01-01T00:00:00Z","name_a2s":"Uncletopia | Frankfurt | 2 | All Maps","protocol":17,"map":"pl_swiftwater_final1","folder":"tf","game":"Team Fortress","app_id":440,"player_count":24,"max_players":24,"Bots":0,"server_type":"Dedicated","server_os":"Linux","password":true,"vac":true,"version":"7757534","steam_id":85568392924469990,"keywords":["nocrits","nodmgspread","payload","uncletopia"],"game_id":440,"stv_port":27026,"stv_name":"Uncletopia | Frankfurt | 2 | All Maps | STV","players":[{"user_id":397,"name":"maakgis","steam_id":76561198851703804,"connected_time":678000000000,"state":"active","ping":121},{"user_id":386,"name":"Dispenser(Dispenser)","steam_id":76561199211831658,"connected_time":2126000000000,"state":"active","ping":75},{"user_id":363,"name":"⨂","steam_id":76561198087800030,"connected_time":4110000000000,"state":"active","ping":69},{"user_id":395,"name":"ANDROMEDA","steam_id":76561199213073534,"connected_time":1055000000000,"state":"active","ping":76},{"user_id":396,"name":"Bill Hampton","steam_id":76561198310295139,"connected_time":944000000000,"state":"active","ping":98},{"user_id":281,"name":"Death","steam_id":76561198176896415,"connected_time":11729000000000,"state":"active","ping":82},{"user_id":364,"name":"Deadlycow","steam_id":76561197980761347,"connected_time":4110000000000,"state":"active","ping":77},{"user_id":258,"name":"G1","steam_id":76561199097753630,"connected_time":13625000000000,"state":"active","ping":73},{"user_id":390,"name":"Edison Trent","steam_id":76561198067133145,"connected_time":1297000000000,"state":"active","ping":60},{"user_id":384,"name":"wasto-/-™","steam_id":76561198102888038,"connected_time":2405000000000,"state":"active","ping":53},{"user_id":367,"name":"nidob","steam_id":76561198349648942,"connected_time":3903000000000,"state":"active","ping":90},{"user_id":284,"name":"Turbiini","steam_id":76561198135584455,"connected_time":11660000000000,"state":"active","ping":89},{"user_id":399,"name":"Pogi820","steam_id":76561198320573568,"connected_time":585000000000,"state":"active","ping":100},{"user_id":400,"name":"SHADOW WIZARD MONEY GANG","steam_id":76561198179324075,"connected_time":583000000000,"state":"active","ping":73},{"user_id":403,"name":"Flarey","steam_id":76561198280552625,"connected_time":361000000000,"state":"active","ping":60},{"user_id":370,"name":"M4R1O","steam_id":76561198050528464,"connected_time":3468000000000,"state":"active","ping":60},{"user_id":307,"name":"sm0ke","steam_id":76561198198977226,"connected_time":10377000000000,"state":"active","ping":73},{"user_id":356,"name":"New","steam_id":76561198402195911,"connected_time":5391000000000,"state":"active","ping":107},{"user_id":387,"name":"jabar7","steam_id":76561198055137986,"connected_time":2006000000000,"state":"active","ping":66},{"user_id":404,"name":"nojuskojos","steam_id":76561199060478662,"connected_time":360000000000,"state":"active","ping":72},{"user_id":394,"name":"quickfast","steam_id":76561199438900919,"connected_time":1146000000000,"state":"active","ping":58},{"user_id":405,"name":"Oldworldjazz","steam_id":76561198184632645,"connected_time":116000000000,"state":"active","ping":89},{"user_id":392,"name":"David \"Crash\" Murphy","steam_id":76561198292845505,"connected_time":1297000000000,"state":"active","ping":92},{"user_id":358,"name":"Fekeks |Potato Industries|","steam_id":76561198152536563,"connected_time":4974000000000,"state":"active","ping":55}]},{"server_id":308,"name":"Uncletopia | Frankfurt | 3 | All Maps","name_short":"frk-3","host":"frk-1.de.uncletopia.com","port":27035,"enabled":true,"region":"eu","cc":"de","latitude":50.110924,"longitude":8.682127,"reserved":0,"last_update":"0001-01-01T00:00:00Z","name_a2s":"Uncletopia | Frankfurt | 3 | All Maps","protocol":17,"map":"koth_highpass","folder":"tf","game":"Team Fortress","app_id":440,"player_count":24,"max_players":24,"Bots":0,"server_type":"Dedicated","server_os":"Linux","password":true,"vac":true,"version":"7757534","steam_id":85568392924504274,"keywords":["cp","nocrits","nodmgspread","uncletopia"],"game_id":440,"stv_port":27036,"stv_name":"Uncletopia | Frankfurt | 3 | All Maps | STV","players":[{"user_id":52,"name":"sunshine","steam_id":76561198084597975,"connected_time":1552000000000,"state":"active","ping":65},{"user_id":68,"name":"the catboy","steam_id":76561198236015506,"connected_time":1085000000000,"state":"active","ping":99},{"user_id":51,"name":"Alice can't hit pipes","steam_id":76561198052410860,"connected_time":1667000000000,"state":"active","ping":129},{"user_id":54,"name":"Balls","steam_id":76561198086400484,"connected_time":1427000000000,"state":"active","ping":83},{"user_id":82,"name":"Leviopterix","steam_id":76561198172397734,"connected_time":300000000000,"state":"active","ping":60},{"user_id":42,"name":"Mancomb Seepgood","steam_id":76561197974116369,"connected_time":1863000000000,"state":"active","ping":66},{"user_id":79,"name":"subway vergil","steam_id":76561199110064166,"connected_time":576000000000,"state":"active","ping":73},{"user_id":56,"name":"Wüstenfuchs","steam_id":76561198453885708,"connected_time":1397000000000,"state":"active","ping":69},{"user_id":45,"name":"MovingIsOverRated","steam_id":76561198385633292,"connected_time":1821000000000,"state":"active","ping":88},{"user_id":66,"name":"strideΔ","steam_id":76561199007826093,"connected_time":1114000000000,"state":"active","ping":70},{"user_id":50,"name":"Nyhde","steam_id":76561198012771416,"connected_time":1732000000000,"state":"active","ping":104},{"user_id":58,"name":"Oak","steam_id":76561198412507725,"connected_time":1268000000000,"state":"active","ping":98},{"user_id":71,"name":"Creb","steam_id":76561198984970920,"connected_time":1021000000000,"state":"active","ping":126},{"user_id":60,"name":"Jughead","steam_id":76561198000355410,"connected_time":1200000000000,"state":"active","ping":57},{"user_id":63,"name":"Salih","steam_id":76561198287934839,"connected_time":1162000000000,"state":"active","ping":58},{"user_id":84,"name":"Milosz52","steam_id":76561199060940204,"connected_time":62000000000,"state":"active","ping":71},{"user_id":65,"name":"Fish 'n' Chips","steam_id":76561198033476886,"connected_time":1143000000000,"state":"active","ping":44},{"user_id":80,"name":"HOT LOIS","steam_id":76561198302623594,"connected_time":570000000000,"state":"active","ping":94},{"user_id":69,"name":"Lord","steam_id":76561198241305816,"connected_time":1085000000000,"state":"active","ping":114},{"user_id":70,"name":"SpeddyMeddy","steam_id":76561197999693825,"connected_time":1082000000000,"state":"active","ping":67},{"user_id":74,"name":"DunkleG","steam_id":76561198053816186,"connected_time":899000000000,"state":"active","ping":60},{"user_id":83,"name":"Perämiehenä","steam_id":76561197968945306,"connected_time":276000000000,"state":"active","ping":67},{"user_id":76,"name":"MÉZ","steam_id":76561198167504701,"connected_time":876000000000,"state":"active","ping":65},{"user_id":77,"name":"ldshwt","steam_id":76561198090364357,"connected_time":871000000000,"state":"active","ping":59}]},{"server_id":309,"name":"Uncletopia | Frankfurt | 4 | All Maps","name_short":"frk-4","host":"frk-1.de.uncletopia.com","port":27045,"enabled":true,"region":"eu","cc":"de","latitude":50.110924,"longitude":8.682127,"reserved":0,"last_update":"0001-01-01T00:00:00Z","name_a2s":"Uncletopia | Frankfurt | 4 | All Maps","protocol":17,"map":"pl_pier","folder":"tf","game":"Team Fortress","app_id":440,"player_count":4,"max_players":24,"Bots":0,"server_type":"Dedicated","server_os":"Linux","password":true,"vac":true,"version":"7757534","steam_id":85568392924504275,"keywords":["nocrits","nodmgspread","payload","uncletopia"],"game_id":440,"stv_port":27046,"stv_name":"Uncletopia | Frankfurt | 4 | All Maps | STV","players":[{"user_id":352,"name":"Space_Fennik","steam_id":76561198199571111,"connected_time":498000000000,"state":"active","ping":101},{"user_id":353,"name":"i_teleported_bread_for_3_day's","steam_id":76561198319328919,"connected_time":478000000000,"state":"active","ping":62},{"user_id":354,"name":"☯","steam_id":76561198351154533,"connected_time":455000000000,"state":"active","ping":67},{"user_id":355,"name":"autism's strongest sodlier.","steam_id":76561198317434881,"connected_time":83000000000,"state":"active","ping":46}]},{"server_id":310,"name":"Uncletopia | Frankfurt | 5 | All Maps","name_short":"frk-5","host":"frk-1.de.uncletopia.com","port":27055,"enabled":true,"region":"eu","cc":"de","latitude":50.110924,"longitude":8.682127,"reserved":0,"last_update":"0001-01-01T00:00:00Z","name_a2s":"Uncletopia | Frankfurt | 5 | All Maps","protocol":17,"map":"pl_borneo","folder":"tf","game":"Team Fortress","app_id":440,"player_count":24,"max_players":24,"Bots":0,"server_type":"Dedicated","server_os":"Linux","password":true,"vac":true,"version":"7757534","steam_id":85568392924504277,"keywords":["nocrits","nodmgspread","payload","uncletopia"],"game_id":440,"stv_port":27056,"stv_name":"Uncletopia | Frankfurt | 5 | All Maps | STV","players":[{"user_id":236,"name":"The Enclave","steam_id":76561198257670344,"connected_time":2440000000000,"state":"active","ping":70},{"user_id":245,"name":"Rahu 'Siebren' Godless","steam_id":76561198276259175,"connected_time":1721000000000,"state":"active","ping":100},{"user_id":192,"name":"Akisян","steam_id":76561198078706435,"connected_time":5317000000000,"state":"active","ping":77},{"user_id":170,"name":"Sirzen","steam_id":76561198170155434,"connected_time":7175000000000,"state":"active","ping":53},{"user_id":255,"name":"Duck","steam_id":76561198841587079,"connected_time":1447000000000,"state":"active","ping":70},{"user_id":232,"name":"Cornmac","steam_id":76561198104780569,"connected_time":2552000000000,"state":"active","ping":79},{"user_id":244,"name":"1361893114 lft","steam_id":76561198798803845,"connected_time":1723000000000,"state":"active","ping":46},{"user_id":274,"name":"SaltyCupcakes","steam_id":76561198256386417,"connected_time":43000000000,"state":"active","ping":55},{"user_id":264,"name":"Soyboy","steam_id":76561198053885716,"connected_time":299000000000,"state":"active","ping":74},{"user_id":259,"name":"Kildon","steam_id":76561198134661558,"connected_time":962000000000,"state":"active","ping":87},{"user_id":265,"name":"rares","steam_id":76561199221743031,"connected_time":289000000000,"state":"active","ping":88},{"user_id":223,"name":"Boki","steam_id":76561198044553351,"connected_time":3059000000000,"state":"active","ping":76},{"user_id":275,"name":"Doctor Mobius","steam_id":76561197971281806,"connected_time":20000000000,"state":"active","ping":65},{"user_id":233,"name":"Jack","steam_id":76561198325505238,"connected_time":2541000000000,"state":"active","ping":80},{"user_id":218,"name":"After8","steam_id":76561198090750865,"connected_time":4130000000000,"state":"active","ping":64},{"user_id":234,"name":"Hegyi tahó F2P","steam_id":76561199219150356,"connected_time":2477000000000,"state":"active","ping":66},{"user_id":256,"name":"Rex Z'Beq","steam_id":76561199300590000,"connected_time":1444000000000,"state":"active","ping":86},{"user_id":246,"name":"Ankle Dane","steam_id":76561198134378108,"connected_time":1721000000000,"state":"active","ping":87},{"user_id":250,"name":"Sinny","steam_id":76561197999598422,"connected_time":1671000000000,"state":"active","ping":71},{"user_id":254,"name":"Ged","steam_id":76561198079288943,"connected_time":1538000000000,"state":"active","ping":95},{"user_id":260,"name":"MEDiUM","steam_id":76561198112328561,"connected_time":381000000000,"state":"active","ping":73},{"user_id":230,"name":"Luuk","steam_id":76561198088266026,"connected_time":2582000000000,"state":"active","ping":45},{"user_id":272,"name":"37-","steam_id":76561198102195119,"connected_time":73000000000,"state":"active","ping":45},{"user_id":217,"name":"árvíztűrő tükörfúrógép","steam_id":76561198296643061,"connected_time":4199000000000,"state":"active","ping":61}]},{"server_id":311,"name":"Uncletopia | Frankfurt | 6 | All Maps","name_short":"frk-6","host":"frk-1.de.uncletopia.com","port":27065,"enabled":true,"region":"eu","cc":"de","latitude":50.110924,"longitude":8.682127,"reserved":0,"last_update":"0001-01-01T00:00:00Z","name_a2s":"Uncletopia | Frankfurt | 6 | All Maps","protocol":17,"map":"cp_egypt_final","folder":"tf","game":"Team Fortress","app_id":440,"player_count":24,"max_players":24,"Bots":0,"server_type":"Dedicated","server_os":"Linux","password":true,"vac":true,"version":"7757534","steam_id":85568392924504278,"keywords":["cp","nocrits","nodmgspread","uncletopia"],"game_id":440,"stv_port":27066,"stv_name":"Uncletopia | Frankfurt | 6 | All Maps | STV","players":[{"user_id":19,"name":"✞bogini","steam_id":76561199031757566,"connected_time":4652000000000,"state":"active","ping":77},{"user_id":91,"name":"socaramel","steam_id":76561197984480336,"connected_time":421000000000,"state":"active","ping":75},{"user_id":90,"name":"sandvich demolisher","steam_id":76561198192343263,"connected_time":443000000000,"state":"active","ping":55},{"user_id":23,"name":"galaxy","steam_id":76561198164819022,"connected_time":3604000000000,"state":"active","ping":65},{"user_id":93,"name":"Welder","steam_id":76561198355300561,"connected_time":311000000000,"state":"active","ping":64},{"user_id":95,"name":"Rex","steam_id":76561199474556920,"connected_time":101000000000,"state":"active","ping":104},{"user_id":94,"name":"Big Time Bobby","steam_id":76561198935266162,"connected_time":296000000000,"state":"active","ping":153},{"user_id":80,"name":"Rosenmontag","steam_id":76561198079477964,"connected_time":806000000000,"state":"active","ping":46},{"user_id":59,"name":"wheelie bin","steam_id":76561198040040328,"connected_time":2313000000000,"state":"active","ping":63},{"user_id":73,"name":"HoLy","steam_id":76561197997431870,"connected_time":1213000000000,"state":"active","ping":62},{"user_id":69,"name":"Dr.090","steam_id":76561198201215334,"connected_time":1416000000000,"state":"active","ping":90},{"user_id":70,"name":"spearfishNL","steam_id":76561199077022985,"connected_time":1261000000000,"state":"active","ping":58},{"user_id":96,"name":"KODE","steam_id":76561198053212394,"connected_time":95000000000,"state":"active","ping":73},{"user_id":45,"name":"ARYZON","steam_id":76561198070705087,"connected_time":2572000000000,"state":"active","ping":59},{"user_id":74,"name":"Itai","steam_id":76561198804555329,"connected_time":1210000000000,"state":"active","ping":112},{"user_id":61,"name":"BRICK TOP","steam_id":76561198014366715,"connected_time":2224000000000,"state":"active","ping":60},{"user_id":85,"name":"demoknight tf3","steam_id":76561198387669550,"connected_time":542000000000,"state":"active","ping":60},{"user_id":52,"name":"Meowster Clean","steam_id":76561198294655057,"connected_time":2442000000000,"state":"active","ping":78},{"user_id":49,"name":"HLRaven","steam_id":76561198118543239,"connected_time":2542000000000,"state":"active","ping":85},{"user_id":68,"name":"noodlehairronaldoprime","steam_id":76561199471954402,"connected_time":1551000000000,"state":"active","ping":67},{"user_id":76,"name":"Klongiking","steam_id":76561199042178118,"connected_time":1188000000000,"state":"active","ping":71},{"user_id":77,"name":"poliakov.noam","steam_id":76561199259322961,"connected_time":1184000000000,"state":"active","ping":108},{"user_id":58,"name":"smk","steam_id":76561198068027379,"connected_time":2342000000000,"state":"active","ping":85},{"user_id":89,"name":"I Lamp","steam_id":76561198423215585,"connected_time":478000000000,"state":"active","ping":99}]},{"server_id":23,"name":"Uncletopia | Frankfurt | 7 | Stopwatch Beta","name_short":"frk-7","host":"frk-1.de.uncletopia.com","port":27075,"enabled":true,"region":"eu","cc":"de","latitude":50.110924,"longitude":8.682127,"reserved":0,"last_update":"0001-01-01T00:00:00Z","name_a2s":"Uncletopia | Frankfurt | 7 | Stopwatch Beta","protocol":17,"map":"koth_highpass","folder":"tf","game":"Team Fortress","app_id":440,"player_count":0,"max_players":24,"Bots":0,"server_type":"Dedicated","server_os":"Linux","password":true,"vac":true,"version":"7757534","steam_id":85568392924742827,"keywords":["cp","nocrits","nodmgspread","uncletopia"],"game_id":440,"stv_port":27076,"stv_name":"Uncletopia | Frankfurt | 7 | Stopwatch Beta | STV","players":null},{"server_id":24,"name":"Uncletopia | Frankfurt | 8 | Community","name_short":"frk-8","host":"frk-1.de.uncletopia.com","port":27085,"enabled":true,"region":"eu","cc":"de","latitude":50.110924,"longitude":8.682127,"reserved":0,"last_update":"0001-01-01T00:00:00Z","name_a2s":"Uncletopia | Frankfurt | 8 | Community","protocol":17,"map":"koth_lakeside_final","folder":"tf","game":"Team Fortress","app_id":440,"player_count":0,"max_players":24,"Bots":0,"server_type":"Dedicated","server_os":"Linux","password":true,"vac":true,"version":"7757534","steam_id":85568392924742828,"keywords":["cp","nocrits","nodmgspread","uncletopia"],"game_id":440,"stv_port":27086,"stv_name":"Uncletopia | Frankfurt | 8 | Community | STV","players":null},{"server_id":202,"name":"Uncletopia | Hong Kong | 1 | All Maps","name_short":"hgk-1","host":"hgk-1.hk.uncletopia.com","port":27015,"enabled":true,"region":"asia","cc":"hk","latitude":22.302711,"longitude":114.177216,"reserved":0,"last_update":"0001-01-01T00:00:00Z","name_a2s":"Uncletopia | Hong Kong | 1 | All Maps","protocol":17,"map":"koth_cascade","folder":"tf","game":"Team Fortress","app_id":440,"player_count":0,"max_players":24,"Bots":0,"server_type":"Dedicated","server_os":"Linux","password":true,"vac":true,"version":"7757534","steam_id":85568392924494504,"keywords":["cp","nocrits","nodmgspread","uncletopia"],"game_id":440,"stv_port":27016,"stv_name":"Uncletopia | Hong Kong | 1 | All Maps | STV","players":null},{"server_id":1,"name":"Uncletopia | Los Angeles | 1 | All Maps","name_short":"lax-1","host":"lax-1.us.uncletopia.com","port":27015,"enabled":true,"region":"us-west","cc":"us","latitude":33.94279,"longitude":-118.41004,"reserved":0,"last_update":"0001-01-01T00:00:00Z","name_a2s":"Uncletopia | Los Angeles | 1 | All Maps","protocol":17,"map":"koth_lakeside_final","folder":"tf","game":"Team Fortress","app_id":440,"player_count":0,"max_players":24,"Bots":0,"server_type":"Dedicated","server_os":"Linux","password":true,"vac":true,"version":"7757534","steam_id":85568392924469991,"keywords":["cp","nocrits","nodmgspread","uncletopia"],"game_id":440,"stv_port":27016,"stv_name":"Uncletopia | Los Angeles | 1 | All Maps | STV","players":null},{"server_id":112,"name":"Uncletopia | Los Angeles | 2 | All Maps","name_short":"lax-2","host":"lax-1.us.uncletopia.com","port":27025,"enabled":true,"region":"us-west","cc":"us","latitude":33.94279,"longitude":-118.41004,"reserved":0,"last_update":"0001-01-01T00:00:00Z","name_a2s":"Uncletopia | Los Angeles | 2 | All Maps","protocol":17,"map":"pl_badwater","folder":"tf","game":"Team Fortress","app_id":440,"player_count":0,"max_players":24,"Bots":0,"server_type":"Dedicated","server_os":"Linux","password":true,"vac":true,"version":"7757534","steam_id":85568392924469992,"keywords":["nocrits","nodmgspread","payload","uncletopia"],"game_id":440,"stv_port":27026,"stv_name":"Uncletopia | Los Angeles | 2 | All Maps | STV","players":null},{"server_id":324,"name":"Uncletopia | Los Angeles | 3 | All Maps","name_short":"lax-3","host":"lax-1.us.uncletopia.com","port":27035,"enabled":true,"region":"us-west","cc":"us","latitude":33.94279,"longitude":-118.41004,"reserved":0,"last_update":"0001-01-01T00:00:00Z","name_a2s":"Uncletopia | Los Angeles | 3 | All Maps","protocol":17,"map":"pl_barnblitz","folder":"tf","game":"Team Fortress","app_id":440,"player_count":0,"max_players":24,"Bots":0,"server_type":"Dedicated","server_os":"Linux","password":true,"vac":true,"version":"7757534","steam_id":85568392924510198,"keywords":["nocrits","nodmgspread","payload","uncletopia"],"game_id":440,"stv_port":27036,"stv_name":"Uncletopia | Los Angeles | 3 | All Maps | STV","players":null},{"server_id":25,"name":"Uncletopia | Los Angeles | 4 | Stopwatch Beta","name_short":"lax-4","host":"lax-1.us.uncletopia.com","port":27045,"enabled":true,"region":"us-west","cc":"us","latitude":33.94279,"longitude":-118.41004,"reserved":0,"last_update":"0001-01-01T00:00:00Z","name_a2s":"Uncletopia | Los Angeles | 4 | Stopwatch Beta","protocol":17,"map":"pl_swiftwater_final1","folder":"tf","game":"Team Fortress","app_id":440,"player_count":0,"max_players":24,"Bots":0,"server_type":"Dedicated","server_os":"Linux","password":true,"vac":true,"version":"7757534","steam_id":85568392924510199,"keywords":["nocrits","nodmgspread","payload","uncletopia"],"game_id":440,"stv_port":27046,"stv_name":"Uncletopia | Los Angeles | 4 | Stopwatch Beta | STV","players":null},{"server_id":11,"name":"Uncletopia | London | 1 | All Maps","name_short":"lon-1","host":"lon-1.uk.uncletopia.com","port":27015,"enabled":true,"region":"eu","cc":"gb","latitude":51.509865,"longitude":-0.118092,"reserved":0,"last_update":"0001-01-01T00:00:00Z","name_a2s":"Uncletopia | London | 1 | All Maps","protocol":17,"map":"cp_altitude","folder":"tf","game":"Team Fortress","app_id":440,"player_count":24,"max_players":24,"Bots":0,"server_type":"Dedicated","server_os":"Linux","password":true,"vac":true,"version":"7757534","steam_id":85568392924367362,"keywords":["cp","nocrits","nodmgspread","uncletopia"],"game_id":440,"stv_port":27016,"stv_name":"Uncletopia | London | 1 | All Maps | STV","players":[{"user_id":311,"name":"UltimateSlayer","steam_id":76561198384109309,"connected_time":1134000000000,"state":"active","ping":60},{"user_id":317,"name":"call my Skype","steam_id":76561199026097466,"connected_time":649000000000,"state":"active","ping":74},{"user_id":271,"name":"Seaney","steam_id":76561198059138839,"connected_time":4420000000000,"state":"active","ping":66},{"user_id":214,"name":"transgender e-girl","steam_id":76561198168589809,"connected_time":10786000000000,"state":"active","ping":59},{"user_id":287,"name":"Robin ★","steam_id":76561198124355408,"connected_time":3268000000000,"state":"active","ping":94},{"user_id":10,"name":"Arcader","steam_id":76561198109860110,"connected_time":27198000000000,"state":"active","ping":90},{"user_id":285,"name":"Ott","steam_id":76561198276464481,"connected_time":3386000000000,"state":"active","ping":54},{"user_id":315,"name":"Piox","steam_id":76561198125689157,"connected_time":922000000000,"state":"active","ping":76},{"user_id":318,"name":"sam-","steam_id":76561198013770973,"connected_time":607000000000,"state":"active","ping":67},{"user_id":316,"name":"bee","steam_id":76561199125727569,"connected_time":741000000000,"state":"active","ping":64},{"user_id":289,"name":"jt7","steam_id":76561198073655162,"connected_time":3019000000000,"state":"active","ping":82},{"user_id":283,"name":"Nox Equites","steam_id":76561198115438449,"connected_time":4001000000000,"state":"active","ping":98},{"user_id":293,"name":"bimgus","steam_id":76561198208045069,"connected_time":2455000000000,"state":"active","ping":57},{"user_id":322,"name":"Sandshee","steam_id":76561198088574666,"connected_time":181000000000,"state":"active","ping":44},{"user_id":247,"name":"Jinx my beloved","steam_id":76561198819986745,"connected_time":6920000000000,"state":"active","ping":91},{"user_id":255,"name":"♥ Aura says Trans Rights ♥","steam_id":76561198066258544,"connected_time":6319000000000,"state":"active","ping":60},{"user_id":269,"name":"†","steam_id":76561199042470246,"connected_time":4826000000000,"state":"active","ping":60},{"user_id":242,"name":"Chocofrolik","steam_id":76561198454779847,"connected_time":7281000000000,"state":"active","ping":71},{"user_id":303,"name":"Jonathan","steam_id":76561198087988880,"connected_time":1949000000000,"state":"active","ping":56},{"user_id":127,"name":"Fat Pigeon","steam_id":76561198817940142,"connected_time":18319000000000,"state":"active","ping":46},{"user_id":250,"name":"john fortress","steam_id":76561198013237629,"connected_time":6762000000000,"state":"active","ping":104},{"user_id":284,"name":"Ansari","steam_id":76561198074982971,"connected_time":3527000000000,"state":"active","ping":62},{"user_id":310,"name":"Sara","steam_id":76561198065287954,"connected_time":1192000000000,"state":"active","ping":80},{"user_id":321,"name":"Someone","steam_id":76561199030195879,"connected_time":207000000000,"state":"active","ping":53}]},{"server_id":114,"name":"Uncletopia | London | 2 | All Maps","name_short":"lon-2","host":"lon-1.uk.uncletopia.com","port":27025,"enabled":true,"region":"eu","cc":"gb","latitude":51.509865,"longitude":-0.118092,"reserved":0,"last_update":"0001-01-01T00:00:00Z","name_a2s":"Uncletopia | London | 2 | All Maps","protocol":17,"map":"koth_viaduct","folder":"tf","game":"Team Fortress","app_id":440,"player_count":0,"max_players":24,"Bots":0,"server_type":"Dedicated","server_os":"Linux","password":true,"vac":true,"version":"7757534","steam_id":85568392924470941,"keywords":["cp","nocrits","nodmgspread","uncletopia"],"game_id":440,"stv_port":27026,"stv_name":"Uncletopia | London | 2 | All Maps | STV","players":null},{"server_id":320,"name":"Uncletopia | London | 3 | All Maps","name_short":"lon-3","host":"lon-1.uk.uncletopia.com","port":27035,"enabled":true,"region":"eu","cc":"gb","latitude":51.509865,"longitude":-0.118092,"reserved":0,"last_update":"0001-01-01T00:00:00Z","name_a2s":"Uncletopia | London | 3 | All Maps","protocol":17,"map":"koth_highpass","folder":"tf","game":"Team Fortress","app_id":440,"player_count":0,"max_players":24,"Bots":0,"server_type":"Dedicated","server_os":"Linux","password":true,"vac":true,"version":"7757534","steam_id":85568392924510192,"keywords":["cp","nocrits","nodmgspread","uncletopia"],"game_id":440,"stv_port":27036,"stv_name":"Uncletopia | London | 3 | All Maps | STV","players":null},{"server_id":321,"name":"Uncletopia | London | 4 | All Maps","name_short":"lon-4","host":"lon-1.uk.uncletopia.com","port":27045,"enabled":true,"region":"eu","cc":"gb","latitude":51.509865,"longitude":-0.118092,"reserved":0,"last_update":"0001-01-01T00:00:00Z","name_a2s":"Uncletopia | London | 4 | All Maps","protocol":17,"map":"koth_viaduct","folder":"tf","game":"Team Fortress","app_id":440,"player_count":0,"max_players":24,"Bots":0,"server_type":"Dedicated","server_os":"Linux","password":true,"vac":true,"version":"7757534","steam_id":85568392924510193,"keywords":["cp","nocrits","nodmgspread","uncletopia"],"game_id":440,"stv_port":27046,"stv_name":"Uncletopia | London | 4 | All Maps | STV","players":null},{"server_id":21,"name":"Uncletopia | London | 5 | All Maps","name_short":"lon-5","host":"lon-1.uk.uncletopia.com","port":27055,"enabled":true,"region":"eu","cc":"gb","latitude":51.509865,"longitude":-0.118092,"reserved":0,"last_update":"0001-01-01T00:00:00Z","name_a2s":"Uncletopia | London | 5 | All Maps","protocol":17,"map":"koth_cascade","folder":"tf","game":"Team Fortress","app_id":440,"player_count":0,"max_players":24,"Bots":0,"server_type":"Dedicated","server_os":"Linux","password":true,"vac":true,"version":"7757534","steam_id":85568392924742829,"keywords":["cp","nocrits","nodmgspread","uncletopia"],"game_id":440,"stv_port":27056,"stv_name":"Uncletopia | London | 5 | All Maps | STV","players":null},{"server_id":22,"name":"Uncletopia | London | 6 | All Maps","name_short":"lon-6","host":"lon-1.uk.uncletopia.com","port":27065,"enabled":true,"region":"eu","cc":"gb","latitude":51.509865,"longitude":-0.118092,"reserved":0,"last_update":"0001-01-01T00:00:00Z","name_a2s":"Uncletopia | London | 6 | All Maps","protocol":17,"map":"koth_viaduct","folder":"tf","game":"Team Fortress","app_id":440,"player_count":0,"max_players":24,"Bots":0,"server_type":"Dedicated","server_os":"Linux","password":true,"vac":true,"version":"7757534","steam_id":85568392924742830,"keywords":["cp","nocrits","nodmgspread","uncletopia"],"game_id":440,"stv_port":27066,"stv_name":"Uncletopia | London | 6 | All Maps | STV","players":null},{"server_id":40,"name":"Uncletopia | London | 7 | No Payload","name_short":"lon-7","host":"lon-1.uk.uncletopia.com","port":27075,"enabled":true,"region":"eu","cc":"gb","latitude":51.509865,"longitude":-0.118092,"reserved":0,"last_update":"0001-01-01T00:00:00Z","name_a2s":"Uncletopia | London | 7 | No Payload","protocol":17,"map":"plr_nightfall_final","folder":"tf","game":"Team Fortress","app_id":440,"player_count":21,"max_players":24,"Bots":0,"server_type":"Dedicated","server_os":"Linux","password":true,"vac":true,"version":"7757534","steam_id":85568392924964314,"keywords":["nocrits","nodmgspread","payload","uncletopia"],"game_id":440,"stv_port":27076,"stv_name":"Uncletopia | London | 7 | No Payload | STV","players":[{"user_id":81,"name":"🦐 Tust 🦐","steam_id":76561198045694677,"connected_time":7599000000000,"state":"active","ping":44},{"user_id":179,"name":"SoberOnion","steam_id":76561198987711995,"connected_time":994000000000,"state":"active","ping":84},{"user_id":191,"name":"Fish","steam_id":76561198182278770,"connected_time":324000000000,"state":"active","ping":77},{"user_id":178,"name":"Circular","steam_id":76561198001536710,"connected_time":1007000000000,"state":"active","ping":56},{"user_id":122,"name":"a","steam_id":76561198390523242,"connected_time":5456000000000,"state":"active","ping":78},{"user_id":192,"name":"Jörmungandr","steam_id":76561199121981748,"connected_time":323000000000,"state":"active","ping":75},{"user_id":184,"name":"clean carp","steam_id":76561198127053294,"connected_time":615000000000,"state":"active","ping":74},{"user_id":145,"name":"sp00ky","steam_id":76561198279985917,"connected_time":3621000000000,"state":"active","ping":71},{"user_id":167,"name":"elite level gamer","steam_id":76561199014539176,"connected_time":1435000000000,"state":"active","ping":92},{"user_id":185,"name":"Mr. Hunts","steam_id":76561197981910397,"connected_time":613000000000,"state":"active","ping":60},{"user_id":93,"name":"nvmHastee","steam_id":76561199371458295,"connected_time":6600000000000,"state":"active","ping":85},{"user_id":168,"name":"waffle toaster","steam_id":76561198799089628,"connected_time":1427000000000,"state":"active","ping":44},{"user_id":115,"name":"ThatGamingKiwi","steam_id":76561199170522237,"connected_time":5676000000000,"state":"active","ping":142},{"user_id":196,"name":"Jeeworth","steam_id":76561198797972504,"connected_time":52000000000,"state":"active","ping":78},{"user_id":189,"name":"CNTRL","steam_id":76561199125803827,"connected_time":380000000000,"state":"active","ping":97},{"user_id":182,"name":"Tyra","steam_id":76561198043739064,"connected_time":802000000000,"state":"active","ping":59},{"user_id":80,"name":"Birdseye","steam_id":76561198025852216,"connected_time":7720000000000,"state":"active","ping":44},{"user_id":148,"name":"A famous pornostar","steam_id":76561198042593027,"connected_time":3144000000000,"state":"active","ping":97},{"user_id":195,"name":"Youssef S Ahmed","steam_id":76561199435139103,"connected_time":74000000000,"state":"spawning","ping":128},{"user_id":174,"name":"torn","steam_id":76561198223003236,"connected_time":1294000000000,"state":"active","ping":33},{"user_id":177,"name":"MIKISLOSI","steam_id":76561198865366415,"connected_time":1057000000000,"state":"active","ping":114}]},{"server_id":41,"name":"Uncletopia | London | 8 | Community","name_short":"lon-8","host":"lon-1.uk.uncletopia.com","port":27085,"enabled":true,"region":"eu","cc":"gb","latitude":51.509865,"longitude":-0.118092,"reserved":0,"last_update":"0001-01-01T00:00:00Z","name_a2s":"Uncletopia | London | 8 | Community","protocol":17,"map":"workshop/koth_trenchfoot_b1a.ugc731436616","folder":"tf","game":"Team Fortress","app_id":440,"player_count":19,"max_players":24,"Bots":0,"server_type":"Dedicated","server_os":"Linux","password":true,"vac":true,"version":"7757534","steam_id":85568392924964315,"keywords":["cp","nocrits","nodmgspread","uncletopia"],"game_id":440,"stv_port":27086,"stv_name":"Uncletopia | London | 8 | Community | STV","players":[{"user_id":393,"name":"ratatatagets","steam_id":76561199098286730,"connected_time":439000000000,"state":"active","ping":74},{"user_id":403,"name":"El Mosquito","steam_id":76561198065347907,"connected_time":217000000000,"state":"active","ping":75},{"user_id":390,"name":"iwns morlo-^","steam_id":76561198249301650,"connected_time":492000000000,"state":"active","ping":50},{"user_id":394,"name":"hrngh; suop","steam_id":76561198444036574,"connected_time":433000000000,"state":"active","ping":60},{"user_id":412,"name":"Krabs","steam_id":76561198161679477,"connected_time":55000000000,"state":"active","ping":36},{"user_id":226,"name":"Ape","steam_id":76561198322703872,"connected_time":9184000000000,"state":"active","ping":68},{"user_id":383,"name":"GuSkand","steam_id":76561198043775605,"connected_time":855000000000,"state":"active","ping":91},{"user_id":384,"name":"Yarozak","steam_id":76561198138215623,"connected_time":853000000000,"state":"active","ping":97},{"user_id":409,"name":"DooWooD","steam_id":76561198335810106,"connected_time":162000000000,"state":"active","ping":72},{"user_id":369,"name":"Gibbed_GIBus30","steam_id":76561199272782484,"connected_time":1558000000000,"state":"active","ping":64},{"user_id":397,"name":"ultimatech","steam_id":76561198165843922,"connected_time":393000000000,"state":"active","ping":93},{"user_id":398,"name":"ilgazemre my ass","steam_id":76561199221451383,"connected_time":362000000000,"state":"active","ping":123},{"user_id":399,"name":"The Bungus","steam_id":76561198845874777,"connected_time":354000000000,"state":"active","ping":100},{"user_id":401,"name":"ACertainSaffron","steam_id":76561198154565603,"connected_time":312000000000,"state":"active","ping":43},{"user_id":411,"name":"xocu","steam_id":76561198248994066,"connected_time":100000000000,"state":"active","ping":85},{"user_id":406,"name":"zaleek69","steam_id":76561198058877595,"connected_time":202000000000,"state":"active","ping":76},{"user_id":407,"name":"Kid named download","steam_id":76561199192074448,"connected_time":199000000000,"state":"active","ping":161},{"user_id":351,"name":"Devil The Ass Slapper","steam_id":76561199091603721,"connected_time":2500000000000,"state":"active","ping":90},{"user_id":410,"name":"Storm's Foreshadow","steam_id":76561198098462526,"connected_time":127000000000,"state":"active","ping":67}]},{"server_id":300,"name":"Uncletopia | Montréal | 1 | All Maps","name_short":"mtl-1","host":"mtl-1.ca.uncletopia.com","port":27015,"enabled":true,"region":"us-east","cc":"ca","latitude":45.50889,"longitude":-73.56167,"reserved":0,"last_update":"0001-01-01T00:00:00Z","name_a2s":"Uncletopia | Montréal | 1 | All Maps","protocol":17,"map":"pl_upward","folder":"tf","game":"Team Fortress","app_id":440,"player_count":0,"max_players":24,"Bots":0,"server_type":"Dedicated","server_os":"Linux","password":true,"vac":true,"version":"7757534","steam_id":85568392924500087,"keywords":["nocrits","nodmgspread","payload","uncletopia"],"game_id":440,"stv_port":27016,"stv_name":"Uncletopia | Montréal | 1 | All Maps | STV","players":null},{"server_id":301,"name":"Uncletopia | Montréal | 2 | All Maps","name_short":"mtl-2","host":"mtl-1.ca.uncletopia.com","port":27025,"enabled":true,"region":"us-east","cc":"ca","latitude":45.50889,"longitude":-73.56167,"reserved":0,"last_update":"0001-01-01T00:00:00Z","name_a2s":"Uncletopia | Montréal | 2 | All Maps","protocol":17,"map":"pl_snowycoast","folder":"tf","game":"Team Fortress","app_id":440,"player_count":0,"max_players":24,"Bots":0,"server_type":"Dedicated","server_os":"Linux","password":true,"vac":true,"version":"7757534","steam_id":85568392924500088,"keywords":["nocrits","nodmgspread","payload","uncletopia"],"game_id":440,"stv_port":27026,"stv_name":"Uncletopia | Montréal | 2 | All Maps | STV","players":null},{"server_id":302,"name":"Uncletopia | Montréal | 3 | All Maps","name_short":"mtl-3","host":"mtl-1.ca.uncletopia.com","port":27035,"enabled":true,"region":"us-east","cc":"ca","latitude":45.50889,"longitude":-73.56167,"reserved":0,"last_update":"0001-01-01T00:00:00Z","name_a2s":"Uncletopia | Montréal | 3 | All Maps","protocol":17,"map":"pl_swiftwater_final1","folder":"tf","game":"Team Fortress","app_id":440,"player_count":0,"max_players":24,"Bots":0,"server_type":"Dedicated","server_os":"Linux","password":true,"vac":true,"version":"7757534","steam_id":85568392924500089,"keywords":["nocrits","nodmgspread","payload","uncletopia"],"game_id":440,"stv_port":27036,"stv_name":"Uncletopia | Montréal | 3 | All Maps | STV","players":null},{"server_id":303,"name":"Uncletopia | Montréal | 4 | No Payload","name_short":"mtl-4","host":"mtl-1.ca.uncletopia.com","port":27045,"enabled":true,"region":"us-east","cc":"ca","latitude":45.50889,"longitude":-73.56167,"reserved":0,"last_update":"0001-01-01T00:00:00Z","name_a2s":"Uncletopia | Montréal | 4 | No Payload","protocol":17,"map":"pl_pier","folder":"tf","game":"Team Fortress","app_id":440,"player_count":0,"max_players":24,"Bots":0,"server_type":"Dedicated","server_os":"Linux","password":true,"vac":true,"version":"7757534","steam_id":85568392924500090,"keywords":["nocrits","nodmgspread","payload","uncletopia"],"game_id":440,"stv_port":27046,"stv_name":"Uncletopia | Montréal | 4 | No Payload | STV","players":null},{"server_id":13,"name":"Uncletopia | New York City | 1 | All Maps","name_short":"nyc-1","host":"nyc-1.us.uncletopia.com","port":27015,"enabled":true,"region":"us-east","cc":"us","latitude":40.73061,"longitude":-73.93524,"reserved":0,"last_update":"0001-01-01T00:00:00Z","name_a2s":"Uncletopia | New York City | 1 | All Maps","protocol":17,"map":"koth_viaduct","folder":"tf","game":"Team Fortress","app_id":440,"player_count":0,"max_players":24,"Bots":0,"server_type":"Dedicated","server_os":"Linux","password":true,"vac":true,"version":"7757534","steam_id":85568392924469993,"keywords":["cp","nocrits","nodmgspread","uncletopia"],"game_id":440,"stv_port":27016,"stv_name":"Uncletopia | New York City | 1 | All Maps | STV","players":null},{"server_id":14,"name":"Uncletopia | New York City | 2 | All Maps","name_short":"nyc-2","host":"nyc-1.us.uncletopia.com","port":27025,"enabled":true,"region":"us-east","cc":"us","latitude":40.73061,"longitude":-73.93524,"reserved":0,"last_update":"0001-01-01T00:00:00Z","name_a2s":"Uncletopia | New York City | 2 | All Maps","protocol":17,"map":"pl_borneo","folder":"tf","game":"Team Fortress","app_id":440,"player_count":22,"max_players":24,"Bots":0,"server_type":"Dedicated","server_os":"Linux","password":true,"vac":true,"version":"7757534","steam_id":85568392924469994,"keywords":["nocrits","nodmgspread","payload","uncletopia"],"game_id":440,"stv_port":27026,"stv_name":"Uncletopia | New York City | 2 | All Maps | STV","players":[{"user_id":84,"name":"Axities","steam_id":76561198278008225,"connected_time":357000000000,"state":"active","ping":73},{"user_id":85,"name":"Zenabie","steam_id":76561198088372680,"connected_time":356000000000,"state":"active","ping":75},{"user_id":36,"name":"Herobrineclone7","steam_id":76561199193733613,"connected_time":3372000000000,"state":"active","ping":94},{"user_id":73,"name":"The Heart","steam_id":76561198371123185,"connected_time":1131000000000,"state":"active","ping":75},{"user_id":62,"name":"god doesnt here me","steam_id":76561198125328737,"connected_time":2403000000000,"state":"active","ping":54},{"user_id":80,"name":"stinky (underground)","steam_id":76561198190323610,"connected_time":437000000000,"state":"active","ping":77},{"user_id":31,"name":"DiscoTraveler","steam_id":76561199240168088,"connected_time":3549000000000,"state":"active","ping":41},{"user_id":47,"name":"Kymat","steam_id":76561198056367793,"connected_time":3135000000000,"state":"active","ping":103},{"user_id":83,"name":"Goomfulus","steam_id":76561198149987582,"connected_time":389000000000,"state":"active","ping":60},{"user_id":50,"name":"Dejected Jester","steam_id":76561197972171675,"connected_time":3061000000000,"state":"active","ping":89},{"user_id":59,"name":"neet","steam_id":76561197968115168,"connected_time":2422000000000,"state":"active","ping":45},{"user_id":82,"name":"Spore_Captain","steam_id":76561198060839271,"connected_time":402000000000,"state":"active","ping":58},{"user_id":72,"name":"Degree","steam_id":76561198059812393,"connected_time":1164000000000,"state":"active","ping":55},{"user_id":40,"name":"Metapod","steam_id":76561198008725465,"connected_time":3297000000000,"state":"active","ping":67},{"user_id":58,"name":"Count Flandy","steam_id":76561198009708759,"connected_time":2479000000000,"state":"active","ping":64},{"user_id":60,"name":"Bobby Jenkins","steam_id":76561198353567634,"connected_time":2412000000000,"state":"active","ping":74},{"user_id":44,"name":"pastas","steam_id":76561198154774351,"connected_time":3206000000000,"state":"active","ping":57},{"user_id":71,"name":"Xx-CostcoShopper-xX","steam_id":76561198066429444,"connected_time":1618000000000,"state":"active","ping":49},{"user_id":76,"name":"BlueTurtle","steam_id":76561198043289235,"connected_time":601000000000,"state":"active","ping":45},{"user_id":55,"name":"emseaeye","steam_id":76561198161499803,"connected_time":2752000000000,"state":"active","ping":61},{"user_id":56,"name":"guyinatophat51","steam_id":76561198180230694,"connected_time":2646000000000,"state":"active","ping":55},{"user_id":75,"name":"xen","steam_id":76561198048568188,"connected_time":1108000000000,"state":"active","ping":46}]},{"server_id":15,"name":"Uncletopia | New York City | 3 | Stopwatch Beta","name_short":"nyc-3","host":"nyc-1.us.uncletopia.com","port":27035,"enabled":true,"region":"us-east","cc":"us","latitude":40.73061,"longitude":-73.93524,"reserved":0,"last_update":"0001-01-01T00:00:00Z","name_a2s":"Uncletopia | New York City | 3 | Stopwatch Beta","protocol":17,"map":"pl_upward","folder":"tf","game":"Team Fortress","app_id":440,"player_count":0,"max_players":24,"Bots":0,"server_type":"Dedicated","server_os":"Linux","password":true,"vac":true,"version":"7757534","steam_id":85568392924742820,"keywords":["nocrits","nodmgspread","payload","uncletopia"],"game_id":440,"stv_port":27036,"stv_name":"Uncletopia | New York City | 3 | Stopwatch Beta | STV","players":null},{"server_id":16,"name":"Uncletopia | New York City | 4 | Community","name_short":"nyc-4","host":"nyc-1.us.uncletopia.com","port":27045,"enabled":true,"region":"us-east","cc":"us","latitude":40.73061,"longitude":-73.93524,"reserved":0,"last_update":"0001-01-01T00:00:00Z","name_a2s":"Uncletopia | New York City | 4 | Community","protocol":17,"map":"workshop/koth_product_final.ugc454272353","folder":"tf","game":"Team Fortress","app_id":440,"player_count":13,"max_players":24,"Bots":0,"server_type":"Dedicated","server_os":"Linux","password":true,"vac":true,"version":"7757534","steam_id":85568392924742821,"keywords":["cp","nocrits","nodmgspread","uncletopia"],"game_id":440,"stv_port":27046,"stv_name":"Uncletopia | New York City | 4 | Community | STV","players":[{"user_id":7,"name":"Miwicks","steam_id":76561198866780803,"connected_time":3556000000000,"state":"active","ping":66},{"user_id":8,"name":"The Engineer is EngiQueer","steam_id":76561198145431353,"connected_time":3399000000000,"state":"active","ping":73},{"user_id":10,"name":"Grimace","steam_id":76561198297216420,"connected_time":936000000000,"state":"active","ping":48},{"user_id":11,"name":"TiPhoenix","steam_id":76561199024675007,"connected_time":692000000000,"state":"active","ping":49},{"user_id":12,"name":"Kritzburgh","steam_id":76561198149466938,"connected_time":517000000000,"state":"active","ping":51},{"user_id":13,"name":"Herdex","steam_id":76561198092575778,"connected_time":465000000000,"state":"active","ping":74},{"user_id":15,"name":"MamamiaTF2","steam_id":76561199070885213,"connected_time":454000000000,"state":"active","ping":60},{"user_id":16,"name":"god_ferny","steam_id":76561198263380204,"connected_time":443000000000,"state":"active","ping":123},{"user_id":17,"name":"CoPilot","steam_id":76561198798217843,"connected_time":340000000000,"state":"active","ping":80},{"user_id":19,"name":"kefkja","steam_id":76561198283963218,"connected_time":69000000000,"state":"active","ping":74},{"user_id":20,"name":"BasicPeaches","steam_id":76561198190890150,"connected_time":58000000000,"state":"active","ping":58},{"user_id":21,"name":"EliminateSingleFamilyZoning","steam_id":76561198276653985,"connected_time":53000000000,"state":"active","ping":66},{"user_id":22,"name":"Beast_727","steam_id":76561198390289197,"connected_time":39000000000,"state":"active","ping":74}]},{"server_id":142,"name":"Uncletopia | São Paulo | 1 | All Maps","name_short":"sao-1","host":"sao-1.br.uncletopia.com","port":27015,"enabled":true,"region":"sa","cc":"br","latitude":-23.533773,"longitude":-46.62529,"reserved":0,"last_update":"0001-01-01T00:00:00Z","name_a2s":"Uncletopia | São Paulo | 1 | All Maps","protocol":17,"map":"koth_lakeside_final","folder":"tf","game":"Team Fortress","app_id":440,"player_count":0,"max_players":24,"Bots":0,"server_type":"Dedicated","server_os":"Linux","password":true,"vac":true,"version":"7757534","steam_id":85568392924469996,"keywords":["cp","nocrits","nodmgspread","uncletopia"],"game_id":440,"stv_port":27016,"stv_name":"Uncletopia | São Paulo | 1 | All Maps | STV","players":null},{"server_id":143,"name":"Uncletopia | São Paulo | 2 | All Maps","name_short":"sao-2","host":"sao-2.br.uncletopia.com","port":27015,"enabled":true,"region":"sa","cc":"br","latitude":-23.533773,"longitude":-46.62529,"reserved":0,"last_update":"0001-01-01T00:00:00Z","name_a2s":"Uncletopia | São Paulo | 2 | All Maps","protocol":17,"map":"cp_altitude","folder":"tf","game":"Team Fortress","app_id":440,"player_count":0,"max_players":24,"Bots":0,"server_type":"Dedicated","server_os":"Linux","password":true,"vac":true,"version":"7757534","steam_id":85568392924485349,"keywords":["cp","nocrits","nodmgspread","uncletopia"],"game_id":440,"stv_port":27016,"stv_name":"Uncletopia | São Paulo | 2 | All Maps | STV","players":null},{"server_id":7,"name":"Uncletopia | Seattle | 1 | All Maps","name_short":"sea-1","host":"sea-1.us.uncletopia.com","port":27015,"enabled":true,"region":"us-west","cc":"us","latitude":47.608013,"longitude":-122.33517,"reserved":0,"last_update":"0001-01-01T00:00:00Z","name_a2s":"Uncletopia | Seattle | 1 | All Maps","protocol":17,"map":"pl_badwater","folder":"tf","game":"Team Fortress","app_id":440,"player_count":20,"max_players":24,"Bots":0,"server_type":"Dedicated","server_os":"Linux","password":true,"vac":true,"version":"7757534","steam_id":85568392924469997,"keywords":["nocrits","nodmgspread","payload","uncletopia"],"game_id":440,"stv_port":27016,"stv_name":"Uncletopia | Seattle | 1 | All Maps | STV","players":[{"user_id":162,"name":"Hottodoggu","steam_id":76561198084080712,"connected_time":3659000000000,"state":"active","ping":88},{"user_id":207,"name":"The Roof Guy","steam_id":76561198963469265,"connected_time":483000000000,"state":"active","ping":88},{"user_id":204,"name":"Lilac Lulamoon","steam_id":76561198111402757,"connected_time":497000000000,"state":"active","ping":115},{"user_id":216,"name":"Nugget Eater Jr.","steam_id":76561198088040097,"connected_time":54000000000,"state":"active","ping":128},{"user_id":174,"name":"Truffles","steam_id":76561198095868800,"connected_time":2934000000000,"state":"active","ping":110},{"user_id":175,"name":"heat-seeking missile","steam_id":76561198993139342,"connected_time":2839000000000,"state":"active","ping":92},{"user_id":201,"name":"laszlo","steam_id":76561198141198352,"connected_time":787000000000,"state":"active","ping":92},{"user_id":208,"name":"『 Ethereal 』","steam_id":76561199385170644,"connected_time":444000000000,"state":"active","ping":105},{"user_id":202,"name":"The 14th Doctor","steam_id":76561198082233504,"connected_time":628000000000,"state":"active","ping":115},{"user_id":203,"name":"Jimjonjoe","steam_id":76561199195695913,"connected_time":510000000000,"state":"active","ping":107},{"user_id":205,"name":"sheep girl \u003c3","steam_id":76561198068189558,"connected_time":490000000000,"state":"active","ping":71},{"user_id":152,"name":"Big Yoshi","steam_id":76561199160576376,"connected_time":4705000000000,"state":"active","ping":85},{"user_id":217,"name":"Doughnut Thief","steam_id":76561198090419068,"connected_time":33000000000,"state":"active","ping":70},{"user_id":196,"name":"Shadowguy","steam_id":76561199079117533,"connected_time":1108000000000,"state":"active","ping":88},{"user_id":197,"name":"ap sap","steam_id":76561198202273263,"connected_time":1076000000000,"state":"active","ping":97},{"user_id":23,"name":"TF2 Gangster Edition™","steam_id":76561198280031462,"connected_time":13336000000000,"state":"active","ping":93},{"user_id":211,"name":"chanoc","steam_id":76561198026734746,"connected_time":428000000000,"state":"active","ping":70},{"user_id":191,"name":"Mitchell","steam_id":76561197972922328,"connected_time":1453000000000,"state":"active","ping":84},{"user_id":212,"name":"Lunk","steam_id":76561198083037471,"connected_time":371000000000,"state":"active","ping":88},{"user_id":167,"name":"Lemonade Juice","steam_id":76561198402892608,"connected_time":3454000000000,"state":"active","ping":97}]},{"server_id":119,"name":"Uncletopia | Seattle | 2 | All Maps","name_short":"sea-2","host":"sea-1.us.uncletopia.com","port":27025,"enabled":true,"region":"us-west","cc":"us","latitude":47.608013,"longitude":-122.33517,"reserved":0,"last_update":"0001-01-01T00:00:00Z","name_a2s":"Uncletopia | Seattle | 2 | All Maps","protocol":17,"map":"cp_dustbowl","folder":"tf","game":"Team Fortress","app_id":440,"player_count":24,"max_players":24,"Bots":0,"server_type":"Dedicated","server_os":"Linux","password":true,"vac":true,"version":"7757534","steam_id":85568392924469998,"keywords":["cp","nocrits","nodmgspread","uncletopia"],"game_id":440,"stv_port":27026,"stv_name":"Uncletopia | Seattle | 2 | All Maps | STV","players":[{"user_id":10,"name":"Yer local F2P","steam_id":76561198439633314,"connected_time":12213000000000,"state":"active","ping":129},{"user_id":194,"name":"chrome 2008 (she/they)","steam_id":76561198321277216,"connected_time":763000000000,"state":"active","ping":70},{"user_id":127,"name":"Little Linguine","steam_id":76561198816986370,"connected_time":4472000000000,"state":"active","ping":61},{"user_id":170,"name":"pete_the_cat_2014","steam_id":76561198199266047,"connected_time":1839000000000,"state":"active","ping":107},{"user_id":201,"name":"Kaluka","steam_id":76561198036861445,"connected_time":129000000000,"state":"active","ping":116},{"user_id":198,"name":"Merekitten","steam_id":76561198066307477,"connected_time":278000000000,"state":"active","ping":93},{"user_id":192,"name":"Penne","steam_id":76561198982393756,"connected_time":846000000000,"state":"active","ping":72},{"user_id":199,"name":"A Very Confused Gentleman","steam_id":76561198051686391,"connected_time":212000000000,"state":"active","ping":105},{"user_id":200,"name":"Praxis","steam_id":76561197960794303,"connected_time":140000000000,"state":"active","ping":126},{"user_id":197,"name":"rlty","steam_id":76561198009395055,"connected_time":359000000000,"state":"active","ping":120},{"user_id":178,"name":"Emails","steam_id":76561198836919458,"connected_time":1537000000000,"state":"active","ping":132},{"user_id":116,"name":"花の派手な鼻","steam_id":76561198042735130,"connected_time":5326000000000,"state":"active","ping":57},{"user_id":202,"name":"E equals M C squared","steam_id":76561198014415153,"connected_time":127000000000,"state":"active","ping":60},{"user_id":175,"name":"Tyler\u0026Fingers","steam_id":76561198085154485,"connected_time":1702000000000,"state":"active","ping":141},{"user_id":177,"name":"schmopp","steam_id":76561198076490954,"connected_time":1563000000000,"state":"active","ping":76},{"user_id":185,"name":"Joey Wheeler","steam_id":76561198073792437,"connected_time":1145000000000,"state":"active","ping":99},{"user_id":180,"name":"IPlayGamez","steam_id":76561198041387508,"connected_time":1509000000000,"state":"active","ping":126},{"user_id":204,"name":"Kite","steam_id":76561199060915563,"connected_time":17000000000,"state":"spawning","ping":126},{"user_id":182,"name":"nella","steam_id":76561198079349621,"connected_time":1432000000000,"state":"active","ping":79},{"user_id":140,"name":"Kazel","steam_id":76561197989757682,"connected_time":3955000000000,"state":"active","ping":112},{"user_id":161,"name":"Reverie","steam_id":76561198987005784,"connected_time":2828000000000,"state":"active","ping":113},{"user_id":189,"name":"Wacks","steam_id":76561198079476100,"connected_time":951000000000,"state":"active","ping":74},{"user_id":196,"name":"Yorm","steam_id":76561198078459249,"connected_time":684000000000,"state":"active","ping":108},{"user_id":164,"name":"drift.ag21","steam_id":76561198093781093,"connected_time":2388000000000,"state":"active","ping":114}]},{"server_id":406,"name":"Uncletopia | Seattle | 3 | Stopwatch Beta","name_short":"sea-3","host":"sea-1.us.uncletopia.com","port":27035,"enabled":true,"region":"us-west","cc":"us","latitude":47.608013,"longitude":-122.33517,"reserved":0,"last_update":"0001-01-01T00:00:00Z","name_a2s":"Uncletopia | Seattle | 3 | Stopwatch Beta","protocol":17,"map":"cp_dustbowl","folder":"tf","game":"Team Fortress","app_id":440,"player_count":0,"max_players":24,"Bots":0,"server_type":"Dedicated","server_os":"Linux","password":true,"vac":true,"version":"7757534","steam_id":85568392924515217,"keywords":["cp","nocrits","nodmgspread","uncletopia"],"game_id":440,"stv_port":27036,"stv_name":"Uncletopia | Seattle | 3 | Stopwatch Beta | STV","players":null},{"server_id":17,"name":"Uncletopia | San Francisco | 1 | All Maps","name_short":"sfo-1","host":"sfo-1.us.uncletopia.com","port":27015,"enabled":true,"region":"us-west","cc":"us","latitude":37.77397,"longitude":-122.4313,"reserved":0,"last_update":"0001-01-01T00:00:00Z","name_a2s":"Uncletopia | San Francisco | 1 | All Maps","protocol":17,"map":"cp_process_final","folder":"tf","game":"Team Fortress","app_id":440,"player_count":0,"max_players":24,"Bots":0,"server_type":"Dedicated","server_os":"Linux","password":true,"vac":true,"version":"7757534","steam_id":85568392924469999,"keywords":["cp","nocrits","nodmgspread","uncletopia"],"game_id":440,"stv_port":27016,"stv_name":"Uncletopia | San Francisco | 1 | All Maps | STV","players":null},{"server_id":18,"name":"Uncletopia | San Francisco | 2 | All Maps","name_short":"sfo-2","host":"sfo-1.us.uncletopia.com","port":27025,"enabled":true,"region":"us-west","cc":"us","latitude":37.77397,"longitude":-122.4313,"reserved":0,"last_update":"0001-01-01T00:00:00Z","name_a2s":"Uncletopia | San Francisco | 2 | All Maps","protocol":17,"map":"koth_highpass","folder":"tf","game":"Team Fortress","app_id":440,"player_count":0,"max_players":24,"Bots":0,"server_type":"Dedicated","server_os":"Linux","password":true,"vac":true,"version":"7757534","steam_id":85568392924470000,"keywords":["cp","nocrits","nodmgspread","uncletopia"],"game_id":440,"stv_port":27026,"stv_name":"Uncletopia | San Francisco | 2 | All Maps | STV","players":null},{"server_id":19,"name":"Uncletopia | San Francisco | 3 | Stopwatch Beta","name_short":"sfo-3","host":"sfo-1.us.uncletopia.com","port":27035,"enabled":true,"region":"us-west","cc":"us","latitude":37.77397,"longitude":-122.4313,"reserved":0,"last_update":"0001-01-01T00:00:00Z","name_a2s":"Uncletopia | San Francisco | 3 | Stopwatch Beta","protocol":17,"map":"koth_lakeside_final","folder":"tf","game":"Team Fortress","app_id":440,"player_count":0,"max_players":24,"Bots":0,"server_type":"Dedicated","server_os":"Linux","password":true,"vac":true,"version":"7757534","steam_id":85568392924742824,"keywords":["cp","nocrits","nodmgspread","uncletopia"],"game_id":440,"stv_port":27036,"stv_name":"Uncletopia | San Francisco | 3 | Stopwatch Beta | STV","players":null},{"server_id":20,"name":"Uncletopia | San Francisco | 4 | Community","name_short":"sfo-4","host":"sfo-1.us.uncletopia.com","port":27045,"enabled":true,"region":"us-west","cc":"us","latitude":37.77397,"longitude":-122.4313,"reserved":0,"last_update":"0001-01-01T00:00:00Z","name_a2s":"Uncletopia | San Francisco | 4 | Community","protocol":17,"map":"cp_altitude","folder":"tf","game":"Team Fortress","app_id":440,"player_count":0,"max_players":24,"Bots":0,"server_type":"Dedicated","server_os":"Linux","password":true,"vac":true,"version":"7757534","steam_id":85568392924742826,"keywords":["cp","nocrits","nodmgspread","uncletopia"],"game_id":440,"stv_port":27046,"stv_name":"Uncletopia | San Francisco | 4 | Community | STV","players":null},{"server_id":141,"name":"Uncletopia | Sydney | 1 | All Maps","name_short":"syd-1","host":"syd-1.au.uncletopia.com","port":27015,"enabled":true,"region":"au","cc":"au","latitude":-33.865143,"longitude":151.2099,"reserved":0,"last_update":"0001-01-01T00:00:00Z","name_a2s":"Uncletopia | Sydney | 1 | All Maps","protocol":17,"map":"cp_mountainlab","folder":"tf","game":"Team Fortress","app_id":440,"player_count":0,"max_players":24,"Bots":0,"server_type":"Dedicated","server_os":"Linux","password":true,"vac":true,"version":"7757534","steam_id":85568392924470001,"keywords":["cp","nocrits","nodmgspread","uncletopia"],"game_id":440,"stv_port":27016,"stv_name":"Uncletopia | Sydney | 1 | All Maps | STV","players":null},{"server_id":123,"name":"Uncletopia | Sydney | 2 | All Maps","name_short":"syd-2","host":"syd-1.au.uncletopia.com","port":27025,"enabled":true,"region":"au","cc":"au","latitude":-33.865143,"longitude":151.2099,"reserved":0,"last_update":"0001-01-01T00:00:00Z","name_a2s":"Uncletopia | Sydney | 2 | All Maps","protocol":17,"map":"cp_sunshine","folder":"tf","game":"Team Fortress","app_id":440,"player_count":0,"max_players":24,"Bots":0,"server_type":"Dedicated","server_os":"Linux","password":true,"vac":true,"version":"7757534","steam_id":85568392924470002,"keywords":["cp","nocrits","nodmgspread","uncletopia"],"game_id":440,"stv_port":27026,"stv_name":"Uncletopia | Sydney | 2 | All Maps | STV","players":null},{"server_id":395,"name":"Uncletopia | Sydney | 3 | All Maps","name_short":"syd-3","host":"syd-1.au.uncletopia.com","port":27035,"enabled":true,"region":"au","cc":"au","latitude":-33.865143,"longitude":151.2099,"reserved":0,"last_update":"0001-01-01T00:00:00Z","name_a2s":"Uncletopia | Sydney | 3 | All Maps","protocol":17,"map":"koth_lakeside_final","folder":"tf","game":"Team Fortress","app_id":440,"player_count":0,"max_players":24,"Bots":0,"server_type":"Dedicated","server_os":"Linux","password":true,"vac":true,"version":"7757534","steam_id":85568392925194467,"keywords":["cp","nocrits","nodmgspread","uncletopia"],"game_id":440,"stv_port":27036,"stv_name":"Uncletopia | Sydney | 3 | All Maps | STV","players":null},{"server_id":396,"name":"Uncletopia | Sydney | 4 | All Maps","name_short":"syd-4","host":"syd-1.au.uncletopia.com","port":27045,"enabled":true,"region":"au","cc":"au","latitude":-33.865143,"longitude":151.2099,"reserved":0,"last_update":"0001-01-01T00:00:00Z","name_a2s":"Uncletopia | Sydney | 4 | All Maps","protocol":17,"map":"cp_sunshine","folder":"tf","game":"Team Fortress","app_id":440,"player_count":0,"max_players":24,"Bots":0,"server_type":"Dedicated","server_os":"Linux","password":true,"vac":true,"version":"7757534","steam_id":85568392925397958,"keywords":["cp","nocrits","nodmgspread","uncletopia"],"game_id":440,"stv_port":27046,"stv_name":"Uncletopia | Sydney | 4 | All Maps | STV","players":null},{"server_id":58,"name":"Uncletopia | Sydney | 5 | Stopwatch Beta","name_short":"syd-5","host":"syd-1.au.uncletopia.com","port":27055,"enabled":true,"region":"au","cc":"au","latitude":-33.865143,"longitude":151.2099,"reserved":0,"last_update":"0001-01-01T00:00:00Z","name_a2s":"Uncletopia | Sydney | 5 | Stopwatch Beta","protocol":17,"map":"workshop/pl_summercoast_rc8e.ugc1761528829","folder":"tf","game":"Team Fortress","app_id":440,"player_count":0,"max_players":24,"Bots":0,"server_type":"Dedicated","server_os":"Linux","password":true,"vac":true,"version":"7757534","steam_id":85568392925397959,"keywords":["nocrits","nodmgspread","payload","uncletopia"],"game_id":440,"stv_port":27056,"stv_name":"Uncletopia | Sydney | 5 | Stopwatch Beta | STV","players":null},{"server_id":59,"name":"Uncletopia | Sydney | 6 | Community","name_short":"syd-6","host":"syd-1.au.uncletopia.com","port":27065,"enabled":true,"region":"au","cc":"au","latitude":-33.865143,"longitude":151.2099,"reserved":0,"last_update":"0001-01-01T00:00:00Z","name_a2s":"Uncletopia | Sydney | 6 | Community","protocol":17,"map":"workshop/cp_snowbase_b18.ugc2081770490","folder":"tf","game":"Team Fortress","app_id":440,"player_count":0,"max_players":24,"Bots":0,"server_type":"Dedicated","server_os":"Linux","password":true,"vac":true,"version":"7757534","steam_id":85568392925397960,"keywords":["cp","nocrits","nodmgspread","uncletopia"],"game_id":440,"stv_port":27066,"stv_name":"Uncletopia | Sydney | 6 | Community | STV","players":null},{"server_id":49,"name":"Uncletopia | Warsaw | 1 | All Maps","name_short":"waw-1","host":"waw-1.pl.uncletopia.com","port":27015,"enabled":true,"region":"eu","cc":"pl","latitude":52.2297,"longitude":21.017532,"reserved":0,"last_update":"0001-01-01T00:00:00Z","name_a2s":"","protocol":0,"map":"","folder":"","game":"","app_id":0,"player_count":0,"max_players":0,"Bots":0,"server_type":"","server_os":"","password":false,"vac":false,"version":"","steam_id":0,"keywords":null,"game_id":0,"stv_port":0,"stv_name":"","players":null},{"server_id":50,"name":"Uncletopia | Warsaw | 2 | All Maps","name_short":"waw-2","host":"waw-1.pl.uncletopia.com","port":27025,"enabled":true,"region":"eu","cc":"pl","latitude":52.2297,"longitude":21.017532,"reserved":0,"last_update":"0001-01-01T00:00:00Z","name_a2s":"Uncletopia | Warsaw | 2 | All Maps","protocol":17,"map":"koth_viaduct","folder":"tf","game":"Team Fortress","app_id":440,"player_count":0,"max_players":24,"Bots":0,"server_type":"Dedicated","server_os":"Linux","password":true,"vac":true,"version":"7757534","steam_id":85568392925397851,"keywords":["cp","nocrits","nodmgspread","uncletopia"],"game_id":440,"stv_port":27026,"stv_name":"Uncletopia | Warsaw | 2 | All Maps | STV","players":null},{"server_id":51,"name":"Uncletopia | Warsaw | 3 | All Maps","name_short":"waw-3","host":"waw-1.pl.uncletopia.com","port":27035,"enabled":true,"region":"eu","cc":"pl","latitude":52.2297,"longitude":21.017532,"reserved":0,"last_update":"0001-01-01T00:00:00Z","name_a2s":"Uncletopia | Warsaw | 3 | All Maps","protocol":17,"map":"cp_altitude","folder":"tf","game":"Team Fortress","app_id":440,"player_count":0,"max_players":24,"Bots":0,"server_type":"Dedicated","server_os":"Linux","password":true,"vac":true,"version":"7757534","steam_id":85568392925397852,"keywords":["cp","nocrits","nodmgspread","uncletopia"],"game_id":440,"stv_port":27036,"stv_name":"Uncletopia | Warsaw | 3 | All Maps | STV","players":null},{"server_id":52,"name":"Uncletopia | Warsaw | 4 | All Maps","name_short":"waw-4","host":"waw-1.pl.uncletopia.com","port":27045,"enabled":true,"region":"eu","cc":"pl","latitude":52.2297,"longitude":21.017532,"reserved":0,"last_update":"0001-01-01T00:00:00Z","name_a2s":"Uncletopia | Warsaw | 4 | All Maps","protocol":17,"map":"cp_snakewater_final1","folder":"tf","game":"Team Fortress","app_id":440,"player_count":0,"max_players":24,"Bots":0,"server_type":"Dedicated","server_os":"Linux","password":true,"vac":true,"version":"7757534","steam_id":85568392925397853,"keywords":["cp","nocrits","nodmgspread","uncletopia"],"game_id":440,"stv_port":27046,"stv_name":"Uncletopia | Warsaw | 4 | All Maps | STV","players":null},{"server_id":53,"name":"Uncletopia | Warsaw | 5 | Stopwatch Beta","name_short":"waw-5","host":"waw-1.pl.uncletopia.com","port":27055,"enabled":true,"region":"eu","cc":"pl","latitude":52.2297,"longitude":21.017532,"reserved":0,"last_update":"0001-01-01T00:00:00Z","name_a2s":"Uncletopia | Warsaw | 5 | Stopwatch Beta","protocol":17,"map":"pl_borneo","folder":"tf","game":"Team Fortress","app_id":440,"player_count":0,"max_players":24,"Bots":0,"server_type":"Dedicated","server_os":"Linux","password":true,"vac":true,"version":"7757534","steam_id":85568392925397854,"keywords":["nocrits","nodmgspread","payload","uncletopia"],"game_id":440,"stv_port":27056,"stv_name":"Uncletopia | Warsaw | 5 | Stopwatch Beta | STV","players":null},{"server_id":54,"name":"Uncletopia | Warsaw | 6 | Community","name_short":"waw-6","host":"waw-1.pl.uncletopia.com","port":27065,"enabled":true,"region":"eu","cc":"pl","latitude":52.2297,"longitude":21.017532,"reserved":0,"last_update":"0001-01-01T00:00:00Z","name_a2s":"Uncletopia | Warsaw | 6 | Community","protocol":17,"map":"koth_lakeside_final","folder":"tf","game":"Team Fortress","app_id":440,"player_count":0,"max_players":24,"Bots":0,"server_type":"Dedicated","server_os":"Linux","password":true,"vac":true,"version":"7757534","steam_id":85568392925397856,"keywords":["cp","nocrits","nodmgspread","uncletopia"],"game_id":440,"stv_port":27066,"stv_name":"Uncletopia | Warsaw | 6 | Community | STV","players":null}]}