{"status":true,"message":"","result":[{"server_id":2,"name":"Uncletopia | Chicago | 1 | All Maps","name_short":"chi-1","host":"chi-1.us.uncletopia.com","port":27015,"enabled":true,"region":"us-central","cc":"us","latitude":41.881832,"longitude":-87.62318,"reserved":0,"last_update":"0001-01-01T00:00:00Z","name_a2s":"Uncletopia | Chicago | 1 | All Maps","protocol":17,"map":"cp_altitude","folder":"tf","game":"Team Fortress","app_id":440,"player_count":23,"max_players":24,"Bots":0,"server_type":"Dedicated","server_os":"Linux","password":true,"vac":true,"version":"7932396","steam_id":85568392924469984,"keywords":["cp","nocrits","nodmgspread","uncletopia"],"game_id":440,"stv_port":27016,"stv_name":"Uncletopia | Chicago | 1 | All Maps | STV","players":[{"user_id":512,"name":"cotton candy peon","steam_id":76561198058998371,"connected_time":1676000000000,"state":"active","ping":69},{"user_id":519,"name":"abcdefghijklmnopqrstuvwxyz","steam_id":76561198175741741,"connected_time":1414000000000,"state":"active","ping":70},{"user_id":523,"name":"Touchpad User","steam_id":76561198365780517,"connected_time":1225000000000,"state":"active","ping":109},{"user_id":508,"name":"Doctor Emerald(real)","steam_id":76561199123003872,"connected_time":1756000000000,"state":"active","ping":87},{"user_id":526,"name":"Jomdac","steam_id":76561198150447896,"connected_time":787000000000,"state":"active","ping":96},{"user_id":529,"name":"3xtr3m3rWbyFan2901025","steam_id":76561198042286766,"connected_time":94000000000,"state":"active","ping":59},{"user_id":513,"name":"EforEstrogen","steam_id":76561198086787295,"connected_time":1673000000000,"state":"active","ping":101},{"user_id":474,"name":"touhou2010@gmail.com","steam_id":76561198045844070,"connected_time":4051000000000,"state":"active","ping":79},{"user_id":471,"name":"what is completely unfappable?","steam_id":76561198032259680,"connected_time":4072000000000,"state":"active","ping":76},{"user_id":509,"name":"dunk","steam_id":76561198132476501,"connected_time":1750000000000,"state":"active","ping":44},{"user_id":530,"name":"El G√ºey","steam_id":76561197970450546,"connected_time":67000000000,"state":"active","ping":115},{"user_id":531,"name":"Penrose42","steam_id":76561198288577396,"connected_time":48000000000,"state":"active","ping":85},{"user_id":524,"name":"car","steam_id":76561198999217575,"connected_time":874000000000,"state":"active","ping":70},{"user_id":472,"name":"BreakfastTacos","steam_id":76561198847620442,"connected_time":4071000000000,"state":"active","ping":98},{"user_id":514,"name":"GreekGoat_Coffee","steam_id":76561198129331088,"connected_time":1661000000000,"state":"active","ping":44},{"user_id":525,"name":"Lego Yoda","steam_id":76561199008362890,"connected_time":818000000000,"state":"active","ping":60},{"user_id":532,"name":"Jaguar -ringme","steam_id":76561197971152439,"connected_time":1000000000,"state":"spawning","ping":64},{"user_id":521,"name":"Barbados Slim","steam_id":76561199483183459,"connected_time":1351000000000,"state":"active","ping":96},{"user_id":481,"name":"·ìÄ‚Ä∏·ìÇ","steam_id":76561198046055673,"connected_time":3886000000000,"state":"active","ping":75},{"user_id":507,"name":"pp","steam_id":76561198396247454,"connected_time":1831000000000,"state":"active","ping":55},{"user_id":516,"name":"DarkHero","steam_id":76561198197125710,"connected_time":1621000000000,"state":"active","ping":94},{"user_id":528,"name":"Motreir","steam_id":76561198151717946,"connected_time":115000000000,"state":"active","ping":77},{"user_id":518,"name":"Snoots!","steam_id":76561198006301420,"connected_time":1495000000000,"state":"active","ping":83}]},{"server_id":106,"name":"Uncletopia | Chicago | 2 | All Maps","name_short":"chi-2","host":"chi-1.us.uncletopia.com","port":27025,"enabled":true,"region":"us-central","cc":"us","latitude":41.881832,"longitude":-87.62318,"reserved":0,"last_update":"0001-01-01T00:00:00Z","name_a2s":"Uncletopia | Chicago | 2 | All Maps","protocol":17,"map":"pl_snowycoast","folder":"tf","game":"Team Fortress","app_id":440,"player_count":24,"max_players":24,"Bots":0,"server_type":"Dedicated","server_os":"Linux","password":true,"vac":true,"version":"7932396","steam_id":85568392924469985,"keywords":["nocrits","nodmgspread","payload","uncletopia"],"game_id":440,"stv_port":27026,"stv_name":"Uncletopia | Chicago | 2 | All Maps | STV","players":[{"user_id":827,"name":"Pasta","steam_id":76561198358320222,"connected_time":3015000000000,"state":"active","ping":72},{"user_id":773,"name":"Whorse","steam_id":76561198114141445,"connected_time":6585000000000,"state":"active","ping":69},{"user_id":850,"name":"'Ki||-Your_Landlords7","steam_id":76561197999542043,"connected_time":1283000000000,"state":"active","ping":86},{"user_id":851,"name":"Jeff Probst","steam_id":76561199215811448,"connected_time":1280000000000,"state":"active","ping":89},{"user_id":869,"name":"BigDeac","steam_id":76561198091237274,"connected_time":279000000000,"state":"active","ping":54},{"user_id":849,"name":"girthmilk","steam_id":76561198054799782,"connected_time":1677000000000,"state":"active","ping":107},{"user_id":845,"name":"Space Lizard","steam_id":76561198056798193,"connected_time":1895000000000,"state":"active","ping":77},{"user_id":870,"name":"shootnskeet","steam_id":76561198133099582,"connected_time":132000000000,"state":"active","ping":100},{"user_id":848,"name":"kite","steam_id":76561198346516392,"connected_time":1753000000000,"state":"active","ping":64},{"user_id":834,"name":"pop7585","steam_id":76561198149021193,"connected_time":2481000000000,"state":"active","ping":71},{"user_id":781,"name":"Colin102004","steam_id":76561198202384334,"connected_time":6535000000000,"state":"active","ping":53},{"user_id":853,"name":"SunSet :^)","steam_id":76561198067598194,"connected_time":1229000000000,"state":"active","ping":62},{"user_id":868,"name":"loser","steam_id":76561198259380127,"connected_time":382000000000,"state":"active","ping":58},{"user_id":822,"name":"Dave5744","steam_id":76561198117207566,"connected_time":3575000000000,"state":"active","ping":60},{"user_id":860,"name":"honor in defeat","steam_id":76561198013735714,"connected_time":1181000000000,"state":"active","ping":141},{"user_id":866,"name":"noah","steam_id":76561198173310157,"connected_time":611000000000,"state":"active","ping":53},{"user_id":864,"name":"DragonFalcon‚Ñ¢","steam_id":76561198044559930,"connected_time":953000000000,"state":"active","ping":85},{"user_id":855,"name":"GalungaBunga","steam_id":76561198108546357,"connected_time":1222000000000,"state":"active","ping":79},{"user_id":867,"name":"shmeenus","steam_id":76561198201086569,"connected_time":434000000000,"state":"active","ping":52},{"user_id":836,"name":"flaccid","steam_id":76561198299241777,"connected_time":2468000000000,"state":"active","ping":100},{"user_id":861,"name":"Purple","steam_id":76561199099386211,"connected_time":1165000000000,"state":"active","ping":71},{"user_id":812,"name":"Dog","steam_id":76561198450992953,"connected_time":4543000000000,"state":"active","ping":114},{"user_id":862,"name":"geen","steam_id":76561197999318398,"connected_time":1164000000000,"state":"active","ping":84},{"user_id":847,"name":"Howell at the Moon","steam_id":76561198060827426,"connected_time":1846000000000,"state":"active","ping":76}]},{"server_id":402,"name":"Uncletopia | Chicago | 3 | All Maps","name_short":"chi-3","host":"chi-1.us.uncletopia.com","port":27035,"enabled":true,"region":"us-central","cc":"us","latitude":41.881832,"longitude":-87.62318,"reserved":0,"last_update":"0001-01-01T00:00:00Z","name_a2s":"Uncletopia | Chicago | 3 | All Maps","protocol":17,"map":"pl_borneo","folder":"tf","game":"Team Fortress","app_id":440,"player_count":24,"max_players":24,"Bots":0,"server_type":"Dedicated","server_os":"Linux","password":true,"vac":true,"version":"7932396","steam_id":85568392924515191,"keywords":["nocrits","nodmgspread","payload","uncletopia"],"game_id":440,"stv_port":27036,"stv_name":"Uncletopia | Chicago | 3 | All Maps | STV","players":[{"user_id":360,"name":"DAS SCHNITZELSTIEN","steam_id":76561198051137159,"connected_time":135000000000,"state":"active","ping":90},{"user_id":330,"name":"King of the Fishies","steam_id":76561198223901168,"connected_time":1047000000000,"state":"active","ping":141},{"user_id":272,"name":"Dr. Dick","steam_id":76561198138011922,"connected_time":5308000000000,"state":"active","ping":82},{"user_id":352,"name":"the joe rogan experience chimp","steam_id":76561199198633203,"connected_time":183000000000,"state":"active","ping":86},{"user_id":351,"name":"IMM0RTAL","steam_id":76561198013747901,"connected_time":220000000000,"state":"active","ping":71},{"user_id":355,"name":"Golurk with some bitches","steam_id":76561198085888959,"connected_time":167000000000,"state":"active","ping":56},{"user_id":349,"name":"team foolery 2","steam_id":76561199118049168,"connected_time":306000000000,"state":"active","ping":98},{"user_id":316,"name":"Lord TriM","steam_id":76561198048332533,"connected_time":2204000000000,"state":"active","ping":60},{"user_id":354,"name":"honk","steam_id":76561198050398028,"connected_time":172000000000,"state":"active","ping":77},{"user_id":345,"name":"bobby wasabi","steam_id":76561198380018244,"connected_time":574000000000,"state":"active","ping":74},{"user_id":338,"name":"Falcor","steam_id":76561198088330242,"connected_time":740000000000,"state":"active","ping":43},{"user_id":335,"name":"Ôº£Ôº®Ôº°Ôº≠Ôº∞Ôº©ÔºØÔºÆ","steam_id":76561198883157736,"connected_time":811000000000,"state":"active","ping":115},{"user_id":356,"name":"The Real Fempyro.","steam_id":76561199035402139,"connected_time":163000000000,"state":"active","ping":89},{"user_id":357,"name":"FoxyTheFish","steam_id":76561199074190919,"connected_time":160000000000,"state":"active","ping":133},{"user_id":339,"name":"Luh G√´eky","steam_id":76561198053621664,"connected_time":737000000000,"state":"active","ping":45},{"user_id":340,"name":"YASAI JUICE","steam_id":76561198131971992,"connected_time":695000000000,"state":"active","ping":40},{"user_id":343,"name":"Non","steam_id":76561198196524528,"connected_time":641000000000,"state":"active","ping":54},{"user_id":358,"name":"ntjohn","steam_id":76561198043367011,"connected_time":158000000000,"state":"active","ping":76},{"user_id":346,"name":"Galactamarx","steam_id":76561198028065755,"connected_time":572000000000,"state":"active","ping":101},{"user_id":359,"name":"Harold","steam_id":76561198057317770,"connected_time":148000000000,"state":"active","ping":93},{"user_id":342,"name":"jelly lips gets a latina pt2","steam_id":76561199134462656,"connected_time":679000000000,"state":"active","ping":96},{"user_id":310,"name":"TOASTER IN A RAIN COAT","steam_id":76561199090392905,"connected_time":2623000000000,"state":"active","ping":51},{"user_id":347,"name":"Tokiyomi","steam_id":76561198153449091,"connected_time":558000000000,"state":"active","ping":114},{"user_id":326,"name":"‚§£RASCAL","steam_id":76561198269038647,"connected_time":1261000000000,"state":"active","ping":107}]},{"server_id":403,"name":"Uncletopia | Chicago | 4 | All Maps","name_short":"chi-4","host":"chi-1.us.uncletopia.com","port":27045,"enabled":true,"region":"us-central","cc":"us","latitude":41.881832,"longitude":-87.62318,"reserved":0,"last_update":"0001-01-01T00:00:00Z","name_a2s":"Uncletopia | Chicago | 4 | All Maps","protocol":17,"map":"ctf_doublecross","folder":"tf","game":"Team Fortress","app_id":440,"player_count":24,"max_players":24,"Bots":0,"server_type":"Dedicated","server_os":"Linux","password":true,"vac":true,"version":"7932396","steam_id":85568392924515193,"keywords":["ctf","nocrits","nodmgspread","uncletopia"],"game_id":440,"stv_port":27046,"stv_name":"Uncletopia | Chicago | 4 | All Maps | STV","players":[{"user_id":505,"name":"bkiller","steam_id":76561198029265697,"connected_time":1912000000000,"state":"active","ping":75},{"user_id":506,"name":"frick off law enforcement","steam_id":76561198255022731,"connected_time":1891000000000,"state":"active","ping":81},{"user_id":521,"name":"Antifa Supersoldier","steam_id":76561198141816516,"connected_time":539000000000,"state":"active","ping":60},{"user_id":523,"name":"Stargriefer190","steam_id":76561198996425356,"connected_time":320000000000,"state":"active","ping":91},{"user_id":524,"name":"god's drunkest driver","steam_id":76561198069407799,"connected_time":294000000000,"state":"active","ping":75},{"user_id":508,"name":"CFGU || RAWRWAFL","steam_id":76561198032118386,"connected_time":1829000000000,"state":"active","ping":92},{"user_id":464,"name":"ATL1 | cola","steam_id":76561198374390458,"connected_time":3080000000000,"state":"active","ping":74},{"user_id":525,"name":"Floor chicken nugget","steam_id":76561198840484105,"connected_time":294000000000,"state":"active","ping":90},{"user_id":530,"name":"Dot.","steam_id":76561198149463984,"connected_time":91000000000,"state":"active","ping":46},{"user_id":526,"name":"Not Giga Chad","steam_id":76561198059785363,"connected_time":249000000000,"state":"active","ping":75},{"user_id":522,"name":"Elusion","steam_id":76561197998672043,"connected_time":363000000000,"state":"active","ping":58},{"user_id":461,"name":"ATL 1 | Save your wifi","steam_id":76561198286147372,"connected_time":3243000000000,"state":"active","ping":64},{"user_id":440,"name":"Doofenshmirtz Evil Inc.","steam_id":76561198439793697,"connected_time":4429000000000,"state":"active","ping":86},{"user_id":509,"name":"Tweek Tweak","steam_id":76561198445739792,"connected_time":1774000000000,"state":"active","ping":82},{"user_id":527,"name":"Make Me a Sandvich","steam_id":76561198045499333,"connected_time":213000000000,"state":"active","ping":56},{"user_id":511,"name":"FineWine","steam_id":76561199122190694,"connected_time":1767000000000,"state":"active","ping":105},{"user_id":512,"name":"[S]Mr. X [No Monitor]","steam_id":76561197963746035,"connected_time":1764000000000,"state":"active","ping":115},{"user_id":531,"name":"Commodore","steam_id":76561198042112852,"connected_time":64000000000,"state":"active","ping":71},{"user_id":528,"name":"Gary","steam_id":76561199246023546,"connected_time":212000000000,"state":"active","ping":113},{"user_id":532,"name":"Slippin' Jimmy","steam_id":76561198324749126,"connected_time":9000000000,"state":"active","ping":90},{"user_id":513,"name":"IZISOO","steam_id":76561198970380577,"connected_time":1757000000000,"state":"active","ping":57},{"user_id":514,"name":"Tarnation Bob","steam_id":76561198107382571,"connected_time":1729000000000,"state":"active","ping":121},{"user_id":515,"name":"Farseer Ulwithy","steam_id":76561197965179245,"connected_time":1721000000000,"state":"active","ping":73},{"user_id":483,"name":"Hindmost","steam_id":76561199081837220,"connected_time":2609000000000,"state":"active","ping":84}]},{"server_id":36,"name":"Uncletopia | Chicago | 5 | All Maps","name_short":"chi-5","host":"chi-2.us.uncletopia.com","port":27015,"enabled":true,"region":"us-central","cc":"us","latitude":41.881832,"longitude":-87.62318,"reserved":0,"last_update":"0001-01-01T00:00:00Z","name_a2s":"Uncletopia | Chicago | 5 | All Maps","protocol":17,"map":"pl_borneo","folder":"tf","game":"Team Fortress","app_id":440,"player_count":24,"max_players":24,"Bots":0,"server_type":"Dedicated","server_os":"Linux","password":true,"vac":true,"version":"7932396","steam_id":85568392924866362,"keywords":["nocrits","nodmgspread","payload","uncletopia"],"game_id":440,"stv_port":27016,"stv_name":"Uncletopia | Chicago | 5 | All Maps | STV","players":[{"user_id":749,"name":"Sqilluy","steam_id":76561198130993466,"connected_time":4573000000000,"state":"active","ping":80},{"user_id":771,"name":"CHIEF_JUSTICE_FUCKASS","steam_id":76561199261675844,"connected_time":3497000000000,"state":"active","ping":98},{"user_id":757,"name":"Uwu Micster","steam_id":76561198843890616,"connected_time":3787000000000,"state":"active","ping":79},{"user_id":799,"name":"Michaelpc1","steam_id":76561198088365519,"connected_time":864000000000,"state":"active","ping":75},{"user_id":755,"name":"The strongest ‚ë® ball","steam_id":76561198126760743,"connected_time":4096000000000,"state":"active","ping":75},{"user_id":794,"name":"guywholikesSOUP","steam_id":76561198006670369,"connected_time":1403000000000,"state":"active","ping":60},{"user_id":782,"name":"*","steam_id":76561198173047169,"connected_time":2267000000000,"state":"active","ping":60},{"user_id":789,"name":"Griggs","steam_id":76561198800478056,"connected_time":1571000000000,"state":"active","ping":84},{"user_id":807,"name":"honked off the bobo","steam_id":76561198123287268,"connected_time":371000000000,"state":"active","ping":56},{"user_id":765,"name":"IanFishooks","steam_id":76561199403427527,"connected_time":3714000000000,"state":"active","ping":78},{"user_id":787,"name":"ultralisk52","steam_id":76561198051666604,"connected_time":2148000000000,"state":"active","ping":62},{"user_id":800,"name":"Single Gun Tommy","steam_id":76561198272906289,"connected_time":846000000000,"state":"active","ping":73},{"user_id":802,"name":"beyond","steam_id":76561198051009126,"connected_time":693000000000,"state":"active","ping":73},{"user_id":784,"name":"ApertureCity","steam_id":76561198004153607,"connected_time":2230000000000,"state":"active","ping":82},{"user_id":809,"name":"kiseek","steam_id":76561198075474088,"connected_time":123000000000,"state":"active","ping":79},{"user_id":803,"name":"‚ôø","steam_id":76561198296145819,"connected_time":678000000000,"state":"active","ping":81},{"user_id":806,"name":"tommy","steam_id":76561198185185694,"connected_time":452000000000,"state":"active","ping":103},{"user_id":758,"name":"(Past Tense)","steam_id":76561197996279335,"connected_time":3770000000000,"state":"active","ping":48},{"user_id":801,"name":"Alfonso Molestro","steam_id":76561197998677099,"connected_time":842000000000,"state":"active","ping":77},{"user_id":790,"name":"gnoll filth","steam_id":76561198066123607,"connected_time":1564000000000,"state":"active","ping":48},{"user_id":792,"name":"helen keller","steam_id":76561197979870540,"connected_time":1528000000000,"state":"active","ping":59},{"user_id":744,"name":"tyg","steam_id":76561198056246867,"connected_time":5462000000000,"state":"active","ping":75},{"user_id":810,"name":"skogg yenseii","steam_id":76561198304265800,"connected_time":117000000000,"state":"active","ping":81},{"user_id":774,"name":"Len","steam_id":76561198830451722,"connected_time":2967000000000,"state":"active","ping":70}]},{"server_id":37,"name":"Uncletopia | Chicago | 6 | All Maps","name_short":"chi-6","host":"chi-2.us.uncletopia.com","port":27025,"enabled":true,"region":"us-central","cc":"us","latitude":41.881832,"longitude":-87.62318,"reserved":0,"last_update":"0001-01-01T00:00:00Z","name_a2s":"Uncletopia | Chicago | 6 | All Maps","protocol":17,"map":"pl_snowycoast","folder":"tf","game":"Team Fortress","app_id":440,"player_count":24,"max_players":24,"Bots":0,"server_type":"Dedicated","server_os":"Linux","password":true,"vac":true,"version":"7932396","steam_id":85568392924866363,"keywords":["nocrits","nodmgspread","payload","uncletopia"],"game_id":440,"stv_port":27026,"stv_name":"Uncletopia | Chicago | 6 | All Maps | STV","players":[{"user_id":287,"name":"gasterstanley","steam_id":76561199062453153,"connected_time":832000000000,"state":"active","ping":141},{"user_id":298,"name":"Project_Counter","steam_id":76561198152786076,"connected_time":293000000000,"state":"active","ping":76},{"user_id":290,"name":"Kam007","steam_id":76561199014800392,"connected_time":713000000000,"state":"active","ping":85},{"user_id":210,"name":"Fumohuxi Viriphyto","steam_id":76561198369395636,"connected_time":5501000000000,"state":"active","ping":92},{"user_id":289,"name":"GOD of SEX","steam_id":76561198209689295,"connected_time":749000000000,"state":"active","ping":86},{"user_id":291,"name":"ChozoChorizo","steam_id":76561198272609196,"connected_time":705000000000,"state":"active","ping":65},{"user_id":292,"name":"FHC | Nyle","steam_id":76561198045652639,"connected_time":550000000000,"state":"active","ping":123},{"user_id":283,"name":"porksoda","steam_id":76561198021451377,"connected_time":1224000000000,"state":"active","ping":84},{"user_id":278,"name":"Acto","steam_id":76561198043025164,"connected_time":1452000000000,"state":"active","ping":110},{"user_id":293,"name":"Rave Blitz","steam_id":76561198019158476,"connected_time":543000000000,"state":"active","ping":108},{"user_id":262,"name":"Szotski_house11","steam_id":76561199217545978,"connected_time":2721000000000,"state":"active","ping":96},{"user_id":255,"name":"Player","steam_id":76561199482290132,"connected_time":2800000000000,"state":"active","ping":64},{"user_id":275,"name":"T ú·¥á F·¥è·¥è ü.","steam_id":76561198047167199,"connected_time":1557000000000,"state":"active","ping":90},{"user_id":276,"name":"Stoney Goblin","steam_id":76561198141215376,"connected_time":1510000000000,"state":"active","ping":72},{"user_id":294,"name":"Dark Lord","steam_id":76561198044199150,"connected_time":539000000000,"state":"active","ping":86},{"user_id":257,"name":"StompOnYourFace!!!!","steam_id":76561198065581117,"connected_time":2765000000000,"state":"active","ping":74},{"user_id":284,"name":"Earl S","steam_id":76561198064273772,"connected_time":1118000000000,"state":"active","ping":76},{"user_id":279,"name":"WaveSmash","steam_id":76561198208785485,"connected_time":1378000000000,"state":"active","ping":80},{"user_id":280,"name":"RagingLuigi","steam_id":76561198110721449,"connected_time":1354000000000,"state":"active","ping":79},{"user_id":241,"name":"NUt","steam_id":76561198031007966,"connected_time":3999000000000,"state":"active","ping":73},{"user_id":286,"name":"Trash Man","steam_id":76561198874518834,"connected_time":902000000000,"state":"active","ping":85},{"user_id":295,"name":"DFR DeezNoodlez","steam_id":76561198246700372,"connected_time":534000000000,"state":"active","ping":72},{"user_id":282,"name":"eat Pant","steam_id":76561197974965536,"connected_time":1327000000000,"state":"active","ping":60},{"user_id":297,"name":"Zeph EVO.gg","steam_id":76561198240539432,"connected_time":474000000000,"state":"active","ping":98}]},{"server_id":38,"name":"Uncletopia | Chicago | 7 | Stopwatch Beta","name_short":"chi-7","host":"chi-2.us.uncletopia.com","port":27035,"enabled":true,"region":"us-central","cc":"us","latitude":41.881832,"longitude":-87.62318,"reserved":0,"last_update":"0001-01-01T00:00:00Z","name_a2s":"Uncletopia | Chicago | 7 | Stopwatch Beta","protocol":17,"map":"cp_snakewater_final1","folder":"tf","game":"Team Fortress","app_id":440,"player_count":2,"max_players":24,"Bots":0,"server_type":"Dedicated","server_os":"Linux","password":true,"vac":true,"version":"7932396","steam_id":85568392924866364,"keywords":["cp","nocrits","nodmgspread","uncletopia"],"game_id":440,"stv_port":27036,"stv_name":"Uncletopia | Chicago | 7 | Stopwatch Beta | STV","players":[{"user_id":14,"name":"Engineer Gaming","steam_id":76561198840761529,"connected_time":1385000000000,"state":"active","ping":48},{"user_id":16,"name":"bobletoob","steam_id":76561199184464900,"connected_time":1324000000000,"state":"active","ping":100}]},{"server_id":39,"name":"Uncletopia | Chicago | 8 | Community","name_short":"chi-8","host":"chi-2.us.uncletopia.com","port":27045,"enabled":true,"region":"us-central","cc":"us","latitude":41.881832,"longitude":-87.62318,"reserved":0,"last_update":"0001-01-01T00:00:00Z","name_a2s":"Uncletopia | Chicago | 8 | Community","protocol":17,"map":"workshop/cp_propaganda_b18.ugc1603743849","folder":"tf","game":"Team Fortress","app_id":440,"player_count":13,"max_players":24,"Bots":0,"server_type":"Dedicated","server_os":"Linux","password":true,"vac":true,"version":"7932396","steam_id":85568392924866365,"keywords":["cp","nocrits","nodmgspread","uncletopia"],"game_id":440,"stv_port":27046,"stv_name":"Uncletopia | Chicago | 8 | Community | STV","players":[{"user_id":332,"name":"GuyGoom","steam_id":76561198254522178,"connected_time":961000000000,"state":"active","ping":53},{"user_id":340,"name":"RazorBlade","steam_id":76561199481926369,"connected_time":301000000000,"state":"active","ping":142},{"user_id":338,"name":"the pest","steam_id":76561198826298849,"connected_time":537000000000,"state":"active","ping":89},{"user_id":333,"name":"DanthePunman","steam_id":76561198453724913,"connected_time":899000000000,"state":"active","ping":63},{"user_id":327,"name":"Superplay64","steam_id":76561198172471162,"connected_time":1259000000000,"state":"active","ping":80},{"user_id":317,"name":"üÖúüÖîüÖîüÖöüÖ¢üÖ£üÖî\ufffd\ufffd\ufffd","steam_id":76561197999748343,"connected_time":1719000000000,"state":"active","ping":61},{"user_id":339,"name":"Zweitonegoismus","steam_id":76561198071728831,"connected_time":439000000000,"state":"active","ping":74},{"user_id":329,"name":"Sharky Smooth","steam_id":76561198094759458,"connected_time":1122000000000,"state":"active","ping":56},{"user_id":336,"name":"Banana Republic Heavy","steam_id":76561198279378368,"connected_time":830000000000,"state":"active","ping":114},{"user_id":293,"name":"entityfromohio","steam_id":76561198031675881,"connected_time":4245000000000,"state":"active","ping":45},{"user_id":319,"name":"Savaqa","steam_id":76561198158016688,"connected_time":1649000000000,"state":"active","ping":103},{"user_id":297,"name":"toastman","steam_id":76561198207073088,"connected_time":3989000000000,"state":"active","ping":74},{"user_id":330,"name":"GGass","steam_id":76561198173172369,"connected_time":1082000000000,"state":"active","ping":166}]},{"server_id":8,"name":"Uncletopia | Dallas | 1 | All Maps","name_short":"dal-1","host":"dal-1.us.uncletopia.com","port":27015,"enabled":true,"region":"us-central","cc":"us","latitude":32.779167,"longitude":-96.80889,"reserved":0,"last_update":"0001-01-01T00:00:00Z","name_a2s":"Uncletopia | Dallas | 1 | All Maps","protocol":17,"map":"cp_dustbowl","folder":"tf","game":"Team Fortress","app_id":440,"player_count":24,"max_players":24,"Bots":0,"server_type":"Dedicated","server_os":"Linux","password":true,"vac":true,"version":"7932396","steam_id":85568392924469986,"keywords":["cp","nocrits","nodmgspread","uncletopia"],"game_id":440,"stv_port":27016,"stv_name":"Uncletopia | Dallas | 1 | All Maps | STV","players":[{"user_id":858,"name":"4","steam_id":76561198145784505,"connected_time":2421000000000,"state":"active","ping":74},{"user_id":843,"name":"littlesack","steam_id":76561197960270526,"connected_time":3417000000000,"state":"active","ping":82},{"user_id":844,"name":"TF2C | fac -AA-","steam_id":76561198009818412,"connected_time":3408000000000,"state":"active","ping":56},{"user_id":845,"name":"Ace_Steele23","steam_id":76561198086867678,"connected_time":3379000000000,"state":"active","ping":68},{"user_id":874,"name":"plutonium isotope","steam_id":76561198319442494,"connected_time":329000000000,"state":"active","ping":84},{"user_id":864,"name":"DragonHunter994","steam_id":76561199076203907,"connected_time":2083000000000,"state":"active","ping":65},{"user_id":855,"name":"GrumpyMonk","steam_id":76561199197506631,"connected_time":2447000000000,"state":"active","ping":89},{"user_id":871,"name":"Canned Lobster","steam_id":76561198110847328,"connected_time":1141000000000,"state":"active","ping":93},{"user_id":846,"name":"Bird","steam_id":76561198231624620,"connected_time":3304000000000,"state":"active","ping":66},{"user_id":870,"name":"Lift_","steam_id":76561198863467430,"connected_time":1151000000000,"state":"active","ping":42},{"user_id":838,"name":"Remy the rat","steam_id":76561198080519558,"connected_time":3821000000000,"state":"active","ping":58},{"user_id":772,"name":"Acidasaur","steam_id":76561198424179969,"connected_time":8291000000000,"state":"active","ping":79},{"user_id":822,"name":"Tommy Provolone","steam_id":76561198170062377,"connected_time":5393000000000,"state":"active","ping":69},{"user_id":848,"name":"penzfan","steam_id":76561198230422640,"connected_time":3247000000000,"state":"active","ping":66},{"user_id":875,"name":"carne asada","steam_id":76561198108398751,"connected_time":288000000000,"state":"active","ping":85},{"user_id":872,"name":"Toasty","steam_id":76561198001136776,"connected_time":979000000000,"state":"active","ping":58},{"user_id":860,"name":"Ism√¢'√Æl","steam_id":76561198067436825,"connected_time":2239000000000,"state":"active","ping":69},{"user_id":868,"name":"üê∫-Iwky-ü¶ä","steam_id":76561198185616311,"connected_time":1200000000000,"state":"active","ping":75},{"user_id":856,"name":"errant","steam_id":76561197961758410,"connected_time":2435000000000,"state":"active","ping":39},{"user_id":769,"name":"LJBLJB‚Ñ¢","steam_id":76561198166782022,"connected_time":8495000000000,"state":"active","ping":76},{"user_id":771,"name":"Saltail","steam_id":76561198063053039,"connected_time":8307000000000,"state":"active","ping":97},{"user_id":857,"name":"ark","steam_id":76561198041066271,"connected_time":2430000000000,"state":"active","ping":75},{"user_id":866,"name":"Rob","steam_id":76561199187786660,"connected_time":1288000000000,"state":"active","ping":54},{"user_id":873,"name":"Tue","steam_id":76561198181668501,"connected_time":627000000000,"state":"active","ping":81}]},{"server_id":108,"name":"Uncletopia | Dallas | 2 | All Maps","name_short":"dal-2","host":"dal-1.us.uncletopia.com","port":27025,"enabled":true,"region":"us-central","cc":"us","latitude":32.779167,"longitude":-96.80889,"reserved":0,"last_update":"0001-01-01T00:00:00Z","name_a2s":"Uncletopia | Dallas | 2 | All Maps","protocol":17,"map":"pl_barnblitz","folder":"tf","game":"Team Fortress","app_id":440,"player_count":24,"max_players":24,"Bots":0,"server_type":"Dedicated","server_os":"Linux","password":true,"vac":true,"version":"7932396","steam_id":85568392924469988,"keywords":["nocrits","nodmgspread","payload","uncletopia"],"game_id":440,"stv_port":27026,"stv_name":"Uncletopia | Dallas | 2 | All Maps | STV","players":[{"user_id":460,"name":"phon","steam_id":76561198140659236,"connected_time":2704000000000,"state":"active","ping":76},{"user_id":483,"name":"Henry Hatsworth","steam_id":76561198038071608,"connected_time":1183000000000,"state":"active","ping":71},{"user_id":499,"name":"MayKaye","steam_id":76561199016092265,"connected_time":526000000000,"state":"active","ping":75},{"user_id":472,"name":"Vorpas Jabwak","steam_id":76561198112186064,"connected_time":1595000000000,"state":"active","ping":71},{"user_id":484,"name":"Sarbanes-Oxley","steam_id":76561197975898479,"connected_time":1158000000000,"state":"active","ping":50},{"user_id":500,"name":"geo","steam_id":76561199049859588,"connected_time":497000000000,"state":"active","ping":37},{"user_id":469,"name":"Phosu","steam_id":76561198180162801,"connected_time":1746000000000,"state":"active","ping":68},{"user_id":492,"name":"dweamy","steam_id":76561198119181880,"connected_time":1067000000000,"state":"active","ping":60},{"user_id":482,"name":"radical","steam_id":76561197960364912,"connected_time":1215000000000,"state":"active","ping":74},{"user_id":473,"name":"Yummy Kabobz","steam_id":76561198067661705,"connected_time":1594000000000,"state":"active","ping":82},{"user_id":487,"name":"damiankiller1243","steam_id":76561198868885090,"connected_time":1135000000000,"state":"active","ping":68},{"user_id":462,"name":"porz","steam_id":76561198195711453,"connected_time":2638000000000,"state":"active","ping":45},{"user_id":495,"name":"Banned Worthless Specimen","steam_id":76561198117206414,"connected_time":923000000000,"state":"active","ping":84},{"user_id":501,"name":"chaffy","steam_id":76561198021754567,"connected_time":489000000000,"state":"active","ping":60},{"user_id":497,"name":"HeHedron","steam_id":76561199199667164,"connected_time":675000000000,"state":"active","ping":85},{"user_id":502,"name":"westward (was/were)","steam_id":76561198805512350,"connected_time":487000000000,"state":"active","ping":111},{"user_id":505,"name":"Edwon","steam_id":76561198319902846,"connected_time":426000000000,"state":"active","ping":80},{"user_id":503,"name":"Dunxle","steam_id":76561198236630276,"connected_time":477000000000,"state":"active","ping":156},{"user_id":493,"name":"jango fett wrist rocket","steam_id":76561198014920568,"connected_time":1029000000000,"state":"active","ping":89},{"user_id":504,"name":"SoldMyKidneyForCollege","steam_id":76561198096329559,"connected_time":468000000000,"state":"active","ping":51},{"user_id":488,"name":"Tangeloos","steam_id":76561198019432876,"connected_time":1132000000000,"state":"active","ping":83},{"user_id":491,"name":"Palamedes Sextus","steam_id":76561198096306325,"connected_time":1087000000000,"state":"active","ping":95},{"user_id":477,"name":"Pancakes","steam_id":76561198097983190,"connected_time":1437000000000,"state":"active","ping":55},{"user_id":507,"name":"Pyro TF2","steam_id":76561199103122686,"connected_time":217000000000,"state":"active","ping":65}]},{"server_id":5,"name":"Uncletopia | Frankfurt | 1 | All Maps","name_short":"frk-1","host":"frk-1.de.uncletopia.com","port":27015,"enabled":true,"region":"eu","cc":"de","latitude":50.110924,"longitude":8.682127,"reserved":0,"last_update":"0001-01-01T00:00:00Z","name_a2s":"Uncletopia | Frankfurt | 1 | All Maps","protocol":17,"map":"pl_badwater","folder":"tf","game":"Team Fortress","app_id":440,"player_count":0,"max_players":24,"Bots":0,"server_type":"Dedicated","server_os":"Linux","password":true,"vac":true,"version":"7932396","steam_id":85568392924469989,"keywords":["nocrits","nodmgspread","payload","uncletopia"],"game_id":440,"stv_port":27016,"stv_name":"Uncletopia | Frankfurt | 1 | All Maps | STV","players":null},{"server_id":110,"name":"Uncletopia | Frankfurt | 2 | All Maps","name_short":"frk-2","host":"frk-1.de.uncletopia.com","port":27025,"enabled":true,"region":"eu","cc":"de","latitude":50.110924,"longitude":8.682127,"reserved":0,"last_update":"0001-01-01T00:00:00Z","name_a2s":"Uncletopia | Frankfurt | 2 | All Maps","protocol":17,"map":"pl_borneo","folder":"tf","game":"Team Fortress","app_id":440,"player_count":0,"max_players":24,"Bots":0,"server_type":"Dedicated","server_os":"Linux","password":true,"vac":true,"version":"7932396","steam_id":85568392924469990,"keywords":["nocrits","nodmgspread","payload","uncletopia"],"game_id":440,"stv_port":27026,"stv_name":"Uncletopia | Frankfurt | 2 | All Maps | STV","players":null},{"server_id":308,"name":"Uncletopia | Frankfurt | 3 | All Maps","name_short":"frk-3","host":"frk-1.de.uncletopia.com","port":27035,"enabled":true,"region":"eu","cc":"de","latitude":50.110924,"longitude":8.682127,"reserved":0,"last_update":"0001-01-01T00:00:00Z","name_a2s":"Uncletopia | Frankfurt | 3 | All Maps","protocol":17,"map":"pl_badwater","folder":"tf","game":"Team Fortress","app_id":440,"player_count":0,"max_players":24,"Bots":0,"server_type":"Dedicated","server_os":"Linux","password":true,"vac":true,"version":"7932396","steam_id":85568392924504274,"keywords":["nocrits","nodmgspread","payload","uncletopia"],"game_id":440,"stv_port":27036,"stv_name":"Uncletopia | Frankfurt | 3 | All Maps | STV","players":null},{"server_id":309,"name":"Uncletopia | Frankfurt | 4 | All Maps","name_short":"frk-4","host":"frk-1.de.uncletopia.com","port":27045,"enabled":true,"region":"eu","cc":"de","latitude":50.110924,"longitude":8.682127,"reserved":0,"last_update":"0001-01-01T00:00:00Z","name_a2s":"Uncletopia | Frankfurt | 4 | All Maps","protocol":17,"map":"pl_upward","folder":"tf","game":"Team Fortress","app_id":440,"player_count":0,"max_players":24,"Bots":0,"server_type":"Dedicated","server_os":"Linux","password":true,"vac":true,"version":"7932396","steam_id":85568392924504275,"keywords":["nocrits","nodmgspread","payload","uncletopia"],"game_id":440,"stv_port":27046,"stv_name":"Uncletopia | Frankfurt | 4 | All Maps | STV","players":null},{"server_id":310,"name":"Uncletopia | Frankfurt | 5 | All Maps","name_short":"frk-5","host":"frk-1.de.uncletopia.com","port":27055,"enabled":true,"region":"eu","cc":"de","latitude":50.110924,"longitude":8.682127,"reserved":0,"last_update":"0001-01-01T00:00:00Z","name_a2s":"Uncletopia | Frankfurt | 5 | All Maps","protocol":17,"map":"pl_badwater","folder":"tf","game":"Team Fortress","app_id":440,"player_count":0,"max_players":24,"Bots":0,"server_type":"Dedicated","server_os":"Linux","password":true,"vac":true,"version":"7932396","steam_id":85568392924504277,"keywords":["nocrits","nodmgspread","payload","uncletopia"],"game_id":440,"stv_port":27056,"stv_name":"Uncletopia | Frankfurt | 5 | All Maps | STV","players":null},{"server_id":311,"name":"Uncletopia | Frankfurt | 6 | All Maps","name_short":"frk-6","host":"frk-1.de.uncletopia.com","port":27065,"enabled":true,"region":"eu","cc":"de","latitude":50.110924,"longitude":8.682127,"reserved":0,"last_update":"0001-01-01T00:00:00Z","name_a2s":"Uncletopia | Frankfurt | 6 | All Maps","protocol":17,"map":"koth_viaduct","folder":"tf","game":"Team Fortress","app_id":440,"player_count":0,"max_players":24,"Bots":0,"server_type":"Dedicated","server_os":"Linux","password":true,"vac":true,"version":"7932396","steam_id":85568392924504278,"keywords":["cp","nocrits","nodmgspread","uncletopia"],"game_id":440,"stv_port":27066,"stv_name":"Uncletopia | Frankfurt | 6 | All Maps | STV","players":null},{"server_id":23,"name":"Uncletopia | Frankfurt | 7 | Stopwatch Beta","name_short":"frk-7","host":"frk-1.de.uncletopia.com","port":27075,"enabled":true,"region":"eu","cc":"de","latitude":50.110924,"longitude":8.682127,"reserved":0,"last_update":"0001-01-01T00:00:00Z","name_a2s":"Uncletopia | Frankfurt | 7 | Stopwatch Beta","protocol":17,"map":"pl_snowycoast","folder":"tf","game":"Team Fortress","app_id":440,"player_count":0,"max_players":24,"Bots":0,"server_type":"Dedicated","server_os":"Linux","password":true,"vac":true,"version":"7932396","steam_id":85568392924742827,"keywords":["nocrits","nodmgspread","payload","uncletopia"],"game_id":440,"stv_port":27076,"stv_name":"Uncletopia | Frankfurt | 7 | Stopwatch Beta | STV","players":null},{"server_id":24,"name":"Uncletopia | Frankfurt | 8 | Community","name_short":"frk-8","host":"frk-1.de.uncletopia.com","port":27085,"enabled":true,"region":"eu","cc":"de","latitude":50.110924,"longitude":8.682127,"reserved":0,"last_update":"0001-01-01T00:00:00Z","name_a2s":"Uncletopia | Frankfurt | 8 | Community","protocol":17,"map":"pl_barnblitz","folder":"tf","game":"Team Fortress","app_id":440,"player_count":0,"max_players":24,"Bots":0,"server_type":"Dedicated","server_os":"Linux","password":true,"vac":true,"version":"7932396","steam_id":85568392924742828,"keywords":["nocrits","nodmgspread","payload","uncletopia"],"game_id":440,"stv_port":27086,"stv_name":"Uncletopia | Frankfurt | 8 | Community | STV","players":null},{"server_id":202,"name":"Uncletopia | Hong Kong | 1 | All Maps","name_short":"hgk-1","host":"hgk-1.hk.uncletopia.com","port":27015,"enabled":true,"region":"asia","cc":"hk","latitude":22.302711,"longitude":114.177216,"reserved":0,"last_update":"0001-01-01T00:00:00Z","name_a2s":"Uncletopia | Hong Kong | 1 | All Maps","protocol":17,"map":"koth_viaduct","folder":"tf","game":"Team Fortress","app_id":440,"player_count":0,"max_players":24,"Bots":0,"server_type":"Dedicated","server_os":"Linux","password":true,"vac":true,"version":"7932396","steam_id":85568392924494504,"keywords":["cp","nocrits","nodmgspread","uncletopia"],"game_id":440,"stv_port":27016,"stv_name":"Uncletopia | Hong Kong | 1 | All Maps | STV","players":null},{"server_id":1,"name":"Uncletopia | Los Angeles | 1 | All Maps","name_short":"lax-1","host":"lax-1.us.uncletopia.com","port":27015,"enabled":true,"region":"us-west","cc":"us","latitude":33.94279,"longitude":-118.41004,"reserved":0,"last_update":"0001-01-01T00:00:00Z","name_a2s":"Uncletopia | Los Angeles | 1 | All Maps","protocol":17,"map":"cp_snakewater_final1","folder":"tf","game":"Team Fortress","app_id":440,"player_count":24,"max_players":24,"Bots":0,"server_type":"Dedicated","server_os":"Linux","password":true,"vac":true,"version":"7932396","steam_id":85568392924469991,"keywords":["cp","nocrits","nodmgspread","uncletopia"],"game_id":440,"stv_port":27016,"stv_name":"Uncletopia | Los Angeles | 1 | All Maps | STV","players":[{"user_id":423,"name":"Gerbias","steam_id":76561198001002427,"connected_time":1030000000000,"state":"active","ping":64},{"user_id":434,"name":"kree","steam_id":76561197979960008,"connected_time":736000000000,"state":"active","ping":106},{"user_id":372,"name":"kaede","steam_id":76561198345528370,"connected_time":4254000000000,"state":"active","ping":55},{"user_id":424,"name":"Fightin Cow","steam_id":76561198080941486,"connected_time":1006000000000,"state":"active","ping":87},{"user_id":437,"name":"vioxynteris","steam_id":76561198161428666,"connected_time":510000000000,"state":"active","ping":30},{"user_id":382,"name":"Scrux","steam_id":76561198129763115,"connected_time":3780000000000,"state":"active","ping":55},{"user_id":417,"name":"Pakimari","steam_id":76561199103296453,"connected_time":1272000000000,"state":"active","ping":63},{"user_id":425,"name":"bobby","steam_id":76561198050767193,"connected_time":957000000000,"state":"active","ping":51},{"user_id":426,"name":"Ian","steam_id":76561198159334435,"connected_time":921000000000,"state":"active","ping":179},{"user_id":435,"name":"stickg","steam_id":76561199193020423,"connected_time":646000000000,"state":"active","ping":53},{"user_id":438,"name":"St. Michael","steam_id":76561198037611052,"connected_time":344000000000,"state":"active","ping":71},{"user_id":414,"name":"ŒõLIVŒ£","steam_id":76561198117342640,"connected_time":1601000000000,"state":"active","ping":67},{"user_id":420,"name":"imby","steam_id":76561198103642134,"connected_time":1170000000000,"state":"active","ping":75},{"user_id":439,"name":"checkswing","steam_id":76561198999816132,"connected_time":277000000000,"state":"active","ping":130},{"user_id":429,"name":"DrippyTheSquid","steam_id":76561198051322016,"connected_time":884000000000,"state":"active","ping":104},{"user_id":430,"name":"Silent","steam_id":76561198083647436,"connected_time":875000000000,"state":"active","ping":90},{"user_id":402,"name":"mentos14","steam_id":76561198097993629,"connected_time":2333000000000,"state":"active","ping":56},{"user_id":436,"name":"Altruisticailuridae","steam_id":76561198335295596,"connected_time":579000000000,"state":"active","ping":56},{"user_id":364,"name":"SolarusD","steam_id":76561198029279861,"connected_time":5130000000000,"state":"active","ping":55},{"user_id":431,"name":"Midnight Rain","steam_id":76561198073263234,"connected_time":870000000000,"state":"active","ping":86},{"user_id":432,"name":"ILOVEDRIP","steam_id":76561198881202446,"connected_time":833000000000,"state":"active","ping":80},{"user_id":433,"name":"Bonk Co.","steam_id":76561198009355408,"connected_time":817000000000,"state":"active","ping":80},{"user_id":354,"name":"Acedia","steam_id":76561199011373463,"connected_time":5701000000000,"state":"active","ping":55},{"user_id":421,"name":"Unoriginal","steam_id":76561198799473001,"connected_time":1170000000000,"state":"active","ping":56}]},{"server_id":112,"name":"Uncletopia | Los Angeles | 2 | All Maps","name_short":"lax-2","host":"lax-1.us.uncletopia.com","port":27025,"enabled":true,"region":"us-west","cc":"us","latitude":33.94279,"longitude":-118.41004,"reserved":0,"last_update":"0001-01-01T00:00:00Z","name_a2s":"Uncletopia | Los Angeles | 2 | All Maps","protocol":17,"map":"pl_borneo","folder":"tf","game":"Team Fortress","app_id":440,"player_count":24,"max_players":24,"Bots":0,"server_type":"Dedicated","server_os":"Linux","password":true,"vac":true,"version":"7932396","steam_id":85568392924469992,"keywords":["nocrits","nodmgspread","payload","uncletopia"],"game_id":440,"stv_port":27026,"stv_name":"Uncletopia | Los Angeles | 2 | All Maps | STV","players":[{"user_id":543,"name":"Frank Accardi","steam_id":76561198017275707,"connected_time":3879000000000,"state":"active","ping":66},{"user_id":578,"name":"ball scratcher","steam_id":76561198133963493,"connected_time":1831000000000,"state":"active","ping":57},{"user_id":600,"name":"maximusbabaximus","steam_id":76561198419378913,"connected_time":728000000000,"state":"active","ping":69},{"user_id":599,"name":"VyruzDed„ÄÇ","steam_id":76561199070671785,"connected_time":800000000000,"state":"active","ping":63},{"user_id":518,"name":"flo rida","steam_id":76561198226169704,"connected_time":6367000000000,"state":"active","ping":53},{"user_id":589,"name":"GreenApples","steam_id":76561198120559543,"connected_time":1261000000000,"state":"active","ping":59},{"user_id":584,"name":"Yoshi the Destoyer","steam_id":76561198102272728,"connected_time":1372000000000,"state":"active","ping":46},{"user_id":597,"name":"sobaka","steam_id":76561198116008934,"connected_time":1142000000000,"state":"active","ping":57},{"user_id":548,"name":"DylanM345","steam_id":76561198174666786,"connected_time":3649000000000,"state":"active","ping":57},{"user_id":567,"name":"selvhat","steam_id":76561198114225509,"connected_time":2916000000000,"state":"active","ping":59},{"user_id":590,"name":"Dullahan","steam_id":76561198119668908,"connected_time":1252000000000,"state":"active","ping":57},{"user_id":603,"name":"i cant aim","steam_id":76561198065873462,"connected_time":474000000000,"state":"active","ping":44},{"user_id":598,"name":"Drapph","steam_id":76561199384213314,"connected_time":1050000000000,"state":"active","ping":112},{"user_id":605,"name":"De Monki","steam_id":76561198964210411,"connected_time":49000000000,"state":"active","ping":52},{"user_id":602,"name":"mytoyo2k2","steam_id":76561199486326945,"connected_time":707000000000,"state":"active","ping":104},{"user_id":592,"name":"mjr","steam_id":76561198148301033,"connected_time":1247000000000,"state":"active","ping":91},{"user_id":580,"name":"Zaiah","steam_id":76561198377588247,"connected_time":1642000000000,"state":"active","ping":80},{"user_id":529,"name":"Nothing Vulgar","steam_id":76561198055002150,"connected_time":5264000000000,"state":"active","ping":68},{"user_id":596,"name":"Landlord","steam_id":76561198987913057,"connected_time":1172000000000,"state":"active","ping":70},{"user_id":583,"name":"Jonatello","steam_id":76561198045699189,"connected_time":1461000000000,"state":"active","ping":79},{"user_id":604,"name":"gateron red","steam_id":76561198178228075,"connected_time":85000000000,"state":"active","ping":45},{"user_id":562,"name":"dolph","steam_id":76561198341304816,"connected_time":3255000000000,"state":"active","ping":126},{"user_id":532,"name":"whydo1234","steam_id":76561198952627278,"connected_time":4589000000000,"state":"active","ping":59},{"user_id":564,"name":"nori_420","steam_id":76561199117134203,"connected_time":3226000000000,"state":"active","ping":54}]},{"server_id":324,"name":"Uncletopia | Los Angeles | 3 | All Maps","name_short":"lax-3","host":"lax-1.us.uncletopia.com","port":27035,"enabled":true,"region":"us-west","cc":"us","latitude":33.94279,"longitude":-118.41004,"reserved":0,"last_update":"0001-01-01T00:00:00Z","name_a2s":"Uncletopia | Los Angeles | 3 | All Maps","protocol":17,"map":"pl_swiftwater_final1","folder":"tf","game":"Team Fortress","app_id":440,"player_count":24,"max_players":24,"Bots":0,"server_type":"Dedicated","server_os":"Linux","password":true,"vac":true,"version":"7932396","steam_id":85568392924510198,"keywords":["nocrits","nodmgspread","payload","uncletopia"],"game_id":440,"stv_port":27036,"stv_name":"Uncletopia | Los Angeles | 3 | All Maps | STV","players":[{"user_id":240,"name":"Lucas","steam_id":76561198399704604,"connected_time":1766000000000,"state":"active","ping":63},{"user_id":254,"name":"[chef] iron","steam_id":76561197970888616,"connected_time":1071000000000,"state":"active","ping":90},{"user_id":258,"name":"Squashead","steam_id":76561198813564287,"connected_time":938000000000,"state":"active","ping":66},{"user_id":266,"name":"Scoperaider","steam_id":76561199068449848,"connected_time":623000000000,"state":"active","ping":48},{"user_id":275,"name":"blue of days","steam_id":76561199113013688,"connected_time":208000000000,"state":"active","ping":52},{"user_id":251,"name":"horny femboy","steam_id":76561198212969373,"connected_time":1095000000000,"state":"active","ping":56},{"user_id":273,"name":"BoxCann0n","steam_id":76561199153390130,"connected_time":319000000000,"state":"active","ping":179},{"user_id":248,"name":"Mocha Josie","steam_id":76561198066452726,"connected_time":1154000000000,"state":"active","ping":56},{"user_id":271,"name":"Mahsterch","steam_id":76561198980554547,"connected_time":436000000000,"state":"active","ping":54},{"user_id":242,"name":"throat_man","steam_id":76561199321657653,"connected_time":1212000000000,"state":"active","ping":58},{"user_id":250,"name":"Wacks","steam_id":76561198079476100,"connected_time":1120000000000,"state":"active","ping":61},{"user_id":252,"name":"RYMAXRULES","steam_id":76561198841603682,"connected_time":1094000000000,"state":"active","ping":72},{"user_id":253,"name":"Leaf","steam_id":76561198880728513,"connected_time":1087000000000,"state":"active","ping":90},{"user_id":257,"name":"kr1tsurf3r","steam_id":76561198076402476,"connected_time":997000000000,"state":"active","ping":70},{"user_id":255,"name":"Chaptain","steam_id":76561198452725739,"connected_time":1019000000000,"state":"active","ping":73},{"user_id":276,"name":"June","steam_id":76561198141803658,"connected_time":72000000000,"state":"active","ping":47},{"user_id":264,"name":"≈ölimak","steam_id":76561198296476784,"connected_time":796000000000,"state":"active","ping":75},{"user_id":215,"name":"Ralph Kramden (Slim Charles)","steam_id":76561197981687895,"connected_time":3443000000000,"state":"active","ping":63},{"user_id":272,"name":"Pyrotek‚Å¥","steam_id":76561198072747672,"connected_time":404000000000,"state":"active","ping":43},{"user_id":262,"name":"Woody","steam_id":76561198055842769,"connected_time":868000000000,"state":"active","ping":45},{"user_id":263,"name":"Transformouse","steam_id":76561198004669368,"connected_time":851000000000,"state":"active","ping":80},{"user_id":177,"name":"BallBreaker","steam_id":76561198237263498,"connected_time":6354000000000,"state":"active","ping":106},{"user_id":265,"name":"Morningstar","steam_id":76561198271620345,"connected_time":795000000000,"state":"active","ping":95},{"user_id":269,"name":"BasedGod","steam_id":76561198061177973,"connected_time":526000000000,"state":"active","ping":53}]},{"server_id":25,"name":"Uncletopia | Los Angeles | 4 | Stopwatch Beta","name_short":"lax-4","host":"lax-1.us.uncletopia.com","port":27045,"enabled":true,"region":"us-west","cc":"us","latitude":33.94279,"longitude":-118.41004,"reserved":0,"last_update":"0001-01-01T00:00:00Z","name_a2s":"Uncletopia | Los Angeles | 4 | Stopwatch Beta","protocol":17,"map":"workshop/koth_clearcut_b15.ugc2107050255","folder":"tf","game":"Team Fortress","app_id":440,"player_count":0,"max_players":24,"Bots":0,"server_type":"Dedicated","server_os":"Linux","password":true,"vac":true,"version":"7932396","steam_id":85568392924510199,"keywords":["cp","nocrits","nodmgspread","uncletopia"],"game_id":440,"stv_port":27046,"stv_name":"Uncletopia | Los Angeles | 4 | Stopwatch Beta | STV","players":null},{"server_id":11,"name":"Uncletopia | London | 1 | All Maps","name_short":"lon-1","host":"lon-1.uk.uncletopia.com","port":27015,"enabled":true,"region":"eu","cc":"gb","latitude":51.509865,"longitude":-0.118092,"reserved":0,"last_update":"0001-01-01T00:00:00Z","name_a2s":"Uncletopia | London | 1 | All Maps","protocol":17,"map":"cp_snakewater_final1","folder":"tf","game":"Team Fortress","app_id":440,"player_count":0,"max_players":24,"Bots":0,"server_type":"Dedicated","server_os":"Linux","password":true,"vac":true,"version":"7932396","steam_id":85568392924367362,"keywords":["cp","nocrits","nodmgspread","uncletopia"],"game_id":440,"stv_port":27016,"stv_name":"Uncletopia | London | 1 | All Maps | STV","players":null},{"server_id":114,"name":"Uncletopia | London | 2 | All Maps","name_short":"lon-2","host":"lon-1.uk.uncletopia.com","port":27025,"enabled":true,"region":"eu","cc":"gb","latitude":51.509865,"longitude":-0.118092,"reserved":0,"last_update":"0001-01-01T00:00:00Z","name_a2s":"Uncletopia | London | 2 | All Maps","protocol":17,"map":"pl_snowycoast","folder":"tf","game":"Team Fortress","app_id":440,"player_count":0,"max_players":24,"Bots":0,"server_type":"Dedicated","server_os":"Linux","password":true,"vac":true,"version":"7932396","steam_id":85568392924470941,"keywords":["nocrits","nodmgspread","payload","uncletopia"],"game_id":440,"stv_port":27026,"stv_name":"Uncletopia | London | 2 | All Maps | STV","players":null},{"server_id":320,"name":"Uncletopia | London | 3 | All Maps","name_short":"lon-3","host":"lon-1.uk.uncletopia.com","port":27035,"enabled":true,"region":"eu","cc":"gb","latitude":51.509865,"longitude":-0.118092,"reserved":0,"last_update":"0001-01-01T00:00:00Z","name_a2s":"Uncletopia | London | 3 | All Maps","protocol":17,"map":"koth_highpass","folder":"tf","game":"Team Fortress","app_id":440,"player_count":0,"max_players":24,"Bots":0,"server_type":"Dedicated","server_os":"Linux","password":true,"vac":true,"version":"7932396","steam_id":85568392924510192,"keywords":["cp","nocrits","nodmgspread","uncletopia"],"game_id":440,"stv_port":27036,"stv_name":"Uncletopia | London | 3 | All Maps | STV","players":null},{"server_id":321,"name":"Uncletopia | London | 4 | All Maps","name_short":"lon-4","host":"lon-1.uk.uncletopia.com","port":27045,"enabled":true,"region":"eu","cc":"gb","latitude":51.509865,"longitude":-0.118092,"reserved":0,"last_update":"0001-01-01T00:00:00Z","name_a2s":"Uncletopia | London | 4 | All Maps","protocol":17,"map":"koth_lakeside_final","folder":"tf","game":"Team Fortress","app_id":440,"player_count":0,"max_players":24,"Bots":0,"server_type":"Dedicated","server_os":"Linux","password":true,"vac":true,"version":"7932396","steam_id":85568392924510193,"keywords":["cp","nocrits","nodmgspread","uncletopia"],"game_id":440,"stv_port":27046,"stv_name":"Uncletopia | London | 4 | All Maps | STV","players":null},{"server_id":21,"name":"Uncletopia | London | 5 | All Maps","name_short":"lon-5","host":"lon-1.uk.uncletopia.com","port":27055,"enabled":true,"region":"eu","cc":"gb","latitude":51.509865,"longitude":-0.118092,"reserved":0,"last_update":"0001-01-01T00:00:00Z","name_a2s":"Uncletopia | London | 5 | All Maps","protocol":17,"map":"koth_lakeside_final","folder":"tf","game":"Team Fortress","app_id":440,"player_count":0,"max_players":24,"Bots":0,"server_type":"Dedicated","server_os":"Linux","password":true,"vac":true,"version":"7932396","steam_id":85568392924742829,"keywords":["cp","nocrits","nodmgspread","uncletopia"],"game_id":440,"stv_port":27056,"stv_name":"Uncletopia | London | 5 | All Maps | STV","players":null},{"server_id":22,"name":"Uncletopia | London | 6 | All Maps","name_short":"lon-6","host":"lon-1.uk.uncletopia.com","port":27065,"enabled":true,"region":"eu","cc":"gb","latitude":51.509865,"longitude":-0.118092,"reserved":0,"last_update":"0001-01-01T00:00:00Z","name_a2s":"Uncletopia | London | 6 | All Maps","protocol":17,"map":"cp_sunshine","folder":"tf","game":"Team Fortress","app_id":440,"player_count":8,"max_players":24,"Bots":0,"server_type":"Dedicated","server_os":"Linux","password":true,"vac":true,"version":"7932396","steam_id":85568392924742830,"keywords":["cp","nocrits","nodmgspread","uncletopia"],"game_id":440,"stv_port":27066,"stv_name":"Uncletopia | London | 6 | All Maps | STV","players":[{"user_id":461,"name":"Step back","steam_id":76561198063855616,"connected_time":3096000000000,"state":"active","ping":72},{"user_id":483,"name":"beebo","steam_id":76561199120277007,"connected_time":567000000000,"state":"active","ping":36},{"user_id":408,"name":"in the house like carpet","steam_id":76561199480942903,"connected_time":8266000000000,"state":"active","ping":73},{"user_id":464,"name":"üÉî Katarina","steam_id":76561198065652251,"connected_time":2473000000000,"state":"active","ping":52},{"user_id":468,"name":"snowycaost","steam_id":76561198346638308,"connected_time":2163000000000,"state":"active","ping":52},{"user_id":484,"name":"stun","steam_id":76561198276681691,"connected_time":515000000000,"state":"active","ping":43},{"user_id":479,"name":"‚úé Spicy","steam_id":76561198313533067,"connected_time":1349000000000,"state":"active","ping":144},{"user_id":485,"name":"bebeda is tired ok :ddDddD","steam_id":76561198277943630,"connected_time":495000000000,"state":"active","ping":66}]},{"server_id":40,"name":"Uncletopia | London | 7 | No Payload","name_short":"lon-7","host":"lon-1.uk.uncletopia.com","port":27075,"enabled":true,"region":"eu","cc":"gb","latitude":51.509865,"longitude":-0.118092,"reserved":0,"last_update":"0001-01-01T00:00:00Z","name_a2s":"Uncletopia | London | 7 | No Payload","protocol":17,"map":"koth_nucleus","folder":"tf","game":"Team Fortress","app_id":440,"player_count":0,"max_players":24,"Bots":0,"server_type":"Dedicated","server_os":"Linux","password":true,"vac":true,"version":"7932396","steam_id":85568392924964314,"keywords":["cp","nocrits","nodmgspread","uncletopia"],"game_id":440,"stv_port":27076,"stv_name":"Uncletopia | London | 7 | No Payload | STV","players":null},{"server_id":41,"name":"Uncletopia | London | 8 | Community","name_short":"lon-8","host":"lon-1.uk.uncletopia.com","port":27085,"enabled":true,"region":"eu","cc":"gb","latitude":51.509865,"longitude":-0.118092,"reserved":0,"last_update":"0001-01-01T00:00:00Z","name_a2s":"Uncletopia | London | 8 | Community","protocol":17,"map":"workshop/cp_glassworks_rc6a.ugc454118349","folder":"tf","game":"Team Fortress","app_id":440,"player_count":0,"max_players":24,"Bots":0,"server_type":"Dedicated","server_os":"Linux","password":true,"vac":true,"version":"7932396","steam_id":85568392924964315,"keywords":["cp","nocrits","nodmgspread","uncletopia"],"game_id":440,"stv_port":27086,"stv_name":"Uncletopia | London | 8 | Community | STV","players":null},{"server_id":300,"name":"Uncletopia | Montr√©al | 1 | All Maps","name_short":"mtl-1","host":"mtl-1.ca.uncletopia.com","port":27015,"enabled":true,"region":"us-east","cc":"ca","latitude":45.50889,"longitude":-73.56167,"reserved":0,"last_update":"0001-01-01T00:00:00Z","name_a2s":"Uncletopia | Montr√©al | 1 | All Maps","protocol":17,"map":"cp_altitude","folder":"tf","game":"Team Fortress","app_id":440,"player_count":0,"max_players":24,"Bots":0,"server_type":"Dedicated","server_os":"Linux","password":true,"vac":true,"version":"7932396","steam_id":85568392924500087,"keywords":["cp","nocrits","nodmgspread","uncletopia"],"game_id":440,"stv_port":27016,"stv_name":"Uncletopia | Montr√©al | 1 | All Maps | STV","players":null},{"server_id":301,"name":"Uncletopia | Montr√©al | 2 | All Maps","name_short":"mtl-2","host":"mtl-1.ca.uncletopia.com","port":27025,"enabled":true,"region":"us-east","cc":"ca","latitude":45.50889,"longitude":-73.56167,"reserved":0,"last_update":"0001-01-01T00:00:00Z","name_a2s":"Uncletopia | Montr√©al | 2 | All Maps","protocol":17,"map":"koth_king","folder":"tf","game":"Team Fortress","app_id":440,"player_count":2,"max_players":24,"Bots":0,"server_type":"Dedicated","server_os":"Linux","password":true,"vac":true,"version":"7932396","steam_id":85568392924500088,"keywords":["cp","nocrits","nodmgspread","uncletopia"],"game_id":440,"stv_port":27026,"stv_name":"Uncletopia | Montr√©al | 2 | All Maps | STV","players":[{"user_id":265,"name":"DIDYMOS Class NHP","steam_id":76561198088986010,"connected_time":2340000000000,"state":"active","ping":113},{"user_id":264,"name":"Apocalypse Rail","steam_id":76561198045754085,"connected_time":2361000000000,"state":"active","ping":63}]},{"server_id":302,"name":"Uncletopia | Montr√©al | 3 | All Maps","name_short":"mtl-3","host":"mtl-1.ca.uncletopia.com","port":27035,"enabled":true,"region":"us-east","cc":"ca","latitude":45.50889,"longitude":-73.56167,"reserved":0,"last_update":"0001-01-01T00:00:00Z","name_a2s":"Uncletopia | Montr√©al | 3 | All Maps","protocol":17,"map":"pl_upward","folder":"tf","game":"Team Fortress","app_id":440,"player_count":0,"max_players":24,"Bots":0,"server_type":"Dedicated","server_os":"Linux","password":true,"vac":true,"version":"7932396","steam_id":85568392924500089,"keywords":["nocrits","nodmgspread","payload","uncletopia"],"game_id":440,"stv_port":27036,"stv_name":"Uncletopia | Montr√©al | 3 | All Maps | STV","players":null},{"server_id":303,"name":"Uncletopia | Montr√©al | 4 | No Payload","name_short":"mtl-4","host":"mtl-1.ca.uncletopia.com","port":27045,"enabled":true,"region":"us-east","cc":"ca","latitude":45.50889,"longitude":-73.56167,"reserved":0,"last_update":"0001-01-01T00:00:00Z","name_a2s":"Uncletopia | Montr√©al | 4 | No Payload","protocol":17,"map":"koth_king","folder":"tf","game":"Team Fortress","app_id":440,"player_count":0,"max_players":24,"Bots":0,"server_type":"Dedicated","server_os":"Linux","password":true,"vac":true,"version":"7932396","steam_id":85568392924500090,"keywords":["cp","nocrits","nodmgspread","uncletopia"],"game_id":440,"stv_port":27046,"stv_name":"Uncletopia | Montr√©al | 4 | No Payload | STV","players":null},{"server_id":13,"name":"Uncletopia | New York City | 1 | All Maps","name_short":"nyc-1","host":"nyc-1.us.uncletopia.com","port":27015,"enabled":true,"region":"us-east","cc":"us","latitude":40.73061,"longitude":-73.93524,"reserved":0,"last_update":"0001-01-01T00:00:00Z","name_a2s":"Uncletopia | New York City | 1 | All Maps","protocol":17,"map":"cp_steel","folder":"tf","game":"Team Fortress","app_id":440,"player_count":24,"max_players":24,"Bots":0,"server_type":"Dedicated","server_os":"Linux","password":true,"vac":true,"version":"7932396","steam_id":85568392924469993,"keywords":["cp","nocrits","nodmgspread","uncletopia"],"game_id":440,"stv_port":27016,"stv_name":"Uncletopia | New York City | 1 | All Maps | STV","players":[{"user_id":587,"name":"jiim jaam","steam_id":76561198069814977,"connected_time":2529000000000,"state":"active","ping":58},{"user_id":556,"name":"Gentoo Linux Gaming","steam_id":76561197999657118,"connected_time":4802000000000,"state":"active","ping":61},{"user_id":597,"name":"CherriKat","steam_id":76561198821297512,"connected_time":1823000000000,"state":"active","ping":106},{"user_id":623,"name":"Falk","steam_id":76561198117024236,"connected_time":943000000000,"state":"active","ping":55},{"user_id":609,"name":"KFC‚ò≠","steam_id":76561199206815320,"connected_time":1463000000000,"state":"active","ping":108},{"user_id":629,"name":"minecraft","steam_id":76561198104345201,"connected_time":129000000000,"state":"active","ping":60},{"user_id":630,"name":"hashmap","steam_id":76561198043794014,"connected_time":106000000000,"state":"active","ping":60},{"user_id":620,"name":"marcy!!","steam_id":76561198042111900,"connected_time":1007000000000,"state":"active","ping":95},{"user_id":599,"name":"Oopsie Daisy ‚ùã","steam_id":76561198042144492,"connected_time":1762000000000,"state":"active","ping":74},{"user_id":631,"name":"Silverkeys","steam_id":76561197986012496,"connected_time":37000000000,"state":"active","ping":57},{"user_id":581,"name":"tsbro40","steam_id":76561199455605580,"connected_time":2928000000000,"state":"active","ping":102},{"user_id":628,"name":"Virtual Zorua","steam_id":76561198196180302,"connected_time":162000000000,"state":"active","ping":65},{"user_id":600,"name":"necrolavigne","steam_id":76561198013004951,"connected_time":1761000000000,"state":"active","ping":77},{"user_id":610,"name":"Pixel","steam_id":76561198129243055,"connected_time":1453000000000,"state":"active","ping":62},{"user_id":626,"name":"cheeser","steam_id":76561198281772700,"connected_time":324000000000,"state":"active","ping":43},{"user_id":632,"name":"Richard Nasty","steam_id":76561198076649900,"connected_time":33000000000,"state":"active","ping":101},{"user_id":624,"name":"D00ME","steam_id":76561198383462499,"connected_time":886000000000,"state":"active","ping":68},{"user_id":613,"name":"Digresser","steam_id":76561198016426367,"connected_time":1374000000000,"state":"active","ping":45},{"user_id":618,"name":"5mech","steam_id":76561198979167520,"connected_time":1102000000000,"state":"active","ping":58},{"user_id":627,"name":"GardenOfStone","steam_id":76561199069870534,"connected_time":164000000000,"state":"active","ping":105},{"user_id":594,"name":"Shystie","steam_id":76561198025371440,"connected_time":2065000000000,"state":"active","ping":98},{"user_id":621,"name":"Phil Collins","steam_id":76561198068868644,"connected_time":997000000000,"state":"active","ping":117},{"user_id":625,"name":"Lazybullet","steam_id":76561199223794405,"connected_time":880000000000,"state":"active","ping":416},{"user_id":622,"name":"npc energy","steam_id":76561198035342207,"connected_time":955000000000,"state":"active","ping":60}]},{"server_id":14,"name":"Uncletopia | New York City | 2 | All Maps","name_short":"nyc-2","host":"nyc-1.us.uncletopia.com","port":27025,"enabled":true,"region":"us-east","cc":"us","latitude":40.73061,"longitude":-73.93524,"reserved":0,"last_update":"0001-01-01T00:00:00Z","name_a2s":"Uncletopia | New York City | 2 | All Maps","protocol":17,"map":"pl_upward","folder":"tf","game":"Team Fortress","app_id":440,"player_count":3,"max_players":24,"Bots":0,"server_type":"Dedicated","server_os":"Linux","password":true,"vac":true,"version":"7932396","steam_id":85568392924469994,"keywords":["nocrits","nodmgspread","payload","uncletopia"],"game_id":440,"stv_port":27026,"stv_name":"Uncletopia | New York City | 2 | All Maps | STV","players":[{"user_id":417,"name":"Goober","steam_id":76561198941700660,"connected_time":977000000000,"state":"active","ping":75},{"user_id":390,"name":"Warts","steam_id":76561198134660218,"connected_time":2261000000000,"state":"active","ping":70},{"user_id":404,"name":"Noodles","steam_id":76561198066284271,"connected_time":1815000000000,"state":"active","ping":62}]},{"server_id":15,"name":"Uncletopia | New York City | 3 | Stopwatch Beta","name_short":"nyc-3","host":"nyc-1.us.uncletopia.com","port":27035,"enabled":true,"region":"us-east","cc":"us","latitude":40.73061,"longitude":-73.93524,"reserved":0,"last_update":"0001-01-01T00:00:00Z","name_a2s":"Uncletopia | New York City | 3 | Stopwatch Beta","protocol":17,"map":"koth_lakeside_final","folder":"tf","game":"Team Fortress","app_id":440,"player_count":0,"max_players":24,"Bots":0,"server_type":"Dedicated","server_os":"Linux","password":true,"vac":true,"version":"7932396","steam_id":85568392924742820,"keywords":["cp","nocrits","nodmgspread","uncletopia"],"game_id":440,"stv_port":27036,"stv_name":"Uncletopia | New York City | 3 | Stopwatch Beta | STV","players":null},{"server_id":16,"name":"Uncletopia | New York City | 4 | Community","name_short":"nyc-4","host":"nyc-1.us.uncletopia.com","port":27045,"enabled":true,"region":"us-east","cc":"us","latitude":40.73061,"longitude":-73.93524,"reserved":0,"last_update":"0001-01-01T00:00:00Z","name_a2s":"Uncletopia | New York City | 4 | Community","protocol":17,"map":"workshop/koth_ramjam_rc1.ugc459778887","folder":"tf","game":"Team Fortress","app_id":440,"player_count":24,"max_players":24,"Bots":0,"server_type":"Dedicated","server_os":"Linux","password":true,"vac":true,"version":"7932396","steam_id":85568392924742821,"keywords":["cp","nocrits","nodmgspread","uncletopia"],"game_id":440,"stv_port":27046,"stv_name":"Uncletopia | New York City | 4 | Community | STV","players":[{"user_id":656,"name":"Juvice","steam_id":76561198843371502,"connected_time":5734000000000,"state":"active","ping":44},{"user_id":627,"name":"Dwarfo","steam_id":76561198119220289,"connected_time":7830000000000,"state":"active","ping":73},{"user_id":699,"name":"Architect","steam_id":76561198015242016,"connected_time":2256000000000,"state":"active","ping":58},{"user_id":709,"name":"Ask Nicely For Heals","steam_id":76561198138478907,"connected_time":729000000000,"state":"active","ping":74},{"user_id":714,"name":"Jiggs","steam_id":76561198435222286,"connected_time":354000000000,"state":"active","ping":70},{"user_id":700,"name":"Security Chief Boper","steam_id":76561198218558897,"connected_time":2086000000000,"state":"active","ping":129},{"user_id":707,"name":"Yongle","steam_id":76561198068591156,"connected_time":1304000000000,"state":"active","ping":73},{"user_id":706,"name":"Sqiddwr","steam_id":76561197998071622,"connected_time":1478000000000,"state":"active","ping":75},{"user_id":715,"name":"Wife Enjoyer","steam_id":76561198044109761,"connected_time":321000000000,"state":"active","ping":81},{"user_id":701,"name":"larguu","steam_id":76561197994336210,"connected_time":1970000000000,"state":"active","ping":45},{"user_id":717,"name":"Target practice","steam_id":76561198027102552,"connected_time":167000000000,"state":"active","ping":131},{"user_id":711,"name":"eryn üó∫","steam_id":76561198004433070,"connected_time":613000000000,"state":"active","ping":90},{"user_id":716,"name":"Slashes","steam_id":76561197968573499,"connected_time":222000000000,"state":"active","ping":44},{"user_id":660,"name":"Mi1stOG","steam_id":76561198158796326,"connected_time":5341000000000,"state":"active","ping":56},{"user_id":694,"name":"Peter Muskrat (racist)","steam_id":76561198857749738,"connected_time":2456000000000,"state":"active","ping":89},{"user_id":712,"name":"ADRIEN BRODY","steam_id":76561198009299473,"connected_time":558000000000,"state":"active","ping":58},{"user_id":692,"name":"Swifgz","steam_id":76561198162875756,"connected_time":2825000000000,"state":"active","ping":48},{"user_id":713,"name":"drood","steam_id":76561198000300475,"connected_time":465000000000,"state":"active","ping":74},{"user_id":678,"name":"Marshy","steam_id":76561198421784454,"connected_time":3531000000000,"state":"active","ping":123},{"user_id":704,"name":"XxAngel3ReaperxX","steam_id":76561198874183456,"connected_time":1871000000000,"state":"active","ping":133},{"user_id":684,"name":"„Éê„Çø„Éº","steam_id":76561198307596120,"connected_time":3476000000000,"state":"active","ping":57},{"user_id":669,"name":"Gram Tokers Count Doinkula","steam_id":76561198112811565,"connected_time":4632000000000,"state":"active","ping":59},{"user_id":624,"name":"Two-Teste Tommy","steam_id":76561198064308936,"connected_time":8631000000000,"state":"active","ping":60},{"user_id":693,"name":"Zelith","steam_id":76561198234980480,"connected_time":2810000000000,"state":"active","ping":60}]},{"server_id":142,"name":"Uncletopia | S√£o Paulo | 1 | All Maps","name_short":"sao-1","host":"sao-1.br.uncletopia.com","port":27015,"enabled":true,"region":"sa","cc":"br","latitude":-23.533773,"longitude":-46.62529,"reserved":0,"last_update":"0001-01-01T00:00:00Z","name_a2s":"Uncletopia | S√£o Paulo | 1 | All Maps","protocol":17,"map":"pl_barnblitz","folder":"tf","game":"Team Fortress","app_id":440,"player_count":0,"max_players":24,"Bots":0,"server_type":"Dedicated","server_os":"Linux","password":true,"vac":true,"version":"7932396","steam_id":85568392924469996,"keywords":["nocrits","nodmgspread","payload","uncletopia"],"game_id":440,"stv_port":27016,"stv_name":"Uncletopia | S√£o Paulo | 1 | All Maps | STV","players":null},{"server_id":143,"name":"Uncletopia | S√£o Paulo | 2 | All Maps","name_short":"sao-2","host":"sao-2.br.uncletopia.com","port":27015,"enabled":true,"region":"sa","cc":"br","latitude":-23.533773,"longitude":-46.62529,"reserved":0,"last_update":"0001-01-01T00:00:00Z","name_a2s":"Uncletopia | S√£o Paulo | 2 | All Maps","protocol":17,"map":"koth_cascade","folder":"tf","game":"Team Fortress","app_id":440,"player_count":0,"max_players":24,"Bots":0,"server_type":"Dedicated","server_os":"Linux","password":true,"vac":true,"version":"7932396","steam_id":85568392924485349,"keywords":["cp","nocrits","nodmgspread","uncletopia"],"game_id":440,"stv_port":27016,"stv_name":"Uncletopia | S√£o Paulo | 2 | All Maps | STV","players":null},{"server_id":7,"name":"Uncletopia | Seattle | 1 | All Maps","name_short":"sea-1","host":"sea-1.us.uncletopia.com","port":27015,"enabled":true,"region":"us-west","cc":"us","latitude":47.608013,"longitude":-122.33517,"reserved":0,"last_update":"0001-01-01T00:00:00Z","name_a2s":"Uncletopia | Seattle | 1 | All Maps","protocol":17,"map":"pl_pier","folder":"tf","game":"Team Fortress","app_id":440,"player_count":24,"max_players":24,"Bots":0,"server_type":"Dedicated","server_os":"Linux","password":true,"vac":true,"version":"7932396","steam_id":85568392924469997,"keywords":["nocrits","nodmgspread","payload","uncletopia"],"game_id":440,"stv_port":27016,"stv_name":"Uncletopia | Seattle | 1 | All Maps | STV","players":[{"user_id":422,"name":"cat gets the fleas","steam_id":76561198048754056,"connected_time":7181000000000,"state":"active","ping":63},{"user_id":484,"name":"The King of Piss World","steam_id":76561198082806956,"connected_time":2187000000000,"state":"active","ping":147},{"user_id":517,"name":"exephur","steam_id":76561198135763234,"connected_time":324000000000,"state":"active","ping":64},{"user_id":500,"name":"ophiocordyceps","steam_id":76561198169755734,"connected_time":1325000000000,"state":"active","ping":68},{"user_id":496,"name":"Slothy","steam_id":76561198967069349,"connected_time":1522000000000,"state":"active","ping":60},{"user_id":514,"name":"TRIPPYSIXS","steam_id":76561199236605546,"connected_time":556000000000,"state":"active","ping":132},{"user_id":503,"name":"El Gato Paranoico","steam_id":76561198116567116,"connected_time":1187000000000,"state":"active","ping":122},{"user_id":512,"name":"invenomious","steam_id":76561199032714821,"connected_time":569000000000,"state":"active","ping":41},{"user_id":481,"name":"H0UZM@$T3R!!!!1","steam_id":76561198044297170,"connected_time":2193000000000,"state":"active","ping":71},{"user_id":478,"name":"Daz","steam_id":76561198041431938,"connected_time":2822000000000,"state":"active","ping":50},{"user_id":479,"name":"im mr ____hed look at me","steam_id":76561198051751133,"connected_time":2741000000000,"state":"active","ping":58},{"user_id":513,"name":"BolognaWithOlives","steam_id":76561198101262668,"connected_time":568000000000,"state":"active","ping":87},{"user_id":476,"name":"Liliana","steam_id":76561199467245974,"connected_time":3271000000000,"state":"active","ping":81},{"user_id":505,"name":"Keamy","steam_id":76561199471434875,"connected_time":1105000000000,"state":"active","ping":38},{"user_id":384,"name":"rat gets the cheese","steam_id":76561198031234032,"connected_time":10275000000000,"state":"active","ping":96},{"user_id":515,"name":"Inflight","steam_id":76561198920049475,"connected_time":479000000000,"state":"active","ping":64},{"user_id":506,"name":"Durazorn","steam_id":76561198096327396,"connected_time":1090000000000,"state":"active","ping":123},{"user_id":410,"name":"Cheezbeargur","steam_id":76561198164702899,"connected_time":7844000000000,"state":"active","ping":67},{"user_id":494,"name":"NEBULA","steam_id":76561198086878595,"connected_time":1757000000000,"state":"active","ping":76},{"user_id":509,"name":"Mr_Tuffy","steam_id":76561199206331113,"connected_time":980000000000,"state":"active","ping":74},{"user_id":495,"name":"rorywashere /·ê† - Àï -„Éû ‚≥ä","steam_id":76561198065825165,"connected_time":1642000000000,"state":"active","ping":138},{"user_id":518,"name":"Juuichi11","steam_id":76561198141955085,"connected_time":224000000000,"state":"active","ping":50},{"user_id":467,"name":"oil","steam_id":76561198099980149,"connected_time":3762000000000,"state":"active","ping":90},{"user_id":516,"name":"JoJoBo","steam_id":76561198211505960,"connected_time":447000000000,"state":"active","ping":49}]},{"server_id":119,"name":"Uncletopia | Seattle | 2 | All Maps","name_short":"sea-2","host":"sea-1.us.uncletopia.com","port":27025,"enabled":true,"region":"us-west","cc":"us","latitude":47.608013,"longitude":-122.33517,"reserved":0,"last_update":"0001-01-01T00:00:00Z","name_a2s":"Uncletopia | Seattle | 2 | All Maps","protocol":17,"map":"pl_frontier_final","folder":"tf","game":"Team Fortress","app_id":440,"player_count":24,"max_players":24,"Bots":0,"server_type":"Dedicated","server_os":"Linux","password":true,"vac":true,"version":"7932396","steam_id":85568392924469998,"keywords":["nocrits","nodmgspread","payload","uncletopia"],"game_id":440,"stv_port":27026,"stv_name":"Uncletopia | Seattle | 2 | All Maps | STV","players":[{"user_id":828,"name":"supcupman","steam_id":76561198051513866,"connected_time":1629000000000,"state":"active","ping":82},{"user_id":834,"name":"brainrot","steam_id":76561198274596714,"connected_time":1221000000000,"state":"active","ping":80},{"user_id":843,"name":"Prophet","steam_id":76561198134948582,"connected_time":726000000000,"state":"active","ping":139},{"user_id":850,"name":"cataconik","steam_id":76561198145530829,"connected_time":120000000000,"state":"active","ping":133},{"user_id":829,"name":"Harley [Ramiel]","steam_id":76561198079510840,"connected_time":1586000000000,"state":"active","ping":46},{"user_id":820,"name":"ars110","steam_id":76561198030492435,"connected_time":2052000000000,"state":"active","ping":62},{"user_id":803,"name":"Fungi valengine","steam_id":76561199134580478,"connected_time":2543000000000,"state":"active","ping":88},{"user_id":848,"name":"Jam Jams","steam_id":76561198128811267,"connected_time":274000000000,"state":"active","ping":71},{"user_id":833,"name":"Mexican gun Spi","steam_id":76561199246930652,"connected_time":1260000000000,"state":"active","ping":115},{"user_id":773,"name":"‚ù§ Ashley ‚ù§","steam_id":76561198056428303,"connected_time":4826000000000,"state":"active","ping":76},{"user_id":835,"name":"Why am I the only person who","steam_id":76561198139634916,"connected_time":1179000000000,"state":"active","ping":61},{"user_id":847,"name":"minerkid2004","steam_id":76561198044262827,"connected_time":568000000000,"state":"active","ping":67},{"user_id":781,"name":"self sufficient kitten","steam_id":76561197960592612,"connected_time":4110000000000,"state":"active","ping":45},{"user_id":845,"name":"Major_Pippy","steam_id":76561198004482878,"connected_time":605000000000,"state":"active","ping":54},{"user_id":838,"name":"JawnyMac","steam_id":76561198179529599,"connected_time":1078000000000,"state":"active","ping":76},{"user_id":774,"name":"Zee‚úû","steam_id":76561198274550638,"connected_time":4684000000000,"state":"active","ping":117},{"user_id":849,"name":"astatine.deposit","steam_id":76561199106742327,"connected_time":172000000000,"state":"active","ping":182},{"user_id":846,"name":"RagingRoosevelt","steam_id":76561197985483153,"connected_time":600000000000,"state":"active","ping":51},{"user_id":840,"name":"goopgrabber","steam_id":76561199029951083,"connected_time":1029000000000,"state":"active","ping":71},{"user_id":800,"name":"011sra","steam_id":76561199489542125,"connected_time":2640000000000,"state":"active","ping":61},{"user_id":816,"name":"hosewater","steam_id":76561198023383126,"connected_time":2183000000000,"state":"active","ping":56},{"user_id":851,"name":"AAAAAAAAAAAAAAAAAAAAAAAAAAAAAAA","steam_id":76561198125467937,"connected_time":46000000000,"state":"active","ping":75},{"user_id":841,"name":"BreadGod","steam_id":76561198050665205,"connected_time":1024000000000,"state":"active","ping":120},{"user_id":795,"name":"Samvich","steam_id":76561198263319227,"connected_time":3018000000000,"state":"active","ping":62}]},{"server_id":406,"name":"Uncletopia | Seattle | 3 | Stopwatch Beta","name_short":"sea-3","host":"sea-1.us.uncletopia.com","port":27035,"enabled":true,"region":"us-west","cc":"us","latitude":47.608013,"longitude":-122.33517,"reserved":0,"last_update":"0001-01-01T00:00:00Z","name_a2s":"Uncletopia | Seattle | 3 | Stopwatch Beta","protocol":17,"map":"workshop/koth_clearcut_b15.ugc2107050255","folder":"tf","game":"Team Fortress","app_id":440,"player_count":0,"max_players":24,"Bots":0,"server_type":"Dedicated","server_os":"Linux","password":true,"vac":true,"version":"7932396","steam_id":85568392924515217,"keywords":["cp","nocrits","nodmgspread","uncletopia"],"game_id":440,"stv_port":27036,"stv_name":"Uncletopia | Seattle | 3 | Stopwatch Beta | STV","players":null},{"server_id":17,"name":"Uncletopia | San Francisco | 1 | All Maps","name_short":"sfo-1","host":"sfo-1.us.uncletopia.com","port":27015,"enabled":true,"region":"us-west","cc":"us","latitude":37.77397,"longitude":-122.4313,"reserved":0,"last_update":"0001-01-01T00:00:00Z","name_a2s":"Uncletopia | San Francisco | 1 | All Maps","protocol":17,"map":"pl_frontier_final","folder":"tf","game":"Team Fortress","app_id":440,"player_count":24,"max_players":24,"Bots":0,"server_type":"Dedicated","server_os":"Linux","password":true,"vac":true,"version":"7932396","steam_id":85568392924469999,"keywords":["nocrits","nodmgspread","payload","uncletopia"],"game_id":440,"stv_port":27016,"stv_name":"Uncletopia | San Francisco | 1 | All Maps | STV","players":[{"user_id":199,"name":"[Industrial] A_HUMBLEBUMBLED","steam_id":76561198064771878,"connected_time":1477000000000,"state":"active","ping":53},{"user_id":165,"name":"Sleempreem","steam_id":76561198131987251,"connected_time":2789000000000,"state":"active","ping":44},{"user_id":212,"name":"cheesebro","steam_id":76561198002072852,"connected_time":1167000000000,"state":"active","ping":48},{"user_id":216,"name":"GrimFate","steam_id":76561199011948330,"connected_time":380000000000,"state":"active","ping":71},{"user_id":170,"name":"SpeedyGongo","steam_id":76561198842946737,"connected_time":2679000000000,"state":"active","ping":88},{"user_id":168,"name":"papi Chulo","steam_id":76561198126274984,"connected_time":2702000000000,"state":"active","ping":84},{"user_id":200,"name":"everyrockstar!","steam_id":76561198272094975,"connected_time":1453000000000,"state":"active","ping":89},{"user_id":171,"name":"Quagsire Acquired","steam_id":76561198417169465,"connected_time":2638000000000,"state":"active","ping":104},{"user_id":198,"name":"pwadvisor1","steam_id":76561199230039839,"connected_time":1616000000000,"state":"active","ping":77},{"user_id":197,"name":"Crazy Hungarian","steam_id":76561198025498172,"connected_time":1633000000000,"state":"active","ping":61},{"user_id":217,"name":"yahweh","steam_id":76561198347225801,"connected_time":353000000000,"state":"active","ping":64},{"user_id":218,"name":"knee surgery $2500","steam_id":76561198065662025,"connected_time":349000000000,"state":"active","ping":53},{"user_id":219,"name":"d0g_p4rty","steam_id":76561197997343746,"connected_time":342000000000,"state":"active","ping":50},{"user_id":202,"name":"Fluffy","steam_id":76561198213561811,"connected_time":1427000000000,"state":"active","ping":43},{"user_id":177,"name":"?","steam_id":76561198209880837,"connected_time":2529000000000,"state":"active","ping":60},{"user_id":220,"name":"Xx_PercyTheSmallEngineGamer6_xX","steam_id":76561198842297041,"connected_time":301000000000,"state":"active","ping":111},{"user_id":179,"name":"Nani","steam_id":76561198010230727,"connected_time":2495000000000,"state":"active","ping":55},{"user_id":190,"name":"JACK BRUNO","steam_id":76561198027957690,"connected_time":2030000000000,"state":"active","ping":64},{"user_id":209,"name":"Phillip Jeffries","steam_id":76561198064052174,"connected_time":1241000000000,"state":"active","ping":117},{"user_id":127,"name":"2Fort Cactus","steam_id":76561199273395913,"connected_time":5387000000000,"state":"active","ping":80},{"user_id":183,"name":"what da dog doin","steam_id":76561198090573639,"connected_time":2467000000000,"state":"active","ping":58},{"user_id":192,"name":"SAP","steam_id":76561198005186905,"connected_time":1936000000000,"state":"active","ping":84},{"user_id":206,"name":"StayFrosty","steam_id":76561198343553078,"connected_time":1317000000000,"state":"active","ping":104},{"user_id":195,"name":"gamer_devourer","steam_id":76561198973306314,"connected_time":1839000000000,"state":"active","ping":54}]},{"server_id":18,"name":"Uncletopia | San Francisco | 2 | All Maps","name_short":"sfo-2","host":"sfo-1.us.uncletopia.com","port":27025,"enabled":true,"region":"us-west","cc":"us","latitude":37.77397,"longitude":-122.4313,"reserved":0,"last_update":"0001-01-01T00:00:00Z","name_a2s":"Uncletopia | San Francisco | 2 | All Maps","protocol":17,"map":"pl_swiftwater_final1","folder":"tf","game":"Team Fortress","app_id":440,"player_count":23,"max_players":24,"Bots":0,"server_type":"Dedicated","server_os":"Linux","password":true,"vac":true,"version":"7932396","steam_id":85568392924470000,"keywords":["nocrits","nodmgspread","payload","uncletopia"],"game_id":440,"stv_port":27026,"stv_name":"Uncletopia | San Francisco | 2 | All Maps | STV","players":[{"user_id":49,"name":"a cat plushie","steam_id":76561198080046542,"connected_time":11189000000000,"state":"active","ping":62},{"user_id":50,"name":"ilun","steam_id":76561198042913843,"connected_time":11089000000000,"state":"active","ping":75},{"user_id":128,"name":"copperhead","steam_id":76561199054982784,"connected_time":4960000000000,"state":"active","ping":132},{"user_id":176,"name":"golia","steam_id":76561198000264266,"connected_time":1339000000000,"state":"active","ping":54},{"user_id":169,"name":"Taffy","steam_id":76561198276612538,"connected_time":1661000000000,"state":"active","ping":47},{"user_id":181,"name":"YoZiggy","steam_id":76561198192485274,"connected_time":54000000000,"state":"active","ping":58},{"user_id":170,"name":"zinnk","steam_id":76561198092081825,"connected_time":1655000000000,"state":"active","ping":33},{"user_id":177,"name":"TwoForFlinching","steam_id":76561198073814209,"connected_time":93000000000,"state":"active","ping":103},{"user_id":173,"name":"Sugary","steam_id":76561198088267265,"connected_time":1565000000000,"state":"active","ping":74},{"user_id":164,"name":"Nova Academy of Salmon Action","steam_id":76561198021842526,"connected_time":2030000000000,"state":"active","ping":57},{"user_id":165,"name":"Tofu","steam_id":76561198083778611,"connected_time":2002000000000,"state":"active","ping":65},{"user_id":171,"name":"Melon","steam_id":76561199202306398,"connected_time":1628000000000,"state":"active","ping":61},{"user_id":179,"name":"DaveTheBaker","steam_id":76561198083171059,"connected_time":72000000000,"state":"active","ping":60},{"user_id":132,"name":"ForAPessimistImPrettyOptimistic","steam_id":76561198170128009,"connected_time":4426000000000,"state":"active","ping":50},{"user_id":166,"name":"CloraPhoas","steam_id":76561199162750715,"connected_time":2000000000000,"state":"active","ping":109},{"user_id":156,"name":"Truffles","steam_id":76561198095868800,"connected_time":2834000000000,"state":"active","ping":133},{"user_id":180,"name":"VELOURIA","steam_id":76561198116550170,"connected_time":71000000000,"state":"active","ping":45},{"user_id":178,"name":"tehp","steam_id":76561198056411914,"connected_time":89000000000,"state":"active","ping":74},{"user_id":149,"name":"Grand","steam_id":76561198290143399,"connected_time":3301000000000,"state":"active","ping":77},{"user_id":183,"name":"sunny","steam_id":76561198069380992,"connected_time":25000000000,"state":"active","ping":93},{"user_id":77,"name":"riSygneD","steam_id":76561198331618687,"connected_time":9486000000000,"state":"active","ping":47},{"user_id":184,"name":"`o2","steam_id":76561197992030936,"connected_time":6000000000,"state":"spawning","ping":205},{"user_id":125,"name":"SanitysEdge","steam_id":76561198130732813,"connected_time":5135000000000,"state":"active","ping":54}]},{"server_id":19,"name":"Uncletopia | San Francisco | 3 | Stopwatch Beta","name_short":"sfo-3","host":"sfo-1.us.uncletopia.com","port":27035,"enabled":true,"region":"us-west","cc":"us","latitude":37.77397,"longitude":-122.4313,"reserved":0,"last_update":"0001-01-01T00:00:00Z","name_a2s":"Uncletopia | San Francisco | 3 | Stopwatch Beta","protocol":17,"map":"workshop/pl_badwater_pro_v12.ugc2142942074","folder":"tf","game":"Team Fortress","app_id":440,"player_count":0,"max_players":24,"Bots":0,"server_type":"Dedicated","server_os":"Linux","password":true,"vac":true,"version":"7932396","steam_id":85568392924742824,"keywords":["nocrits","nodmgspread","payload","uncletopia"],"game_id":440,"stv_port":27036,"stv_name":"Uncletopia | San Francisco | 3 | Stopwatch Beta | STV","players":null},{"server_id":20,"name":"Uncletopia | San Francisco | 4 | Community","name_short":"sfo-4","host":"sfo-1.us.uncletopia.com","port":27045,"enabled":true,"region":"us-west","cc":"us","latitude":37.77397,"longitude":-122.4313,"reserved":0,"last_update":"0001-01-01T00:00:00Z","name_a2s":"Uncletopia | San Francisco | 4 | Community","protocol":17,"map":"workshop/koth_trenchfoot_b1a.ugc731436616","folder":"tf","game":"Team Fortress","app_id":440,"player_count":0,"max_players":24,"Bots":0,"server_type":"Dedicated","server_os":"Linux","password":true,"vac":true,"version":"7932396","steam_id":85568392924742826,"keywords":["cp","nocrits","nodmgspread","uncletopia"],"game_id":440,"stv_port":27046,"stv_name":"Uncletopia | San Francisco | 4 | Community | STV","players":null},{"server_id":141,"name":"Uncletopia | Sydney | 1 | All Maps","name_short":"syd-1","host":"syd-1.au.uncletopia.com","port":27015,"enabled":true,"region":"au","cc":"au","latitude":-33.865143,"longitude":151.2099,"reserved":0,"last_update":"0001-01-01T00:00:00Z","name_a2s":"Uncletopia | Sydney | 1 | All Maps","protocol":17,"map":"koth_lakeside_final","folder":"tf","game":"Team Fortress","app_id":440,"player_count":0,"max_players":24,"Bots":0,"server_type":"Dedicated","server_os":"Linux","password":true,"vac":true,"version":"7932396","steam_id":85568392924470001,"keywords":["cp","nocrits","nodmgspread","uncletopia"],"game_id":440,"stv_port":27016,"stv_name":"Uncletopia | Sydney | 1 | All Maps | STV","players":null},{"server_id":123,"name":"Uncletopia | Sydney | 2 | All Maps","name_short":"syd-2","host":"syd-1.au.uncletopia.com","port":27025,"enabled":true,"region":"au","cc":"au","latitude":-33.865143,"longitude":151.2099,"reserved":0,"last_update":"0001-01-01T00:00:00Z","name_a2s":"Uncletopia | Sydney | 2 | All Maps","protocol":17,"map":"cp_snakewater_final1","folder":"tf","game":"Team Fortress","app_id":440,"player_count":0,"max_players":24,"Bots":0,"server_type":"Dedicated","server_os":"Linux","password":true,"vac":true,"version":"7932396","steam_id":85568392924470002,"keywords":["cp","nocrits","nodmgspread","uncletopia"],"game_id":440,"stv_port":27026,"stv_name":"Uncletopia | Sydney | 2 | All Maps | STV","players":null},{"server_id":395,"name":"Uncletopia | Sydney | 3 | All Maps","name_short":"syd-3","host":"syd-1.au.uncletopia.com","port":27035,"enabled":true,"region":"au","cc":"au","latitude":-33.865143,"longitude":151.2099,"reserved":0,"last_update":"0001-01-01T00:00:00Z","name_a2s":"Uncletopia | Sydney | 3 | All Maps","protocol":17,"map":"pl_frontier_final","folder":"tf","game":"Team Fortress","app_id":440,"player_count":0,"max_players":24,"Bots":0,"server_type":"Dedicated","server_os":"Linux","password":true,"vac":true,"version":"7932396","steam_id":85568392925194467,"keywords":["nocrits","nodmgspread","payload","uncletopia"],"game_id":440,"stv_port":27036,"stv_name":"Uncletopia | Sydney | 3 | All Maps | STV","players":null},{"server_id":396,"name":"Uncletopia | Sydney | 4 | All Maps","name_short":"syd-4","host":"syd-1.au.uncletopia.com","port":27045,"enabled":true,"region":"au","cc":"au","latitude":-33.865143,"longitude":151.2099,"reserved":0,"last_update":"0001-01-01T00:00:00Z","name_a2s":"Uncletopia | Sydney | 4 | All Maps","protocol":17,"map":"pl_frontier_final","folder":"tf","game":"Team Fortress","app_id":440,"player_count":0,"max_players":24,"Bots":0,"server_type":"Dedicated","server_os":"Linux","password":true,"vac":true,"version":"7932396","steam_id":85568392925397958,"keywords":["nocrits","nodmgspread","payload","uncletopia"],"game_id":440,"stv_port":27046,"stv_name":"Uncletopia | Sydney | 4 | All Maps | STV","players":null},{"server_id":58,"name":"Uncletopia | Sydney | 5 | Stopwatch Beta","name_short":"syd-5","host":"syd-1.au.uncletopia.com","port":27055,"enabled":true,"region":"au","cc":"au","latitude":-33.865143,"longitude":151.2099,"reserved":0,"last_update":"0001-01-01T00:00:00Z","name_a2s":"Uncletopia | Sydney | 5 | Stopwatch Beta","protocol":17,"map":"pl_borneo","folder":"tf","game":"Team Fortress","app_id":440,"player_count":0,"max_players":24,"Bots":0,"server_type":"Dedicated","server_os":"Linux","password":true,"vac":true,"version":"7932396","steam_id":85568392925397959,"keywords":["nocrits","nodmgspread","payload","uncletopia"],"game_id":440,"stv_port":27056,"stv_name":"Uncletopia | Sydney | 5 | Stopwatch Beta | STV","players":null},{"server_id":59,"name":"Uncletopia | Sydney | 6 | Community","name_short":"syd-6","host":"syd-1.au.uncletopia.com","port":27065,"enabled":true,"region":"au","cc":"au","latitude":-33.865143,"longitude":151.2099,"reserved":0,"last_update":"0001-01-01T00:00:00Z","name_a2s":"Uncletopia | Sydney | 6 | Community","protocol":17,"map":"workshop/pl_highwood_b13.ugc1769496557","folder":"tf","game":"Team Fortress","app_id":440,"player_count":0,"max_players":24,"Bots":0,"server_type":"Dedicated","server_os":"Linux","password":true,"vac":true,"version":"7932396","steam_id":85568392925397960,"keywords":["nocrits","nodmgspread","payload","uncletopia"],"game_id":440,"stv_port":27066,"stv_name":"Uncletopia | Sydney | 6 | Community | STV","players":null},{"server_id":49,"name":"Uncletopia | Warsaw | 1 | All Maps","name_short":"waw-1","host":"waw-1.pl.uncletopia.com","port":27015,"enabled":true,"region":"eu","cc":"pl","latitude":52.2297,"longitude":21.017532,"reserved":0,"last_update":"0001-01-01T00:00:00Z","name_a2s":"","protocol":0,"map":"","folder":"","game":"","app_id":0,"player_count":0,"max_players":0,"Bots":0,"server_type":"","server_os":"","password":false,"vac":false,"version":"","steam_id":0,"keywords":null,"game_id":0,"stv_port":0,"stv_name":"","players":null},{"server_id":50,"name":"Uncletopia | Warsaw | 2 | All Maps","name_short":"waw-2","host":"waw-1.pl.uncletopia.com","port":27025,"enabled":true,"region":"eu","cc":"pl","latitude":52.2297,"longitude":21.017532,"reserved":0,"last_update":"0001-01-01T00:00:00Z","name_a2s":"Uncletopia | Warsaw | 2 | All Maps","protocol":17,"map":"cp_sunshine","folder":"tf","game":"Team Fortress","app_id":440,"player_count":0,"max_players":24,"Bots":0,"server_type":"Dedicated","server_os":"Linux","password":true,"vac":true,"version":"7932396","steam_id":85568392925397851,"keywords":["cp","nocrits","nodmgspread","uncletopia"],"game_id":440,"stv_port":27026,"stv_name":"Uncletopia | Warsaw | 2 | All Maps | STV","players":null},{"server_id":51,"name":"Uncletopia | Warsaw | 3 | All Maps","name_short":"waw-3","host":"waw-1.pl.uncletopia.com","port":27035,"enabled":true,"region":"eu","cc":"pl","latitude":52.2297,"longitude":21.017532,"reserved":0,"last_update":"0001-01-01T00:00:00Z","name_a2s":"Uncletopia | Warsaw | 3 | All Maps","protocol":17,"map":"koth_lakeside_final","folder":"tf","game":"Team Fortress","app_id":440,"player_count":0,"max_players":24,"Bots":0,"server_type":"Dedicated","server_os":"Linux","password":true,"vac":true,"version":"7932396","steam_id":85568392925397852,"keywords":["cp","nocrits","nodmgspread","uncletopia"],"game_id":440,"stv_port":27036,"stv_name":"Uncletopia | Warsaw | 3 | All Maps | STV","players":null},{"server_id":52,"name":"Uncletopia | Warsaw | 4 | All Maps","name_short":"waw-4","host":"waw-1.pl.uncletopia.com","port":27045,"enabled":true,"region":"eu","cc":"pl","latitude":52.2297,"longitude":21.017532,"reserved":0,"last_update":"0001-01-01T00:00:00Z","name_a2s":"Uncletopia | Warsaw | 4 | All Maps","protocol":17,"map":"pl_swiftwater_final1","folder":"tf","game":"Team Fortress","app_id":440,"player_count":0,"max_players":24,"Bots":0,"server_type":"Dedicated","server_os":"Linux","password":true,"vac":true,"version":"7932396","steam_id":85568392925397853,"keywords":["nocrits","nodmgspread","payload","uncletopia"],"game_id":440,"stv_port":27046,"stv_name":"Uncletopia | Warsaw | 4 | All Maps | STV","players":null},{"server_id":53,"name":"Uncletopia | Warsaw | 5 | Stopwatch Beta","name_short":"waw-5","host":"waw-1.pl.uncletopia.com","port":27055,"enabled":true,"region":"eu","cc":"pl","latitude":52.2297,"longitude":21.017532,"reserved":0,"last_update":"0001-01-01T00:00:00Z","name_a2s":"Uncletopia | Warsaw | 5 | Stopwatch Beta","protocol":17,"map":"koth_highpass","folder":"tf","game":"Team Fortress","app_id":440,"player_count":0,"max_players":24,"Bots":0,"server_type":"Dedicated","server_os":"Linux","password":true,"vac":true,"version":"7932396","steam_id":85568392925397854,"keywords":["cp","nocrits","nodmgspread","uncletopia"],"game_id":440,"stv_port":27056,"stv_name":"Uncletopia | Warsaw | 5 | Stopwatch Beta | STV","players":null},{"server_id":54,"name":"Uncletopia | Warsaw | 6 | Community","name_short":"waw-6","host":"waw-1.pl.uncletopia.com","port":27065,"enabled":true,"region":"eu","cc":"pl","latitude":52.2297,"longitude":21.017532,"reserved":0,"last_update":"0001-01-01T00:00:00Z","name_a2s":"Uncletopia | Warsaw | 6 | Community","protocol":17,"map":"pl_upward","folder":"tf","game":"Team Fortress","app_id":440,"player_count":0,"max_players":24,"Bots":0,"server_type":"Dedicated","server_os":"Linux","password":true,"vac":true,"version":"7932396","steam_id":85568392925397856,"keywords":["nocrits","nodmgspread","payload","uncletopia"],"game_id":440,"stv_port":27066,"stv_name":"Uncletopia | Warsaw | 6 | Community | STV","players":null}]}