{"status":true,"message":"","result":[{"server_id":9,"name":"Uncletopia | Atlanta | 1 | All Maps","name_short":"atl-1","host":"atl-1.us.uncletopia.com","port":27015,"enabled":true,"region":"us-east","cc":"us","latitude":33.753746,"longitude":-84.38633,"reserved":0,"last_update":"0001-01-01T00:00:00Z","name_a2s":"Uncletopia | Atlanta | 1 | All Maps","protocol":17,"map":"cp_process_final","folder":"tf","game":"Team Fortress","app_id":440,"player_count":23,"max_players":24,"Bots":0,"server_type":"Dedicated","server_os":"Linux","password":true,"vac":true,"version":"7961495","steam_id":85568392924469982,"keywords":["cp","nocrits","nodmgspread","uncletopia"],"game_id":440,"stv_port":27016,"stv_name":"Uncletopia | Atlanta | 1 | All Maps | STV","players":[{"user_id":121,"name":"guh!!!","steam_id":76561199018321159,"connected_time":381000000000,"state":"active","ping":80},{"user_id":118,"name":".:Mad.As.A.Hatter:.","steam_id":76561198112954470,"connected_time":590000000000,"state":"active","ping":72},{"user_id":127,"name":"Eightypical","steam_id":76561198045885732,"connected_time":122000000000,"state":"active","ping":103},{"user_id":103,"name":"Cardboard10","steam_id":76561198095427456,"connected_time":1420000000000,"state":"active","ping":54},{"user_id":128,"name":"firetamer2","steam_id":76561198040886980,"connected_time":16000000000,"state":"active","ping":62},{"user_id":49,"name":"Broadsword #LGM","steam_id":76561198011160411,"connected_time":5259000000000,"state":"active","ping":60},{"user_id":45,"name":"Phos","steam_id":76561198122339506,"connected_time":5765000000000,"state":"active","ping":89},{"user_id":72,"name":"RaWe ceek","steam_id":76561198075555478,"connected_time":3182000000000,"state":"active","ping":108},{"user_id":124,"name":"Smorph","steam_id":76561197980279026,"connected_time":321000000000,"state":"active","ping":60},{"user_id":125,"name":"TMKPresents","steam_id":76561198118999995,"connected_time":256000000000,"state":"active","ping":54},{"user_id":129,"name":"Gaminglast","steam_id":76561198362927765,"connected_time":7000000000,"state":"spawning","ping":74},{"user_id":112,"name":"DuckKey","steam_id":76561198904477889,"connected_time":1172000000000,"state":"active","ping":60},{"user_id":126,"name":"Mrs.FatPussayyyyy","steam_id":76561198004882625,"connected_time":251000000000,"state":"active","ping":105},{"user_id":84,"name":"Intrepid","steam_id":76561198125321034,"connected_time":2733000000000,"state":"active","ping":57},{"user_id":119,"name":"Aym","steam_id":76561198023968909,"connected_time":579000000000,"state":"active","ping":66},{"user_id":46,"name":"omg","steam_id":76561198197058638,"connected_time":5597000000000,"state":"active","ping":45},{"user_id":120,"name":"je4nned4rc","steam_id":76561199489797367,"connected_time":539000000000,"state":"active","ping":79},{"user_id":83,"name":"ATL1 | on my hunting trip","steam_id":76561198315341646,"connected_time":2816000000000,"state":"active","ping":63},{"user_id":130,"name":"redshelljelly","steam_id":76561198203149635,"connected_time":7000000000,"state":"active","ping":107},{"user_id":93,"name":"hayes","steam_id":76561198057101042,"connected_time":2444000000000,"state":"active","ping":73},{"user_id":110,"name":"-W3E- grim10465","steam_id":76561198045698581,"connected_time":1349000000000,"state":"active","ping":59},{"user_id":117,"name":"s","steam_id":76561198755643381,"connected_time":657000000000,"state":"active","ping":91},{"user_id":96,"name":"Night time Dan","steam_id":76561199022178492,"connected_time":2329000000000,"state":"active","ping":39}]},{"server_id":104,"name":"Uncletopia | Atlanta | 2 | All Maps","name_short":"atl-2","host":"atl-1.us.uncletopia.com","port":27025,"enabled":true,"region":"us-east","cc":"us","latitude":33.753746,"longitude":-84.38633,"reserved":0,"last_update":"0001-01-01T00:00:00Z","name_a2s":"Uncletopia | Atlanta | 2 | All Maps","protocol":17,"map":"pl_frontier_final","folder":"tf","game":"Team Fortress","app_id":440,"player_count":0,"max_players":24,"Bots":0,"server_type":"Dedicated","server_os":"Linux","password":true,"vac":true,"version":"7961495","steam_id":85568392924469983,"keywords":["nocrits","nodmgspread","payload","uncletopia"],"game_id":440,"stv_port":27026,"stv_name":"Uncletopia | Atlanta | 2 | All Maps | STV","players":null},{"server_id":400,"name":"Uncletopia | Atlanta | 3 | Stopwatch","name_short":"atl-3","host":"atl-1.us.uncletopia.com","port":27035,"enabled":true,"region":"us-east","cc":"us","latitude":33.753746,"longitude":-84.38633,"reserved":0,"last_update":"0001-01-01T00:00:00Z","name_a2s":"Uncletopia | Atlanta | 3 | Stopwatch","protocol":17,"map":"workshop/koth_product_final.ugc454272353","folder":"tf","game":"Team Fortress","app_id":440,"player_count":0,"max_players":24,"Bots":0,"server_type":"Dedicated","server_os":"Linux","password":true,"vac":true,"version":"7961495","steam_id":85568392924515187,"keywords":["cp","nocrits","nodmgspread","uncletopia"],"game_id":440,"stv_port":27036,"stv_name":"Uncletopia | Atlanta | 3 | Stopwatch | STV","players":null},{"server_id":401,"name":"Uncletopia | Atlanta | 4 | Community","name_short":"atl-4","host":"atl-1.us.uncletopia.com","port":27045,"enabled":true,"region":"us-east","cc":"us","latitude":33.753746,"longitude":-84.38633,"reserved":0,"last_update":"0001-01-01T00:00:00Z","name_a2s":"Uncletopia | Atlanta | 4 | Community","protocol":17,"map":"workshop/cp_glassworks_rc7a.ugc454118349","folder":"tf","game":"Team Fortress","app_id":440,"player_count":0,"max_players":24,"Bots":0,"server_type":"Dedicated","server_os":"Linux","password":true,"vac":true,"version":"7961495","steam_id":85568392924515188,"keywords":["cp","nocrits","nodmgspread","uncletopia"],"game_id":440,"stv_port":27046,"stv_name":"Uncletopia | Atlanta | 4 | Community | STV","players":null},{"server_id":2,"name":"Uncletopia | Chicago | 1 | All Maps","name_short":"chi-1","host":"chi-1.us.uncletopia.com","port":27015,"enabled":true,"region":"us-central","cc":"us","latitude":41.881832,"longitude":-87.62318,"reserved":0,"last_update":"0001-01-01T00:00:00Z","name_a2s":"Uncletopia | Chicago | 1 | All Maps","protocol":17,"map":"pl_barnblitz","folder":"tf","game":"Team Fortress","app_id":440,"player_count":24,"max_players":24,"Bots":0,"server_type":"Dedicated","server_os":"Linux","password":true,"vac":true,"version":"7961495","steam_id":85568392924469984,"keywords":["nocrits","nodmgspread","payload","uncletopia"],"game_id":440,"stv_port":27016,"stv_name":"Uncletopia | Chicago | 1 | All Maps | STV","players":[{"user_id":130,"name":"Intro Bonito","steam_id":76561198119478838,"connected_time":2255000000000,"state":"active","ping":60},{"user_id":98,"name":"Alkimia","steam_id":76561198385763137,"connected_time":5211000000000,"state":"active","ping":124},{"user_id":156,"name":"leesh","steam_id":76561198079603938,"connected_time":1035000000000,"state":"active","ping":64},{"user_id":81,"name":"Decolour","steam_id":76561199045608372,"connected_time":6728000000000,"state":"active","ping":62},{"user_id":99,"name":"Tuvok Shakur","steam_id":76561198018875334,"connected_time":5067000000000,"state":"active","ping":93},{"user_id":160,"name":"Belvidere","steam_id":76561198121336953,"connected_time":575000000000,"state":"active","ping":67},{"user_id":161,"name":"Adawnby","steam_id":76561198103057295,"connected_time":569000000000,"state":"active","ping":76},{"user_id":125,"name":"Albino Jellyfish","steam_id":76561198208561097,"connected_time":3115000000000,"state":"active","ping":51},{"user_id":85,"name":"shaderoses","steam_id":76561198070800500,"connected_time":6288000000000,"state":"active","ping":74},{"user_id":162,"name":"Dankstein","steam_id":76561198122662378,"connected_time":557000000000,"state":"active","ping":162},{"user_id":124,"name":"cyborgor","steam_id":76561198040782513,"connected_time":3278000000000,"state":"active","ping":90},{"user_id":128,"name":"rat eater","steam_id":76561199216874750,"connected_time":2952000000000,"state":"active","ping":46},{"user_id":114,"name":"Veee (very cool)","steam_id":76561198330432889,"connected_time":3994000000000,"state":"active","ping":79},{"user_id":155,"name":"Yarn","steam_id":76561199227148369,"connected_time":1043000000000,"state":"active","ping":75},{"user_id":119,"name":"soup time","steam_id":76561197961488590,"connected_time":3729000000000,"state":"active","ping":60},{"user_id":153,"name":"Bonk","steam_id":76561198116945752,"connected_time":1058000000000,"state":"active","ping":62},{"user_id":157,"name":"MC_Jukebox","steam_id":76561198823384522,"connected_time":1034000000000,"state":"active","ping":74},{"user_id":137,"name":"Wang of Wall St","steam_id":76561198047460598,"connected_time":1884000000000,"state":"active","ping":66},{"user_id":136,"name":"Trapilicious","steam_id":76561198061430457,"connected_time":1981000000000,"state":"active","ping":78},{"user_id":163,"name":"serendipity","steam_id":76561198095087127,"connected_time":490000000000,"state":"active","ping":72},{"user_id":78,"name":"pea ttv/peabeanz","steam_id":76561198119551968,"connected_time":6755000000000,"state":"active","ping":72},{"user_id":122,"name":"a yummy meal","steam_id":76561198249206656,"connected_time":3339000000000,"state":"active","ping":71},{"user_id":139,"name":"Yhukon","steam_id":76561198117229696,"connected_time":1851000000000,"state":"active","ping":60},{"user_id":146,"name":"Reckless Grain","steam_id":76561198210431127,"connected_time":1517000000000,"state":"active","ping":70}]},{"server_id":106,"name":"Uncletopia | Chicago | 2 | All Maps","name_short":"chi-2","host":"chi-1.us.uncletopia.com","port":27025,"enabled":true,"region":"us-central","cc":"us","latitude":41.881832,"longitude":-87.62318,"reserved":0,"last_update":"0001-01-01T00:00:00Z","name_a2s":"Uncletopia | Chicago | 2 | All Maps","protocol":17,"map":"cp_dustbowl","folder":"tf","game":"Team Fortress","app_id":440,"player_count":24,"max_players":24,"Bots":0,"server_type":"Dedicated","server_os":"Linux","password":true,"vac":true,"version":"7961495","steam_id":85568392924469985,"keywords":["cp","nocrits","nodmgspread","uncletopia"],"game_id":440,"stv_port":27026,"stv_name":"Uncletopia | Chicago | 2 | All Maps | STV","players":[{"user_id":16,"name":"Salemrina5130","steam_id":76561198369609513,"connected_time":2108000000000,"state":"active","ping":67},{"user_id":53,"name":"Lil-Chanka","steam_id":76561199009724257,"connected_time":194000000000,"state":"active","ping":124},{"user_id":51,"name":"Lemonade Juice","steam_id":76561198402892608,"connected_time":278000000000,"state":"active","ping":104},{"user_id":43,"name":"N4G4S4K1 1S K4RK4L1C1OUS","steam_id":76561199031772797,"connected_time":451000000000,"state":"active","ping":77},{"user_id":52,"name":"Dr. unknow horror","steam_id":76561199192920486,"connected_time":229000000000,"state":"active","ping":55},{"user_id":25,"name":"zackcraft102","steam_id":76561199238048549,"connected_time":1149000000000,"state":"active","ping":86},{"user_id":26,"name":"Agent Q","steam_id":76561198830829003,"connected_time":1078000000000,"state":"active","ping":117},{"user_id":27,"name":"crushy spike ceiling","steam_id":76561198241793002,"connected_time":928000000000,"state":"active","ping":58},{"user_id":28,"name":"WWWWWWWWWWWWWWWWWWWWWWWWWWWWWWW","steam_id":76561199051587231,"connected_time":895000000000,"state":"active","ping":70},{"user_id":29,"name":"azufelt","steam_id":76561199259331226,"connected_time":887000000000,"state":"active","ping":59},{"user_id":31,"name":"Lukin","steam_id":76561198032698561,"connected_time":719000000000,"state":"active","ping":57},{"user_id":32,"name":"Finalspy","steam_id":76561198247761520,"connected_time":638000000000,"state":"active","ping":68},{"user_id":33,"name":"LazeKaL","steam_id":76561199073866617,"connected_time":631000000000,"state":"active","ping":104},{"user_id":34,"name":"CuSO4","steam_id":76561199278147589,"connected_time":625000000000,"state":"active","ping":55},{"user_id":54,"name":"Kedata","steam_id":76561198047750050,"connected_time":138000000000,"state":"active","ping":45},{"user_id":36,"name":"Ccurry66","steam_id":76561199094251029,"connected_time":588000000000,"state":"active","ping":182},{"user_id":55,"name":"namesaretoohard","steam_id":76561198070837837,"connected_time":114000000000,"state":"active","ping":46},{"user_id":38,"name":"Sweet Tooth","steam_id":76561198830158092,"connected_time":559000000000,"state":"active","ping":89},{"user_id":56,"name":"Snekk","steam_id":76561198123468439,"connected_time":107000000000,"state":"active","ping":59},{"user_id":48,"name":"Y Dough","steam_id":76561198003827633,"connected_time":380000000000,"state":"active","ping":79},{"user_id":46,"name":"tiny chimp","steam_id":76561199009589097,"connected_time":419000000000,"state":"active","ping":66},{"user_id":49,"name":"JohnFMX","steam_id":76561198175608097,"connected_time":376000000000,"state":"active","ping":67},{"user_id":59,"name":"Lia_Rein","steam_id":76561198151569597,"connected_time":19000000000,"state":"active","ping":220},{"user_id":58,"name":"TheMadHattah","steam_id":76561198066587266,"connected_time":61000000000,"state":"active","ping":64}]},{"server_id":402,"name":"Uncletopia | Chicago | 3 | All Maps","name_short":"chi-3","host":"chi-1.us.uncletopia.com","port":27035,"enabled":true,"region":"us-central","cc":"us","latitude":41.881832,"longitude":-87.62318,"reserved":0,"last_update":"0001-01-01T00:00:00Z","name_a2s":"Uncletopia | Chicago | 3 | All Maps","protocol":17,"map":"pl_upward","folder":"tf","game":"Team Fortress","app_id":440,"player_count":3,"max_players":24,"Bots":0,"server_type":"Dedicated","server_os":"Linux","password":true,"vac":true,"version":"7961495","steam_id":85568392924515191,"keywords":["nocrits","nodmgspread","payload","uncletopia"],"game_id":440,"stv_port":27036,"stv_name":"Uncletopia | Chicago | 3 | All Maps | STV","players":[{"user_id":7,"name":"Shark In Awe","steam_id":76561198032663494,"connected_time":3216000000000,"state":"active","ping":61},{"user_id":13,"name":"barbecuesteve","steam_id":76561198048819671,"connected_time":373000000000,"state":"active","ping":59},{"user_id":14,"name":"gametram","steam_id":76561199129180186,"connected_time":150000000000,"state":"active","ping":137}]},{"server_id":403,"name":"Uncletopia | Chicago | 4 | All Maps","name_short":"chi-4","host":"chi-1.us.uncletopia.com","port":27045,"enabled":true,"region":"us-central","cc":"us","latitude":41.881832,"longitude":-87.62318,"reserved":0,"last_update":"0001-01-01T00:00:00Z","name_a2s":"Uncletopia | Chicago | 4 | All Maps","protocol":17,"map":"pl_rumford_event","folder":"tf","game":"Team Fortress","app_id":440,"player_count":0,"max_players":24,"Bots":0,"server_type":"Dedicated","server_os":"Linux","password":true,"vac":true,"version":"7961495","steam_id":85568392924515193,"keywords":["nocrits","nodmgspread","payload","uncletopia"],"game_id":440,"stv_port":27046,"stv_name":"Uncletopia | Chicago | 4 | All Maps | STV","players":null},{"server_id":36,"name":"Uncletopia | Chicago | 5 | All Maps","name_short":"chi-5","host":"chi-2.us.uncletopia.com","port":27015,"enabled":true,"region":"us-central","cc":"us","latitude":41.881832,"longitude":-87.62318,"reserved":0,"last_update":"0001-01-01T00:00:00Z","name_a2s":"Uncletopia | Chicago | 5 | All Maps","protocol":17,"map":"koth_suijin","folder":"tf","game":"Team Fortress","app_id":440,"player_count":19,"max_players":24,"Bots":0,"server_type":"Dedicated","server_os":"Linux","password":true,"vac":true,"version":"7961495","steam_id":85568392924866362,"keywords":["cp","nocrits","nodmgspread","uncletopia"],"game_id":440,"stv_port":27016,"stv_name":"Uncletopia | Chicago | 5 | All Maps | STV","players":[{"user_id":135,"name":"duBstep","steam_id":76561198353928965,"connected_time":547000000000,"state":"active","ping":60},{"user_id":140,"name":"pathetic pancreas","steam_id":76561198861595100,"connected_time":160000000000,"state":"active","ping":147},{"user_id":139,"name":"wdmut","steam_id":76561198133994925,"connected_time":259000000000,"state":"active","ping":67},{"user_id":113,"name":"Jerk Tryhard (roleplay)","steam_id":76561199470538309,"connected_time":1378000000000,"state":"active","ping":58},{"user_id":143,"name":"cat","steam_id":76561198366828434,"connected_time":111000000000,"state":"active","ping":91},{"user_id":144,"name":"FedSmoker","steam_id":76561198255854081,"connected_time":58000000000,"state":"active","ping":90},{"user_id":131,"name":"Sylvain","steam_id":76561198113385271,"connected_time":978000000000,"state":"active","ping":78},{"user_id":101,"name":"Nukem","steam_id":76561198166236574,"connected_time":3068000000000,"state":"active","ping":76},{"user_id":112,"name":"poe.ai","steam_id":76561198155720118,"connected_time":1413000000000,"state":"active","ping":51},{"user_id":103,"name":"Duncan Slamwell, B-Ball Attorne","steam_id":76561197994924793,"connected_time":2929000000000,"state":"active","ping":51},{"user_id":132,"name":"Maker‚Äôs_Mark","steam_id":76561198198371445,"connected_time":959000000000,"state":"active","ping":76},{"user_id":145,"name":"Ratlympics Gold Medalist","steam_id":76561198064981004,"connected_time":22000000000,"state":"active","ping":49},{"user_id":105,"name":"GreySweaterCat","steam_id":76561198351860293,"connected_time":2629000000000,"state":"active","ping":91},{"user_id":116,"name":"I'm a Fungi","steam_id":76561198061507741,"connected_time":1330000000000,"state":"active","ping":56},{"user_id":142,"name":"Mijailos","steam_id":76561198810347790,"connected_time":124000000000,"state":"active","ping":167},{"user_id":79,"name":"Buddygong","steam_id":76561198092433363,"connected_time":5071000000000,"state":"active","ping":98},{"user_id":141,"name":"skooks","steam_id":76561198008716921,"connected_time":145000000000,"state":"active","ping":74},{"user_id":137,"name":"shawty wit a dumpy","steam_id":76561198170840838,"connected_time":380000000000,"state":"active","ping":74},{"user_id":83,"name":"raspy","steam_id":76561198027298961,"connected_time":4737000000000,"state":"active","ping":60}]},{"server_id":37,"name":"Uncletopia | Chicago | 6 | All Maps","name_short":"chi-6","host":"chi-2.us.uncletopia.com","port":27025,"enabled":true,"region":"us-central","cc":"us","latitude":41.881832,"longitude":-87.62318,"reserved":0,"last_update":"0001-01-01T00:00:00Z","name_a2s":"Uncletopia | Chicago | 6 | All Maps","protocol":17,"map":"pl_badwater","folder":"tf","game":"Team Fortress","app_id":440,"player_count":24,"max_players":24,"Bots":0,"server_type":"Dedicated","server_os":"Linux","password":true,"vac":true,"version":"7961495","steam_id":85568392924866363,"keywords":["nocrits","nodmgspread","payload","uncletopia"],"game_id":440,"stv_port":27026,"stv_name":"Uncletopia | Chicago | 6 | All Maps | STV","players":[{"user_id":243,"name":"Kartyac","steam_id":76561197991069005,"connected_time":70000000000,"state":"active","ping":81},{"user_id":192,"name":"Kuyumiester","steam_id":76561198126835302,"connected_time":4474000000000,"state":"active","ping":62},{"user_id":236,"name":"Gibs Degrossi","steam_id":76561198066152609,"connected_time":796000000000,"state":"active","ping":45},{"user_id":205,"name":"mr.videogame","steam_id":76561198119558096,"connected_time":3366000000000,"state":"active","ping":56},{"user_id":234,"name":"Jacio | the one who games.","steam_id":76561199491964000,"connected_time":1145000000000,"state":"active","ping":129},{"user_id":126,"name":"moon","steam_id":76561198181153199,"connected_time":7991000000000,"state":"active","ping":87},{"user_id":175,"name":"Alpine","steam_id":76561198436177465,"connected_time":5839000000000,"state":"active","ping":59},{"user_id":226,"name":"jg125","steam_id":76561198824953530,"connected_time":2059000000000,"state":"active","ping":144},{"user_id":214,"name":"Pacts Gornax","steam_id":76561198066256419,"connected_time":2764000000000,"state":"active","ping":70},{"user_id":190,"name":"inshallah","steam_id":76561198165212575,"connected_time":4681000000000,"state":"active","ping":64},{"user_id":237,"name":"Jester","steam_id":76561199508468698,"connected_time":764000000000,"state":"active","ping":70},{"user_id":233,"name":"The_Epic_Conclusion","steam_id":76561198084250179,"connected_time":1335000000000,"state":"active","ping":61},{"user_id":241,"name":"pissmaster446","steam_id":76561199453298074,"connected_time":347000000000,"state":"active","ping":112},{"user_id":217,"name":"Yeti‚Ñ¢","steam_id":76561199151545966,"connected_time":2370000000000,"state":"active","ping":60},{"user_id":221,"name":"Raine","steam_id":76561199081937889,"connected_time":2321000000000,"state":"active","ping":74},{"user_id":242,"name":"FirewithFire","steam_id":76561199102484544,"connected_time":338000000000,"state":"active","ping":48},{"user_id":230,"name":"Relic","steam_id":76561198071200441,"connected_time":1628000000000,"state":"active","ping":77},{"user_id":235,"name":"college dropout","steam_id":76561198998197266,"connected_time":1141000000000,"state":"active","ping":75},{"user_id":188,"name":"gaming elliptical","steam_id":76561198013456569,"connected_time":4966000000000,"state":"active","ping":48},{"user_id":239,"name":"Functional Progaming","steam_id":76561198032310210,"connected_time":422000000000,"state":"active","ping":62},{"user_id":184,"name":"roblox.god.2012","steam_id":76561198057553641,"connected_time":5806000000000,"state":"active","ping":59},{"user_id":240,"name":"GreenBoots_","steam_id":76561198042897590,"connected_time":407000000000,"state":"active","ping":72},{"user_id":223,"name":"fresco","steam_id":76561199101199477,"connected_time":2276000000000,"state":"active","ping":49},{"user_id":193,"name":"Lovedaddy","steam_id":76561198006569710,"connected_time":4323000000000,"state":"active","ping":76}]},{"server_id":38,"name":"Uncletopia | Chicago | 7 | Stopwatch","name_short":"chi-7","host":"chi-2.us.uncletopia.com","port":27035,"enabled":true,"region":"us-central","cc":"us","latitude":41.881832,"longitude":-87.62318,"reserved":0,"last_update":"0001-01-01T00:00:00Z","name_a2s":"Uncletopia | Chicago | 7 | Stopwatch","protocol":17,"map":"cp_snakewater_final1","folder":"tf","game":"Team Fortress","app_id":440,"player_count":0,"max_players":24,"Bots":0,"server_type":"Dedicated","server_os":"Linux","password":true,"vac":true,"version":"7961495","steam_id":85568392924866364,"keywords":["cp","nocrits","nodmgspread","uncletopia"],"game_id":440,"stv_port":27036,"stv_name":"Uncletopia | Chicago | 7 | Stopwatch | STV","players":null},{"server_id":39,"name":"Uncletopia | Chicago | 8 | Community","name_short":"chi-8","host":"chi-2.us.uncletopia.com","port":27045,"enabled":true,"region":"us-central","cc":"us","latitude":41.881832,"longitude":-87.62318,"reserved":0,"last_update":"0001-01-01T00:00:00Z","name_a2s":"Uncletopia | Chicago | 8 | Community","protocol":17,"map":"workshop/koth_slaughter_rc1.ugc1712845210","folder":"tf","game":"Team Fortress","app_id":440,"player_count":0,"max_players":24,"Bots":0,"server_type":"Dedicated","server_os":"Linux","password":true,"vac":true,"version":"7961495","steam_id":85568392924866365,"keywords":["cp","nocrits","nodmgspread","uncletopia"],"game_id":440,"stv_port":27046,"stv_name":"Uncletopia | Chicago | 8 | Community | STV","players":null},{"server_id":8,"name":"Uncletopia | Dallas | 1 | All Maps","name_short":"dal-1","host":"dal-1.us.uncletopia.com","port":27015,"enabled":true,"region":"us-central","cc":"us","latitude":32.779167,"longitude":-96.80889,"reserved":0,"last_update":"0001-01-01T00:00:00Z","name_a2s":"Uncletopia | Dallas | 1 | All Maps","protocol":17,"map":"cp_sunshine","folder":"tf","game":"Team Fortress","app_id":440,"player_count":0,"max_players":24,"Bots":0,"server_type":"Dedicated","server_os":"Linux","password":true,"vac":true,"version":"7961495","steam_id":85568392924469986,"keywords":["cp","nocrits","nodmgspread","uncletopia"],"game_id":440,"stv_port":27016,"stv_name":"Uncletopia | Dallas | 1 | All Maps | STV","players":null},{"server_id":108,"name":"Uncletopia | Dallas | 2 | All Maps","name_short":"dal-2","host":"dal-1.us.uncletopia.com","port":27025,"enabled":true,"region":"us-central","cc":"us","latitude":32.779167,"longitude":-96.80889,"reserved":0,"last_update":"0001-01-01T00:00:00Z","name_a2s":"Uncletopia | Dallas | 2 | All Maps","protocol":17,"map":"pl_barnblitz","folder":"tf","game":"Team Fortress","app_id":440,"player_count":0,"max_players":24,"Bots":0,"server_type":"Dedicated","server_os":"Linux","password":true,"vac":true,"version":"7961495","steam_id":85568392924469988,"keywords":["nocrits","nodmgspread","payload","uncletopia"],"game_id":440,"stv_port":27026,"stv_name":"Uncletopia | Dallas | 2 | All Maps | STV","players":null},{"server_id":404,"name":"Uncletopia | Dallas | 3 | All Maps","name_short":"dal-3","host":"dal-1.us.uncletopia.com","port":27035,"enabled":true,"region":"us-central","cc":"us","latitude":32.779167,"longitude":-96.80889,"reserved":0,"last_update":"0001-01-01T00:00:00Z","name_a2s":"Uncletopia | Dallas | 3 | All Maps","protocol":17,"map":"cp_coldfront","folder":"tf","game":"Team Fortress","app_id":440,"player_count":0,"max_players":24,"Bots":0,"server_type":"Dedicated","server_os":"Linux","password":true,"vac":true,"version":"7961495","steam_id":85568392924515219,"keywords":["cp","nocrits","nodmgspread","uncletopia"],"game_id":440,"stv_port":27036,"stv_name":"Uncletopia | Dallas | 3 | All Maps | STV","players":null},{"server_id":405,"name":"Uncletopia | Dallas | 4 | Community","name_short":"dal-4","host":"dal-1.us.uncletopia.com","port":27045,"enabled":true,"region":"us-central","cc":"us","latitude":32.779167,"longitude":-96.80889,"reserved":0,"last_update":"0001-01-01T00:00:00Z","name_a2s":"Uncletopia | Dallas | 4 | Community","protocol":17,"map":"workshop/koth_synthetic_rc6a.ugc1549817316","folder":"tf","game":"Team Fortress","app_id":440,"player_count":0,"max_players":24,"Bots":0,"server_type":"Dedicated","server_os":"Linux","password":true,"vac":true,"version":"7961495","steam_id":85568392924515220,"keywords":["cp","nocrits","nodmgspread","uncletopia"],"game_id":440,"stv_port":27046,"stv_name":"Uncletopia | Dallas | 4 | Community | STV","players":null},{"server_id":5,"name":"Uncletopia | Frankfurt | 1 | All Maps","name_short":"frk-1","host":"frk-1.de.uncletopia.com","port":27015,"enabled":true,"region":"eu","cc":"de","latitude":50.110924,"longitude":8.682127,"reserved":0,"last_update":"0001-01-01T00:00:00Z","name_a2s":"Uncletopia | Frankfurt | 1 | All Maps","protocol":17,"map":"koth_lakeside_final","folder":"tf","game":"Team Fortress","app_id":440,"player_count":24,"max_players":24,"Bots":0,"server_type":"Dedicated","server_os":"Linux","password":true,"vac":true,"version":"7961495","steam_id":85568392924469989,"keywords":["cp","nocrits","nodmgspread","uncletopia"],"game_id":440,"stv_port":27016,"stv_name":"Uncletopia | Frankfurt | 1 | All Maps | STV","players":[{"user_id":399,"name":"le big mac","steam_id":76561199026378253,"connected_time":5819000000000,"state":"active","ping":49},{"user_id":467,"name":"ToniGAM3S","steam_id":76561198128605351,"connected_time":323000000000,"state":"active","ping":53},{"user_id":449,"name":"Marukuso","steam_id":76561198154229845,"connected_time":1449000000000,"state":"active","ping":55},{"user_id":446,"name":"Monkey Friend","steam_id":76561198144403074,"connected_time":2094000000000,"state":"active","ping":46},{"user_id":450,"name":"Sham!","steam_id":76561198050434275,"connected_time":1443000000000,"state":"active","ping":50},{"user_id":462,"name":"Red Dynamite","steam_id":76561199073167935,"connected_time":865000000000,"state":"active","ping":166},{"user_id":464,"name":"HOI","steam_id":76561198061182117,"connected_time":750000000000,"state":"active","ping":70},{"user_id":452,"name":"El_Kommadante","steam_id":76561198079551685,"connected_time":1437000000000,"state":"active","ping":58},{"user_id":469,"name":"Shroomstein","steam_id":76561198151521658,"connected_time":177000000000,"state":"active","ping":63},{"user_id":426,"name":"HueJazz","steam_id":76561198168125993,"connected_time":3673000000000,"state":"active","ping":67},{"user_id":465,"name":"Spooky PootisPAW!","steam_id":76561198038203565,"connected_time":682000000000,"state":"active","ping":168},{"user_id":444,"name":"Mischievous maiden","steam_id":76561198353065570,"connected_time":2240000000000,"state":"active","ping":68},{"user_id":466,"name":"Alegz","steam_id":76561198287810139,"connected_time":612000000000,"state":"active","ping":50},{"user_id":423,"name":"[1VS23] BAKELITE","steam_id":76561198190816499,"connected_time":3682000000000,"state":"active","ping":62},{"user_id":448,"name":"Vene","steam_id":76561198018116338,"connected_time":1791000000000,"state":"active","ping":86},{"user_id":438,"name":"totis","steam_id":76561198968410569,"connected_time":2732000000000,"state":"active","ping":95},{"user_id":406,"name":"Mr. Cheesey","steam_id":76561198153462183,"connected_time":5150000000000,"state":"active","ping":153},{"user_id":463,"name":"crit hit!","steam_id":76561198112693639,"connected_time":819000000000,"state":"active","ping":67},{"user_id":428,"name":"Temp0_ ‚ô•","steam_id":76561198162068639,"connected_time":3619000000000,"state":"active","ping":59},{"user_id":389,"name":"kana munn","steam_id":76561198059762111,"connected_time":6254000000000,"state":"active","ping":69},{"user_id":415,"name":"Pan Pan","steam_id":76561199074670515,"connected_time":4159000000000,"state":"active","ping":70},{"user_id":320,"name":"Saplings Incorporated","steam_id":76561198047660367,"connected_time":10488000000000,"state":"active","ping":60},{"user_id":432,"name":"N00BCSF","steam_id":76561198035530934,"connected_time":3038000000000,"state":"active","ping":71},{"user_id":442,"name":"pummed","steam_id":76561198827108475,"connected_time":2496000000000,"state":"active","ping":66}]},{"server_id":110,"name":"Uncletopia | Frankfurt | 2 | All Maps","name_short":"frk-2","host":"frk-1.de.uncletopia.com","port":27025,"enabled":true,"region":"eu","cc":"de","latitude":50.110924,"longitude":8.682127,"reserved":0,"last_update":"0001-01-01T00:00:00Z","name_a2s":"Uncletopia | Frankfurt | 2 | All Maps","protocol":17,"map":"pl_snowycoast","folder":"tf","game":"Team Fortress","app_id":440,"player_count":23,"max_players":24,"Bots":0,"server_type":"Dedicated","server_os":"Linux","password":true,"vac":true,"version":"7961495","steam_id":85568392924469990,"keywords":["nocrits","nodmgspread","payload","uncletopia"],"game_id":440,"stv_port":27026,"stv_name":"Uncletopia | Frankfurt | 2 | All Maps | STV","players":[{"user_id":371,"name":"anders McFlanders","steam_id":76561198022811995,"connected_time":902000000000,"state":"active","ping":40},{"user_id":319,"name":"sneakysneaky","steam_id":76561198010662796,"connected_time":4617000000000,"state":"active","ping":59},{"user_id":381,"name":"Maske","steam_id":76561198078100812,"connected_time":222000000000,"state":"active","ping":44},{"user_id":387,"name":"hmm","steam_id":76561199388213538,"connected_time":56000000000,"state":"spawning","ping":142},{"user_id":366,"name":"sowakarana","steam_id":76561199405633261,"connected_time":1519000000000,"state":"active","ping":50},{"user_id":364,"name":"not a nihilist","steam_id":76561198004340466,"connected_time":1848000000000,"state":"active","ping":51},{"user_id":388,"name":"sword machine","steam_id":76561198895235231,"connected_time":42000000000,"state":"active","ping":61},{"user_id":389,"name":"≈†varcas","steam_id":76561198841646694,"connected_time":39000000000,"state":"active","ping":60},{"user_id":370,"name":"Enes „Ç®„Éç„Çπ","steam_id":76561198948013052,"connected_time":948000000000,"state":"active","ping":78},{"user_id":382,"name":"GB | Mr. Szillaz","steam_id":76561198273132314,"connected_time":211000000000,"state":"active","ping":61},{"user_id":343,"name":"* _ * + _ + ()_()","steam_id":76561198046873337,"connected_time":2931000000000,"state":"active","ping":61},{"user_id":377,"name":"Hillox","steam_id":76561198429203213,"connected_time":425000000000,"state":"active","ping":78},{"user_id":390,"name":"Bombilla","steam_id":76561198084281798,"connected_time":38000000000,"state":"active","ping":75},{"user_id":391,"name":"R8N - Obismal","steam_id":76561198007482714,"connected_time":18000000000,"state":"active","ping":144},{"user_id":361,"name":"murderwow","steam_id":76561198024566944,"connected_time":1967000000000,"state":"active","ping":102},{"user_id":314,"name":"MovingObject83","steam_id":76561198801490317,"connected_time":4714000000000,"state":"active","ping":110},{"user_id":353,"name":"peggy","steam_id":76561198136609791,"connected_time":2412000000000,"state":"active","ping":48},{"user_id":372,"name":"mc.balthabuddy","steam_id":76561198106225372,"connected_time":846000000000,"state":"active","ping":52},{"user_id":362,"name":"General Grievous","steam_id":76561198087800030,"connected_time":1919000000000,"state":"active","ping":46},{"user_id":315,"name":"shlongy bongy","steam_id":76561198015876799,"connected_time":4707000000000,"state":"active","ping":60},{"user_id":386,"name":"orange","steam_id":76561198153181940,"connected_time":103000000000,"state":"active","ping":66},{"user_id":335,"name":"stefanbejenari","steam_id":76561199466718294,"connected_time":3798000000000,"state":"active","ping":60},{"user_id":337,"name":"willus212","steam_id":76561199182615246,"connected_time":3581000000000,"state":"active","ping":76}]},{"server_id":308,"name":"Uncletopia | Frankfurt | 3 | All Maps","name_short":"frk-3","host":"frk-1.de.uncletopia.com","port":27035,"enabled":true,"region":"eu","cc":"de","latitude":50.110924,"longitude":8.682127,"reserved":0,"last_update":"0001-01-01T00:00:00Z","name_a2s":"Uncletopia | Frankfurt | 3 | All Maps","protocol":17,"map":"pl_badwater","folder":"tf","game":"Team Fortress","app_id":440,"player_count":23,"max_players":24,"Bots":0,"server_type":"Dedicated","server_os":"Linux","password":true,"vac":true,"version":"7961495","steam_id":85568392924504274,"keywords":["nocrits","nodmgspread","payload","uncletopia"],"game_id":440,"stv_port":27036,"stv_name":"Uncletopia | Frankfurt | 3 | All Maps | STV","players":[{"user_id":150,"name":"confusion","steam_id":76561199199499453,"connected_time":1202000000000,"state":"active","ping":75},{"user_id":99,"name":"max","steam_id":76561198039534890,"connected_time":4207000000000,"state":"active","ping":47},{"user_id":164,"name":"rob","steam_id":76561198122211848,"connected_time":411000000000,"state":"active","ping":82},{"user_id":146,"name":"Dellty","steam_id":76561198173944065,"connected_time":1273000000000,"state":"active","ping":52},{"user_id":154,"name":"Papasha1950","steam_id":76561198272626529,"connected_time":1058000000000,"state":"active","ping":75},{"user_id":107,"name":"JustItalianHam","steam_id":76561198202237959,"connected_time":3709000000000,"state":"active","ping":72},{"user_id":128,"name":"G_raff","steam_id":76561199048512726,"connected_time":2602000000000,"state":"active","ping":74},{"user_id":140,"name":"Sergeant Gunnery WhiteCock","steam_id":76561199508067959,"connected_time":1347000000000,"state":"active","ping":96},{"user_id":101,"name":"greg","steam_id":76561199052729791,"connected_time":4000000000000,"state":"active","ping":60},{"user_id":155,"name":"FUKAYOU","steam_id":76561198380484033,"connected_time":1051000000000,"state":"active","ping":53},{"user_id":141,"name":"ETphoneHOME88","steam_id":76561199500944459,"connected_time":1345000000000,"state":"active","ping":190},{"user_id":145,"name":"Fingortar","steam_id":76561198277143302,"connected_time":1295000000000,"state":"active","ping":71},{"user_id":143,"name":"Mr. Hunts","steam_id":76561197981910397,"connected_time":1338000000000,"state":"active","ping":74},{"user_id":156,"name":"Swedde","steam_id":76561198297296440,"connected_time":1049000000000,"state":"active","ping":59},{"user_id":162,"name":"10 Years in the joint","steam_id":76561198371280938,"connected_time":523000000000,"state":"active","ping":66},{"user_id":167,"name":"meriones","steam_id":76561198034234373,"connected_time":362000000000,"state":"active","ping":59},{"user_id":135,"name":"monsterISfun","steam_id":76561198121734867,"connected_time":2052000000000,"state":"active","ping":69},{"user_id":153,"name":"ThatWeiss","steam_id":76561199012300202,"connected_time":1153000000000,"state":"active","ping":75},{"user_id":121,"name":"Haren som har","steam_id":76561198130191090,"connected_time":3172000000000,"state":"active","ping":58},{"user_id":165,"name":"kaigis","steam_id":76561199028415076,"connected_time":405000000000,"state":"active","ping":81},{"user_id":120,"name":"compact disc","steam_id":76561198154677956,"connected_time":3197000000000,"state":"active","ping":61},{"user_id":122,"name":"janga","steam_id":76561197977643629,"connected_time":3165000000000,"state":"active","ping":45},{"user_id":172,"name":"bbc cockfilth","steam_id":76561199502059898,"connected_time":147000000000,"state":"active","ping":95}]},{"server_id":309,"name":"Uncletopia | Frankfurt | 4 | All Maps","name_short":"frk-4","host":"frk-1.de.uncletopia.com","port":27045,"enabled":true,"region":"eu","cc":"de","latitude":50.110924,"longitude":8.682127,"reserved":0,"last_update":"0001-01-01T00:00:00Z","name_a2s":"Uncletopia | Frankfurt | 4 | All Maps","protocol":17,"map":"cp_vanguard","folder":"tf","game":"Team Fortress","app_id":440,"player_count":24,"max_players":24,"Bots":0,"server_type":"Dedicated","server_os":"Linux","password":true,"vac":true,"version":"7961495","steam_id":85568392924504275,"keywords":["cp","nocrits","nodmgspread","uncletopia"],"game_id":440,"stv_port":27046,"stv_name":"Uncletopia | Frankfurt | 4 | All Maps | STV","players":[{"user_id":282,"name":"WIZARD","steam_id":76561198199570742,"connected_time":1930000000000,"state":"active","ping":95},{"user_id":301,"name":"maxx","steam_id":76561198260625229,"connected_time":1594000000000,"state":"active","ping":54},{"user_id":283,"name":"k.","steam_id":76561198258197649,"connected_time":1921000000000,"state":"active","ping":75},{"user_id":337,"name":"Shoe Gayser","steam_id":76561198063127464,"connected_time":408000000000,"state":"active","ping":69},{"user_id":310,"name":"JayWalker[DK]","steam_id":76561198028353350,"connected_time":976000000000,"state":"active","ping":46},{"user_id":321,"name":"Xydran","steam_id":76561198042397402,"connected_time":737000000000,"state":"active","ping":57},{"user_id":289,"name":"K.V. #RemoveRandomCrits","steam_id":76561197994832993,"connected_time":1815000000000,"state":"active","ping":75},{"user_id":215,"name":"i like pan","steam_id":76561199057658921,"connected_time":6194000000000,"state":"active","ping":115},{"user_id":300,"name":"PENGUN","steam_id":76561199015156956,"connected_time":1659000000000,"state":"active","ping":95},{"user_id":334,"name":"Sugardaddy_pep","steam_id":76561198807512589,"connected_time":486000000000,"state":"active","ping":60},{"user_id":311,"name":"Frank","steam_id":76561198387792688,"connected_time":969000000000,"state":"active","ping":57},{"user_id":322,"name":"0x01A4","steam_id":76561199038801888,"connected_time":736000000000,"state":"active","ping":65},{"user_id":331,"name":"snork","steam_id":76561198138386260,"connected_time":555000000000,"state":"active","ping":63},{"user_id":323,"name":"Neeeiks","steam_id":76561198009156801,"connected_time":732000000000,"state":"active","ping":65},{"user_id":326,"name":"–®–∞–ø–∫–∞ #TF2Center","steam_id":76561198368792603,"connected_time":652000000000,"state":"active","ping":70},{"user_id":315,"name":"Malo","steam_id":76561198119273845,"connected_time":894000000000,"state":"active","ping":45},{"user_id":316,"name":"thwee","steam_id":76561199133739473,"connected_time":840000000000,"state":"active","ping":82},{"user_id":341,"name":"the best heavy player","steam_id":76561198388750592,"connected_time":86000000000,"state":"spawning","ping":64},{"user_id":325,"name":"Brazil n√ºmerus 1","steam_id":76561199214163032,"connected_time":669000000000,"state":"active","ping":78},{"user_id":339,"name":"demoman_laughlong02.wav","steam_id":76561198257158275,"connected_time":376000000000,"state":"active","ping":143},{"user_id":329,"name":"ùìüùì™ùìΩ","steam_id":76561198409650256,"connected_time":566000000000,"state":"active","ping":44},{"user_id":330,"name":"Joe12000","steam_id":76561198160817969,"connected_time":562000000000,"state":"active","ping":61},{"user_id":332,"name":"Archbishop of Banterbury","steam_id":76561198274438729,"connected_time":550000000000,"state":"active","ping":56},{"user_id":340,"name":"grass hater","steam_id":76561198123386541,"connected_time":336000000000,"state":"active","ping":84}]},{"server_id":310,"name":"Uncletopia | Frankfurt | 5 | All Maps","name_short":"frk-5","host":"frk-1.de.uncletopia.com","port":27055,"enabled":true,"region":"eu","cc":"de","latitude":50.110924,"longitude":8.682127,"reserved":0,"last_update":"0001-01-01T00:00:00Z","name_a2s":"Uncletopia | Frankfurt | 5 | All Maps","protocol":17,"map":"pl_badwater","folder":"tf","game":"Team Fortress","app_id":440,"player_count":24,"max_players":24,"Bots":0,"server_type":"Dedicated","server_os":"Linux","password":true,"vac":true,"version":"7961495","steam_id":85568392924504277,"keywords":["nocrits","nodmgspread","payload","uncletopia"],"game_id":440,"stv_port":27056,"stv_name":"Uncletopia | Frankfurt | 5 | All Maps | STV","players":[{"user_id":285,"name":"CabboCoio","steam_id":76561198935946144,"connected_time":1437000000000,"state":"active","ping":59},{"user_id":291,"name":"\u003e\u003c\u003e","steam_id":76561198152392309,"connected_time":1139000000000,"state":"active","ping":45},{"user_id":239,"name":"kevinus","steam_id":76561198059722457,"connected_time":4453000000000,"state":"active","ping":44},{"user_id":307,"name":"snake kryptonite","steam_id":76561197998673784,"connected_time":472000000000,"state":"active","ping":45},{"user_id":308,"name":"Lynx","steam_id":76561199274008207,"connected_time":466000000000,"state":"active","ping":76},{"user_id":309,"name":"Pyrolander","steam_id":76561198050785450,"connected_time":451000000000,"state":"active","ping":49},{"user_id":257,"name":"Nittugai","steam_id":76561198067366462,"connected_time":2589000000000,"state":"active","ping":60},{"user_id":262,"name":"monocle chicken","steam_id":76561199020106029,"connected_time":2275000000000,"state":"active","ping":75},{"user_id":286,"name":"Benzo Fury","steam_id":76561198025259336,"connected_time":1378000000000,"state":"active","ping":55},{"user_id":304,"name":"Maxin","steam_id":76561197999923364,"connected_time":513000000000,"state":"active","ping":63},{"user_id":310,"name":"Gbus","steam_id":76561198072335838,"connected_time":448000000000,"state":"active","ping":48},{"user_id":290,"name":"RIBS GROW BACK","steam_id":76561198123659806,"connected_time":1251000000000,"state":"active","ping":83},{"user_id":297,"name":"boxama","steam_id":76561198040721321,"connected_time":956000000000,"state":"active","ping":59},{"user_id":278,"name":"spy","steam_id":76561199402711007,"connected_time":1959000000000,"state":"active","ping":114},{"user_id":311,"name":"Tanner Jarring","steam_id":76561198172024365,"connected_time":446000000000,"state":"active","ping":147},{"user_id":298,"name":"V@nn1e","steam_id":76561199099194994,"connected_time":932000000000,"state":"active","ping":172},{"user_id":276,"name":"kirkan","steam_id":76561198029873185,"connected_time":2003000000000,"state":"active","ping":59},{"user_id":299,"name":"Unsalted Butter","steam_id":76561198053118190,"connected_time":922000000000,"state":"active","ping":35},{"user_id":267,"name":"Triploon","steam_id":76561198173304074,"connected_time":2209000000000,"state":"active","ping":62},{"user_id":300,"name":"Siegmeyer","steam_id":76561198328543549,"connected_time":895000000000,"state":"active","ping":82},{"user_id":301,"name":"Optimist 50","steam_id":76561198039631442,"connected_time":885000000000,"state":"active","ping":83},{"user_id":302,"name":"Luamaroman","steam_id":76561198000842067,"connected_time":847000000000,"state":"active","ping":73},{"user_id":303,"name":"Pats (Gifted items Collector)","steam_id":76561198418538887,"connected_time":835000000000,"state":"active","ping":87},{"user_id":306,"name":"dog?","steam_id":76561199232839385,"connected_time":509000000000,"state":"active","ping":92}]},{"server_id":311,"name":"Uncletopia | Frankfurt | 6 | All Maps","name_short":"frk-6","host":"frk-1.de.uncletopia.com","port":27065,"enabled":true,"region":"eu","cc":"de","latitude":50.110924,"longitude":8.682127,"reserved":0,"last_update":"0001-01-01T00:00:00Z","name_a2s":"Uncletopia | Frankfurt | 6 | All Maps","protocol":17,"map":"koth_lakeside_final","folder":"tf","game":"Team Fortress","app_id":440,"player_count":0,"max_players":24,"Bots":0,"server_type":"Dedicated","server_os":"Linux","password":true,"vac":true,"version":"7961495","steam_id":85568392924504278,"keywords":["cp","nocrits","nodmgspread","uncletopia"],"game_id":440,"stv_port":27066,"stv_name":"Uncletopia | Frankfurt | 6 | All Maps | STV","players":null},{"server_id":23,"name":"Uncletopia | Frankfurt | 7 | Stopwatch","name_short":"frk-7","host":"frk-1.de.uncletopia.com","port":27075,"enabled":true,"region":"eu","cc":"de","latitude":50.110924,"longitude":8.682127,"reserved":0,"last_update":"0001-01-01T00:00:00Z","name_a2s":"Uncletopia | Frankfurt | 7 | Stopwatch","protocol":17,"map":"workshop/koth_bagel_rc6.ugc2514036946","folder":"tf","game":"Team Fortress","app_id":440,"player_count":15,"max_players":24,"Bots":0,"server_type":"Dedicated","server_os":"Linux","password":true,"vac":true,"version":"7961495","steam_id":85568392924742827,"keywords":["cp","nocrits","nodmgspread","uncletopia"],"game_id":440,"stv_port":27076,"stv_name":"Uncletopia | Frankfurt | 7 | Stopwatch | STV","players":[{"user_id":167,"name":"Doruk K√º√ß√ºkduman","steam_id":76561198399815628,"connected_time":360000000000,"state":"active","ping":74},{"user_id":125,"name":"DeterminedXD[HUN]","steam_id":76561199469006453,"connected_time":2864000000000,"state":"active","ping":69},{"user_id":113,"name":"ran is running","steam_id":76561199443185667,"connected_time":4897000000000,"state":"active","ping":119},{"user_id":130,"name":"vert2spooky","steam_id":76561198914976373,"connected_time":2324000000000,"state":"active","ping":59},{"user_id":163,"name":"Malai","steam_id":76561198062537014,"connected_time":423000000000,"state":"active","ping":65},{"user_id":143,"name":"info","steam_id":76561198119354946,"connected_time":1380000000000,"state":"active","ping":38},{"user_id":150,"name":"vi","steam_id":76561198303147966,"connected_time":819000000000,"state":"active","ping":59},{"user_id":145,"name":"Zozo_alsghan(KSA)","steam_id":76561199087703209,"connected_time":936000000000,"state":"active","ping":215},{"user_id":151,"name":"Xipheria","steam_id":76561198077414706,"connected_time":700000000000,"state":"active","ping":74},{"user_id":152,"name":"orange :DDDDD","steam_id":76561198963378933,"connected_time":654000000000,"state":"active","ping":53},{"user_id":153,"name":"Squash Banana","steam_id":76561198055480280,"connected_time":603000000000,"state":"active","ping":77},{"user_id":155,"name":"TECHnoMITE","steam_id":76561198066443315,"connected_time":516000000000,"state":"active","ping":47},{"user_id":168,"name":"THE POPE","steam_id":76561199157577009,"connected_time":354000000000,"state":"active","ping":60},{"user_id":159,"name":"‚àÜ","steam_id":76561199042470246,"connected_time":486000000000,"state":"active","ping":51},{"user_id":166,"name":"KUDAR","steam_id":76561198382794964,"connected_time":384000000000,"state":"active","ping":176}]},{"server_id":24,"name":"Uncletopia | Frankfurt | 8 | Community","name_short":"frk-8","host":"frk-1.de.uncletopia.com","port":27085,"enabled":true,"region":"eu","cc":"de","latitude":50.110924,"longitude":8.682127,"reserved":0,"last_update":"0001-01-01T00:00:00Z","name_a2s":"Uncletopia | Frankfurt | 8 | Community","protocol":17,"map":"workshop/koth_synthetic_rc6a.ugc1549817316","folder":"tf","game":"Team Fortress","app_id":440,"player_count":0,"max_players":24,"Bots":0,"server_type":"Dedicated","server_os":"Linux","password":true,"vac":true,"version":"7961495","steam_id":85568392924742828,"keywords":["cp","nocrits","nodmgspread","uncletopia"],"game_id":440,"stv_port":27086,"stv_name":"Uncletopia | Frankfurt | 8 | Community | STV","players":null},{"server_id":202,"name":"Uncletopia | Hong Kong | 1 | All Maps","name_short":"hgk-1","host":"hgk-1.hk.uncletopia.com","port":27015,"enabled":true,"region":"asia","cc":"hk","latitude":22.302711,"longitude":114.177216,"reserved":0,"last_update":"0001-01-01T00:00:00Z","name_a2s":"Uncletopia | Hong Kong | 1 | All Maps","protocol":17,"map":"koth_nucleus","folder":"tf","game":"Team Fortress","app_id":440,"player_count":23,"max_players":24,"Bots":0,"server_type":"Dedicated","server_os":"Linux","password":true,"vac":true,"version":"7961495","steam_id":85568392924494504,"keywords":["cp","nocrits","nodmgspread","uncletopia"],"game_id":440,"stv_port":27016,"stv_name":"Uncletopia | Hong Kong | 1 | All Maps | STV","players":[{"user_id":450,"name":"‚¨û","steam_id":76561199373637717,"connected_time":4643000000000,"state":"active","ping":58},{"user_id":484,"name":"Grifter","steam_id":76561198092369812,"connected_time":825000000000,"state":"active","ping":85},{"user_id":469,"name":"Not Stir-fried Aliens SselmaN","steam_id":76561198075479294,"connected_time":2111000000000,"state":"active","ping":76},{"user_id":452,"name":"Variety","steam_id":76561198047396742,"connected_time":3939000000000,"state":"active","ping":59},{"user_id":482,"name":"Tommy Vercetti","steam_id":76561198332470619,"connected_time":1092000000000,"state":"active","ping":148},{"user_id":493,"name":"Elhemage","steam_id":76561198105902121,"connected_time":453000000000,"state":"active","ping":59},{"user_id":480,"name":"ZED","steam_id":76561198247502982,"connected_time":1356000000000,"state":"active","ping":86},{"user_id":249,"name":"xPhid","steam_id":76561199080808930,"connected_time":16656000000000,"state":"active","ping":67},{"user_id":444,"name":"Ïø†ÌÇ§","steam_id":76561197997220367,"connected_time":4974000000000,"state":"active","ping":42},{"user_id":461,"name":"XBOX","steam_id":76561198408850699,"connected_time":3257000000000,"state":"active","ping":44},{"user_id":459,"name":"ÊØç„ÅÆËÇâÂõ£Â≠ê@hao123.com","steam_id":76561198069561896,"connected_time":3639000000000,"state":"active","ping":44},{"user_id":412,"name":"Á¥îÊ≠£ÁöÑËêåÊñ∞QWQ","steam_id":76561198333268163,"connected_time":6994000000000,"state":"active","ping":70},{"user_id":491,"name":"???","steam_id":76561198214734251,"connected_time":546000000000,"state":"active","ping":69},{"user_id":494,"name":"tris","steam_id":76561198337296919,"connected_time":328000000000,"state":"active","ping":68},{"user_id":473,"name":"villy","steam_id":76561198169263597,"connected_time":1717000000000,"state":"active","ping":38},{"user_id":489,"name":"fish jenga","steam_id":76561198080108480,"connected_time":651000000000,"state":"active","ping":58},{"user_id":475,"name":"8091573212","steam_id":76561198968776439,"connected_time":1695000000000,"state":"active","ping":68},{"user_id":483,"name":"Lunacia","steam_id":76561198429887240,"connected_time":918000000000,"state":"active","ping":81},{"user_id":497,"name":"Nat","steam_id":76561197995044074,"connected_time":275000000000,"state":"active","ping":124},{"user_id":458,"name":"Ë†¢ËÑ∏È™ëÂ£´ËÑ∏‰∏çË†¢","steam_id":76561198422372840,"connected_time":3670000000000,"state":"active","ping":51},{"user_id":453,"name":"Teddie","steam_id":76561198150433935,"connected_time":3869000000000,"state":"active","ping":98},{"user_id":467,"name":"SoN","steam_id":76561198087127915,"connected_time":2526000000000,"state":"active","ping":77},{"user_id":471,"name":"boom","steam_id":76561199084484236,"connected_time":2103000000000,"state":"active","ping":72}]},{"server_id":1,"name":"Uncletopia | Los Angeles | 1 | All Maps","name_short":"lax-1","host":"lax-1.us.uncletopia.com","port":27015,"enabled":true,"region":"us-west","cc":"us","latitude":33.94279,"longitude":-118.41004,"reserved":0,"last_update":"0001-01-01T00:00:00Z","name_a2s":"Uncletopia | Los Angeles | 1 | All Maps","protocol":17,"map":"koth_lakeside_final","folder":"tf","game":"Team Fortress","app_id":440,"player_count":0,"max_players":24,"Bots":0,"server_type":"Dedicated","server_os":"Linux","password":true,"vac":true,"version":"7961495","steam_id":85568392924469991,"keywords":["cp","nocrits","nodmgspread","uncletopia"],"game_id":440,"stv_port":27016,"stv_name":"Uncletopia | Los Angeles | 1 | All Maps | STV","players":null},{"server_id":112,"name":"Uncletopia | Los Angeles | 2 | All Maps","name_short":"lax-2","host":"lax-1.us.uncletopia.com","port":27025,"enabled":true,"region":"us-west","cc":"us","latitude":33.94279,"longitude":-118.41004,"reserved":0,"last_update":"0001-01-01T00:00:00Z","name_a2s":"Uncletopia | Los Angeles | 2 | All Maps","protocol":17,"map":"cp_process_final","folder":"tf","game":"Team Fortress","app_id":440,"player_count":0,"max_players":24,"Bots":0,"server_type":"Dedicated","server_os":"Linux","password":true,"vac":true,"version":"7961495","steam_id":85568392924469992,"keywords":["cp","nocrits","nodmgspread","uncletopia"],"game_id":440,"stv_port":27026,"stv_name":"Uncletopia | Los Angeles | 2 | All Maps | STV","players":null},{"server_id":324,"name":"Uncletopia | Los Angeles | 3 | All Maps","name_short":"lax-3","host":"lax-1.us.uncletopia.com","port":27035,"enabled":true,"region":"us-west","cc":"us","latitude":33.94279,"longitude":-118.41004,"reserved":0,"last_update":"0001-01-01T00:00:00Z","name_a2s":"Uncletopia | Los Angeles | 3 | All Maps","protocol":17,"map":"pl_hoodoo_final","folder":"tf","game":"Team Fortress","app_id":440,"player_count":0,"max_players":24,"Bots":0,"server_type":"Dedicated","server_os":"Linux","password":true,"vac":true,"version":"7961495","steam_id":85568392924510198,"keywords":["nocrits","nodmgspread","payload","uncletopia"],"game_id":440,"stv_port":27036,"stv_name":"Uncletopia | Los Angeles | 3 | All Maps | STV","players":null},{"server_id":25,"name":"Uncletopia | Los Angeles | 4 | Stopwatch","name_short":"lax-4","host":"lax-1.us.uncletopia.com","port":27045,"enabled":true,"region":"us-west","cc":"us","latitude":33.94279,"longitude":-118.41004,"reserved":0,"last_update":"0001-01-01T00:00:00Z","name_a2s":"Uncletopia | Los Angeles | 4 | Stopwatch","protocol":17,"map":"pl_upward","folder":"tf","game":"Team Fortress","app_id":440,"player_count":0,"max_players":24,"Bots":0,"server_type":"Dedicated","server_os":"Linux","password":true,"vac":true,"version":"7961495","steam_id":85568392924510199,"keywords":["nocrits","nodmgspread","payload","uncletopia"],"game_id":440,"stv_port":27046,"stv_name":"Uncletopia | Los Angeles | 4 | Stopwatch | STV","players":null},{"server_id":11,"name":"Uncletopia | London | 1 | All Maps","name_short":"lon-1","host":"lon-1.uk.uncletopia.com","port":27015,"enabled":true,"region":"eu","cc":"gb","latitude":51.509865,"longitude":-0.118092,"reserved":0,"last_update":"0001-01-01T00:00:00Z","name_a2s":"Uncletopia | London | 1 | All Maps","protocol":17,"map":"ctf_turbine","folder":"tf","game":"Team Fortress","app_id":440,"player_count":24,"max_players":24,"Bots":0,"server_type":"Dedicated","server_os":"Linux","password":true,"vac":true,"version":"7961495","steam_id":85568392924367362,"keywords":["ctf","nocrits","nodmgspread","uncletopia"],"game_id":440,"stv_port":27016,"stv_name":"Uncletopia | London | 1 | All Maps | STV","players":[{"user_id":331,"name":"Hamm","steam_id":76561198844218403,"connected_time":231000000000,"state":"active","ping":46},{"user_id":176,"name":"Anri Okita's Massive Milkers","steam_id":76561199186352720,"connected_time":11921000000000,"state":"active","ping":64},{"user_id":332,"name":"Minimi","steam_id":76561198873850443,"connected_time":37000000000,"state":"active","ping":45},{"user_id":278,"name":"AWildTamim","steam_id":76561198048060652,"connected_time":3807000000000,"state":"active","ping":37},{"user_id":316,"name":"fazaness","steam_id":76561198851525394,"connected_time":1513000000000,"state":"active","ping":121},{"user_id":313,"name":"Slifer the Egyptian God Furry","steam_id":76561198062255803,"connected_time":1728000000000,"state":"active","ping":72},{"user_id":325,"name":"Dr Schmeltz","steam_id":76561198030453054,"connected_time":351000000000,"state":"active","ping":47},{"user_id":209,"name":"Laru","steam_id":76561197998838438,"connected_time":9799000000000,"state":"active","ping":75},{"user_id":314,"name":"mertefe","steam_id":76561199237126613,"connected_time":1695000000000,"state":"active","ping":90},{"user_id":326,"name":"Eyy_Cucasi","steam_id":76561198271767632,"connected_time":351000000000,"state":"active","ping":80},{"user_id":281,"name":"ashley","steam_id":76561198448551449,"connected_time":3797000000000,"state":"active","ping":37},{"user_id":305,"name":"the knight","steam_id":76561198368975915,"connected_time":2467000000000,"state":"active","ping":45},{"user_id":277,"name":"Mea","steam_id":76561198353496134,"connected_time":3825000000000,"state":"active","ping":53},{"user_id":294,"name":"A Table","steam_id":76561198056456470,"connected_time":3210000000000,"state":"active","ping":75},{"user_id":324,"name":"ein","steam_id":76561198152162834,"connected_time":357000000000,"state":"active","ping":105},{"user_id":328,"name":"ber","steam_id":76561197993892057,"connected_time":326000000000,"state":"active","ping":90},{"user_id":267,"name":"Bread","steam_id":76561198042027759,"connected_time":4704000000000,"state":"active","ping":45},{"user_id":287,"name":"beebo","steam_id":76561199120277007,"connected_time":3552000000000,"state":"active","ping":47},{"user_id":319,"name":"Purple Soup :D","steam_id":76561198985100366,"connected_time":1178000000000,"state":"active","ping":76},{"user_id":279,"name":"trite","steam_id":76561197983765323,"connected_time":3804000000000,"state":"active","ping":45},{"user_id":285,"name":"Dzieciol","steam_id":76561198160237556,"connected_time":3681000000000,"state":"active","ping":75},{"user_id":330,"name":"Mr. Mundy","steam_id":76561198132008918,"connected_time":312000000000,"state":"active","ping":80},{"user_id":227,"name":"whimsy.","steam_id":76561198878171763,"connected_time":8326000000000,"state":"active","ping":59}]},{"server_id":114,"name":"Uncletopia | London | 2 | All Maps","name_short":"lon-2","host":"lon-1.uk.uncletopia.com","port":27025,"enabled":true,"region":"eu","cc":"gb","latitude":51.509865,"longitude":-0.118092,"reserved":0,"last_update":"0001-01-01T00:00:00Z","name_a2s":"Uncletopia | London | 2 | All Maps","protocol":17,"map":"koth_harvest_final","folder":"tf","game":"Team Fortress","app_id":440,"player_count":23,"max_players":24,"Bots":0,"server_type":"Dedicated","server_os":"Linux","password":true,"vac":true,"version":"7961495","steam_id":85568392924470941,"keywords":["cp","nocrits","nodmgspread","uncletopia"],"game_id":440,"stv_port":27026,"stv_name":"Uncletopia | London | 2 | All Maps | STV","players":[{"user_id":172,"name":"Ozzie","steam_id":76561197992915315,"connected_time":9130000000000,"state":"active","ping":75},{"user_id":297,"name":"Gaming memes","steam_id":76561198122306142,"connected_time":509000000000,"state":"active","ping":46},{"user_id":295,"name":"Hurans","steam_id":76561198064853199,"connected_time":637000000000,"state":"active","ping":63},{"user_id":288,"name":"co","steam_id":76561198188225497,"connected_time":1389000000000,"state":"active","ping":52},{"user_id":241,"name":"Zel","steam_id":76561198284520120,"connected_time":3943000000000,"state":"active","ping":51},{"user_id":266,"name":"aochte^","steam_id":76561198018507987,"connected_time":2317000000000,"state":"active","ping":54},{"user_id":261,"name":"bedtime story reciever","steam_id":76561198196853610,"connected_time":2358000000000,"state":"active","ping":39},{"user_id":262,"name":"Sniper-Combine","steam_id":76561198003426532,"connected_time":2344000000000,"state":"active","ping":144},{"user_id":291,"name":"dis guy dumb","steam_id":76561198079730384,"connected_time":1044000000000,"state":"active","ping":60},{"user_id":276,"name":"OhSoSnake","steam_id":76561198967301355,"connected_time":1610000000000,"state":"active","ping":157},{"user_id":296,"name":"BELADIT","steam_id":76561198011911501,"connected_time":610000000000,"state":"active","ping":81},{"user_id":283,"name":"Ross from F.R.I.E.N.D.S.","steam_id":76561198008511665,"connected_time":1519000000000,"state":"active","ping":52},{"user_id":263,"name":"BurningJoke","steam_id":76561199014358707,"connected_time":2343000000000,"state":"active","ping":58},{"user_id":215,"name":"Wayan","steam_id":76561198354695464,"connected_time":6318000000000,"state":"active","ping":133},{"user_id":279,"name":"GhastlyPann","steam_id":76561198825373404,"connected_time":1540000000000,"state":"active","ping":105},{"user_id":282,"name":"4ngle_grinder","steam_id":76561199196369031,"connected_time":1523000000000,"state":"active","ping":30},{"user_id":233,"name":"quickfast","steam_id":76561199438900919,"connected_time":4652000000000,"state":"active","ping":45},{"user_id":265,"name":"FilipeLuk","steam_id":76561198150675438,"connected_time":2335000000000,"state":"active","ping":71},{"user_id":298,"name":"Mr. Bean","steam_id":76561198086929777,"connected_time":331000000000,"state":"active","ping":55},{"user_id":299,"name":"Ivarr","steam_id":76561198115629118,"connected_time":330000000000,"state":"active","ping":46},{"user_id":259,"name":"jermany!","steam_id":76561198126599355,"connected_time":2574000000000,"state":"active","ping":37},{"user_id":294,"name":"Bob1y","steam_id":76561199113762786,"connected_time":682000000000,"state":"active","ping":86},{"user_id":292,"name":"Gibbo","steam_id":76561198021814576,"connected_time":1023000000000,"state":"active","ping":42}]},{"server_id":320,"name":"Uncletopia | London | 3 | All Maps","name_short":"lon-3","host":"lon-1.uk.uncletopia.com","port":27035,"enabled":true,"region":"eu","cc":"gb","latitude":51.509865,"longitude":-0.118092,"reserved":0,"last_update":"0001-01-01T00:00:00Z","name_a2s":"Uncletopia | London | 3 | All Maps","protocol":17,"map":"pl_frontier_final","folder":"tf","game":"Team Fortress","app_id":440,"player_count":24,"max_players":24,"Bots":0,"server_type":"Dedicated","server_os":"Linux","password":true,"vac":true,"version":"7961495","steam_id":85568392924510192,"keywords":["nocrits","nodmgspread","payload","uncletopia"],"game_id":440,"stv_port":27036,"stv_name":"Uncletopia | London | 3 | All Maps | STV","players":[{"user_id":316,"name":"Bzd","steam_id":76561198204521956,"connected_time":1011000000000,"state":"active","ping":71},{"user_id":277,"name":"dopamine overdose","steam_id":76561199032511302,"connected_time":2640000000000,"state":"active","ping":104},{"user_id":137,"name":"Ôº≠ÔΩÅÔΩÉÔΩâÔΩéÔΩîÔΩèÔΩìÔΩà","steam_id":76561198074294565,"connected_time":10580000000000,"state":"active","ping":74},{"user_id":225,"name":"cockroach","steam_id":76561198841841656,"connected_time":5827000000000,"state":"active","ping":67},{"user_id":308,"name":"Tenshi","steam_id":76561197964915322,"connected_time":1182000000000,"state":"active","ping":90},{"user_id":317,"name":"virgin gaming","steam_id":76561199038154024,"connected_time":828000000000,"state":"active","ping":99},{"user_id":319,"name":"‚ú™Beer‚ò≠","steam_id":76561198129884760,"connected_time":76000000000,"state":"active","ping":58},{"user_id":309,"name":"Wardan","steam_id":76561199215041772,"connected_time":1163000000000,"state":"active","ping":37},{"user_id":304,"name":"Aunty Fungal Creme","steam_id":76561198046591088,"connected_time":1398000000000,"state":"active","ping":53},{"user_id":311,"name":"zzz","steam_id":76561199167288279,"connected_time":1124000000000,"state":"active","ping":62},{"user_id":313,"name":"highest noon","steam_id":76561199103959197,"connected_time":1102000000000,"state":"active","ping":88},{"user_id":252,"name":"Penis Contortionist","steam_id":76561198073663784,"connected_time":4301000000000,"state":"active","ping":38},{"user_id":303,"name":"Sloth","steam_id":76561198436618789,"connected_time":1487000000000,"state":"active","ping":72},{"user_id":257,"name":"clunk","steam_id":76561198836460767,"connected_time":4117000000000,"state":"active","ping":77},{"user_id":291,"name":"GoOutsideNerds","steam_id":76561198010662968,"connected_time":2109000000000,"state":"active","ping":45},{"user_id":243,"name":"SSAAMMII","steam_id":76561199168609647,"connected_time":4786000000000,"state":"active","ping":56},{"user_id":307,"name":"NESS","steam_id":76561197995225318,"connected_time":1342000000000,"state":"active","ping":40},{"user_id":292,"name":"legalize glue","steam_id":76561198191369066,"connected_time":2004000000000,"state":"active","ping":115},{"user_id":314,"name":"Froenzi","steam_id":76561198168841723,"connected_time":1093000000000,"state":"active","ping":66},{"user_id":305,"name":"Ed","steam_id":76561198091760220,"connected_time":1382000000000,"state":"active","ping":58},{"user_id":318,"name":"Ullr","steam_id":76561198140547483,"connected_time":195000000000,"state":"active","ping":44},{"user_id":299,"name":"Spongelica Slobblecoque","steam_id":76561198009072273,"connected_time":1639000000000,"state":"active","ping":45},{"user_id":302,"name":"feller","steam_id":76561198139303045,"connected_time":1572000000000,"state":"active","ping":90},{"user_id":275,"name":"rainbowscree","steam_id":76561198114210501,"connected_time":2658000000000,"state":"active","ping":82}]},{"server_id":321,"name":"Uncletopia | London | 4 | All Maps","name_short":"lon-4","host":"lon-1.uk.uncletopia.com","port":27045,"enabled":true,"region":"eu","cc":"gb","latitude":51.509865,"longitude":-0.118092,"reserved":0,"last_update":"0001-01-01T00:00:00Z","name_a2s":"Uncletopia | London | 4 | All Maps","protocol":17,"map":"cp_steel","folder":"tf","game":"Team Fortress","app_id":440,"player_count":24,"max_players":24,"Bots":0,"server_type":"Dedicated","server_os":"Linux","password":true,"vac":true,"version":"7961495","steam_id":85568392924510193,"keywords":["cp","nocrits","nodmgspread","uncletopia"],"game_id":440,"stv_port":27046,"stv_name":"Uncletopia | London | 4 | All Maps | STV","players":[{"user_id":487,"name":"After8","steam_id":76561198090750865,"connected_time":2532000000000,"state":"active","ping":76},{"user_id":485,"name":"Swayer","steam_id":76561198056192460,"connected_time":2734000000000,"state":"active","ping":52},{"user_id":531,"name":"Tort","steam_id":76561198329646769,"connected_time":146000000000,"state":"active","ping":48},{"user_id":527,"name":"Entvari","steam_id":76561198186639563,"connected_time":320000000000,"state":"active","ping":52},{"user_id":498,"name":"TonyGappa","steam_id":76561197969011707,"connected_time":1980000000000,"state":"active","ping":47},{"user_id":479,"name":"loli generator","steam_id":76561198279621400,"connected_time":3476000000000,"state":"active","ping":96},{"user_id":454,"name":"Beauf de France","steam_id":76561198799097492,"connected_time":4714000000000,"state":"active","ping":45},{"user_id":504,"name":"bid","steam_id":76561198083863043,"connected_time":1472000000000,"state":"active","ping":45},{"user_id":515,"name":"Bubingi","steam_id":76561198023430257,"connected_time":1039000000000,"state":"active","ping":58},{"user_id":525,"name":"Volloxh","steam_id":76561198085583848,"connected_time":375000000000,"state":"active","ping":82},{"user_id":418,"name":"Spinya","steam_id":76561198086653667,"connected_time":8217000000000,"state":"active","ping":58},{"user_id":516,"name":"Luna","steam_id":76561198112888932,"connected_time":963000000000,"state":"active","ping":46},{"user_id":472,"name":"KEYMASTER","steam_id":76561199053214638,"connected_time":3630000000000,"state":"active","ping":58},{"user_id":514,"name":"Gravy","steam_id":76561198029548074,"connected_time":1048000000000,"state":"active","ping":60},{"user_id":517,"name":"‚ôø Erneesto ‚ôø","steam_id":76561198157703539,"connected_time":959000000000,"state":"active","ping":59},{"user_id":518,"name":"Grimm","steam_id":76561198044684227,"connected_time":957000000000,"state":"active","ping":49},{"user_id":489,"name":"kluri","steam_id":76561198084518962,"connected_time":2360000000000,"state":"active","ping":87},{"user_id":490,"name":"silicon based life form","steam_id":76561199127121346,"connected_time":2284000000000,"state":"active","ping":41},{"user_id":436,"name":"Tryrn","steam_id":76561198075487436,"connected_time":6363000000000,"state":"active","ping":78},{"user_id":523,"name":"Mr_Touchyou","steam_id":76561198452524697,"connected_time":767000000000,"state":"active","ping":120},{"user_id":419,"name":"DudeoftheRock","steam_id":76561198059401865,"connected_time":8214000000000,"state":"active","ping":60},{"user_id":530,"name":"The Creator Of Sex","steam_id":76561198385989487,"connected_time":199000000000,"state":"active","ping":90},{"user_id":501,"name":"Nugget","steam_id":76561198338916407,"connected_time":1871000000000,"state":"active","ping":61},{"user_id":508,"name":"Pinkchup","steam_id":76561198106802803,"connected_time":1247000000000,"state":"active","ping":84}]},{"server_id":21,"name":"Uncletopia | London | 5 | All Maps","name_short":"lon-5","host":"lon-1.uk.uncletopia.com","port":27055,"enabled":true,"region":"eu","cc":"gb","latitude":51.509865,"longitude":-0.118092,"reserved":0,"last_update":"0001-01-01T00:00:00Z","name_a2s":"Uncletopia | London | 5 | All Maps","protocol":17,"map":"koth_viaduct","folder":"tf","game":"Team Fortress","app_id":440,"player_count":14,"max_players":24,"Bots":0,"server_type":"Dedicated","server_os":"Linux","password":true,"vac":true,"version":"7961495","steam_id":85568392924742829,"keywords":["cp","nocrits","nodmgspread","uncletopia"],"game_id":440,"stv_port":27056,"stv_name":"Uncletopia | London | 5 | All Maps | STV","players":[{"user_id":22,"name":"Tx_madmash","steam_id":76561198924656512,"connected_time":2598000000000,"state":"active","ping":50},{"user_id":23,"name":"japjao","steam_id":76561199230386527,"connected_time":2597000000000,"state":"active","ping":47},{"user_id":26,"name":"Crazyyk","steam_id":76561198882313836,"connected_time":844000000000,"state":"active","ping":54},{"user_id":25,"name":"useless","steam_id":76561198842020955,"connected_time":1011000000000,"state":"active","ping":59},{"user_id":41,"name":"drop","steam_id":76561199499639788,"connected_time":38000000000,"state":"active","ping":45},{"user_id":36,"name":"GaudyCipress660","steam_id":76561199222810631,"connected_time":276000000000,"state":"active","ping":62},{"user_id":34,"name":"tea","steam_id":76561199218227502,"connected_time":345000000000,"state":"active","ping":105},{"user_id":39,"name":"AddyD","steam_id":76561198201834415,"connected_time":133000000000,"state":"active","ping":65},{"user_id":33,"name":"aquapro59","steam_id":76561199146682070,"connected_time":421000000000,"state":"active","ping":82},{"user_id":35,"name":"sniper's kangaroo wife","steam_id":76561198334042273,"connected_time":322000000000,"state":"active","ping":41},{"user_id":42,"name":"ACG_Dubsy","steam_id":76561198797308565,"connected_time":30000000000,"state":"spawning","ping":67},{"user_id":43,"name":"billy","steam_id":76561198328711914,"connected_time":23000000000,"state":"active","ping":44},{"user_id":44,"name":"Tenchberry","steam_id":76561198064584801,"connected_time":5000000000,"state":"active","ping":50},{"user_id":45,"name":"Pyro Knight","steam_id":76561198071504997,"connected_time":5000000000,"state":"spawning","ping":74}]},{"server_id":22,"name":"Uncletopia | London | 6 | All Maps","name_short":"lon-6","host":"lon-1.uk.uncletopia.com","port":27065,"enabled":true,"region":"eu","cc":"gb","latitude":51.509865,"longitude":-0.118092,"reserved":0,"last_update":"0001-01-01T00:00:00Z","name_a2s":"Uncletopia | London | 6 | All Maps","protocol":17,"map":"cp_sunshine","folder":"tf","game":"Team Fortress","app_id":440,"player_count":0,"max_players":24,"Bots":0,"server_type":"Dedicated","server_os":"Linux","password":true,"vac":true,"version":"7961495","steam_id":85568392924742830,"keywords":["cp","nocrits","nodmgspread","uncletopia"],"game_id":440,"stv_port":27066,"stv_name":"Uncletopia | London | 6 | All Maps | STV","players":null},{"server_id":40,"name":"Uncletopia | London | 7 | Stopwatch","name_short":"lon-7","host":"lon-1.uk.uncletopia.com","port":27075,"enabled":true,"region":"eu","cc":"gb","latitude":51.509865,"longitude":-0.118092,"reserved":0,"last_update":"0001-01-01T00:00:00Z","name_a2s":"Uncletopia | London | 7 | Stopwatch","protocol":17,"map":"pl_borneo","folder":"tf","game":"Team Fortress","app_id":440,"player_count":0,"max_players":24,"Bots":0,"server_type":"Dedicated","server_os":"Linux","password":true,"vac":true,"version":"7961495","steam_id":85568392924964314,"keywords":["nocrits","nodmgspread","payload","uncletopia"],"game_id":440,"stv_port":27076,"stv_name":"Uncletopia | London | 7 | Stopwatch | STV","players":null},{"server_id":41,"name":"Uncletopia | London | 8 | Community","name_short":"lon-8","host":"lon-1.uk.uncletopia.com","port":27085,"enabled":true,"region":"eu","cc":"gb","latitude":51.509865,"longitude":-0.118092,"reserved":0,"last_update":"0001-01-01T00:00:00Z","name_a2s":"Uncletopia | London | 8 | Community","protocol":17,"map":"workshop/cp_villa_b19.ugc2113052569","folder":"tf","game":"Team Fortress","app_id":440,"player_count":0,"max_players":24,"Bots":0,"server_type":"Dedicated","server_os":"Linux","password":true,"vac":true,"version":"7961495","steam_id":85568392924964315,"keywords":["cp","nocrits","nodmgspread","uncletopia"],"game_id":440,"stv_port":27086,"stv_name":"Uncletopia | London | 8 | Community | STV","players":null},{"server_id":300,"name":"Uncletopia | Montr√©al | 1 | One Thousand Uncles","name_short":"mtl-1","host":"mtl-1.ca.uncletopia.com","port":27015,"enabled":true,"region":"us-east","cc":"ca","latitude":45.50889,"longitude":-73.56167,"reserved":0,"last_update":"0001-01-01T00:00:00Z","name_a2s":"Uncletopia | Montr√©al | 1 | One Thousand Uncles","protocol":17,"map":"pl_swiftwater_final1","folder":"tf","game":"Team Fortress","app_id":440,"player_count":0,"max_players":32,"Bots":0,"server_type":"Dedicated","server_os":"Linux","password":true,"vac":true,"version":"7961495","steam_id":85568392924500087,"keywords":["alltalk","danepve","increased_maxplayers","norespawntime","payload","uncletopia"],"game_id":440,"stv_port":0,"stv_name":"","players":null},{"server_id":301,"name":"Uncletopia | Montr√©al | 2 | One Thousand Uncles","name_short":"mtl-2","host":"mtl-1.ca.uncletopia.com","port":27025,"enabled":true,"region":"us-east","cc":"ca","latitude":45.50889,"longitude":-73.56167,"reserved":0,"last_update":"0001-01-01T00:00:00Z","name_a2s":"Uncletopia | Montr√©al | 2 | One Thousand Uncles","protocol":17,"map":"pl_chilly","folder":"tf","game":"Team Fortress","app_id":440,"player_count":18,"max_players":32,"Bots":16,"server_type":"Dedicated","server_os":"Linux","password":true,"vac":true,"version":"7961495","steam_id":85568392924500088,"keywords":["alltalk","bots","danepve","increased_maxplayers","norespawntime","payload","uncletopia"],"game_id":440,"stv_port":0,"stv_name":"","players":[{"user_id":20,"name":"Bulldozer","steam_id":76561198886468318,"connected_time":838000000000,"state":"active","ping":203},{"user_id":38,"name":"Yankee_Pirate","steam_id":76561198260667117,"connected_time":105000000000,"state":"active","ping":47}]},{"server_id":302,"name":"Uncletopia | Montr√©al | 3 | One Thousand Uncles","name_short":"mtl-3","host":"mtl-1.ca.uncletopia.com","port":27035,"enabled":true,"region":"us-east","cc":"ca","latitude":45.50889,"longitude":-73.56167,"reserved":0,"last_update":"0001-01-01T00:00:00Z","name_a2s":"Uncletopia | Montr√©al | 3 | One Thousand Uncles","protocol":17,"map":"pl_upward","folder":"tf","game":"Team Fortress","app_id":440,"player_count":0,"max_players":32,"Bots":0,"server_type":"Dedicated","server_os":"Linux","password":true,"vac":true,"version":"7961495","steam_id":85568392924500089,"keywords":["alltalk","danepve","increased_maxplayers","norespawntime","payload","uncletopia"],"game_id":440,"stv_port":0,"stv_name":"","players":null},{"server_id":13,"name":"Uncletopia | New York City | 1 | All Maps","name_short":"nyc-1","host":"nyc-1.us.uncletopia.com","port":27015,"enabled":true,"region":"us-east","cc":"us","latitude":40.73061,"longitude":-73.93524,"reserved":0,"last_update":"0001-01-01T00:00:00Z","name_a2s":"Uncletopia | New York City | 1 | All Maps","protocol":17,"map":"pl_thundermountain","folder":"tf","game":"Team Fortress","app_id":440,"player_count":24,"max_players":24,"Bots":0,"server_type":"Dedicated","server_os":"Linux","password":true,"vac":true,"version":"7961495","steam_id":85568392924469993,"keywords":["nocrits","nodmgspread","payload","uncletopia"],"game_id":440,"stv_port":27016,"stv_name":"Uncletopia | New York City | 1 | All Maps | STV","players":[{"user_id":24,"name":"Rummy the Blargh-gineer","steam_id":76561197997192800,"connected_time":2546000000000,"state":"active","ping":47},{"user_id":82,"name":"derpesore","steam_id":76561198372731674,"connected_time":105000000000,"state":"active","ping":73},{"user_id":69,"name":"dax","steam_id":76561198045335319,"connected_time":624000000000,"state":"active","ping":90},{"user_id":18,"name":"KrashBoomBang","steam_id":76561199002978777,"connected_time":2651000000000,"state":"active","ping":45},{"user_id":41,"name":"dan","steam_id":76561197984998426,"connected_time":2110000000000,"state":"active","ping":87},{"user_id":20,"name":"Chechens Spotted","steam_id":76561199028910893,"connected_time":2612000000000,"state":"active","ping":89},{"user_id":23,"name":"Sammich","steam_id":76561198010543087,"connected_time":2578000000000,"state":"active","ping":75},{"user_id":25,"name":"Icypoisonfang","steam_id":76561199212238402,"connected_time":2467000000000,"state":"active","ping":44},{"user_id":73,"name":"asdasdasdasdasd","steam_id":76561198129682583,"connected_time":397000000000,"state":"active","ping":88},{"user_id":27,"name":"The Fool","steam_id":76561198081397523,"connected_time":2430000000000,"state":"active","ping":44},{"user_id":67,"name":"bony","steam_id":76561198241893988,"connected_time":996000000000,"state":"active","ping":53},{"user_id":77,"name":"Lanky Kong","steam_id":76561198142455488,"connected_time":233000000000,"state":"active","ping":45},{"user_id":79,"name":"Helmet Hands","steam_id":76561197961141994,"connected_time":187000000000,"state":"active","ping":138},{"user_id":34,"name":"Fish","steam_id":76561199258053772,"connected_time":2272000000000,"state":"active","ping":68},{"user_id":35,"name":"Bigsumoslammer","steam_id":76561198044505076,"connected_time":2269000000000,"state":"active","ping":44},{"user_id":80,"name":"Cthulwho?","steam_id":76561198165550810,"connected_time":167000000000,"state":"active","ping":66},{"user_id":83,"name":"el payaso","steam_id":76561199380864529,"connected_time":48000000000,"state":"active","ping":54},{"user_id":38,"name":"gorilla","steam_id":76561199059768776,"connected_time":2214000000000,"state":"active","ping":98},{"user_id":68,"name":"Terra Mater","steam_id":76561198069735882,"connected_time":705000000000,"state":"active","ping":75},{"user_id":56,"name":"barry steakfries","steam_id":76561199472218520,"connected_time":1884000000000,"state":"active","ping":66},{"user_id":43,"name":"deity main","steam_id":76561199251639888,"connected_time":2105000000000,"state":"active","ping":60},{"user_id":45,"name":"vom","steam_id":76561198070311363,"connected_time":2088000000000,"state":"active","ping":60},{"user_id":46,"name":"303","steam_id":76561199052840531,"connected_time":2055000000000,"state":"active","ping":51},{"user_id":70,"name":"bingus :3","steam_id":76561199198633203,"connected_time":620000000000,"state":"active","ping":120}]},{"server_id":14,"name":"Uncletopia | New York City | 2 | All Maps","name_short":"nyc-2","host":"nyc-1.us.uncletopia.com","port":27025,"enabled":true,"region":"us-east","cc":"us","latitude":40.73061,"longitude":-73.93524,"reserved":0,"last_update":"0001-01-01T00:00:00Z","name_a2s":"Uncletopia | New York City | 2 | All Maps","protocol":17,"map":"koth_lakeside_final","folder":"tf","game":"Team Fortress","app_id":440,"player_count":24,"max_players":24,"Bots":0,"server_type":"Dedicated","server_os":"Linux","password":true,"vac":true,"version":"7961495","steam_id":85568392924469994,"keywords":["cp","nocrits","nodmgspread","uncletopia"],"game_id":440,"stv_port":27026,"stv_name":"Uncletopia | New York City | 2 | All Maps | STV","players":[{"user_id":215,"name":"Skab E¬≤r","steam_id":76561199126112357,"connected_time":1113000000000,"state":"active","ping":72},{"user_id":227,"name":"I shovel mayonnaise in mouth","steam_id":76561199123118241,"connected_time":556000000000,"state":"active","ping":105},{"user_id":28,"name":"Pisshammer","steam_id":76561198314739334,"connected_time":5316000000000,"state":"active","ping":92},{"user_id":99,"name":"Orange Triangle","steam_id":76561198320498182,"connected_time":4097000000000,"state":"active","ping":69},{"user_id":218,"name":"when","steam_id":76561198443289583,"connected_time":944000000000,"state":"active","ping":60},{"user_id":225,"name":"Lamp","steam_id":76561198369922506,"connected_time":577000000000,"state":"active","ping":38},{"user_id":214,"name":"carrot cake","steam_id":76561198055174915,"connected_time":1195000000000,"state":"active","ping":71},{"user_id":210,"name":"Mipsiek","steam_id":76561198164013471,"connected_time":1928000000000,"state":"active","ping":39},{"user_id":16,"name":"vinny6","steam_id":76561198386735728,"connected_time":5577000000000,"state":"active","ping":45},{"user_id":207,"name":"Captain Slow","steam_id":76561198116957161,"connected_time":2164000000000,"state":"active","ping":45},{"user_id":34,"name":"Yiff Police","steam_id":76561198103938356,"connected_time":5165000000000,"state":"active","ping":93},{"user_id":19,"name":"Boofenshmirtz","steam_id":76561198071649858,"connected_time":5506000000000,"state":"active","ping":74},{"user_id":208,"name":"dr peppah chug!","steam_id":76561198068835693,"connected_time":2141000000000,"state":"active","ping":88},{"user_id":183,"name":"The Don","steam_id":76561198016807790,"connected_time":2685000000000,"state":"active","ping":42},{"user_id":22,"name":"SkarloeyFell","steam_id":76561199183127174,"connected_time":5450000000000,"state":"active","ping":45},{"user_id":202,"name":"Skeebo","steam_id":76561198039320867,"connected_time":2293000000000,"state":"active","ping":71},{"user_id":220,"name":"Void","steam_id":76561198046418244,"connected_time":901000000000,"state":"active","ping":72},{"user_id":216,"name":"general.b","steam_id":76561198162480519,"connected_time":1000000000000,"state":"active","ping":57},{"user_id":223,"name":"Im totally a hacker","steam_id":76561198888005736,"connected_time":742000000000,"state":"active","ping":67},{"user_id":228,"name":"thefanchick","steam_id":76561199092414034,"connected_time":232000000000,"state":"active","ping":49},{"user_id":229,"name":"Tylogaming","steam_id":76561198025181395,"connected_time":218000000000,"state":"active","ping":81},{"user_id":231,"name":"SpontaneousCourage","steam_id":76561198074391124,"connected_time":82000000000,"state":"active","ping":53},{"user_id":221,"name":"TrueNeutral","steam_id":76561198295321902,"connected_time":885000000000,"state":"active","ping":76},{"user_id":212,"name":"Dareu","steam_id":76561198081781710,"connected_time":1496000000000,"state":"active","ping":47}]},{"server_id":15,"name":"Uncletopia | New York City | 3 | Stopwatch","name_short":"nyc-3","host":"nyc-1.us.uncletopia.com","port":27035,"enabled":true,"region":"us-east","cc":"us","latitude":40.73061,"longitude":-73.93524,"reserved":0,"last_update":"0001-01-01T00:00:00Z","name_a2s":"Uncletopia | New York City | 3 | Stopwatch","protocol":17,"map":"workshop/cp_reckoner_rc6.ugc674719999","folder":"tf","game":"Team Fortress","app_id":440,"player_count":0,"max_players":24,"Bots":0,"server_type":"Dedicated","server_os":"Linux","password":true,"vac":true,"version":"7961495","steam_id":85568392924742820,"keywords":["cp","nocrits","nodmgspread","uncletopia"],"game_id":440,"stv_port":27036,"stv_name":"Uncletopia | New York City | 3 | Stopwatch | STV","players":null},{"server_id":16,"name":"Uncletopia | New York City | 4 | Community","name_short":"nyc-4","host":"nyc-1.us.uncletopia.com","port":27045,"enabled":true,"region":"us-east","cc":"us","latitude":40.73061,"longitude":-73.93524,"reserved":0,"last_update":"0001-01-01T00:00:00Z","name_a2s":"Uncletopia | New York City | 4 | Community","protocol":17,"map":"workshop/cp_propaganda_b18.ugc1603743849","folder":"tf","game":"Team Fortress","app_id":440,"player_count":0,"max_players":24,"Bots":0,"server_type":"Dedicated","server_os":"Linux","password":true,"vac":true,"version":"7961495","steam_id":85568392924742821,"keywords":["cp","nocrits","nodmgspread","uncletopia"],"game_id":440,"stv_port":27046,"stv_name":"Uncletopia | New York City | 4 | Community | STV","players":null},{"server_id":142,"name":"Uncletopia | S√£o Paulo | 1 | All Maps","name_short":"sao-1","host":"sao-1.br.uncletopia.com","port":27015,"enabled":true,"region":"sa","cc":"br","latitude":-23.533773,"longitude":-46.62529,"reserved":0,"last_update":"0001-01-01T00:00:00Z","name_a2s":"Uncletopia | S√£o Paulo | 1 | All Maps","protocol":17,"map":"koth_cascade","folder":"tf","game":"Team Fortress","app_id":440,"player_count":0,"max_players":24,"Bots":0,"server_type":"Dedicated","server_os":"Linux","password":true,"vac":true,"version":"7961495","steam_id":85568392924469996,"keywords":["cp","nocrits","nodmgspread","uncletopia"],"game_id":440,"stv_port":27016,"stv_name":"Uncletopia | S√£o Paulo | 1 | All Maps | STV","players":null},{"server_id":143,"name":"Uncletopia | S√£o Paulo | 2 | Community","name_short":"sao-2","host":"sao-2.br.uncletopia.com","port":27015,"enabled":true,"region":"sa","cc":"br","latitude":-23.533773,"longitude":-46.62529,"reserved":0,"last_update":"0001-01-01T00:00:00Z","name_a2s":"Uncletopia | S√£o Paulo | 2 | Community","protocol":17,"map":"workshop/cp_croissant_final.ugc458840209","folder":"tf","game":"Team Fortress","app_id":440,"player_count":0,"max_players":24,"Bots":0,"server_type":"Dedicated","server_os":"Linux","password":true,"vac":true,"version":"7961495","steam_id":85568392924485349,"keywords":["cp","nocrits","nodmgspread","uncletopia"],"game_id":440,"stv_port":27016,"stv_name":"Uncletopia | S√£o Paulo | 2 | Community | STV","players":null},{"server_id":7,"name":"Uncletopia | Seattle | 1 | All Maps","name_short":"sea-1","host":"sea-1.us.uncletopia.com","port":27015,"enabled":true,"region":"us-west","cc":"us","latitude":47.608013,"longitude":-122.33517,"reserved":0,"last_update":"0001-01-01T00:00:00Z","name_a2s":"Uncletopia | Seattle | 1 | All Maps","protocol":17,"map":"pl_upward","folder":"tf","game":"Team Fortress","app_id":440,"player_count":22,"max_players":24,"Bots":0,"server_type":"Dedicated","server_os":"Linux","password":true,"vac":true,"version":"7961495","steam_id":85568392924469997,"keywords":["nocrits","nodmgspread","payload","uncletopia"],"game_id":440,"stv_port":27016,"stv_name":"Uncletopia | Seattle | 1 | All Maps | STV","players":[{"user_id":85,"name":"jconngardner","steam_id":76561199481693820,"connected_time":899000000000,"state":"active","ping":38},{"user_id":68,"name":"BreadQuest","steam_id":76561198082425960,"connected_time":1749000000000,"state":"active","ping":41},{"user_id":35,"name":"Gary","steam_id":76561199466597572,"connected_time":3540000000000,"state":"active","ping":92},{"user_id":80,"name":"bowling","steam_id":76561198854571744,"connected_time":1210000000000,"state":"active","ping":75},{"user_id":51,"name":"Supersonic","steam_id":76561198042167127,"connected_time":3308000000000,"state":"active","ping":56},{"user_id":76,"name":"Onion My Ate Dog My","steam_id":76561198155848925,"connected_time":1432000000000,"state":"active","ping":118},{"user_id":84,"name":"FezRequiem","steam_id":76561198070066667,"connected_time":908000000000,"state":"active","ping":91},{"user_id":62,"name":"ThePriceIsRice","steam_id":76561198079069543,"connected_time":2368000000000,"state":"active","ping":58},{"user_id":95,"name":"Tmiracle","steam_id":76561198052375275,"connected_time":5000000000,"state":"spawning","ping":74},{"user_id":72,"name":"AuraBraixen_4412","steam_id":76561198120668769,"connected_time":1526000000000,"state":"active","ping":94},{"user_id":31,"name":"S0NGB12D","steam_id":76561199014251520,"connected_time":3697000000000,"state":"active","ping":49},{"user_id":90,"name":"markofsacramento","steam_id":76561199501442696,"connected_time":709000000000,"state":"active","ping":68},{"user_id":63,"name":"Hazel (Medical)","steam_id":76561199247095754,"connected_time":2305000000000,"state":"active","ping":57},{"user_id":70,"name":"Sucsubot","steam_id":76561198106456128,"connected_time":1691000000000,"state":"active","ping":114},{"user_id":38,"name":"yepter","steam_id":76561198270967793,"connected_time":3486000000000,"state":"active","ping":41},{"user_id":83,"name":"Winter the Witchie","steam_id":76561198151971178,"connected_time":1050000000000,"state":"active","ping":105},{"user_id":74,"name":"spacetoven","steam_id":76561198115821131,"connected_time":1499000000000,"state":"active","ping":67},{"user_id":96,"name":"the keebler","steam_id":76561199486326945,"connected_time":0,"state":"spawning","ping":0},{"user_id":87,"name":"spes","steam_id":76561198081496581,"connected_time":862000000000,"state":"active","ping":49},{"user_id":65,"name":"@   ‰∫∫   @","steam_id":76561198043684960,"connected_time":2012000000000,"state":"active","ping":119},{"user_id":69,"name":"unnamed","steam_id":76561198057717934,"connected_time":1727000000000,"state":"active","ping":111},{"user_id":64,"name":"Mediocre Gaming","steam_id":76561199230467980,"connected_time":2274000000000,"state":"active","ping":93}]},{"server_id":119,"name":"Uncletopia | Seattle | 2 | All Maps","name_short":"sea-2","host":"sea-1.us.uncletopia.com","port":27025,"enabled":true,"region":"us-west","cc":"us","latitude":47.608013,"longitude":-122.33517,"reserved":0,"last_update":"0001-01-01T00:00:00Z","name_a2s":"Uncletopia | Seattle | 2 | All Maps","protocol":17,"map":"koth_lakeside_final","folder":"tf","game":"Team Fortress","app_id":440,"player_count":0,"max_players":24,"Bots":0,"server_type":"Dedicated","server_os":"Linux","password":true,"vac":true,"version":"7961495","steam_id":85568392924469998,"keywords":["cp","nocrits","nodmgspread","uncletopia"],"game_id":440,"stv_port":27026,"stv_name":"Uncletopia | Seattle | 2 | All Maps | STV","players":null},{"server_id":406,"name":"Uncletopia | Seattle | 3 | Stopwatch","name_short":"sea-3","host":"sea-1.us.uncletopia.com","port":27035,"enabled":true,"region":"us-west","cc":"us","latitude":47.608013,"longitude":-122.33517,"reserved":0,"last_update":"0001-01-01T00:00:00Z","name_a2s":"Uncletopia | Seattle | 3 | Stopwatch","protocol":17,"map":"cp_gullywash_final1","folder":"tf","game":"Team Fortress","app_id":440,"player_count":0,"max_players":24,"Bots":0,"server_type":"Dedicated","server_os":"Linux","password":true,"vac":true,"version":"7961495","steam_id":85568392924515217,"keywords":["cp","nocrits","nodmgspread","uncletopia"],"game_id":440,"stv_port":27036,"stv_name":"Uncletopia | Seattle | 3 | Stopwatch | STV","players":null},{"server_id":17,"name":"Uncletopia | San Francisco | 1 | All Maps","name_short":"sfo-1","host":"sfo-1.us.uncletopia.com","port":27015,"enabled":true,"region":"us-west","cc":"us","latitude":37.77397,"longitude":-122.4313,"reserved":0,"last_update":"0001-01-01T00:00:00Z","name_a2s":"Uncletopia | San Francisco | 1 | All Maps","protocol":17,"map":"koth_highpass","folder":"tf","game":"Team Fortress","app_id":440,"player_count":0,"max_players":24,"Bots":0,"server_type":"Dedicated","server_os":"Linux","password":true,"vac":true,"version":"7961495","steam_id":85568392924469999,"keywords":["cp","nocrits","nodmgspread","uncletopia"],"game_id":440,"stv_port":27016,"stv_name":"Uncletopia | San Francisco | 1 | All Maps | STV","players":null},{"server_id":18,"name":"Uncletopia | San Francisco | 2 | All Maps","name_short":"sfo-2","host":"sfo-1.us.uncletopia.com","port":27025,"enabled":true,"region":"us-west","cc":"us","latitude":37.77397,"longitude":-122.4313,"reserved":0,"last_update":"0001-01-01T00:00:00Z","name_a2s":"Uncletopia | San Francisco | 2 | All Maps","protocol":17,"map":"cp_freight_final1","folder":"tf","game":"Team Fortress","app_id":440,"player_count":0,"max_players":24,"Bots":0,"server_type":"Dedicated","server_os":"Linux","password":true,"vac":true,"version":"7961495","steam_id":85568392924470000,"keywords":["cp","nocrits","nodmgspread","uncletopia"],"game_id":440,"stv_port":27026,"stv_name":"Uncletopia | San Francisco | 2 | All Maps | STV","players":null},{"server_id":19,"name":"Uncletopia | San Francisco | 3 | Stopwatch","name_short":"sfo-3","host":"sfo-1.us.uncletopia.com","port":27035,"enabled":true,"region":"us-west","cc":"us","latitude":37.77397,"longitude":-122.4313,"reserved":0,"last_update":"0001-01-01T00:00:00Z","name_a2s":"Uncletopia | San Francisco | 3 | Stopwatch","protocol":17,"map":"workshop/koth_product_final.ugc454272353","folder":"tf","game":"Team Fortress","app_id":440,"player_count":0,"max_players":24,"Bots":0,"server_type":"Dedicated","server_os":"Linux","password":true,"vac":true,"version":"7961495","steam_id":85568392924742824,"keywords":["cp","nocrits","nodmgspread","uncletopia"],"game_id":440,"stv_port":27036,"stv_name":"Uncletopia | San Francisco | 3 | Stopwatch | STV","players":null},{"server_id":20,"name":"Uncletopia | San Francisco | 4 | Community","name_short":"sfo-4","host":"sfo-1.us.uncletopia.com","port":27045,"enabled":true,"region":"us-west","cc":"us","latitude":37.77397,"longitude":-122.4313,"reserved":0,"last_update":"0001-01-01T00:00:00Z","name_a2s":"Uncletopia | San Francisco | 4 | Community","protocol":17,"map":"workshop/pl_cactuscanyon_redux_final2.ugc2579644293","folder":"tf","game":"Team Fortress","app_id":440,"player_count":0,"max_players":24,"Bots":0,"server_type":"Dedicated","server_os":"Linux","password":true,"vac":true,"version":"7961495","steam_id":85568392924742826,"keywords":["nocrits","nodmgspread","payload","uncletopia"],"game_id":440,"stv_port":27046,"stv_name":"Uncletopia | San Francisco | 4 | Community | STV","players":null},{"server_id":141,"name":"Uncletopia | Sydney | 1 | All Maps","name_short":"syd-1","host":"syd-1.au.uncletopia.com","port":27015,"enabled":true,"region":"au","cc":"au","latitude":-33.865143,"longitude":151.2099,"reserved":0,"last_update":"0001-01-01T00:00:00Z","name_a2s":"Uncletopia | Sydney | 1 | All Maps","protocol":17,"map":"pl_borneo","folder":"tf","game":"Team Fortress","app_id":440,"player_count":0,"max_players":24,"Bots":0,"server_type":"Dedicated","server_os":"Linux","password":true,"vac":true,"version":"7961495","steam_id":85568392924470001,"keywords":["nocrits","nodmgspread","payload","uncletopia"],"game_id":440,"stv_port":27016,"stv_name":"Uncletopia | Sydney | 1 | All Maps | STV","players":null},{"server_id":123,"name":"Uncletopia | Sydney | 2 | All Maps","name_short":"syd-2","host":"syd-1.au.uncletopia.com","port":27025,"enabled":true,"region":"au","cc":"au","latitude":-33.865143,"longitude":151.2099,"reserved":0,"last_update":"0001-01-01T00:00:00Z","name_a2s":"Uncletopia | Sydney | 2 | All Maps","protocol":17,"map":"cp_mountainlab","folder":"tf","game":"Team Fortress","app_id":440,"player_count":19,"max_players":24,"Bots":0,"server_type":"Dedicated","server_os":"Linux","password":true,"vac":true,"version":"7961495","steam_id":85568392924470002,"keywords":["cp","nocrits","nodmgspread","uncletopia"],"game_id":440,"stv_port":27026,"stv_name":"Uncletopia | Sydney | 2 | All Maps | STV","players":[{"user_id":370,"name":"Mutha Bukka","steam_id":76561198072964708,"connected_time":3481000000000,"state":"active","ping":44},{"user_id":197,"name":"DKC","steam_id":76561198313578155,"connected_time":13644000000000,"state":"active","ping":44},{"user_id":331,"name":"will smith","steam_id":76561198112980997,"connected_time":6281000000000,"state":"active","ping":45},{"user_id":400,"name":"Plushie","steam_id":76561198043226890,"connected_time":341000000000,"state":"active","ping":45},{"user_id":396,"name":"little raw meat boy","steam_id":76561199248254676,"connected_time":868000000000,"state":"active","ping":58},{"user_id":290,"name":"Crystal Bathtub Rub","steam_id":76561198011764631,"connected_time":8077000000000,"state":"active","ping":58},{"user_id":372,"name":"Steve","steam_id":76561198429235506,"connected_time":3214000000000,"state":"active","ping":50},{"user_id":394,"name":"Miles Morales","steam_id":76561198071086727,"connected_time":1054000000000,"state":"active","ping":63},{"user_id":374,"name":"bandicootbill","steam_id":76561198066913399,"connected_time":3186000000000,"state":"active","ping":93},{"user_id":319,"name":"Chowdermonkey","steam_id":76561198990121068,"connected_time":6633000000000,"state":"active","ping":54},{"user_id":344,"name":"zinks","steam_id":76561198338774398,"connected_time":5657000000000,"state":"active","ping":98},{"user_id":390,"name":"Unholy Diver","steam_id":76561198081298968,"connected_time":1990000000000,"state":"active","ping":75},{"user_id":392,"name":"SirPanTastic_IV","steam_id":76561198122137582,"connected_time":1916000000000,"state":"active","ping":61},{"user_id":382,"name":"Torex","steam_id":76561198163286049,"connected_time":2662000000000,"state":"active","ping":45},{"user_id":358,"name":"Shaquille Oatmeal","steam_id":76561198282647334,"connected_time":4600000000000,"state":"active","ping":86},{"user_id":312,"name":"Legin","steam_id":76561198070479508,"connected_time":6810000000000,"state":"active","ping":81},{"user_id":360,"name":"moist","steam_id":76561198065846127,"connected_time":4519000000000,"state":"active","ping":35},{"user_id":383,"name":"Huz","steam_id":76561198039231303,"connected_time":2503000000000,"state":"active","ping":73},{"user_id":338,"name":"Wat The Snek","steam_id":76561198290380602,"connected_time":5969000000000,"state":"active","ping":143}]},{"server_id":395,"name":"Uncletopia | Sydney | 3 | All Maps","name_short":"syd-3","host":"syd-1.au.uncletopia.com","port":27035,"enabled":true,"region":"au","cc":"au","latitude":-33.865143,"longitude":151.2099,"reserved":0,"last_update":"0001-01-01T00:00:00Z","name_a2s":"Uncletopia | Sydney | 3 | All Maps","protocol":17,"map":"pl_swiftwater_final1","folder":"tf","game":"Team Fortress","app_id":440,"player_count":0,"max_players":24,"Bots":0,"server_type":"Dedicated","server_os":"Linux","password":true,"vac":true,"version":"7961495","steam_id":85568392925194467,"keywords":["nocrits","nodmgspread","payload","uncletopia"],"game_id":440,"stv_port":27036,"stv_name":"Uncletopia | Sydney | 3 | All Maps | STV","players":null},{"server_id":396,"name":"Uncletopia | Sydney | 4 | All Maps","name_short":"syd-4","host":"syd-1.au.uncletopia.com","port":27045,"enabled":true,"region":"au","cc":"au","latitude":-33.865143,"longitude":151.2099,"reserved":0,"last_update":"0001-01-01T00:00:00Z","name_a2s":"Uncletopia | Sydney | 4 | All Maps","protocol":17,"map":"cp_sunshine","folder":"tf","game":"Team Fortress","app_id":440,"player_count":0,"max_players":24,"Bots":0,"server_type":"Dedicated","server_os":"Linux","password":true,"vac":true,"version":"7961495","steam_id":85568392925397958,"keywords":["cp","nocrits","nodmgspread","uncletopia"],"game_id":440,"stv_port":27046,"stv_name":"Uncletopia | Sydney | 4 | All Maps | STV","players":null},{"server_id":58,"name":"Uncletopia | Sydney | 5 | Stopwatch","name_short":"syd-5","host":"syd-1.au.uncletopia.com","port":27055,"enabled":true,"region":"au","cc":"au","latitude":-33.865143,"longitude":151.2099,"reserved":0,"last_update":"0001-01-01T00:00:00Z","name_a2s":"Uncletopia | Sydney | 5 | Stopwatch","protocol":17,"map":"pl_swiftwater_final1","folder":"tf","game":"Team Fortress","app_id":440,"player_count":0,"max_players":24,"Bots":0,"server_type":"Dedicated","server_os":"Linux","password":true,"vac":true,"version":"7961495","steam_id":85568392925397959,"keywords":["nocrits","nodmgspread","payload","uncletopia"],"game_id":440,"stv_port":27056,"stv_name":"Uncletopia | Sydney | 5 | Stopwatch | STV","players":null},{"server_id":59,"name":"Uncletopia | Sydney | 6 | Community","name_short":"syd-6","host":"syd-1.au.uncletopia.com","port":27065,"enabled":true,"region":"au","cc":"au","latitude":-33.865143,"longitude":151.2099,"reserved":0,"last_update":"0001-01-01T00:00:00Z","name_a2s":"Uncletopia | Sydney | 6 | Community","protocol":17,"map":"workshop/koth_trenchfoot_ab1.ugc731436616","folder":"tf","game":"Team Fortress","app_id":440,"player_count":0,"max_players":24,"Bots":0,"server_type":"Dedicated","server_os":"Linux","password":true,"vac":true,"version":"7961495","steam_id":85568392925397960,"keywords":["cp","nocrits","nodmgspread","uncletopia"],"game_id":440,"stv_port":27066,"stv_name":"Uncletopia | Sydney | 6 | Community | STV","players":null},{"server_id":49,"name":"Uncletopia | Warsaw | 1 | One Thousand Uncles","name_short":"waw-1","host":"waw-1.pl.uncletopia.com","port":27015,"enabled":true,"region":"eu","cc":"pl","latitude":52.2297,"longitude":21.017532,"reserved":0,"last_update":"0001-01-01T00:00:00Z","name_a2s":"Uncletopia | Warsaw | 1 | One Thousand Uncles","protocol":17,"map":"koth_highpass","folder":"tf","game":"Team Fortress","app_id":440,"player_count":20,"max_players":32,"Bots":16,"server_type":"Dedicated","server_os":"Linux","password":true,"vac":true,"version":"7961495","steam_id":85568392925397850,"keywords":["alltalk","bots","cp","danepve","increased_maxplayers","norespawntime","uncletopia"],"game_id":440,"stv_port":0,"stv_name":"","players":[{"user_id":461,"name":"Hexagon","steam_id":76561198151205758,"connected_time":113000000000,"state":"active","ping":68},{"user_id":451,"name":"LightBulbGlue #SaveTF2","steam_id":76561198329573529,"connected_time":1382000000000,"state":"active","ping":170},{"user_id":452,"name":"historykwojen","steam_id":76561198322049922,"connected_time":1356000000000,"state":"active","ping":38},{"user_id":458,"name":"LizardMilk_19","steam_id":76561199435002235,"connected_time":384000000000,"state":"active","ping":272}]},{"server_id":50,"name":"Uncletopia | Warsaw | 2 | One Thousand Uncles","name_short":"waw-2","host":"waw-1.pl.uncletopia.com","port":27025,"enabled":true,"region":"eu","cc":"pl","latitude":52.2297,"longitude":21.017532,"reserved":0,"last_update":"0001-01-01T00:00:00Z","name_a2s":"Uncletopia | Warsaw | 2 | One Thousand Uncles","protocol":17,"map":"cp_egypt_final","folder":"tf","game":"Team Fortress","app_id":440,"player_count":27,"max_players":32,"Bots":16,"server_type":"Dedicated","server_os":"Linux","password":true,"vac":true,"version":"7961495","steam_id":85568392925397851,"keywords":["alltalk","bots","cp","danepve","increased_maxplayers","norespawntime","uncletopia"],"game_id":440,"stv_port":0,"stv_name":"","players":[{"user_id":535,"name":"Pumpnik","steam_id":76561199083796274,"connected_time":1171000000000,"state":"active","ping":77},{"user_id":483,"name":"—Å—Ç–∞–Ω–æ–∫ 2–ú112","steam_id":76561199124054361,"connected_time":5084000000000,"state":"active","ping":122},{"user_id":503,"name":"MrHenry","steam_id":76561199249662743,"connected_time":2984000000000,"state":"active","ping":156},{"user_id":508,"name":"panne doodah","steam_id":76561198171431171,"connected_time":2542000000000,"state":"active","ping":70},{"user_id":534,"name":"MrDUB","steam_id":76561199131642284,"connected_time":1286000000000,"state":"active","ping":77},{"user_id":540,"name":"The Card","steam_id":76561198345150562,"connected_time":894000000000,"state":"active","ping":109},{"user_id":464,"name":"other players , my one weakness","steam_id":76561199114792310,"connected_time":5770000000000,"state":"active","ping":117},{"user_id":484,"name":"JayMaloney","steam_id":76561198050173547,"connected_time":5008000000000,"state":"active","ping":69},{"user_id":539,"name":"Zodaick","steam_id":76561198083662129,"connected_time":1092000000000,"state":"active","ping":61},{"user_id":506,"name":"Ukr–•–ª—î–±","steam_id":76561198388896707,"connected_time":2806000000000,"state":"active","ping":88},{"user_id":516,"name":"kim kardashian","steam_id":76561199084680369,"connected_time":1645000000000,"state":"active","ping":36}]},{"server_id":51,"name":"Uncletopia | Warsaw | 3 | All Maps","name_short":"waw-3","host":"waw-1.pl.uncletopia.com","port":27035,"enabled":true,"region":"eu","cc":"pl","latitude":52.2297,"longitude":21.017532,"reserved":0,"last_update":"0001-01-01T00:00:00Z","name_a2s":"Uncletopia | Warsaw | 3 | All Maps","protocol":17,"map":"koth_highpass","folder":"tf","game":"Team Fortress","app_id":440,"player_count":0,"max_players":24,"Bots":0,"server_type":"Dedicated","server_os":"Linux","password":true,"vac":true,"version":"7961495","steam_id":85568392925397852,"keywords":["cp","nocrits","nodmgspread","uncletopia"],"game_id":440,"stv_port":27036,"stv_name":"Uncletopia | Warsaw | 3 | All Maps | STV","players":null},{"server_id":52,"name":"Uncletopia | Warsaw | 4 | All Maps","name_short":"waw-4","host":"waw-1.pl.uncletopia.com","port":27045,"enabled":true,"region":"eu","cc":"pl","latitude":52.2297,"longitude":21.017532,"reserved":0,"last_update":"0001-01-01T00:00:00Z","name_a2s":"Uncletopia | Warsaw | 4 | All Maps","protocol":17,"map":"pl_pier","folder":"tf","game":"Team Fortress","app_id":440,"player_count":23,"max_players":24,"Bots":0,"server_type":"Dedicated","server_os":"Linux","password":true,"vac":true,"version":"7961495","steam_id":85568392925397853,"keywords":["nocrits","nodmgspread","payload","uncletopia"],"game_id":440,"stv_port":27046,"stv_name":"Uncletopia | Warsaw | 4 | All Maps | STV","players":[{"user_id":203,"name":"business is good","steam_id":76561198070954045,"connected_time":801000000000,"state":"active","ping":76},{"user_id":207,"name":"Nag","steam_id":76561197970488206,"connected_time":743000000000,"state":"active","ping":95},{"user_id":198,"name":"QuestionMark","steam_id":76561199020079040,"connected_time":1202000000000,"state":"active","ping":122},{"user_id":218,"name":"sex","steam_id":76561198321629483,"connected_time":39000000000,"state":"active","ping":48},{"user_id":205,"name":"M√©bh √ìg MacT√≠re","steam_id":76561198346399624,"connected_time":791000000000,"state":"active","ping":45},{"user_id":190,"name":"makaronrycy","steam_id":76561198018208790,"connected_time":1380000000000,"state":"active","ping":47},{"user_id":191,"name":"snapped fingers","steam_id":76561198208690245,"connected_time":1371000000000,"state":"active","ping":89},{"user_id":157,"name":"Henriette","steam_id":76561198176069630,"connected_time":2650000000000,"state":"active","ping":58},{"user_id":215,"name":"Hat","steam_id":76561198885243654,"connected_time":366000000000,"state":"active","ping":84},{"user_id":176,"name":"Lord Foog the 2st","steam_id":76561198061176825,"connected_time":2025000000000,"state":"active","ping":77},{"user_id":192,"name":"Vlad","steam_id":76561198145266218,"connected_time":1363000000000,"state":"active","ping":100},{"user_id":195,"name":"Sebastian","steam_id":76561197996502215,"connected_time":1310000000000,"state":"active","ping":96},{"user_id":206,"name":"t","steam_id":76561198256619964,"connected_time":784000000000,"state":"active","ping":75},{"user_id":216,"name":"LOBZIK","steam_id":76561198114830120,"connected_time":364000000000,"state":"active","ping":48},{"user_id":209,"name":"mimek","steam_id":76561198072690572,"connected_time":706000000000,"state":"active","ping":56},{"user_id":177,"name":"Jonis","steam_id":76561198055182880,"connected_time":2002000000000,"state":"active","ping":61},{"user_id":179,"name":"doctor gaysex","steam_id":76561199216276498,"connected_time":1956000000000,"state":"active","ping":75},{"user_id":199,"name":"Baguette","steam_id":76561199069435825,"connected_time":1179000000000,"state":"active","ping":70},{"user_id":212,"name":"kgf","steam_id":76561198181442259,"connected_time":500000000000,"state":"active","ping":66},{"user_id":202,"name":"Mr.Krecken","steam_id":76561198218880707,"connected_time":986000000000,"state":"active","ping":68},{"user_id":189,"name":"honzajspv","steam_id":76561198434476343,"connected_time":1412000000000,"state":"active","ping":37},{"user_id":193,"name":"psycho","steam_id":76561198145620441,"connected_time":1361000000000,"state":"active","ping":60},{"user_id":194,"name":"Coco","steam_id":76561198158977535,"connected_time":1358000000000,"state":"active","ping":81}]},{"server_id":53,"name":"Uncletopia | Warsaw | 5 | Stopwatch","name_short":"waw-5","host":"waw-1.pl.uncletopia.com","port":27055,"enabled":true,"region":"eu","cc":"pl","latitude":52.2297,"longitude":21.017532,"reserved":0,"last_update":"0001-01-01T00:00:00Z","name_a2s":"Uncletopia | Warsaw | 5 | Stopwatch","protocol":17,"map":"workshop/koth_clearcut_b15.ugc2107050255","folder":"tf","game":"Team Fortress","app_id":440,"player_count":0,"max_players":24,"Bots":0,"server_type":"Dedicated","server_os":"Linux","password":true,"vac":true,"version":"7961495","steam_id":85568392925397854,"keywords":["cp","nocrits","nodmgspread","uncletopia"],"game_id":440,"stv_port":27056,"stv_name":"Uncletopia | Warsaw | 5 | Stopwatch | STV","players":null},{"server_id":54,"name":"Uncletopia | Warsaw | 6 | Community","name_short":"waw-6","host":"waw-1.pl.uncletopia.com","port":27065,"enabled":true,"region":"eu","cc":"pl","latitude":52.2297,"longitude":21.017532,"reserved":0,"last_update":"0001-01-01T00:00:00Z","name_a2s":"Uncletopia | Warsaw | 6 | Community","protocol":17,"map":"workshop/cp_fulgur_rc2a.ugc2068252300","folder":"tf","game":"Team Fortress","app_id":440,"player_count":0,"max_players":24,"Bots":0,"server_type":"Dedicated","server_os":"Linux","password":true,"vac":true,"version":"7961495","steam_id":85568392925397856,"keywords":["cp","nocrits","nodmgspread","uncletopia"],"game_id":440,"stv_port":27066,"stv_name":"Uncletopia | Warsaw | 6 | Community | STV","players":null}]}