{"status":true,"message":"","result":[{"server_id":9,"name":"Uncletopia | Atlanta | 1 | All Maps","name_short":"atl-1","host":"atl-1.us.uncletopia.com","port":27015,"enabled":true,"region":"us-east","cc":"us","latitude":33.753746,"longitude":-84.38633,"reserved":0,"last_update":"0001-01-01T00:00:00Z","name_a2s":"Uncletopia | Atlanta | 1 | All Maps","protocol":17,"map":"cp_dustbowl","folder":"tf","game":"Team Fortress","app_id":440,"player_count":24,"max_players":24,"Bots":0,"server_type":"Dedicated","server_os":"Linux","password":true,"vac":true,"version":"7723704","steam_id":85568392924469982,"keywords":["cp","nocrits","nodmgspread","uncletopia"],"game_id":440,"stv_port":27016,"stv_name":"Uncletopia | Atlanta | 1 | All Maps | STV","players":[{"user_id":362,"name":"Towns","steam_id":76561198984662863,"connected_time":626000000000,"state":"active","ping":55},{"user_id":376,"name":"nak","steam_id":76561198219028529,"connected_time":91000000000,"state":"active","ping":115},{"user_id":346,"name":"faxxy","steam_id":76561198079621240,"connected_time":1453000000000,"state":"active","ping":90},{"user_id":337,"name":"bananashaken","steam_id":76561199083273215,"connected_time":1874000000000,"state":"active","ping":87},{"user_id":351,"name":"iBlewupthemoon","steam_id":76561198054738904,"connected_time":1244000000000,"state":"active","ping":61},{"user_id":363,"name":"Scorch","steam_id":76561198167024005,"connected_time":591000000000,"state":"active","ping":69},{"user_id":336,"name":"mr.edderkopper","steam_id":76561198152614478,"connected_time":1914000000000,"state":"active","ping":99},{"user_id":338,"name":"PeopleOrderOurPatties","steam_id":76561198323144922,"connected_time":1780000000000,"state":"active","ping":92},{"user_id":359,"name":"veteranof100psychicwars","steam_id":76561198070903458,"connected_time":1090000000000,"state":"active","ping":77},{"user_id":329,"name":"BEAswacks93 (she/her)","steam_id":76561199222250828,"connected_time":2256000000000,"state":"active","ping":96},{"user_id":342,"name":"aversa","steam_id":76561198840460101,"connected_time":1589000000000,"state":"active","ping":86},{"user_id":360,"name":"pungabot","steam_id":76561198009088243,"connected_time":818000000000,"state":"active","ping":83},{"user_id":364,"name":"Seru","steam_id":76561199219827214,"connected_time":582000000000,"state":"active","ping":88},{"user_id":357,"name":"tf2s worst player","steam_id":76561199108820058,"connected_time":1136000000000,"state":"active","ping":84},{"user_id":373,"name":"The IRS (Real)","steam_id":76561198093432863,"connected_time":266000000000,"state":"active","ping":63},{"user_id":320,"name":"Lost","steam_id":76561198025933206,"connected_time":3193000000000,"state":"active","ping":73},{"user_id":366,"name":"riley","steam_id":76561198133142520,"connected_time":482000000000,"state":"active","ping":61},{"user_id":367,"name":"TUSCA ROORR AHHH","steam_id":76561198051881047,"connected_time":472000000000,"state":"active","ping":60},{"user_id":368,"name":"emevas","steam_id":76561198013896818,"connected_time":415000000000,"state":"active","ping":109},{"user_id":369,"name":"deckerhoff!","steam_id":76561198010741410,"connected_time":398000000000,"state":"active","ping":81},{"user_id":361,"name":"Bali","steam_id":76561198038693845,"connected_time":796000000000,"state":"active","ping":106},{"user_id":349,"name":"SevenOilRigs","steam_id":76561198125072988,"connected_time":1342000000000,"state":"active","ping":71},{"user_id":375,"name":"Unbalanced","steam_id":76561198161626933,"connected_time":137000000000,"state":"active","ping":60},{"user_id":371,"name":"NEBULAKATANA40000","steam_id":76561198304265800,"connected_time":361000000000,"state":"active","ping":91}]},{"server_id":400,"name":"Uncletopia | Atlanta | 3 | All Maps","name_short":"atl-3","host":"atl-1.us.uncletopia.com","port":27035,"enabled":true,"region":"us-east","cc":"us","latitude":33.753746,"longitude":-84.38633,"reserved":0,"last_update":"0001-01-01T00:00:00Z","name_a2s":"Uncletopia | Atlanta | 3 | All Maps","protocol":17,"map":"koth_lakeside_final","folder":"tf","game":"Team Fortress","app_id":440,"player_count":0,"max_players":24,"Bots":0,"server_type":"Dedicated","server_os":"Linux","password":true,"vac":true,"version":"7723704","steam_id":85568392924515187,"keywords":["cp","nocrits","nodmgspread","uncletopia"],"game_id":440,"stv_port":27036,"stv_name":"Uncletopia | Atlanta | 3 | All Maps | STV","players":null},{"server_id":401,"name":"Uncletopia | Atlanta | 4 | No Payload","name_short":"atl-4","host":"atl-1.us.uncletopia.com","port":27045,"enabled":true,"region":"us-east","cc":"us","latitude":33.753746,"longitude":-84.38633,"reserved":0,"last_update":"0001-01-01T00:00:00Z","name_a2s":"Uncletopia | Atlanta | 4 | No Payload","protocol":17,"map":"cp_freight_final1","folder":"tf","game":"Team Fortress","app_id":440,"player_count":0,"max_players":24,"Bots":0,"server_type":"Dedicated","server_os":"Linux","password":true,"vac":true,"version":"7723704","steam_id":85568392924515188,"keywords":["cp","nocrits","nodmgspread","uncletopia"],"game_id":440,"stv_port":27046,"stv_name":"Uncletopia | Atlanta | 4 | No Payload | STV","players":null},{"server_id":2,"name":"Uncletopia | Chicago | 1 | All Maps","name_short":"chi-1","host":"chi-1.us.uncletopia.com","port":27015,"enabled":true,"region":"us-central","cc":"us","latitude":41.881832,"longitude":-87.62318,"reserved":0,"last_update":"0001-01-01T00:00:00Z","name_a2s":"Uncletopia | Chicago | 1 | All Maps","protocol":17,"map":"koth_viaduct","folder":"tf","game":"Team Fortress","app_id":440,"player_count":24,"max_players":24,"Bots":0,"server_type":"Dedicated","server_os":"Linux","password":true,"vac":true,"version":"7723704","steam_id":85568392924469984,"keywords":["cp","nocrits","nodmgspread","uncletopia"],"game_id":440,"stv_port":27016,"stv_name":"Uncletopia | Chicago | 1 | All Maps | STV","players":[{"user_id":377,"name":"TallBit","steam_id":76561199059748976,"connected_time":822000000000,"state":"active","ping":48},{"user_id":383,"name":"football.king.scotland.official","steam_id":76561198075510786,"connected_time":774000000000,"state":"active","ping":65},{"user_id":394,"name":"MeKaso TropStar","steam_id":76561199109895840,"connected_time":215000000000,"state":"active","ping":72},{"user_id":334,"name":"Hylic","steam_id":76561199051314589,"connected_time":4271000000000,"state":"active","ping":60},{"user_id":376,"name":"SpockASD #ikeepitG6","steam_id":76561198307516731,"connected_time":1125000000000,"state":"active","ping":76},{"user_id":350,"name":"Le0901","steam_id":76561198372891244,"connected_time":3117000000000,"state":"active","ping":63},{"user_id":395,"name":"|WS| Don't_Taze_Me_Bro","steam_id":76561198043289495,"connected_time":213000000000,"state":"active","ping":69},{"user_id":352,"name":"bear","steam_id":76561198083276946,"connected_time":3049000000000,"state":"active","ping":68},{"user_id":380,"name":"6t26j","steam_id":76561198278282836,"connected_time":804000000000,"state":"active","ping":46},{"user_id":379,"name":"gabinator32","steam_id":76561198872467183,"connected_time":819000000000,"state":"active","ping":37},{"user_id":356,"name":"creamgravy573","steam_id":76561198093308746,"connected_time":2946000000000,"state":"active","ping":74},{"user_id":371,"name":"|AAML| Captain QuacknSnow","steam_id":76561198153568933,"connected_time":2123000000000,"state":"active","ping":45},{"user_id":396,"name":"A used self heating flesh-light","steam_id":76561198069918221,"connected_time":211000000000,"state":"active","ping":66},{"user_id":399,"name":"Aspxts","steam_id":76561199125254746,"connected_time":3000000000,"state":"spawning","ping":59},{"user_id":398,"name":"I regret nothing","steam_id":76561198399261089,"connected_time":129000000000,"state":"active","ping":78},{"user_id":392,"name":"Rock Kickass","steam_id":76561198450510841,"connected_time":486000000000,"state":"active","ping":100},{"user_id":322,"name":"Gad","steam_id":76561198020792373,"connected_time":5309000000000,"state":"active","ping":59},{"user_id":375,"name":"motorized bar of soap","steam_id":76561198882404753,"connected_time":1166000000000,"state":"active","ping":72},{"user_id":368,"name":"Cogenheimer","steam_id":76561198146321550,"connected_time":2467000000000,"state":"active","ping":65},{"user_id":220,"name":"Astoriæ!","steam_id":76561199090168858,"connected_time":12166000000000,"state":"active","ping":58},{"user_id":292,"name":"JFK Gamer","steam_id":76561199229169396,"connected_time":7858000000000,"state":"active","ping":68},{"user_id":393,"name":"Gordan Timlothle","steam_id":76561198272013678,"connected_time":251000000000,"state":"active","ping":64},{"user_id":372,"name":"loco503","steam_id":76561198827495121,"connected_time":2040000000000,"state":"active","ping":104},{"user_id":370,"name":"Robert Englund","steam_id":76561198273783149,"connected_time":2355000000000,"state":"active","ping":130}]},{"server_id":106,"name":"Uncletopia | Chicago | 2 | All Maps","name_short":"chi-2","host":"chi-1.us.uncletopia.com","port":27025,"enabled":true,"region":"us-central","cc":"us","latitude":41.881832,"longitude":-87.62318,"reserved":0,"last_update":"0001-01-01T00:00:00Z","name_a2s":"Uncletopia | Chicago | 2 | All Maps","protocol":17,"map":"pl_barnblitz","folder":"tf","game":"Team Fortress","app_id":440,"player_count":24,"max_players":24,"Bots":0,"server_type":"Dedicated","server_os":"Linux","password":true,"vac":true,"version":"7723704","steam_id":85568392924469985,"keywords":["nocrits","nodmgspread","payload","uncletopia"],"game_id":440,"stv_port":27026,"stv_name":"Uncletopia | Chicago | 2 | All Maps | STV","players":[{"user_id":231,"name":"CJspellsfish","steam_id":76561198277342368,"connected_time":1166000000000,"state":"active","ping":68},{"user_id":238,"name":"Massive Conquistador","steam_id":76561197961138002,"connected_time":1029000000000,"state":"active","ping":74},{"user_id":144,"name":"megatokertom87","steam_id":76561198420227358,"connected_time":4570000000000,"state":"active","ping":69},{"user_id":161,"name":"Clint is wood","steam_id":76561198078798799,"connected_time":2810000000000,"state":"active","ping":148},{"user_id":143,"name":"Drachma","steam_id":76561198007310514,"connected_time":4636000000000,"state":"active","ping":52},{"user_id":131,"name":"Nefy","steam_id":76561198030017316,"connected_time":5340000000000,"state":"active","ping":84},{"user_id":116,"name":"Samus","steam_id":76561198121933439,"connected_time":5977000000000,"state":"active","ping":80},{"user_id":233,"name":"MrSirGent","steam_id":76561199086357213,"connected_time":1137000000000,"state":"active","ping":69},{"user_id":268,"name":"Alexidoodles","steam_id":76561198414487405,"connected_time":329000000000,"state":"active","ping":68},{"user_id":263,"name":"cuddlebug123","steam_id":76561198081220016,"connected_time":432000000000,"state":"active","ping":52},{"user_id":265,"name":"BigBubble42","steam_id":76561198136286123,"connected_time":399000000000,"state":"active","ping":54},{"user_id":264,"name":"Maximum Cringe","steam_id":76561198880280287,"connected_time":424000000000,"state":"active","ping":60},{"user_id":159,"name":"Wilhelmktx","steam_id":76561198158102295,"connected_time":2888000000000,"state":"active","ping":59},{"user_id":266,"name":"fac","steam_id":76561198009818412,"connected_time":398000000000,"state":"active","ping":69},{"user_id":230,"name":"Tripp","steam_id":76561198411779080,"connected_time":1203000000000,"state":"active","ping":84},{"user_id":194,"name":"*\u003c]StarLy","steam_id":76561198174428289,"connected_time":2219000000000,"state":"active","ping":76},{"user_id":229,"name":"Dinkleberg","steam_id":76561198045282597,"connected_time":1232000000000,"state":"active","ping":51},{"user_id":261,"name":"Lord GabeN","steam_id":76561198140862723,"connected_time":582000000000,"state":"active","ping":60},{"user_id":168,"name":"Satori Komeiji","steam_id":76561198158211423,"connected_time":2619000000000,"state":"active","ping":92},{"user_id":61,"name":"roln","steam_id":76561198041066271,"connected_time":11001000000000,"state":"active","ping":77},{"user_id":125,"name":"Merchants of Misery","steam_id":76561199188142396,"connected_time":5492000000000,"state":"active","ping":108},{"user_id":228,"name":"The Animated Gamer","steam_id":76561198120639995,"connected_time":1252000000000,"state":"active","ping":92},{"user_id":217,"name":"Dallas","steam_id":76561198066542919,"connected_time":1447000000000,"state":"active","ping":90},{"user_id":226,"name":"Max_Attack","steam_id":76561198944028607,"connected_time":1261000000000,"state":"active","ping":80}]},{"server_id":402,"name":"Uncletopia | Chicago | 3 | All Maps","name_short":"chi-3","host":"chi-1.us.uncletopia.com","port":27035,"enabled":true,"region":"us-central","cc":"us","latitude":41.881832,"longitude":-87.62318,"reserved":0,"last_update":"0001-01-01T00:00:00Z","name_a2s":"Uncletopia | Chicago | 3 | All Maps","protocol":17,"map":"cp_dustbowl","folder":"tf","game":"Team Fortress","app_id":440,"player_count":0,"max_players":24,"Bots":0,"server_type":"Dedicated","server_os":"Linux","password":true,"vac":true,"version":"7723704","steam_id":85568392924515191,"keywords":["cp","nocrits","nodmgspread","uncletopia"],"game_id":440,"stv_port":27036,"stv_name":"Uncletopia | Chicago | 3 | All Maps | STV","players":null},{"server_id":403,"name":"Uncletopia | Chicago | 4 | All Maps","name_short":"chi-4","host":"chi-1.us.uncletopia.com","port":27045,"enabled":true,"region":"us-central","cc":"us","latitude":41.881832,"longitude":-87.62318,"reserved":0,"last_update":"0001-01-01T00:00:00Z","name_a2s":"Uncletopia | Chicago | 4 | All Maps","protocol":17,"map":"koth_highpass","folder":"tf","game":"Team Fortress","app_id":440,"player_count":0,"max_players":24,"Bots":0,"server_type":"Dedicated","server_os":"Linux","password":true,"vac":true,"version":"7723704","steam_id":85568392924515193,"keywords":["cp","nocrits","nodmgspread","uncletopia"],"game_id":440,"stv_port":27046,"stv_name":"Uncletopia | Chicago | 4 | All Maps | STV","players":null},{"server_id":36,"name":"Uncletopia | Chicago | 5 | All Maps","name_short":"chi-5","host":"chi-2.us.uncletopia.com","port":27015,"enabled":true,"region":"us-central","cc":"us","latitude":41.881832,"longitude":-87.62318,"reserved":0,"last_update":"0001-01-01T00:00:00Z","name_a2s":"Uncletopia | Chicago | 5 | All Maps","protocol":17,"map":"pl_upward","folder":"tf","game":"Team Fortress","app_id":440,"player_count":24,"max_players":24,"Bots":0,"server_type":"Dedicated","server_os":"Linux","password":true,"vac":true,"version":"7723704","steam_id":85568392924866362,"keywords":["nocrits","nodmgspread","payload","uncletopia"],"game_id":440,"stv_port":27016,"stv_name":"Uncletopia | Chicago | 5 | All Maps | STV","players":[{"user_id":10,"name":"Charcoal","steam_id":76561198268638706,"connected_time":3087000000000,"state":"active","ping":106},{"user_id":11,"name":"Ax0L_","steam_id":76561199008960175,"connected_time":1584000000000,"state":"active","ping":45},{"user_id":34,"name":"funnikat101","steam_id":76561199311433818,"connected_time":264000000000,"state":"active","ping":97},{"user_id":12,"name":"backflipping trans woman","steam_id":76561198100189571,"connected_time":1508000000000,"state":"active","ping":56},{"user_id":9,"name":"Fresh Lychee","steam_id":76561198045399559,"connected_time":3520000000000,"state":"active","ping":51},{"user_id":13,"name":"Mari Ohara","steam_id":76561199067734053,"connected_time":1061000000000,"state":"active","ping":65},{"user_id":14,"name":"KaijuRebel","steam_id":76561198302537305,"connected_time":1058000000000,"state":"active","ping":71},{"user_id":15,"name":"SomeRandomCat","steam_id":76561199107044061,"connected_time":1045000000000,"state":"active","ping":60},{"user_id":28,"name":"name420","steam_id":76561198129374525,"connected_time":484000000000,"state":"active","ping":75},{"user_id":27,"name":"liebZ","steam_id":76561198210449121,"connected_time":633000000000,"state":"active","ping":60},{"user_id":21,"name":"SomeCozyKid","steam_id":76561198086113234,"connected_time":927000000000,"state":"active","ping":59},{"user_id":29,"name":"☆Meta☆","steam_id":76561198091255996,"connected_time":370000000000,"state":"active","ping":73},{"user_id":32,"name":"engie","steam_id":76561199229629045,"connected_time":293000000000,"state":"active","ping":107},{"user_id":42,"name":"❤ Ashley ❤","steam_id":76561198056428303,"connected_time":127000000000,"state":"active","ping":104},{"user_id":35,"name":"Derpasaur137","steam_id":76561198116057201,"connected_time":232000000000,"state":"active","ping":68},{"user_id":36,"name":"pablo.gonzales.2004","steam_id":76561199217620385,"connected_time":221000000000,"state":"active","ping":69},{"user_id":37,"name":"CASR","steam_id":76561199122040210,"connected_time":200000000000,"state":"active","ping":86},{"user_id":38,"name":"sanda claus","steam_id":76561198069199626,"connected_time":197000000000,"state":"active","ping":98},{"user_id":39,"name":"bladees saddest, realest verse","steam_id":76561198098099826,"connected_time":160000000000,"state":"active","ping":91},{"user_id":40,"name":"Fish","steam_id":76561198986516474,"connected_time":158000000000,"state":"active","ping":88},{"user_id":41,"name":"Firedust19","steam_id":76561198153238631,"connected_time":155000000000,"state":"active","ping":104},{"user_id":43,"name":"Brison","steam_id":76561197993377761,"connected_time":114000000000,"state":"active","ping":90},{"user_id":45,"name":"slowdance","steam_id":76561198097427947,"connected_time":70000000000,"state":"active","ping":146},{"user_id":46,"name":"*Neggo❤tory*","steam_id":76561199092230590,"connected_time":68000000000,"state":"spawning","ping":214}]},{"server_id":37,"name":"Uncletopia | Chicago | 6 | All Maps","name_short":"chi-6","host":"chi-2.us.uncletopia.com","port":27025,"enabled":true,"region":"us-central","cc":"us","latitude":41.881832,"longitude":-87.62318,"reserved":0,"last_update":"0001-01-01T00:00:00Z","name_a2s":"Uncletopia | Chicago | 6 | All Maps","protocol":17,"map":"pl_barnblitz","folder":"tf","game":"Team Fortress","app_id":440,"player_count":0,"max_players":24,"Bots":0,"server_type":"Dedicated","server_os":"Linux","password":true,"vac":true,"version":"7723704","steam_id":85568392924866363,"keywords":["nocrits","nodmgspread","payload","uncletopia"],"game_id":440,"stv_port":27026,"stv_name":"Uncletopia | Chicago | 6 | All Maps | STV","players":null},{"server_id":38,"name":"Uncletopia | Chicago | 7 | No Payload","name_short":"chi-7","host":"chi-2.us.uncletopia.com","port":27035,"enabled":true,"region":"us-central","cc":"us","latitude":41.881832,"longitude":-87.62318,"reserved":0,"last_update":"0001-01-01T00:00:00Z","name_a2s":"","protocol":0,"map":"","folder":"","game":"","app_id":0,"player_count":0,"max_players":0,"Bots":0,"server_type":"","server_os":"","password":false,"vac":false,"version":"","steam_id":0,"keywords":null,"game_id":0,"stv_port":0,"stv_name":"","players":null},{"server_id":39,"name":"Uncletopia | Chicago | 8 | Community","name_short":"chi-8","host":"chi-2.us.uncletopia.com","port":27045,"enabled":true,"region":"us-central","cc":"us","latitude":41.881832,"longitude":-87.62318,"reserved":0,"last_update":"0001-01-01T00:00:00Z","name_a2s":"Uncletopia | Chicago | 8 | Community","protocol":17,"map":"workshop/cp_reckoner_rc6.ugc674719999","folder":"tf","game":"Team Fortress","app_id":440,"player_count":0,"max_players":24,"Bots":0,"server_type":"Dedicated","server_os":"Linux","password":true,"vac":true,"version":"7723704","steam_id":85568392924866365,"keywords":["cp","nocrits","nodmgspread","uncletopia"],"game_id":440,"stv_port":27046,"stv_name":"Uncletopia | Chicago | 8 | Community | STV","players":null},{"server_id":8,"name":"Uncletopia | Dallas | 1 | All Maps","name_short":"dal-1","host":"dal-1.us.uncletopia.com","port":27015,"enabled":true,"region":"us-central","cc":"us","latitude":32.779167,"longitude":-96.80889,"reserved":0,"last_update":"0001-01-01T00:00:00Z","name_a2s":"Uncletopia | Dallas | 1 | All Maps","protocol":17,"map":"pl_frontier_final","folder":"tf","game":"Team Fortress","app_id":440,"player_count":24,"max_players":24,"Bots":0,"server_type":"Dedicated","server_os":"Linux","password":true,"vac":true,"version":"7723704","steam_id":85568392924469986,"keywords":["nocrits","nodmgspread","payload","uncletopia"],"game_id":440,"stv_port":27016,"stv_name":"Uncletopia | Dallas | 1 | All Maps | STV","players":[{"user_id":131,"name":"Arishem","steam_id":76561198183269215,"connected_time":1512000000000,"state":"active","ping":94},{"user_id":145,"name":"Saulen","steam_id":76561198150726407,"connected_time":648000000000,"state":"active","ping":64},{"user_id":77,"name":"Caoticaos","steam_id":76561198114800227,"connected_time":6473000000000,"state":"active","ping":136},{"user_id":146,"name":"Bonesala","steam_id":76561199052450127,"connected_time":579000000000,"state":"active","ping":73},{"user_id":118,"name":"Agent Bowtie","steam_id":76561198175839279,"connected_time":2593000000000,"state":"active","ping":51},{"user_id":151,"name":"Mak","steam_id":76561198026985659,"connected_time":218000000000,"state":"active","ping":85},{"user_id":140,"name":"remedu","steam_id":76561198005152587,"connected_time":1030000000000,"state":"active","ping":44},{"user_id":69,"name":"poey","steam_id":76561198865346767,"connected_time":8483000000000,"state":"active","ping":64},{"user_id":138,"name":"I love icecream","steam_id":76561199196017432,"connected_time":1328000000000,"state":"active","ping":83},{"user_id":133,"name":"Power With Flower","steam_id":76561198798123834,"connected_time":1485000000000,"state":"active","ping":104},{"user_id":139,"name":"Ultra\u003c3","steam_id":76561198352021493,"connected_time":1072000000000,"state":"active","ping":77},{"user_id":113,"name":"minihoog","steam_id":76561198102156780,"connected_time":2808000000000,"state":"active","ping":67},{"user_id":114,"name":"Fanstasticbook","steam_id":76561199169365818,"connected_time":2779000000000,"state":"active","ping":72},{"user_id":86,"name":"xXx_The_REAL_Marge_Simpson_xXx","steam_id":76561199116846851,"connected_time":4780000000000,"state":"active","ping":73},{"user_id":147,"name":"G. Howard Dee","steam_id":76561198058382812,"connected_time":416000000000,"state":"active","ping":70},{"user_id":142,"name":"inzang","steam_id":76561198088318074,"connected_time":1030000000000,"state":"active","ping":51},{"user_id":155,"name":"silly billy","steam_id":76561199038072811,"connected_time":160000000000,"state":"active","ping":71},{"user_id":143,"name":"a Salty Coquito","steam_id":76561197979951077,"connected_time":998000000000,"state":"active","ping":128},{"user_id":134,"name":"hollandese","steam_id":76561198078636737,"connected_time":1438000000000,"state":"active","ping":72},{"user_id":153,"name":"Wan Shi Tong","steam_id":76561198076441225,"connected_time":205000000000,"state":"active","ping":90},{"user_id":148,"name":"kibsta","steam_id":76561198991982630,"connected_time":384000000000,"state":"active","ping":88},{"user_id":154,"name":"The Creature","steam_id":76561198168160819,"connected_time":196000000000,"state":"active","ping":65},{"user_id":150,"name":"ozone","steam_id":76561198967616408,"connected_time":307000000000,"state":"active","ping":58},{"user_id":137,"name":"oct9ber f9rever","steam_id":76561198036283992,"connected_time":1413000000000,"state":"active","ping":81}]},{"server_id":108,"name":"Uncletopia | Dallas | 2 | All Maps","name_short":"dal-2","host":"dal-1.us.uncletopia.com","port":27025,"enabled":true,"region":"us-central","cc":"us","latitude":32.779167,"longitude":-96.80889,"reserved":0,"last_update":"0001-01-01T00:00:00Z","name_a2s":"Uncletopia | Dallas | 2 | All Maps","protocol":17,"map":"pl_badwater","folder":"tf","game":"Team Fortress","app_id":440,"player_count":0,"max_players":24,"Bots":0,"server_type":"Dedicated","server_os":"Linux","password":true,"vac":true,"version":"7723704","steam_id":85568392924469988,"keywords":["nocrits","nodmgspread","payload","uncletopia"],"game_id":440,"stv_port":27026,"stv_name":"Uncletopia | Dallas | 2 | All Maps | STV","players":null},{"server_id":5,"name":"Uncletopia | Frankfurt | 1 | All Maps","name_short":"frk-1","host":"frk-1.de.uncletopia.com","port":27015,"enabled":true,"region":"eu","cc":"de","latitude":50.110924,"longitude":8.682127,"reserved":0,"last_update":"0001-01-01T00:00:00Z","name_a2s":"Uncletopia | Frankfurt | 1 | All Maps","protocol":17,"map":"pl_frontier_final","folder":"tf","game":"Team Fortress","app_id":440,"player_count":24,"max_players":24,"Bots":0,"server_type":"Dedicated","server_os":"Linux","password":true,"vac":true,"version":"7723704","steam_id":85568392924469989,"keywords":["nocrits","nodmgspread","payload","uncletopia"],"game_id":440,"stv_port":27016,"stv_name":"Uncletopia | Frankfurt | 1 | All Maps | STV","players":[{"user_id":417,"name":"MrClyde","steam_id":76561198132627420,"connected_time":5008000000000,"state":"active","ping":88},{"user_id":425,"name":"Optimist 50","steam_id":76561198039631442,"connected_time":4188000000000,"state":"active","ping":75},{"user_id":482,"name":"Sylbar","steam_id":76561198065379590,"connected_time":691000000000,"state":"active","ping":64},{"user_id":474,"name":"SIGMA BALLS","steam_id":76561198302623594,"connected_time":966000000000,"state":"active","ping":90},{"user_id":470,"name":"Bounter","steam_id":76561198072614188,"connected_time":1137000000000,"state":"active","ping":71},{"user_id":471,"name":"2tonOrca","steam_id":76561198874754081,"connected_time":1056000000000,"state":"active","ping":60},{"user_id":484,"name":"kret","steam_id":76561198435353837,"connected_time":400000000000,"state":"active","ping":53},{"user_id":465,"name":"ghost","steam_id":76561198189940229,"connected_time":1340000000000,"state":"active","ping":54},{"user_id":459,"name":"Economic crisis","steam_id":76561198063562843,"connected_time":2252000000000,"state":"active","ping":55},{"user_id":458,"name":"Rebility:3","steam_id":76561198177347047,"connected_time":2282000000000,"state":"active","ping":90},{"user_id":456,"name":"C0RVU5","steam_id":76561198295594147,"connected_time":2376000000000,"state":"active","ping":83},{"user_id":466,"name":"lord-carlos","steam_id":76561198025150761,"connected_time":1229000000000,"state":"active","ping":53},{"user_id":472,"name":"Denialman (Muted)","steam_id":76561198309182092,"connected_time":1041000000000,"state":"active","ping":51},{"user_id":476,"name":"(f2p) Patient Zero#savetf2","steam_id":76561199352819594,"connected_time":927000000000,"state":"active","ping":101},{"user_id":444,"name":"Realist 40","steam_id":76561198052476979,"connected_time":3266000000000,"state":"active","ping":75},{"user_id":477,"name":"Gunto","steam_id":76561199046992205,"connected_time":922000000000,"state":"active","ping":53},{"user_id":463,"name":"hinkeczg","steam_id":76561198202007378,"connected_time":1484000000000,"state":"active","ping":67},{"user_id":461,"name":"Fales","steam_id":76561198126124929,"connected_time":2188000000000,"state":"active","ping":70},{"user_id":453,"name":"Mor'du","steam_id":76561198274105878,"connected_time":2507000000000,"state":"active","ping":76},{"user_id":481,"name":"Scarlette Eyler","steam_id":76561198239517620,"connected_time":849000000000,"state":"active","ping":63},{"user_id":462,"name":"Dikoffski","steam_id":76561198181995161,"connected_time":1588000000000,"state":"active","ping":87},{"user_id":479,"name":"Toby_Doomer","steam_id":76561197988770684,"connected_time":880000000000,"state":"active","ping":66},{"user_id":480,"name":"Leto","steam_id":76561198419429742,"connected_time":861000000000,"state":"active","ping":56},{"user_id":454,"name":"Pingus","steam_id":76561198164880756,"connected_time":2505000000000,"state":"active","ping":75}]},{"server_id":110,"name":"Uncletopia | Frankfurt | 2 | All Maps","name_short":"frk-2","host":"frk-1.de.uncletopia.com","port":27025,"enabled":true,"region":"eu","cc":"de","latitude":50.110924,"longitude":8.682127,"reserved":0,"last_update":"0001-01-01T00:00:00Z","name_a2s":"Uncletopia | Frankfurt | 2 | All Maps","protocol":17,"map":"pl_thundermountain","folder":"tf","game":"Team Fortress","app_id":440,"player_count":24,"max_players":24,"Bots":0,"server_type":"Dedicated","server_os":"Linux","password":true,"vac":true,"version":"7723704","steam_id":85568392924469990,"keywords":["nocrits","nodmgspread","payload","uncletopia"],"game_id":440,"stv_port":27026,"stv_name":"Uncletopia | Frankfurt | 2 | All Maps | STV","players":[{"user_id":515,"name":"what is a existance","steam_id":76561198958820422,"connected_time":1409000000000,"state":"active","ping":61},{"user_id":528,"name":"profreshional cactus","steam_id":76561198837919828,"connected_time":650000000000,"state":"active","ping":105},{"user_id":531,"name":"bucket hat larry","steam_id":76561198136511793,"connected_time":632000000000,"state":"active","ping":57},{"user_id":536,"name":"Knoxx","steam_id":76561198260692541,"connected_time":93000000000,"state":"active","ping":61},{"user_id":467,"name":"Мякиш(хлебный)","steam_id":76561199223895282,"connected_time":4088000000000,"state":"active","ping":86},{"user_id":482,"name":"Spageti","steam_id":76561198074122906,"connected_time":3265000000000,"state":"active","ping":83},{"user_id":445,"name":"sareena","steam_id":76561198810194062,"connected_time":5649000000000,"state":"active","ping":79},{"user_id":444,"name":"Vershal Smershal","steam_id":76561198116223995,"connected_time":5793000000000,"state":"active","ping":60},{"user_id":537,"name":"SaltyCupcakes","steam_id":76561198256386417,"connected_time":62000000000,"state":"active","ping":56},{"user_id":532,"name":"BrickBobBrick","steam_id":76561198931770279,"connected_time":604000000000,"state":"active","ping":63},{"user_id":533,"name":"miev","steam_id":76561198078278737,"connected_time":509000000000,"state":"active","ping":70},{"user_id":509,"name":"Dr Sex","steam_id":76561198029044617,"connected_time":1868000000000,"state":"active","ping":68},{"user_id":526,"name":"Pinkie Pie ⛧","steam_id":76561198820981057,"connected_time":802000000000,"state":"active","ping":51},{"user_id":520,"name":"Pabs :D","steam_id":76561198000016962,"connected_time":1120000000000,"state":"active","ping":61},{"user_id":521,"name":"Condigium","steam_id":76561198838929185,"connected_time":1115000000000,"state":"active","ping":52},{"user_id":508,"name":"Megapuncher","steam_id":76561198023536780,"connected_time":1886000000000,"state":"active","ping":54},{"user_id":435,"name":"꧁༒Xenon༒꧂","steam_id":76561198120502313,"connected_time":6415000000000,"state":"active","ping":65},{"user_id":534,"name":"Deputy Dog","steam_id":76561197960441667,"connected_time":475000000000,"state":"active","ping":166},{"user_id":510,"name":"Gen","steam_id":76561198021775885,"connected_time":1842000000000,"state":"active","ping":59},{"user_id":524,"name":"тукку ирма","steam_id":76561197998715016,"connected_time":989000000000,"state":"active","ping":61},{"user_id":469,"name":"Dr Ludwig","steam_id":76561198426522902,"connected_time":4000000000000,"state":"active","ping":68},{"user_id":442,"name":"Oceanic | tuesday maybe","steam_id":76561197979741827,"connected_time":5945000000000,"state":"active","ping":59},{"user_id":527,"name":"Grim the lemon","steam_id":76561199083433988,"connected_time":801000000000,"state":"active","ping":60},{"user_id":535,"name":"Caliban","steam_id":76561197999696839,"connected_time":470000000000,"state":"active","ping":100}]},{"server_id":308,"name":"Uncletopia | Frankfurt | 3 | All Maps","name_short":"frk-3","host":"frk-1.de.uncletopia.com","port":27035,"enabled":true,"region":"eu","cc":"de","latitude":50.110924,"longitude":8.682127,"reserved":0,"last_update":"0001-01-01T00:00:00Z","name_a2s":"Uncletopia | Frankfurt | 3 | All Maps","protocol":17,"map":"cp_sunshine","folder":"tf","game":"Team Fortress","app_id":440,"player_count":0,"max_players":24,"Bots":0,"server_type":"Dedicated","server_os":"Linux","password":true,"vac":true,"version":"7723704","steam_id":85568392924504274,"keywords":["cp","nocrits","nodmgspread","uncletopia"],"game_id":440,"stv_port":27036,"stv_name":"Uncletopia | Frankfurt | 3 | All Maps | STV","players":null},{"server_id":309,"name":"Uncletopia | Frankfurt | 4 | All Maps","name_short":"frk-4","host":"frk-1.de.uncletopia.com","port":27045,"enabled":true,"region":"eu","cc":"de","latitude":50.110924,"longitude":8.682127,"reserved":0,"last_update":"0001-01-01T00:00:00Z","name_a2s":"Uncletopia | Frankfurt | 4 | All Maps","protocol":17,"map":"ctf_sawmill","folder":"tf","game":"Team Fortress","app_id":440,"player_count":24,"max_players":24,"Bots":0,"server_type":"Dedicated","server_os":"Linux","password":true,"vac":true,"version":"7723704","steam_id":85568392924504275,"keywords":["ctf","nocrits","nodmgspread","uncletopia"],"game_id":440,"stv_port":27046,"stv_name":"Uncletopia | Frankfurt | 4 | All Maps | STV","players":[{"user_id":626,"name":"Im Moving this","steam_id":76561198062355786,"connected_time":541000000000,"state":"active","ping":46},{"user_id":585,"name":"Tedkon","steam_id":76561198034141061,"connected_time":3336000000000,"state":"active","ping":120},{"user_id":600,"name":"Walter Jr","steam_id":76561199111329270,"connected_time":2927000000000,"state":"active","ping":114},{"user_id":627,"name":"muza♥","steam_id":76561198220183377,"connected_time":425000000000,"state":"active","ping":93},{"user_id":586,"name":"Alonmire","steam_id":76561198882281665,"connected_time":3230000000000,"state":"active","ping":111},{"user_id":566,"name":"NaN","steam_id":76561198071098413,"connected_time":5019000000000,"state":"active","ping":55},{"user_id":628,"name":"grand autismo","steam_id":76561199074305227,"connected_time":409000000000,"state":"active","ping":75},{"user_id":629,"name":"Saint!","steam_id":76561198038079621,"connected_time":372000000000,"state":"active","ping":48},{"user_id":621,"name":"Der Herr Doktor","steam_id":76561198119476089,"connected_time":837000000000,"state":"active","ping":52},{"user_id":617,"name":"pumpkin spice go.ggez.ro","steam_id":76561198449957490,"connected_time":1248000000000,"state":"active","ping":71},{"user_id":591,"name":"wamw","steam_id":76561199206660048,"connected_time":3035000000000,"state":"active","ping":60},{"user_id":632,"name":"oddy nuff","steam_id":76561198140622039,"connected_time":108000000000,"state":"active","ping":59},{"user_id":524,"name":"Jin","steam_id":76561198248878364,"connected_time":6745000000000,"state":"active","ping":47},{"user_id":593,"name":"Flask","steam_id":76561198038028999,"connected_time":3010000000000,"state":"active","ping":40},{"user_id":610,"name":"Miatthew","steam_id":76561198034102895,"connected_time":1910000000000,"state":"active","ping":60},{"user_id":596,"name":"jorj3821","steam_id":76561198844794367,"connected_time":2959000000000,"state":"active","ping":73},{"user_id":630,"name":"Soerlssoelssöen","steam_id":76561197993060585,"connected_time":286000000000,"state":"active","ping":68},{"user_id":526,"name":"Okacha","steam_id":76561198341166854,"connected_time":6735000000000,"state":"active","ping":92},{"user_id":622,"name":"Lan","steam_id":76561198930362783,"connected_time":818000000000,"state":"active","ping":71},{"user_id":625,"name":"Zoran Snajper","steam_id":76561198312564061,"connected_time":664000000000,"state":"active","ping":72},{"user_id":631,"name":"Hellion","steam_id":76561199372564743,"connected_time":146000000000,"state":"active","ping":145},{"user_id":633,"name":"R3inis","steam_id":76561199030393569,"connected_time":95000000000,"state":"active","ping":68},{"user_id":578,"name":"Pronton","steam_id":76561198082502910,"connected_time":3847000000000,"state":"active","ping":54},{"user_id":634,"name":"Heff","steam_id":76561198131863668,"connected_time":50000000000,"state":"active","ping":58}]},{"server_id":310,"name":"Uncletopia | Frankfurt | 5 | All Maps","name_short":"frk-5","host":"frk-1.de.uncletopia.com","port":27055,"enabled":true,"region":"eu","cc":"de","latitude":50.110924,"longitude":8.682127,"reserved":0,"last_update":"0001-01-01T00:00:00Z","name_a2s":"Uncletopia | Frankfurt | 5 | All Maps","protocol":17,"map":"pl_badwater","folder":"tf","game":"Team Fortress","app_id":440,"player_count":24,"max_players":24,"Bots":0,"server_type":"Dedicated","server_os":"Linux","password":true,"vac":true,"version":"7723704","steam_id":85568392924504277,"keywords":["nocrits","nodmgspread","payload","uncletopia"],"game_id":440,"stv_port":27056,"stv_name":"Uncletopia | Frankfurt | 5 | All Maps | STV","players":[{"user_id":449,"name":"yeldad","steam_id":76561198447264153,"connected_time":960000000000,"state":"active","ping":128},{"user_id":384,"name":"Taпgen","steam_id":76561198120329367,"connected_time":4404000000000,"state":"active","ping":96},{"user_id":417,"name":"Jasper Brunch","steam_id":76561198132578652,"connected_time":2281000000000,"state":"active","ping":60},{"user_id":411,"name":"sillycatlover","steam_id":76561199208283508,"connected_time":2695000000000,"state":"active","ping":79},{"user_id":440,"name":"sv_opor 13123","steam_id":76561198002229612,"connected_time":1622000000000,"state":"active","ping":64},{"user_id":387,"name":"Miecio04","steam_id":76561198412639639,"connected_time":4370000000000,"state":"active","ping":60},{"user_id":403,"name":"ᴘɪᴏΛ ƎꞍ⊥","steam_id":76561198276912938,"connected_time":3770000000000,"state":"active","ping":119},{"user_id":416,"name":"K.V. #RemoveRandomCrits","steam_id":76561197994832993,"connected_time":2319000000000,"state":"active","ping":64},{"user_id":394,"name":"nynon","steam_id":76561197998432126,"connected_time":4216000000000,"state":"active","ping":93},{"user_id":446,"name":"早上好中国","steam_id":76561198033205384,"connected_time":1169000000000,"state":"active","ping":62},{"user_id":459,"name":"Luke SpyWalker","steam_id":76561198008643276,"connected_time":374000000000,"state":"active","ping":60},{"user_id":408,"name":"The man of glue sniffing","steam_id":76561199101213951,"connected_time":3104000000000,"state":"active","ping":79},{"user_id":439,"name":"Pszemo \u003c3","steam_id":76561198020851452,"connected_time":1893000000000,"state":"active","ping":107},{"user_id":396,"name":"mishka.*","steam_id":76561198040003628,"connected_time":4182000000000,"state":"active","ping":77},{"user_id":454,"name":"Wujek Cacek","steam_id":76561198010267943,"connected_time":744000000000,"state":"active","ping":74},{"user_id":455,"name":"Gencay","steam_id":76561198973232202,"connected_time":727000000000,"state":"active","ping":98},{"user_id":371,"name":"biofun wood (as seen on onlyfan","steam_id":76561198170609049,"connected_time":4933000000000,"state":"active","ping":71},{"user_id":456,"name":"z4wr","steam_id":76561199093439517,"connected_time":710000000000,"state":"active","ping":87},{"user_id":398,"name":"Jingleboob's 1# Elf","steam_id":76561198067204908,"connected_time":4074000000000,"state":"active","ping":79},{"user_id":373,"name":"jingleboob","steam_id":76561198097507847,"connected_time":4928000000000,"state":"active","ping":82},{"user_id":460,"name":"Fallen Dog","steam_id":76561198851387188,"connected_time":22000000000,"state":"active","ping":72},{"user_id":448,"name":"Saint","steam_id":76561198003296382,"connected_time":1115000000000,"state":"active","ping":65},{"user_id":376,"name":"Fruit","steam_id":76561198346687933,"connected_time":4807000000000,"state":"active","ping":66},{"user_id":405,"name":"Anri Okita's Massive Milkers","steam_id":76561199186352720,"connected_time":3486000000000,"state":"active","ping":77}]},{"server_id":311,"name":"Uncletopia | Frankfurt | 6 | All Maps","name_short":"frk-6","host":"frk-1.de.uncletopia.com","port":27065,"enabled":true,"region":"eu","cc":"de","latitude":50.110924,"longitude":8.682127,"reserved":0,"last_update":"0001-01-01T00:00:00Z","name_a2s":"Uncletopia | Frankfurt | 6 | All Maps","protocol":17,"map":"pl_barnblitz","folder":"tf","game":"Team Fortress","app_id":440,"player_count":24,"max_players":24,"Bots":0,"server_type":"Dedicated","server_os":"Linux","password":true,"vac":true,"version":"7723704","steam_id":85568392924504278,"keywords":["nocrits","nodmgspread","payload","uncletopia"],"game_id":440,"stv_port":27066,"stv_name":"Uncletopia | Frankfurt | 6 | All Maps | STV","players":[{"user_id":363,"name":"Hool","steam_id":76561198108733152,"connected_time":496000000000,"state":"active","ping":110},{"user_id":352,"name":"Bobo","steam_id":76561198052308399,"connected_time":892000000000,"state":"active","ping":49},{"user_id":342,"name":"DeepBlue","steam_id":76561198140075795,"connected_time":1563000000000,"state":"active","ping":59},{"user_id":353,"name":"Proto-arc","steam_id":76561198012776747,"connected_time":851000000000,"state":"active","ping":60},{"user_id":327,"name":"ball sniffa","steam_id":76561199022705805,"connected_time":3265000000000,"state":"active","ping":53},{"user_id":350,"name":"ghetto child","steam_id":76561198169132553,"connected_time":1051000000000,"state":"active","ping":55},{"user_id":328,"name":".soldier","steam_id":76561198866283468,"connected_time":3264000000000,"state":"active","ping":87},{"user_id":354,"name":"Turencko.Danila","steam_id":76561199381190549,"connected_time":839000000000,"state":"active","ping":79},{"user_id":329,"name":"BloodyCrystal","steam_id":76561198174405618,"connected_time":3249000000000,"state":"active","ping":66},{"user_id":355,"name":"Lav","steam_id":76561198991138683,"connected_time":836000000000,"state":"active","ping":75},{"user_id":356,"name":"Mr. Hunts","steam_id":76561197981910397,"connected_time":827000000000,"state":"active","ping":71},{"user_id":341,"name":"OrangeBanana","steam_id":76561199230233875,"connected_time":1758000000000,"state":"active","ping":54},{"user_id":273,"name":"meriones","steam_id":76561198034234373,"connected_time":6956000000000,"state":"active","ping":60},{"user_id":357,"name":"F","steam_id":76561199149462792,"connected_time":763000000000,"state":"active","ping":65},{"user_id":358,"name":"fas2roger","steam_id":76561198199226627,"connected_time":738000000000,"state":"active","ping":77},{"user_id":365,"name":"575","steam_id":76561198171041063,"connected_time":12000000000,"state":"spawning","ping":96},{"user_id":359,"name":"Fat Pigeon","steam_id":76561198817940142,"connected_time":720000000000,"state":"active","ping":56},{"user_id":360,"name":"F2P gameing","steam_id":76561198834713682,"connected_time":700000000000,"state":"active","ping":74},{"user_id":361,"name":"Yonkers","steam_id":76561199016052293,"connected_time":650000000000,"state":"active","ping":87},{"user_id":347,"name":"axl","steam_id":76561198991661832,"connected_time":1435000000000,"state":"active","ping":65},{"user_id":362,"name":"Microhwahveh","steam_id":76561197993061460,"connected_time":643000000000,"state":"active","ping":52},{"user_id":364,"name":"hananamanna","steam_id":76561198006570285,"connected_time":408000000000,"state":"active","ping":114},{"user_id":348,"name":"Flint","steam_id":76561197995920776,"connected_time":1430000000000,"state":"active","ping":46},{"user_id":254,"name":"Pyraq","steam_id":76561198163646895,"connected_time":8913000000000,"state":"active","ping":60}]},{"server_id":23,"name":"Uncletopia | Frankfurt | 7 | No Payload","name_short":"frk-7","host":"frk-1.de.uncletopia.com","port":27075,"enabled":true,"region":"eu","cc":"de","latitude":50.110924,"longitude":8.682127,"reserved":0,"last_update":"0001-01-01T00:00:00Z","name_a2s":"Uncletopia | Frankfurt | 7 | No Payload","protocol":17,"map":"cp_standin_final","folder":"tf","game":"Team Fortress","app_id":440,"player_count":22,"max_players":24,"Bots":0,"server_type":"Dedicated","server_os":"Linux","password":true,"vac":true,"version":"7723704","steam_id":85568392924742827,"keywords":["cp","nocrits","nodmgspread","uncletopia"],"game_id":440,"stv_port":27076,"stv_name":"Uncletopia | Frankfurt | 7 | No Payload | STV","players":[{"user_id":196,"name":"Based on what?","steam_id":76561198245248056,"connected_time":302000000000,"state":"active","ping":63},{"user_id":153,"name":"hitler zozo","steam_id":76561199087703209,"connected_time":2962000000000,"state":"active","ping":155},{"user_id":192,"name":"Giga Gamer 1985","steam_id":76561199401122882,"connected_time":545000000000,"state":"active","ping":44},{"user_id":151,"name":"DSL","steam_id":76561198186770547,"connected_time":3305000000000,"state":"active","ping":91},{"user_id":95,"name":"Him","steam_id":76561198086400484,"connected_time":6292000000000,"state":"active","ping":70},{"user_id":96,"name":"vertigo!","steam_id":76561198914976373,"connected_time":6280000000000,"state":"active","ping":54},{"user_id":97,"name":"mismu","steam_id":76561198854358215,"connected_time":6254000000000,"state":"active","ping":45},{"user_id":186,"name":"KFC Enjoyer","steam_id":76561198840259819,"connected_time":842000000000,"state":"active","ping":50},{"user_id":178,"name":"heavy sings (real)","steam_id":76561199023804405,"connected_time":1315000000000,"state":"active","ping":83},{"user_id":179,"name":"benifis163","steam_id":76561198420973492,"connected_time":1252000000000,"state":"active","ping":102},{"user_id":163,"name":"Irbynx","steam_id":76561197980421195,"connected_time":2259000000000,"state":"active","ping":90},{"user_id":204,"name":"Bob Salami","steam_id":76561198150681340,"connected_time":58000000000,"state":"active","ping":78},{"user_id":197,"name":"The Notorious B e e g","steam_id":76561199035560494,"connected_time":224000000000,"state":"active","ping":55},{"user_id":199,"name":"Lukas","steam_id":76561198009118452,"connected_time":210000000000,"state":"active","ping":49},{"user_id":203,"name":"Moon","steam_id":76561198047535132,"connected_time":70000000000,"state":"active","ping":181},{"user_id":171,"name":"TSx* Osa__PL","steam_id":76561198027016799,"connected_time":1868000000000,"state":"active","ping":64},{"user_id":77,"name":"gullr","steam_id":76561198283606917,"connected_time":7650000000000,"state":"active","ping":48},{"user_id":189,"name":"Fezlex","steam_id":76561198042511188,"connected_time":729000000000,"state":"active","ping":67},{"user_id":191,"name":"sunkillmoon","steam_id":76561198050754366,"connected_time":621000000000,"state":"active","ping":64},{"user_id":205,"name":"curious femboy","steam_id":76561199199388221,"connected_time":23000000000,"state":"active","ping":66},{"user_id":202,"name":"Ejeb","steam_id":76561198257334233,"connected_time":126000000000,"state":"active","ping":48},{"user_id":78,"name":"Fatass","steam_id":76561198143115077,"connected_time":7645000000000,"state":"active","ping":90}]},{"server_id":24,"name":"Uncletopia | Frankfurt | 8 | Community","name_short":"frk-8","host":"frk-1.de.uncletopia.com","port":27085,"enabled":true,"region":"eu","cc":"de","latitude":50.110924,"longitude":8.682127,"reserved":0,"last_update":"0001-01-01T00:00:00Z","name_a2s":"Uncletopia | Frankfurt | 8 | Community","protocol":17,"map":"workshop/koth_ashville_final.ugc2130459942","folder":"tf","game":"Team Fortress","app_id":440,"player_count":0,"max_players":24,"Bots":0,"server_type":"Dedicated","server_os":"Linux","password":true,"vac":true,"version":"7723704","steam_id":85568392924742828,"keywords":["cp","nocrits","nodmgspread","uncletopia"],"game_id":440,"stv_port":27086,"stv_name":"Uncletopia | Frankfurt | 8 | Community | STV","players":null},{"server_id":202,"name":"Uncletopia | Hong Kong | 1 | All Maps","name_short":"hgk-1","host":"hgk-1.hk.uncletopia.com","port":27015,"enabled":true,"region":"asia","cc":"hk","latitude":22.302711,"longitude":114.177216,"reserved":0,"last_update":"0001-01-01T00:00:00Z","name_a2s":"Uncletopia | Hong Kong | 1 | All Maps","protocol":17,"map":"koth_cascade","folder":"tf","game":"Team Fortress","app_id":440,"player_count":2,"max_players":24,"Bots":0,"server_type":"Dedicated","server_os":"Linux","password":true,"vac":true,"version":"7723704","steam_id":85568392924494504,"keywords":["cp","nocrits","nodmgspread","uncletopia"],"game_id":440,"stv_port":27016,"stv_name":"Uncletopia | Hong Kong | 1 | All Maps | STV","players":[{"user_id":586,"name":"hijoler","steam_id":76561198407834220,"connected_time":769000000000,"state":"active","ping":329},{"user_id":588,"name":"hijoler[Junior]","steam_id":76561199401313639,"connected_time":741000000000,"state":"active","ping":357}]},{"server_id":1,"name":"Uncletopia | Los Angeles | 1 | All Maps","name_short":"lax-1","host":"lax-1.us.uncletopia.com","port":27015,"enabled":true,"region":"us-west","cc":"us","latitude":33.94279,"longitude":-118.41004,"reserved":0,"last_update":"0001-01-01T00:00:00Z","name_a2s":"Uncletopia | Los Angeles | 1 | All Maps","protocol":17,"map":"pl_pier","folder":"tf","game":"Team Fortress","app_id":440,"player_count":0,"max_players":24,"Bots":0,"server_type":"Dedicated","server_os":"Linux","password":true,"vac":true,"version":"7723704","steam_id":85568392924469991,"keywords":["nocrits","nodmgspread","payload","uncletopia"],"game_id":440,"stv_port":27016,"stv_name":"Uncletopia | Los Angeles | 1 | All Maps | STV","players":null},{"server_id":112,"name":"Uncletopia | Los Angeles | 2 | All Maps","name_short":"lax-2","host":"lax-1.us.uncletopia.com","port":27025,"enabled":true,"region":"us-west","cc":"us","latitude":33.94279,"longitude":-118.41004,"reserved":0,"last_update":"0001-01-01T00:00:00Z","name_a2s":"Uncletopia | Los Angeles | 2 | All Maps","protocol":17,"map":"cp_sunshine","folder":"tf","game":"Team Fortress","app_id":440,"player_count":0,"max_players":24,"Bots":0,"server_type":"Dedicated","server_os":"Linux","password":true,"vac":true,"version":"7723704","steam_id":85568392924469992,"keywords":["cp","nocrits","nodmgspread","uncletopia"],"game_id":440,"stv_port":27026,"stv_name":"Uncletopia | Los Angeles | 2 | All Maps | STV","players":null},{"server_id":324,"name":"Uncletopia | Los Angeles | 3 | All Maps","name_short":"lax-3","host":"lax-1.us.uncletopia.com","port":27035,"enabled":true,"region":"us-west","cc":"us","latitude":33.94279,"longitude":-118.41004,"reserved":0,"last_update":"0001-01-01T00:00:00Z","name_a2s":"Uncletopia | Los Angeles | 3 | All Maps","protocol":17,"map":"koth_highpass","folder":"tf","game":"Team Fortress","app_id":440,"player_count":0,"max_players":24,"Bots":0,"server_type":"Dedicated","server_os":"Linux","password":true,"vac":true,"version":"7723704","steam_id":85568392924510198,"keywords":["cp","nocrits","nodmgspread","uncletopia"],"game_id":440,"stv_port":27036,"stv_name":"Uncletopia | Los Angeles | 3 | All Maps | STV","players":null},{"server_id":25,"name":"Uncletopia | Los Angeles | 4 | No Payload","name_short":"lax-4","host":"lax-1.us.uncletopia.com","port":27045,"enabled":true,"region":"us-west","cc":"us","latitude":33.94279,"longitude":-118.41004,"reserved":0,"last_update":"0001-01-01T00:00:00Z","name_a2s":"Uncletopia | Los Angeles | 4 | No Payload","protocol":17,"map":"cp_egypt_final","folder":"tf","game":"Team Fortress","app_id":440,"player_count":0,"max_players":24,"Bots":0,"server_type":"Dedicated","server_os":"Linux","password":true,"vac":true,"version":"7723704","steam_id":85568392924510199,"keywords":["cp","nocrits","nodmgspread","uncletopia"],"game_id":440,"stv_port":27046,"stv_name":"Uncletopia | Los Angeles | 4 | No Payload | STV","players":null},{"server_id":11,"name":"Uncletopia | London | 1 | All Maps","name_short":"lon-1","host":"lon-1.uk.uncletopia.com","port":27015,"enabled":true,"region":"eu","cc":"gb","latitude":51.509865,"longitude":-0.118092,"reserved":0,"last_update":"0001-01-01T00:00:00Z","name_a2s":"Uncletopia | London | 1 | All Maps","protocol":17,"map":"pl_pier","folder":"tf","game":"Team Fortress","app_id":440,"player_count":24,"max_players":24,"Bots":0,"server_type":"Dedicated","server_os":"Linux","password":true,"vac":true,"version":"7723704","steam_id":85568392924367362,"keywords":["nocrits","nodmgspread","payload","uncletopia"],"game_id":440,"stv_port":27016,"stv_name":"Uncletopia | London | 1 | All Maps | STV","players":[{"user_id":390,"name":"nudjura","steam_id":76561198281986139,"connected_time":2796000000000,"state":"active","ping":45},{"user_id":434,"name":"Jamie Hyneman","steam_id":76561198364121077,"connected_time":755000000000,"state":"active","ping":94},{"user_id":435,"name":"Nyah","steam_id":76561198355139473,"connected_time":502000000000,"state":"active","ping":50},{"user_id":431,"name":"Scavenger","steam_id":76561199067000038,"connected_time":1375000000000,"state":"active","ping":50},{"user_id":421,"name":"Insanitybomb","steam_id":76561198048707708,"connected_time":1736000000000,"state":"active","ping":56},{"user_id":436,"name":"Ecton","steam_id":76561198025103720,"connected_time":471000000000,"state":"active","ping":55},{"user_id":433,"name":"Joseph Stalin LFT","steam_id":76561198033199746,"connected_time":894000000000,"state":"active","ping":47},{"user_id":437,"name":"ViktorYoshi","steam_id":76561199157555246,"connected_time":455000000000,"state":"active","ping":66},{"user_id":418,"name":"British Disapproval","steam_id":76561198001375260,"connected_time":1783000000000,"state":"active","ping":51},{"user_id":400,"name":"goblinninja110","steam_id":76561198269159354,"connected_time":2197000000000,"state":"active","ping":65},{"user_id":414,"name":"trite","steam_id":76561197983765323,"connected_time":1974000000000,"state":"active","ping":46},{"user_id":402,"name":"JGV","steam_id":76561198094654971,"connected_time":2165000000000,"state":"active","ping":73},{"user_id":447,"name":"abigail","steam_id":76561198132932617,"connected_time":83000000000,"state":"active","ping":58},{"user_id":407,"name":"󠀡󠀡","steam_id":76561198388119954,"connected_time":2060000000000,"state":"active","ping":105},{"user_id":416,"name":"ylzvedat230","steam_id":76561199194220474,"connected_time":1798000000000,"state":"active","ping":91},{"user_id":409,"name":"NoNutZ \u003c3","steam_id":76561198092500604,"connected_time":2043000000000,"state":"active","ping":60},{"user_id":410,"name":"Itai","steam_id":76561198804555329,"connected_time":2034000000000,"state":"active","ping":109},{"user_id":448,"name":"Nisio","steam_id":76561198079373727,"connected_time":71000000000,"state":"spawning","ping":61},{"user_id":413,"name":"Newax","steam_id":76561198020758511,"connected_time":2010000000000,"state":"active","ping":72},{"user_id":438,"name":"alex jones gaming","steam_id":76561199090730414,"connected_time":448000000000,"state":"active","ping":99},{"user_id":423,"name":"big heavy is heavy heavy","steam_id":76561198300059652,"connected_time":1613000000000,"state":"active","ping":58},{"user_id":446,"name":"Morno","steam_id":76561198028519110,"connected_time":95000000000,"state":"active","ping":49},{"user_id":442,"name":"SLoW","steam_id":76561198032650972,"connected_time":368000000000,"state":"active","ping":116},{"user_id":445,"name":"Hedj","steam_id":76561198108369687,"connected_time":214000000000,"state":"active","ping":45}]},{"server_id":114,"name":"Uncletopia | London | 2 | All Maps","name_short":"lon-2","host":"lon-1.uk.uncletopia.com","port":27025,"enabled":true,"region":"eu","cc":"gb","latitude":51.509865,"longitude":-0.118092,"reserved":0,"last_update":"0001-01-01T00:00:00Z","name_a2s":"Uncletopia | London | 2 | All Maps","protocol":17,"map":"cp_process_final","folder":"tf","game":"Team Fortress","app_id":440,"player_count":24,"max_players":24,"Bots":0,"server_type":"Dedicated","server_os":"Linux","password":true,"vac":true,"version":"7723704","steam_id":85568392924470941,"keywords":["cp","nocrits","nodmgspread","uncletopia"],"game_id":440,"stv_port":27026,"stv_name":"Uncletopia | London | 2 | All Maps | STV","players":[{"user_id":650,"name":"Smuggs","steam_id":76561197999456003,"connected_time":1692000000000,"state":"active","ping":38},{"user_id":671,"name":"pablo","steam_id":76561198089285014,"connected_time":204000000000,"state":"active","ping":84},{"user_id":662,"name":"Poop","steam_id":76561198976511412,"connected_time":528000000000,"state":"active","ping":142},{"user_id":617,"name":"Frazzles","steam_id":76561199228009586,"connected_time":4661000000000,"state":"active","ping":50},{"user_id":670,"name":"Rappin' Sebastian","steam_id":76561198453928256,"connected_time":250000000000,"state":"active","ping":61},{"user_id":651,"name":"Kuickfire","steam_id":76561198066476639,"connected_time":1463000000000,"state":"active","ping":104},{"user_id":602,"name":"TheBeardedM1G","steam_id":76561198040208946,"connected_time":5715000000000,"state":"active","ping":45},{"user_id":652,"name":"teetoi","steam_id":76561198269382352,"connected_time":1440000000000,"state":"active","ping":75},{"user_id":586,"name":"Lewylow","steam_id":76561198005425686,"connected_time":6257000000000,"state":"active","ping":53},{"user_id":672,"name":"Mass","steam_id":76561198432195204,"connected_time":200000000000,"state":"active","ping":66},{"user_id":673,"name":"bubblineyuri","steam_id":76561198134885809,"connected_time":141000000000,"state":"active","ping":60},{"user_id":644,"name":"avon (they/she)","steam_id":76561198063093802,"connected_time":2417000000000,"state":"active","ping":48},{"user_id":674,"name":"Shady guy","steam_id":76561198365698508,"connected_time":129000000000,"state":"active","ping":70},{"user_id":675,"name":"unfathomably fat","steam_id":76561199042470246,"connected_time":124000000000,"state":"active","ping":67},{"user_id":640,"name":"Инспектор Атас","steam_id":76561199175688390,"connected_time":3137000000000,"state":"active","ping":89},{"user_id":660,"name":"Paydi","steam_id":76561198419193670,"connected_time":733000000000,"state":"active","ping":80},{"user_id":656,"name":"Haze","steam_id":76561199118626241,"connected_time":1301000000000,"state":"active","ping":82},{"user_id":657,"name":"juginjr","steam_id":76561198134899981,"connected_time":1297000000000,"state":"active","ping":46},{"user_id":661,"name":"spillr-.-","steam_id":76561198031330889,"connected_time":716000000000,"state":"active","ping":66},{"user_id":668,"name":"Yelowchy","steam_id":76561198199416121,"connected_time":330000000000,"state":"active","ping":106},{"user_id":669,"name":"Tony","steam_id":76561198846842029,"connected_time":320000000000,"state":"active","ping":113},{"user_id":676,"name":"Helrunar","steam_id":76561198033462897,"connected_time":106000000000,"state":"active","ping":60},{"user_id":636,"name":"RikyBiky","steam_id":76561198261545177,"connected_time":3329000000000,"state":"active","ping":73},{"user_id":637,"name":"Greencoffee","steam_id":76561198842090589,"connected_time":3312000000000,"state":"active","ping":60}]},{"server_id":320,"name":"Uncletopia | London | 3 | All Maps","name_short":"lon-3","host":"lon-1.uk.uncletopia.com","port":27035,"enabled":true,"region":"eu","cc":"gb","latitude":51.509865,"longitude":-0.118092,"reserved":0,"last_update":"0001-01-01T00:00:00Z","name_a2s":"Uncletopia | London | 3 | All Maps","protocol":17,"map":"cp_process_final","folder":"tf","game":"Team Fortress","app_id":440,"player_count":11,"max_players":24,"Bots":0,"server_type":"Dedicated","server_os":"Linux","password":true,"vac":true,"version":"7723704","steam_id":85568392924510192,"keywords":["cp","nocrits","nodmgspread","uncletopia"],"game_id":440,"stv_port":27036,"stv_name":"Uncletopia | London | 3 | All Maps | STV","players":[{"user_id":113,"name":"i heal gay people","steam_id":76561198032167311,"connected_time":4792000000000,"state":"active","ping":98},{"user_id":27,"name":"mafutbolero","steam_id":76561199233664005,"connected_time":9835000000000,"state":"active","ping":68},{"user_id":67,"name":"Svilar","steam_id":76561198828348612,"connected_time":7440000000000,"state":"active","ping":59},{"user_id":159,"name":"your local rule34 artist","steam_id":76561199236179641,"connected_time":1143000000000,"state":"spawning","ping":80},{"user_id":166,"name":"=flashpoint=","steam_id":76561197976774456,"connected_time":460000000000,"state":"active","ping":45},{"user_id":147,"name":"One armed fiddle enthusiast","steam_id":76561198045847051,"connected_time":1974000000000,"state":"active","ping":53},{"user_id":110,"name":"Moz","steam_id":76561198027171160,"connected_time":4950000000000,"state":"active","ping":135},{"user_id":158,"name":"FemKastely","steam_id":76561198164079439,"connected_time":1284000000000,"state":"active","ping":85},{"user_id":148,"name":"MisterzPvP","steam_id":76561198282994518,"connected_time":1964000000000,"state":"active","ping":95},{"user_id":167,"name":"Jonathan","steam_id":76561198087988880,"connected_time":214000000000,"state":"active","ping":58},{"user_id":164,"name":"Pastoss","steam_id":76561198379098260,"connected_time":611000000000,"state":"active","ping":62}]},{"server_id":321,"name":"Uncletopia | London | 4 | All Maps","name_short":"lon-4","host":"lon-1.uk.uncletopia.com","port":27045,"enabled":true,"region":"eu","cc":"gb","latitude":51.509865,"longitude":-0.118092,"reserved":0,"last_update":"0001-01-01T00:00:00Z","name_a2s":"Uncletopia | London | 4 | All Maps","protocol":17,"map":"cp_dustbowl","folder":"tf","game":"Team Fortress","app_id":440,"player_count":24,"max_players":24,"Bots":0,"server_type":"Dedicated","server_os":"Linux","password":true,"vac":true,"version":"7723704","steam_id":85568392924510193,"keywords":["cp","nocrits","nodmgspread","uncletopia"],"game_id":440,"stv_port":27046,"stv_name":"Uncletopia | London | 4 | All Maps | STV","players":[{"user_id":459,"name":"OutOfDucks","steam_id":76561198166376227,"connected_time":1899000000000,"state":"active","ping":61},{"user_id":472,"name":"PGAndy","steam_id":76561199218070297,"connected_time":751000000000,"state":"active","ping":94},{"user_id":467,"name":"NO end to POOTIS","steam_id":76561198144879361,"connected_time":1396000000000,"state":"active","ping":115},{"user_id":437,"name":"Loberless","steam_id":76561198277844777,"connected_time":3919000000000,"state":"active","ping":44},{"user_id":473,"name":"disposablesuperbread","steam_id":76561199074703607,"connected_time":658000000000,"state":"active","ping":66},{"user_id":446,"name":"Dragoncristal☯","steam_id":76561198136036701,"connected_time":3070000000000,"state":"active","ping":91},{"user_id":455,"name":"Roman Polanski","steam_id":76561198108321988,"connected_time":2166000000000,"state":"active","ping":68},{"user_id":468,"name":"fallingpencil","steam_id":76561199230233148,"connected_time":1366000000000,"state":"active","ping":51},{"user_id":461,"name":"loveless","steam_id":76561198142256651,"connected_time":1666000000000,"state":"active","ping":91},{"user_id":475,"name":"TechAchech","steam_id":76561198304077408,"connected_time":565000000000,"state":"active","ping":71},{"user_id":419,"name":"Weed Obama","steam_id":76561198082407601,"connected_time":4801000000000,"state":"active","ping":68},{"user_id":445,"name":"Krismas","steam_id":76561198021772843,"connected_time":3076000000000,"state":"active","ping":59},{"user_id":476,"name":"randompixel","steam_id":76561198003941207,"connected_time":398000000000,"state":"active","ping":55},{"user_id":460,"name":"eggslut","steam_id":76561198010752241,"connected_time":1874000000000,"state":"active","ping":65},{"user_id":418,"name":"Octoblue64","steam_id":76561198388997283,"connected_time":4820000000000,"state":"active","ping":48},{"user_id":474,"name":"darrenthebozz","steam_id":76561198241275578,"connected_time":613000000000,"state":"active","ping":50},{"user_id":432,"name":"Diana Ball","steam_id":76561198382533813,"connected_time":4097000000000,"state":"active","ping":46},{"user_id":477,"name":"Super crackhead","steam_id":76561198096826094,"connected_time":285000000000,"state":"active","ping":53},{"user_id":456,"name":"Lolbyte","steam_id":76561199239627724,"connected_time":2155000000000,"state":"active","ping":124},{"user_id":457,"name":"NeonNewt","steam_id":76561198066699212,"connected_time":2129000000000,"state":"active","ping":56},{"user_id":479,"name":"demo_mans_son","steam_id":76561199185880170,"connected_time":41000000000,"state":"active","ping":150},{"user_id":478,"name":"Taktikfuchs","steam_id":76561198055326196,"connected_time":227000000000,"state":"active","ping":75},{"user_id":466,"name":"chojje","steam_id":76561197998577229,"connected_time":1422000000000,"state":"active","ping":78},{"user_id":401,"name":"Ixsus\u003c3","steam_id":76561198094756869,"connected_time":6059000000000,"state":"active","ping":67}]},{"server_id":21,"name":"Uncletopia | London | 5 | All Maps","name_short":"lon-5","host":"lon-1.uk.uncletopia.com","port":27055,"enabled":true,"region":"eu","cc":"gb","latitude":51.509865,"longitude":-0.118092,"reserved":0,"last_update":"0001-01-01T00:00:00Z","name_a2s":"Uncletopia | London | 5 | All Maps","protocol":17,"map":"koth_cascade","folder":"tf","game":"Team Fortress","app_id":440,"player_count":0,"max_players":24,"Bots":0,"server_type":"Dedicated","server_os":"Linux","password":true,"vac":true,"version":"7723704","steam_id":85568392924742829,"keywords":["cp","nocrits","nodmgspread","uncletopia"],"game_id":440,"stv_port":27056,"stv_name":"Uncletopia | London | 5 | All Maps | STV","players":null},{"server_id":22,"name":"Uncletopia | London | 6 | All Maps","name_short":"lon-6","host":"lon-1.uk.uncletopia.com","port":27065,"enabled":true,"region":"eu","cc":"gb","latitude":51.509865,"longitude":-0.118092,"reserved":0,"last_update":"0001-01-01T00:00:00Z","name_a2s":"Uncletopia | London | 6 | All Maps","protocol":17,"map":"pl_snowycoast","folder":"tf","game":"Team Fortress","app_id":440,"player_count":24,"max_players":24,"Bots":0,"server_type":"Dedicated","server_os":"Linux","password":true,"vac":true,"version":"7723704","steam_id":85568392924742830,"keywords":["nocrits","nodmgspread","payload","uncletopia"],"game_id":440,"stv_port":27066,"stv_name":"Uncletopia | London | 6 | All Maps | STV","players":[{"user_id":191,"name":"Oak","steam_id":76561198067315672,"connected_time":2706000000000,"state":"active","ping":59},{"user_id":171,"name":"ronnie","steam_id":76561198377533237,"connected_time":3835000000000,"state":"active","ping":76},{"user_id":85,"name":"иван","steam_id":76561198072730591,"connected_time":9230000000000,"state":"active","ping":63},{"user_id":172,"name":"cheesecake.","steam_id":76561198426604784,"connected_time":3693000000000,"state":"active","ping":41},{"user_id":212,"name":"clean carp","steam_id":76561198127053294,"connected_time":282000000000,"state":"active","ping":72},{"user_id":190,"name":"Løbbeh","steam_id":76561198071861251,"connected_time":2838000000000,"state":"active","ping":84},{"user_id":144,"name":"Citrus","steam_id":76561198090650837,"connected_time":6035000000000,"state":"active","ping":51},{"user_id":210,"name":"Swayer","steam_id":76561198056192460,"connected_time":856000000000,"state":"active","ping":60},{"user_id":151,"name":"Raze (F2P)","steam_id":76561198120226105,"connected_time":5568000000000,"state":"active","ping":100},{"user_id":206,"name":"Pumpkin Tutter","steam_id":76561198039725179,"connected_time":1087000000000,"state":"active","ping":52},{"user_id":142,"name":"Aster","steam_id":76561198037920420,"connected_time":6386000000000,"state":"active","ping":188},{"user_id":152,"name":"NoShield","steam_id":76561198831300551,"connected_time":5533000000000,"state":"active","ping":134},{"user_id":197,"name":"TeamFortress","steam_id":76561199194862650,"connected_time":1536000000000,"state":"active","ping":44},{"user_id":200,"name":"Ducc","steam_id":76561198030677425,"connected_time":1279000000000,"state":"active","ping":59},{"user_id":204,"name":"cat (they/them)","steam_id":76561198416657815,"connected_time":1174000000000,"state":"active","ping":226},{"user_id":178,"name":"Minecraftien_76","steam_id":76561198443111849,"connected_time":3573000000000,"state":"active","ping":74},{"user_id":179,"name":"Vilhelm","steam_id":76561198157521187,"connected_time":3561000000000,"state":"active","ping":87},{"user_id":201,"name":"jeqer","steam_id":76561198256573643,"connected_time":1260000000000,"state":"active","ping":65},{"user_id":207,"name":"LittleGearHead","steam_id":76561198060945307,"connected_time":995000000000,"state":"active","ping":83},{"user_id":143,"name":"LegoKatt","steam_id":76561198064536870,"connected_time":6340000000000,"state":"active","ping":90},{"user_id":202,"name":"jurassicgergo2000","steam_id":76561199016412283,"connected_time":1258000000000,"state":"active","ping":83},{"user_id":213,"name":"Carrot","steam_id":76561198119340863,"connected_time":45000000000,"state":"active","ping":46},{"user_id":196,"name":"Uncle Lame","steam_id":76561198089003514,"connected_time":1965000000000,"state":"active","ping":60},{"user_id":185,"name":"Kenny","steam_id":76561198070731150,"connected_time":3197000000000,"state":"active","ping":91}]},{"server_id":40,"name":"Uncletopia | London | 7 | No Payload","name_short":"lon-7","host":"lon-1.uk.uncletopia.com","port":27075,"enabled":true,"region":"eu","cc":"gb","latitude":51.509865,"longitude":-0.118092,"reserved":0,"last_update":"0001-01-01T00:00:00Z","name_a2s":"Uncletopia | London | 7 | No Payload","protocol":17,"map":"ctf_landfall","folder":"tf","game":"Team Fortress","app_id":440,"player_count":0,"max_players":24,"Bots":0,"server_type":"Dedicated","server_os":"Linux","password":true,"vac":true,"version":"7723704","steam_id":85568392924964314,"keywords":["ctf","nocrits","nodmgspread","uncletopia"],"game_id":440,"stv_port":27076,"stv_name":"Uncletopia | London | 7 | No Payload | STV","players":null},{"server_id":41,"name":"Uncletopia | London | 8 | Community","name_short":"lon-8","host":"lon-1.uk.uncletopia.com","port":27085,"enabled":true,"region":"eu","cc":"gb","latitude":51.509865,"longitude":-0.118092,"reserved":0,"last_update":"0001-01-01T00:00:00Z","name_a2s":"Uncletopia | London | 8 | Community","protocol":17,"map":"workshop/koth_bagel_rc5.ugc2514036946","folder":"tf","game":"Team Fortress","app_id":440,"player_count":0,"max_players":24,"Bots":0,"server_type":"Dedicated","server_os":"Linux","password":true,"vac":true,"version":"7723704","steam_id":85568392924964315,"keywords":["cp","nocrits","nodmgspread","uncletopia"],"game_id":440,"stv_port":27086,"stv_name":"Uncletopia | London | 8 | Community | STV","players":null},{"server_id":300,"name":"Uncletopia | Montréal | 1 | All Maps","name_short":"mtl-1","host":"mtl-1.ca.uncletopia.com","port":27015,"enabled":true,"region":"us-east","cc":"ca","latitude":45.50889,"longitude":-73.56167,"reserved":0,"last_update":"0001-01-01T00:00:00Z","name_a2s":"","protocol":0,"map":"","folder":"","game":"","app_id":0,"player_count":0,"max_players":0,"Bots":0,"server_type":"","server_os":"","password":false,"vac":false,"version":"","steam_id":0,"keywords":null,"game_id":0,"stv_port":0,"stv_name":"","players":null},{"server_id":301,"name":"Uncletopia | Montréal | 2 | All Maps","name_short":"mtl-2","host":"mtl-1.ca.uncletopia.com","port":27025,"enabled":true,"region":"us-east","cc":"ca","latitude":45.50889,"longitude":-73.56167,"reserved":0,"last_update":"0001-01-01T00:00:00Z","name_a2s":"","protocol":0,"map":"","folder":"","game":"","app_id":0,"player_count":0,"max_players":0,"Bots":0,"server_type":"","server_os":"","password":false,"vac":false,"version":"","steam_id":0,"keywords":null,"game_id":0,"stv_port":0,"stv_name":"","players":null},{"server_id":302,"name":"Uncletopia | Montréal | 3 | All Maps","name_short":"mtl-3","host":"mtl-1.ca.uncletopia.com","port":27035,"enabled":true,"region":"us-east","cc":"ca","latitude":45.50889,"longitude":-73.56167,"reserved":0,"last_update":"0001-01-01T00:00:00Z","name_a2s":"","protocol":0,"map":"","folder":"","game":"","app_id":0,"player_count":0,"max_players":0,"Bots":0,"server_type":"","server_os":"","password":false,"vac":false,"version":"","steam_id":0,"keywords":null,"game_id":0,"stv_port":0,"stv_name":"","players":null},{"server_id":303,"name":"Uncletopia | Montréal | 4 | No Payload","name_short":"mtl-4","host":"mtl-1.ca.uncletopia.com","port":27045,"enabled":true,"region":"us-east","cc":"ca","latitude":45.50889,"longitude":-73.56167,"reserved":0,"last_update":"0001-01-01T00:00:00Z","name_a2s":"","protocol":0,"map":"","folder":"","game":"","app_id":0,"player_count":0,"max_players":0,"Bots":0,"server_type":"","server_os":"","password":false,"vac":false,"version":"","steam_id":0,"keywords":null,"game_id":0,"stv_port":0,"stv_name":"","players":null},{"server_id":13,"name":"Uncletopia | New York City | 1 | All Maps","name_short":"nyc-1","host":"nyc-1.us.uncletopia.com","port":27015,"enabled":true,"region":"us-east","cc":"us","latitude":40.73061,"longitude":-73.93524,"reserved":0,"last_update":"0001-01-01T00:00:00Z","name_a2s":"Uncletopia | New York City | 1 | All Maps","protocol":17,"map":"pl_borneo","folder":"tf","game":"Team Fortress","app_id":440,"player_count":24,"max_players":24,"Bots":0,"server_type":"Dedicated","server_os":"Linux","password":true,"vac":true,"version":"7723704","steam_id":85568392924469993,"keywords":["nocrits","nodmgspread","payload","uncletopia"],"game_id":440,"stv_port":27016,"stv_name":"Uncletopia | New York City | 1 | All Maps | STV","players":[{"user_id":162,"name":"wack","steam_id":76561198095697330,"connected_time":4681000000000,"state":"active","ping":79},{"user_id":191,"name":"Goretron","steam_id":76561198001320198,"connected_time":664000000000,"state":"active","ping":103},{"user_id":178,"name":"NyanHorses","steam_id":76561198161584966,"connected_time":3306000000000,"state":"active","ping":75},{"user_id":176,"name":"Ripley","steam_id":76561198080766916,"connected_time":3331000000000,"state":"active","ping":67},{"user_id":164,"name":"shadysessions","steam_id":76561198032464781,"connected_time":4643000000000,"state":"active","ping":55},{"user_id":183,"name":"*something in russian*","steam_id":76561198964471859,"connected_time":1833000000000,"state":"active","ping":55},{"user_id":201,"name":"Strange Festive Femboy","steam_id":76561198050385093,"connected_time":425000000000,"state":"active","ping":59},{"user_id":192,"name":"Quansen","steam_id":76561198151594550,"connected_time":661000000000,"state":"active","ping":61},{"user_id":184,"name":"Scum Knight","steam_id":76561198282444763,"connected_time":1729000000000,"state":"active","ping":54},{"user_id":193,"name":"Syncronym","steam_id":76561198059808982,"connected_time":660000000000,"state":"active","ping":87},{"user_id":177,"name":"ShinyOrion (She/Her)","steam_id":76561198408378321,"connected_time":3316000000000,"state":"active","ping":59},{"user_id":194,"name":"Barack Hussein Obama","steam_id":76561198285509527,"connected_time":658000000000,"state":"active","ping":58},{"user_id":195,"name":"Simpo Chimpo","steam_id":76561199045082578,"connected_time":655000000000,"state":"active","ping":75},{"user_id":202,"name":"SaucyAlfredo","steam_id":76561198814854234,"connected_time":395000000000,"state":"active","ping":63},{"user_id":203,"name":"brian emo","steam_id":76561198109901138,"connected_time":266000000000,"state":"active","ping":61},{"user_id":133,"name":"I'm probably done trolling","steam_id":76561198046470470,"connected_time":6636000000000,"state":"active","ping":65},{"user_id":81,"name":"Arizona","steam_id":76561198113748347,"connected_time":9489000000000,"state":"active","ping":97},{"user_id":197,"name":"[GUT] RiDiK®","steam_id":76561197969756446,"connected_time":638000000000,"state":"active","ping":79},{"user_id":204,"name":"blibulon","steam_id":76561198370642854,"connected_time":260000000000,"state":"active","ping":92},{"user_id":167,"name":"Harold","steam_id":76561198057317770,"connected_time":4551000000000,"state":"active","ping":109},{"user_id":198,"name":"Quietsharp","steam_id":76561198277968438,"connected_time":629000000000,"state":"active","ping":124},{"user_id":169,"name":"Ellen Baker","steam_id":76561198065712435,"connected_time":4540000000000,"state":"active","ping":125},{"user_id":205,"name":"Sneetch [sRb]","steam_id":76561197996693506,"connected_time":235000000000,"state":"active","ping":95},{"user_id":187,"name":"the milk man's wife","steam_id":76561198848075481,"connected_time":1695000000000,"state":"active","ping":67}]},{"server_id":14,"name":"Uncletopia | New York City | 2 | All Maps","name_short":"nyc-2","host":"nyc-1.us.uncletopia.com","port":27025,"enabled":true,"region":"us-east","cc":"us","latitude":40.73061,"longitude":-73.93524,"reserved":0,"last_update":"0001-01-01T00:00:00Z","name_a2s":"Uncletopia | New York City | 2 | All Maps","protocol":17,"map":"pl_upward","folder":"tf","game":"Team Fortress","app_id":440,"player_count":20,"max_players":24,"Bots":0,"server_type":"Dedicated","server_os":"Linux","password":true,"vac":true,"version":"7723704","steam_id":85568392924469994,"keywords":["nocrits","nodmgspread","payload","uncletopia"],"game_id":440,"stv_port":27026,"stv_name":"Uncletopia | New York City | 2 | All Maps | STV","players":[{"user_id":230,"name":"AverageGloop","steam_id":76561198243395378,"connected_time":172000000000,"state":"active","ping":43},{"user_id":231,"name":"estruli","steam_id":76561198295690725,"connected_time":129000000000,"state":"active","ping":71},{"user_id":229,"name":"hehe","steam_id":76561198125913580,"connected_time":298000000000,"state":"active","ping":75},{"user_id":232,"name":"Pork and Beans but twice","steam_id":76561198843209969,"connected_time":55000000000,"state":"active","ping":60},{"user_id":219,"name":"God Emperor Peanut","steam_id":76561198133053224,"connected_time":1384000000000,"state":"active","ping":53},{"user_id":233,"name":"Heretic","steam_id":76561198058904839,"connected_time":41000000000,"state":"active","ping":75},{"user_id":185,"name":"Solaris","steam_id":76561198073166053,"connected_time":2826000000000,"state":"active","ping":53},{"user_id":175,"name":"Qwegg","steam_id":76561198205510383,"connected_time":3446000000000,"state":"active","ping":60},{"user_id":186,"name":"TSGEvans","steam_id":76561198053427405,"connected_time":2816000000000,"state":"active","ping":51},{"user_id":218,"name":"SRV","steam_id":76561198026589960,"connected_time":1518000000000,"state":"active","ping":60},{"user_id":234,"name":"Big Kev","steam_id":76561198058262994,"connected_time":16000000000,"state":"spawning","ping":96},{"user_id":235,"name":"Walmart Employee","steam_id":76561198840373909,"connected_time":16000000000,"state":"active","ping":86},{"user_id":200,"name":"AstroHusky","steam_id":76561197965970648,"connected_time":2316000000000,"state":"active","ping":124},{"user_id":236,"name":"Crayfry","steam_id":76561198146525237,"connected_time":10000000000,"state":"spawning","ping":1505},{"user_id":187,"name":"BoomSpam","steam_id":76561198020934704,"connected_time":2812000000000,"state":"active","ping":79},{"user_id":214,"name":"Sigiferd","steam_id":76561198148788110,"connected_time":1625000000000,"state":"active","ping":129},{"user_id":237,"name":"Seth6537","steam_id":76561198404633529,"connected_time":6000000000,"state":"spawning","ping":98},{"user_id":191,"name":"็","steam_id":76561198039763676,"connected_time":2704000000000,"state":"active","ping":69},{"user_id":217,"name":"Dynamic","steam_id":76561198204547960,"connected_time":1564000000000,"state":"active","ping":71},{"user_id":197,"name":"wool","steam_id":76561198869689933,"connected_time":2501000000000,"state":"active","ping":58}]},{"server_id":15,"name":"Uncletopia | New York City | 3 | All Maps","name_short":"nyc-3","host":"nyc-1.us.uncletopia.com","port":27035,"enabled":true,"region":"us-east","cc":"us","latitude":40.73061,"longitude":-73.93524,"reserved":0,"last_update":"0001-01-01T00:00:00Z","name_a2s":"Uncletopia | New York City | 3 | All Maps","protocol":17,"map":"pl_pier","folder":"tf","game":"Team Fortress","app_id":440,"player_count":16,"max_players":24,"Bots":0,"server_type":"Dedicated","server_os":"Linux","password":true,"vac":true,"version":"7723704","steam_id":85568392924742820,"keywords":["nocrits","nodmgspread","payload","uncletopia"],"game_id":440,"stv_port":27036,"stv_name":"Uncletopia | New York City | 3 | All Maps | STV","players":[{"user_id":148,"name":"kozaevazam","steam_id":76561199374664643,"connected_time":1099000000000,"state":"active","ping":183},{"user_id":153,"name":"azzy","steam_id":76561198825918211,"connected_time":397000000000,"state":"active","ping":164},{"user_id":119,"name":"swiffie","steam_id":76561198226286700,"connected_time":3736000000000,"state":"active","ping":155},{"user_id":154,"name":"ihateyoual674","steam_id":76561199090787202,"connected_time":85000000000,"state":"active","ping":48},{"user_id":156,"name":"{ST} chunkyMerchant","steam_id":76561198318701494,"connected_time":3000000000,"state":"spawning","ping":196},{"user_id":155,"name":"StarloLeggings","steam_id":76561198999087093,"connected_time":46000000000,"state":"active","ping":61},{"user_id":152,"name":"100,000 dead russians","steam_id":76561198054260599,"connected_time":590000000000,"state":"active","ping":79},{"user_id":151,"name":"jerma enthusiast","steam_id":76561198359466264,"connected_time":846000000000,"state":"active","ping":66},{"user_id":129,"name":"merry trapmas","steam_id":76561198402801140,"connected_time":2346000000000,"state":"active","ping":76},{"user_id":115,"name":"static","steam_id":76561199093261935,"connected_time":3958000000000,"state":"active","ping":55},{"user_id":150,"name":"Universe Man","steam_id":76561197997710655,"connected_time":1065000000000,"state":"active","ping":83},{"user_id":147,"name":"Spirit","steam_id":76561199069322627,"connected_time":1167000000000,"state":"active","ping":54},{"user_id":83,"name":"spinz","steam_id":76561198353098481,"connected_time":6080000000000,"state":"active","ping":55},{"user_id":121,"name":"Tannenbaum Trotsky","steam_id":76561199101638460,"connected_time":3180000000000,"state":"active","ping":83},{"user_id":130,"name":"ttv.dyragu","steam_id":76561198172046883,"connected_time":2304000000000,"state":"active","ping":45},{"user_id":146,"name":"♔JaE♔","steam_id":76561197999325159,"connected_time":1417000000000,"state":"active","ping":58}]},{"server_id":16,"name":"Uncletopia | New York City | 4 | Community","name_short":"nyc-4","host":"nyc-1.us.uncletopia.com","port":27045,"enabled":true,"region":"us-east","cc":"us","latitude":40.73061,"longitude":-73.93524,"reserved":0,"last_update":"0001-01-01T00:00:00Z","name_a2s":"Uncletopia | New York City | 4 | Community","protocol":17,"map":"workshop/pl_cactuscanyon_redux_rc4b.ugc2579644293","folder":"tf","game":"Team Fortress","app_id":440,"player_count":0,"max_players":24,"Bots":0,"server_type":"Dedicated","server_os":"Linux","password":true,"vac":true,"version":"7723704","steam_id":85568392924742821,"keywords":["nocrits","nodmgspread","payload","uncletopia"],"game_id":440,"stv_port":27046,"stv_name":"Uncletopia | New York City | 4 | Community | STV","players":null},{"server_id":142,"name":"Uncletopia | São Paulo | 1 | All Maps","name_short":"sao-1","host":"sao-1.br.uncletopia.com","port":27015,"enabled":true,"region":"sa","cc":"br","latitude":-23.533773,"longitude":-46.62529,"reserved":0,"last_update":"0001-01-01T00:00:00Z","name_a2s":"Uncletopia | São Paulo | 1 | All Maps","protocol":17,"map":"pl_snowycoast","folder":"tf","game":"Team Fortress","app_id":440,"player_count":17,"max_players":24,"Bots":0,"server_type":"Dedicated","server_os":"Linux","password":true,"vac":true,"version":"7723704","steam_id":85568392924469996,"keywords":["nocrits","nodmgspread","payload","uncletopia"],"game_id":440,"stv_port":27016,"stv_name":"Uncletopia | São Paulo | 1 | All Maps | STV","players":[{"user_id":115,"name":"zezinhoalimento","steam_id":76561198452073649,"connected_time":1870000000000,"state":"active","ping":52},{"user_id":130,"name":"RedStar","steam_id":76561198100495977,"connected_time":207000000000,"state":"active","ping":66},{"user_id":129,"name":"Proto","steam_id":76561198131548429,"connected_time":467000000000,"state":"active","ping":51},{"user_id":128,"name":"Sad_Cat.png","steam_id":76561198302921847,"connected_time":757000000000,"state":"active","ping":91},{"user_id":131,"name":"pomptrash","steam_id":76561199304776654,"connected_time":78000000000,"state":"active","ping":79},{"user_id":114,"name":"Vermelho","steam_id":76561198832312185,"connected_time":1948000000000,"state":"active","ping":44},{"user_id":116,"name":"Team Fortress gun tier list","steam_id":76561198837390202,"connected_time":1836000000000,"state":"active","ping":45},{"user_id":104,"name":"Cley the Engie Main","steam_id":76561198142839368,"connected_time":2700000000000,"state":"active","ping":48},{"user_id":126,"name":"𝛌self","steam_id":76561199401391941,"connected_time":923000000000,"state":"active","ping":45},{"user_id":106,"name":"NenF | Yatosemtato","steam_id":76561199066360306,"connected_time":2539000000000,"state":"active","ping":78},{"user_id":92,"name":"⸸ Cruz ⸸","steam_id":76561199000786065,"connected_time":3701000000000,"state":"active","ping":60},{"user_id":94,"name":"Stranger","steam_id":76561198065572546,"connected_time":3680000000000,"state":"active","ping":51},{"user_id":107,"name":"Teynam","steam_id":76561198983190263,"connected_time":2532000000000,"state":"active","ping":123},{"user_id":95,"name":"12 Bits","steam_id":76561198126995281,"connected_time":3635000000000,"state":"active","ping":50},{"user_id":120,"name":"즈하","steam_id":76561198143438576,"connected_time":1363000000000,"state":"active","ping":37},{"user_id":121,"name":"eupiteco","steam_id":76561198037613691,"connected_time":1301000000000,"state":"active","ping":64},{"user_id":124,"name":"Sylvester","steam_id":76561199417175031,"connected_time":1070000000000,"state":"active","ping":66}]},{"server_id":143,"name":"Uncletopia | São Paulo | 2 | All Maps","name_short":"sao-2","host":"sao-2.br.uncletopia.com","port":27015,"enabled":true,"region":"sa","cc":"br","latitude":-23.533773,"longitude":-46.62529,"reserved":0,"last_update":"0001-01-01T00:00:00Z","name_a2s":"Uncletopia | São Paulo | 2 | All Maps","protocol":17,"map":"cp_mountainlab","folder":"tf","game":"Team Fortress","app_id":440,"player_count":0,"max_players":24,"Bots":0,"server_type":"Dedicated","server_os":"Linux","password":true,"vac":true,"version":"7723704","steam_id":85568392924485349,"keywords":["cp","nocrits","nodmgspread","uncletopia"],"game_id":440,"stv_port":27016,"stv_name":"Uncletopia | São Paulo | 2 | All Maps | STV","players":null},{"server_id":7,"name":"Uncletopia | Seattle | 1 | All Maps","name_short":"sea-1","host":"sea-1.us.uncletopia.com","port":27015,"enabled":true,"region":"us-west","cc":"us","latitude":47.608013,"longitude":-122.33517,"reserved":0,"last_update":"0001-01-01T00:00:00Z","name_a2s":"Uncletopia | Seattle | 1 | All Maps","protocol":17,"map":"pl_wutville_event","folder":"tf","game":"Team Fortress","app_id":440,"player_count":24,"max_players":24,"Bots":0,"server_type":"Dedicated","server_os":"Linux","password":true,"vac":true,"version":"7723704","steam_id":85568392924469997,"keywords":["nocrits","nodmgspread","payload","uncletopia"],"game_id":440,"stv_port":27016,"stv_name":"Uncletopia | Seattle | 1 | All Maps | STV","players":[{"user_id":57,"name":"200 THC","steam_id":76561198271939793,"connected_time":2542000000000,"state":"active","ping":46},{"user_id":73,"name":"loyaldandan0764","steam_id":76561199231020424,"connected_time":423000000000,"state":"active","ping":288},{"user_id":13,"name":"Raniel Dicciardo","steam_id":76561198053859538,"connected_time":5229000000000,"state":"active","ping":70},{"user_id":54,"name":"crumblejon","steam_id":76561198111273302,"connected_time":2832000000000,"state":"active","ping":108},{"user_id":15,"name":"General Fisticuffs","steam_id":76561198255721392,"connected_time":5141000000000,"state":"active","ping":109},{"user_id":77,"name":"derz","steam_id":76561198010742216,"connected_time":50000000000,"state":"active","ping":94},{"user_id":17,"name":"Mr.Thirteen","steam_id":76561198047468836,"connected_time":5119000000000,"state":"active","ping":66},{"user_id":24,"name":"Mom","steam_id":76561198207936000,"connected_time":4498000000000,"state":"active","ping":77},{"user_id":60,"name":"bobtheninjaman","steam_id":76561198066424544,"connected_time":1694000000000,"state":"active","ping":84},{"user_id":36,"name":"Aardappel","steam_id":76561198030894676,"connected_time":3878000000000,"state":"active","ping":66},{"user_id":22,"name":"squash","steam_id":76561198150281353,"connected_time":4816000000000,"state":"active","ping":57},{"user_id":37,"name":"goob","steam_id":76561198872316133,"connected_time":3849000000000,"state":"active","ping":62},{"user_id":72,"name":"Morbius","steam_id":76561198387984694,"connected_time":533000000000,"state":"active","ping":66},{"user_id":28,"name":"ena - d","steam_id":76561198072329335,"connected_time":4123000000000,"state":"active","ping":123},{"user_id":66,"name":"Cloud","steam_id":76561198272454184,"connected_time":1258000000000,"state":"active","ping":171},{"user_id":75,"name":"Crazy Cane","steam_id":76561198993941174,"connected_time":219000000000,"state":"active","ping":124},{"user_id":67,"name":"HouseKaKes","steam_id":76561199105666210,"connected_time":1097000000000,"state":"active","ping":41},{"user_id":50,"name":"Quantify45","steam_id":76561198044400135,"connected_time":3326000000000,"state":"active","ping":65},{"user_id":68,"name":"Liquid Gold","steam_id":76561198347510093,"connected_time":864000000000,"state":"active","ping":53},{"user_id":62,"name":"misterjozo","steam_id":76561198012300755,"connected_time":1653000000000,"state":"active","ping":64},{"user_id":43,"name":"big game","steam_id":76561199001307670,"connected_time":3665000000000,"state":"active","ping":49},{"user_id":44,"name":"Conseq","steam_id":76561198335652179,"connected_time":3655000000000,"state":"active","ping":55},{"user_id":78,"name":"Finger","steam_id":76561199119799113,"connected_time":39000000000,"state":"active","ping":307}]},{"server_id":119,"name":"Uncletopia | Seattle | 2 | All Maps","name_short":"sea-2","host":"sea-1.us.uncletopia.com","port":27025,"enabled":true,"region":"us-west","cc":"us","latitude":47.608013,"longitude":-122.33517,"reserved":0,"last_update":"0001-01-01T00:00:00Z","name_a2s":"Uncletopia | Seattle | 2 | All Maps","protocol":17,"map":"pl_pier","folder":"tf","game":"Team Fortress","app_id":440,"player_count":22,"max_players":24,"Bots":0,"server_type":"Dedicated","server_os":"Linux","password":true,"vac":true,"version":"7723704","steam_id":85568392924469998,"keywords":["nocrits","nodmgspread","payload","uncletopia"],"game_id":440,"stv_port":27026,"stv_name":"Uncletopia | Seattle | 2 | All Maps | STV","players":[{"user_id":126,"name":"Furious George","steam_id":76561198405111646,"connected_time":3086000000000,"state":"active","ping":65},{"user_id":167,"name":"Jykle","steam_id":76561198077352807,"connected_time":412000000000,"state":"active","ping":56},{"user_id":166,"name":"Dimple","steam_id":76561198980324190,"connected_time":576000000000,"state":"active","ping":47},{"user_id":165,"name":"Volkan","steam_id":76561198401314312,"connected_time":600000000000,"state":"active","ping":86},{"user_id":156,"name":"About That Gift I Owed Ya","steam_id":76561198071506287,"connected_time":820000000000,"state":"active","ping":72},{"user_id":157,"name":"Koyota","steam_id":76561198069878114,"connected_time":818000000000,"state":"active","ping":78},{"user_id":169,"name":"Grime","steam_id":76561198066308925,"connected_time":305000000000,"state":"active","ping":75},{"user_id":128,"name":"IncogNeeto","steam_id":76561199091278006,"connected_time":3080000000000,"state":"active","ping":98},{"user_id":154,"name":"EddieEnder","steam_id":76561198057912688,"connected_time":877000000000,"state":"active","ping":60},{"user_id":162,"name":"XzachTLY","steam_id":76561198145534604,"connected_time":627000000000,"state":"active","ping":66},{"user_id":148,"name":"Wasab1 Racon","steam_id":76561198271698198,"connected_time":1534000000000,"state":"active","ping":109},{"user_id":152,"name":"Arbiter Soul (Piss Enthusiast)","steam_id":76561198067798973,"connected_time":1012000000000,"state":"active","ping":87},{"user_id":158,"name":"AjProductions","steam_id":76561198217950125,"connected_time":803000000000,"state":"active","ping":88},{"user_id":163,"name":"packlord","steam_id":76561198118644686,"connected_time":622000000000,"state":"active","ping":85},{"user_id":132,"name":"Navigatxr","steam_id":76561199185153789,"connected_time":2934000000000,"state":"active","ping":64},{"user_id":160,"name":"Tuna","steam_id":76561198129907971,"connected_time":684000000000,"state":"active","ping":86},{"user_id":161,"name":"raduski","steam_id":76561198795699119,"connected_time":666000000000,"state":"active","ping":92},{"user_id":138,"name":"Saul Goodman","steam_id":76561198847085833,"connected_time":2447000000000,"state":"active","ping":73},{"user_id":170,"name":"PopcornNinja101","steam_id":76561198330680181,"connected_time":40000000000,"state":"active","ping":47},{"user_id":140,"name":"Elite_Friendly","steam_id":76561198819972127,"connected_time":2411000000000,"state":"active","ping":61},{"user_id":164,"name":"oo","steam_id":76561198119626492,"connected_time":617000000000,"state":"active","ping":72},{"user_id":151,"name":"scuttles","steam_id":76561199250039100,"connected_time":1136000000000,"state":"active","ping":114}]},{"server_id":17,"name":"Uncletopia | San Francisco | 1 | All Maps","name_short":"sfo-1","host":"sfo-1.us.uncletopia.com","port":27015,"enabled":true,"region":"us-west","cc":"us","latitude":37.77397,"longitude":-122.4313,"reserved":0,"last_update":"0001-01-01T00:00:00Z","name_a2s":"Uncletopia | San Francisco | 1 | All Maps","protocol":17,"map":"koth_viaduct","folder":"tf","game":"Team Fortress","app_id":440,"player_count":0,"max_players":24,"Bots":0,"server_type":"Dedicated","server_os":"Linux","password":true,"vac":true,"version":"7723704","steam_id":85568392924469999,"keywords":["cp","nocrits","nodmgspread","uncletopia"],"game_id":440,"stv_port":27016,"stv_name":"Uncletopia | San Francisco | 1 | All Maps | STV","players":null},{"server_id":18,"name":"Uncletopia | San Francisco | 2 | All Maps","name_short":"sfo-2","host":"sfo-1.us.uncletopia.com","port":27025,"enabled":true,"region":"us-west","cc":"us","latitude":37.77397,"longitude":-122.4313,"reserved":0,"last_update":"0001-01-01T00:00:00Z","name_a2s":"Uncletopia | San Francisco | 2 | All Maps","protocol":17,"map":"koth_viaduct","folder":"tf","game":"Team Fortress","app_id":440,"player_count":0,"max_players":24,"Bots":0,"server_type":"Dedicated","server_os":"Linux","password":true,"vac":true,"version":"7723704","steam_id":85568392924470000,"keywords":["cp","nocrits","nodmgspread","uncletopia"],"game_id":440,"stv_port":27026,"stv_name":"Uncletopia | San Francisco | 2 | All Maps | STV","players":null},{"server_id":19,"name":"Uncletopia | San Francisco | 3 | No Payload","name_short":"sfo-3","host":"sfo-1.us.uncletopia.com","port":27035,"enabled":true,"region":"us-west","cc":"us","latitude":37.77397,"longitude":-122.4313,"reserved":0,"last_update":"0001-01-01T00:00:00Z","name_a2s":"Uncletopia | San Francisco | 3 | No Payload","protocol":17,"map":"pl_snowycoast","folder":"tf","game":"Team Fortress","app_id":440,"player_count":0,"max_players":24,"Bots":0,"server_type":"Dedicated","server_os":"Linux","password":true,"vac":true,"version":"7723704","steam_id":85568392924742824,"keywords":["nocrits","nodmgspread","payload","uncletopia"],"game_id":440,"stv_port":27036,"stv_name":"Uncletopia | San Francisco | 3 | No Payload | STV","players":null},{"server_id":20,"name":"Uncletopia | San Francisco | 4 | Community","name_short":"sfo-4","host":"sfo-1.us.uncletopia.com","port":27045,"enabled":true,"region":"us-west","cc":"us","latitude":37.77397,"longitude":-122.4313,"reserved":0,"last_update":"0001-01-01T00:00:00Z","name_a2s":"Uncletopia | San Francisco | 4 | Community","protocol":17,"map":"workshop/pl_barnblitz_pro7.ugc582280235","folder":"tf","game":"Team Fortress","app_id":440,"player_count":0,"max_players":24,"Bots":0,"server_type":"Dedicated","server_os":"Linux","password":true,"vac":true,"version":"7723704","steam_id":85568392924742826,"keywords":["nocrits","nodmgspread","payload","uncletopia"],"game_id":440,"stv_port":27046,"stv_name":"Uncletopia | San Francisco | 4 | Community | STV","players":null},{"server_id":141,"name":"Uncletopia | Sydney | 1 | All Maps","name_short":"syd-1","host":"syd-1.au.uncletopia.com","port":27015,"enabled":true,"region":"au","cc":"au","latitude":-33.865143,"longitude":151.2099,"reserved":0,"last_update":"0001-01-01T00:00:00Z","name_a2s":"Uncletopia | Sydney | 1 | All Maps","protocol":17,"map":"koth_viaduct","folder":"tf","game":"Team Fortress","app_id":440,"player_count":0,"max_players":24,"Bots":0,"server_type":"Dedicated","server_os":"Linux","password":true,"vac":true,"version":"7723704","steam_id":85568392924470001,"keywords":["cp","nocrits","nodmgspread","uncletopia"],"game_id":440,"stv_port":27016,"stv_name":"Uncletopia | Sydney | 1 | All Maps | STV","players":null},{"server_id":123,"name":"Uncletopia | Sydney | 2 | All Maps","name_short":"syd-2","host":"syd-1.au.uncletopia.com","port":27025,"enabled":true,"region":"au","cc":"au","latitude":-33.865143,"longitude":151.2099,"reserved":0,"last_update":"0001-01-01T00:00:00Z","name_a2s":"Uncletopia | Sydney | 2 | All Maps","protocol":17,"map":"cp_snakewater_final1","folder":"tf","game":"Team Fortress","app_id":440,"player_count":0,"max_players":24,"Bots":0,"server_type":"Dedicated","server_os":"Linux","password":true,"vac":true,"version":"7723704","steam_id":85568392924470002,"keywords":["cp","nocrits","nodmgspread","uncletopia"],"game_id":440,"stv_port":27026,"stv_name":"Uncletopia | Sydney | 2 | All Maps | STV","players":null},{"server_id":395,"name":"Uncletopia | Sydney | 3 | All Maps","name_short":"syd-3","host":"syd-1.au.uncletopia.com","port":27035,"enabled":true,"region":"au","cc":"au","latitude":-33.865143,"longitude":151.2099,"reserved":0,"last_update":"0001-01-01T00:00:00Z","name_a2s":"Uncletopia | Sydney | 3 | All Maps","protocol":17,"map":"pl_pier","folder":"tf","game":"Team Fortress","app_id":440,"player_count":0,"max_players":24,"Bots":0,"server_type":"Dedicated","server_os":"Linux","password":true,"vac":true,"version":"7723704","steam_id":85568392925194467,"keywords":["nocrits","nodmgspread","payload","uncletopia"],"game_id":440,"stv_port":27036,"stv_name":"Uncletopia | Sydney | 3 | All Maps | STV","players":null},{"server_id":396,"name":"Uncletopia | Sydney | 4 | All Maps","name_short":"syd-4","host":"syd-1.au.uncletopia.com","port":27045,"enabled":true,"region":"au","cc":"au","latitude":-33.865143,"longitude":151.2099,"reserved":0,"last_update":"0001-01-01T00:00:00Z","name_a2s":"Uncletopia | Sydney | 4 | All Maps","protocol":17,"map":"cp_process_final","folder":"tf","game":"Team Fortress","app_id":440,"player_count":0,"max_players":24,"Bots":0,"server_type":"Dedicated","server_os":"Linux","password":true,"vac":true,"version":"7723704","steam_id":85568392925397958,"keywords":["cp","nocrits","nodmgspread","uncletopia"],"game_id":440,"stv_port":27046,"stv_name":"Uncletopia | Sydney | 4 | All Maps | STV","players":null},{"server_id":58,"name":"Uncletopia | Sydney | 5 | No Payload","name_short":"syd-5","host":"syd-1.au.uncletopia.com","port":27055,"enabled":true,"region":"au","cc":"au","latitude":-33.865143,"longitude":151.2099,"reserved":0,"last_update":"0001-01-01T00:00:00Z","name_a2s":"Uncletopia | Sydney | 5 | No Payload","protocol":17,"map":"koth_cascade","folder":"tf","game":"Team Fortress","app_id":440,"player_count":0,"max_players":24,"Bots":0,"server_type":"Dedicated","server_os":"Linux","password":true,"vac":true,"version":"7723704","steam_id":85568392925397959,"keywords":["cp","nocrits","nodmgspread","uncletopia"],"game_id":440,"stv_port":27056,"stv_name":"Uncletopia | Sydney | 5 | No Payload | STV","players":null},{"server_id":59,"name":"Uncletopia | Sydney | 6 | Community","name_short":"syd-6","host":"syd-1.au.uncletopia.com","port":27065,"enabled":true,"region":"au","cc":"au","latitude":-33.865143,"longitude":151.2099,"reserved":0,"last_update":"0001-01-01T00:00:00Z","name_a2s":"Uncletopia | Sydney | 6 | Community","protocol":17,"map":"koth_lakeside_final","folder":"tf","game":"Team Fortress","app_id":440,"player_count":0,"max_players":24,"Bots":0,"server_type":"Dedicated","server_os":"Linux","password":true,"vac":true,"version":"7723704","steam_id":85568392925397960,"keywords":["cp","nocrits","nodmgspread","uncletopia"],"game_id":440,"stv_port":27066,"stv_name":"Uncletopia | Sydney | 6 | Community | STV","players":null},{"server_id":49,"name":"Uncletopia | Warsaw | 1 | All Maps","name_short":"waw-1","host":"waw-1.pl.uncletopia.com","port":27015,"enabled":true,"region":"eu","cc":"pl","latitude":52.2297,"longitude":21.017532,"reserved":0,"last_update":"0001-01-01T00:00:00Z","name_a2s":"Uncletopia | Warsaw | 1 | All Maps","protocol":17,"map":"cp_dustbowl","folder":"tf","game":"Team Fortress","app_id":440,"player_count":0,"max_players":24,"Bots":0,"server_type":"Dedicated","server_os":"Linux","password":true,"vac":true,"version":"7723704","steam_id":85568392925397850,"keywords":["cp","nocrits","nodmgspread","uncletopia"],"game_id":440,"stv_port":27016,"stv_name":"Uncletopia | Warsaw | 1 | All Maps | STV","players":null},{"server_id":50,"name":"Uncletopia | Warsaw | 2 | All Maps","name_short":"waw-2","host":"waw-1.pl.uncletopia.com","port":27025,"enabled":true,"region":"eu","cc":"pl","latitude":52.2297,"longitude":21.017532,"reserved":0,"last_update":"0001-01-01T00:00:00Z","name_a2s":"Uncletopia | Warsaw | 2 | All Maps","protocol":17,"map":"pl_snowycoast","folder":"tf","game":"Team Fortress","app_id":440,"player_count":0,"max_players":24,"Bots":0,"server_type":"Dedicated","server_os":"Linux","password":true,"vac":true,"version":"7723704","steam_id":85568392925397851,"keywords":["nocrits","nodmgspread","payload","uncletopia"],"game_id":440,"stv_port":27026,"stv_name":"Uncletopia | Warsaw | 2 | All Maps | STV","players":null},{"server_id":51,"name":"Uncletopia | Warsaw | 3 | All Maps","name_short":"waw-3","host":"waw-1.pl.uncletopia.com","port":27035,"enabled":true,"region":"eu","cc":"pl","latitude":52.2297,"longitude":21.017532,"reserved":0,"last_update":"0001-01-01T00:00:00Z","name_a2s":"Uncletopia | Warsaw | 3 | All Maps","protocol":17,"map":"cp_snakewater_final1","folder":"tf","game":"Team Fortress","app_id":440,"player_count":5,"max_players":24,"Bots":0,"server_type":"Dedicated","server_os":"Linux","password":true,"vac":true,"version":"7723704","steam_id":85568392925397852,"keywords":["cp","nocrits","nodmgspread","uncletopia"],"game_id":440,"stv_port":27036,"stv_name":"Uncletopia | Warsaw | 3 | All Maps | STV","players":[{"user_id":5,"name":"βoᵑiάՇζ","steam_id":76561198232414008,"connected_time":1981000000000,"state":"active","ping":55},{"user_id":10,"name":"grammerca2","steam_id":76561198993241319,"connected_time":346000000000,"state":"active","ping":188},{"user_id":11,"name":"Ankle pain","steam_id":76561199105755048,"connected_time":72000000000,"state":"active","ping":74},{"user_id":8,"name":"Miju","steam_id":76561198854485681,"connected_time":869000000000,"state":"active","ping":75},{"user_id":9,"name":"KubsonekGT","steam_id":76561198798944623,"connected_time":853000000000,"state":"active","ping":62}]},{"server_id":52,"name":"Uncletopia | Warsaw | 4 | All Maps","name_short":"waw-4","host":"waw-1.pl.uncletopia.com","port":27045,"enabled":true,"region":"eu","cc":"pl","latitude":52.2297,"longitude":21.017532,"reserved":0,"last_update":"0001-01-01T00:00:00Z","name_a2s":"Uncletopia | Warsaw | 4 | All Maps","protocol":17,"map":"cp_snakewater_final1","folder":"tf","game":"Team Fortress","app_id":440,"player_count":0,"max_players":24,"Bots":0,"server_type":"Dedicated","server_os":"Linux","password":true,"vac":true,"version":"7723704","steam_id":85568392925397853,"keywords":["cp","nocrits","nodmgspread","uncletopia"],"game_id":440,"stv_port":27046,"stv_name":"Uncletopia | Warsaw | 4 | All Maps | STV","players":null},{"server_id":53,"name":"Uncletopia | Warsaw | 5 | No Payload","name_short":"waw-5","host":"waw-1.pl.uncletopia.com","port":27055,"enabled":true,"region":"eu","cc":"pl","latitude":52.2297,"longitude":21.017532,"reserved":0,"last_update":"0001-01-01T00:00:00Z","name_a2s":"Uncletopia | Warsaw | 5 | No Payload","protocol":17,"map":"ctf_well","folder":"tf","game":"Team Fortress","app_id":440,"player_count":3,"max_players":24,"Bots":0,"server_type":"Dedicated","server_os":"Linux","password":true,"vac":true,"version":"7723704","steam_id":85568392925397854,"keywords":["ctf","nocrits","nodmgspread","uncletopia"],"game_id":440,"stv_port":27056,"stv_name":"Uncletopia | Warsaw | 5 | No Payload | STV","players":[{"user_id":14,"name":"lojack2b","steam_id":76561199293101434,"connected_time":996000000000,"state":"active","ping":182},{"user_id":13,"name":"Frank","steam_id":76561198086672774,"connected_time":1768000000000,"state":"active","ping":91},{"user_id":15,"name":"jami.mawhorter","steam_id":76561199247496775,"connected_time":946000000000,"state":"active","ping":176}]},{"server_id":54,"name":"Uncletopia | Warsaw | 6 | Community","name_short":"waw-6","host":"waw-1.pl.uncletopia.com","port":27065,"enabled":true,"region":"eu","cc":"pl","latitude":52.2297,"longitude":21.017532,"reserved":0,"last_update":"0001-01-01T00:00:00Z","name_a2s":"Uncletopia | Warsaw | 6 | Community","protocol":17,"map":"workshop/koth_bagel_rc5.ugc2514036946","folder":"tf","game":"Team Fortress","app_id":440,"player_count":0,"max_players":24,"Bots":0,"server_type":"Dedicated","server_os":"Linux","password":true,"vac":true,"version":"7723704","steam_id":85568392925397856,"keywords":["cp","nocrits","nodmgspread","uncletopia"],"game_id":440,"stv_port":27066,"stv_name":"Uncletopia | Warsaw | 6 | Community | STV","players":null}]}