{"status":true,"message":"","result":[{"server_id":9,"name":"Uncletopia | Atlanta | 1 | All Maps","name_short":"atl-1","host":"atl-1.us.uncletopia.com","port":27015,"enabled":true,"region":"us-east","cc":"us","latitude":33.753746,"longitude":-84.38633,"reserved":0,"last_update":"0001-01-01T00:00:00Z","name_a2s":"Uncletopia | Atlanta | 1 | All Maps","protocol":17,"map":"pl_upward","folder":"tf","game":"Team Fortress","app_id":440,"player_count":0,"max_players":24,"Bots":0,"server_type":"Dedicated","server_os":"Linux","password":true,"vac":true,"version":"7723704","steam_id":85568392924469982,"keywords":["nocrits","nodmgspread","payload","uncletopia"],"game_id":440,"stv_port":27016,"stv_name":"Uncletopia | Atlanta | 1 | All Maps | STV","players":null},{"server_id":400,"name":"Uncletopia | Atlanta | 3 | Stopwatch Beta","name_short":"atl-3","host":"atl-1.us.uncletopia.com","port":27035,"enabled":true,"region":"us-east","cc":"us","latitude":33.753746,"longitude":-84.38633,"reserved":0,"last_update":"0001-01-01T00:00:00Z","name_a2s":"Uncletopia | Atlanta | 3 | Stopwatch Beta","protocol":17,"map":"koth_cascade","folder":"tf","game":"Team Fortress","app_id":440,"player_count":0,"max_players":24,"Bots":0,"server_type":"Dedicated","server_os":"Linux","password":true,"vac":true,"version":"7723704","steam_id":85568392924515187,"keywords":["cp","nocrits","nodmgspread","uncletopia"],"game_id":440,"stv_port":27036,"stv_name":"Uncletopia | Atlanta | 3 | Stopwatch Beta | STV","players":null},{"server_id":401,"name":"Uncletopia | Atlanta | 4 | No Payload","name_short":"atl-4","host":"atl-1.us.uncletopia.com","port":27045,"enabled":true,"region":"us-east","cc":"us","latitude":33.753746,"longitude":-84.38633,"reserved":0,"last_update":"0001-01-01T00:00:00Z","name_a2s":"Uncletopia | Atlanta | 4 | No Payload","protocol":17,"map":"pl_pier","folder":"tf","game":"Team Fortress","app_id":440,"player_count":0,"max_players":24,"Bots":0,"server_type":"Dedicated","server_os":"Linux","password":true,"vac":true,"version":"7723704","steam_id":85568392924515188,"keywords":["nocrits","nodmgspread","payload","uncletopia"],"game_id":440,"stv_port":27046,"stv_name":"Uncletopia | Atlanta | 4 | No Payload | STV","players":null},{"server_id":2,"name":"Uncletopia | Chicago | 1 | All Maps","name_short":"chi-1","host":"chi-1.us.uncletopia.com","port":27015,"enabled":true,"region":"us-central","cc":"us","latitude":41.881832,"longitude":-87.62318,"reserved":0,"last_update":"0001-01-01T00:00:00Z","name_a2s":"Uncletopia | Chicago | 1 | All Maps","protocol":17,"map":"cp_sunshine","folder":"tf","game":"Team Fortress","app_id":440,"player_count":24,"max_players":24,"Bots":0,"server_type":"Dedicated","server_os":"Linux","password":true,"vac":true,"version":"7723704","steam_id":85568392924469984,"keywords":["cp","nocrits","nodmgspread","uncletopia"],"game_id":440,"stv_port":27016,"stv_name":"Uncletopia | Chicago | 1 | All Maps | STV","players":[{"user_id":48,"name":"Rina","steam_id":76561198002168193,"connected_time":939000000000,"state":"active","ping":141},{"user_id":33,"name":"NoShen","steam_id":76561198147434663,"connected_time":1670000000000,"state":"active","ping":62},{"user_id":34,"name":"Industrial Disaster","steam_id":76561198209881263,"connected_time":1652000000000,"state":"active","ping":100},{"user_id":22,"name":"Mythius","steam_id":76561198401392472,"connected_time":2342000000000,"state":"active","ping":75},{"user_id":51,"name":"Tommy Pickles (Very Cool)","steam_id":76561198391261463,"connected_time":584000000000,"state":"active","ping":74},{"user_id":43,"name":"TATARA","steam_id":76561199098759517,"connected_time":1063000000000,"state":"active","ping":137},{"user_id":9,"name":"Arizona","steam_id":76561198113748347,"connected_time":3096000000000,"state":"active","ping":84},{"user_id":10,"name":"|AAML| Captain QuacknSnow","steam_id":76561198153568933,"connected_time":3092000000000,"state":"active","ping":46},{"user_id":23,"name":"Jonas Destark","steam_id":76561198030327441,"connected_time":2217000000000,"state":"active","ping":138},{"user_id":31,"name":"mireiaguitart3","steam_id":76561198880549961,"connected_time":1722000000000,"state":"active","ping":159},{"user_id":24,"name":"snake9544","steam_id":76561198083076205,"connected_time":2185000000000,"state":"active","ping":170},{"user_id":49,"name":"Zair AkA","steam_id":76561198002168189,"connected_time":921000000000,"state":"active","ping":143},{"user_id":25,"name":"Zon","steam_id":76561198819789573,"connected_time":2178000000000,"state":"active","ping":45},{"user_id":44,"name":"Tired","steam_id":76561198072620682,"connected_time":1023000000000,"state":"active","ping":104},{"user_id":28,"name":"trouse","steam_id":76561198161578754,"connected_time":1924000000000,"state":"active","ping":61},{"user_id":45,"name":"sosu","steam_id":76561198012675381,"connected_time":995000000000,"state":"active","ping":74},{"user_id":46,"name":"moha","steam_id":76561198002168285,"connected_time":982000000000,"state":"active","ping":141},{"user_id":32,"name":"IPlayGamez","steam_id":76561198041387508,"connected_time":1719000000000,"state":"active","ping":61},{"user_id":35,"name":"DualiTea","steam_id":76561198081733870,"connected_time":1643000000000,"state":"active","ping":47},{"user_id":36,"name":"bsrob","steam_id":76561197972148002,"connected_time":1629000000000,"state":"active","ping":57},{"user_id":52,"name":"Onymy.","steam_id":76561198171048015,"connected_time":461000000000,"state":"active","ping":60},{"user_id":54,"name":"New Memes","steam_id":76561198009656676,"connected_time":75000000000,"state":"active","ping":72},{"user_id":39,"name":"Sir Galahad","steam_id":76561198195999859,"connected_time":1582000000000,"state":"active","ping":98},{"user_id":53,"name":"Hot bunny women in your area","steam_id":76561198329460312,"connected_time":334000000000,"state":"active","ping":64}]},{"server_id":106,"name":"Uncletopia | Chicago | 2 | All Maps","name_short":"chi-2","host":"chi-1.us.uncletopia.com","port":27025,"enabled":true,"region":"us-central","cc":"us","latitude":41.881832,"longitude":-87.62318,"reserved":0,"last_update":"0001-01-01T00:00:00Z","name_a2s":"Uncletopia | Chicago | 2 | All Maps","protocol":17,"map":"koth_highpass","folder":"tf","game":"Team Fortress","app_id":440,"player_count":0,"max_players":24,"Bots":0,"server_type":"Dedicated","server_os":"Linux","password":true,"vac":true,"version":"7723704","steam_id":85568392924469985,"keywords":["cp","nocrits","nodmgspread","uncletopia"],"game_id":440,"stv_port":27026,"stv_name":"Uncletopia | Chicago | 2 | All Maps | STV","players":null},{"server_id":402,"name":"Uncletopia | Chicago | 3 | All Maps","name_short":"chi-3","host":"chi-1.us.uncletopia.com","port":27035,"enabled":true,"region":"us-central","cc":"us","latitude":41.881832,"longitude":-87.62318,"reserved":0,"last_update":"0001-01-01T00:00:00Z","name_a2s":"Uncletopia | Chicago | 3 | All Maps","protocol":17,"map":"pl_frontier_final","folder":"tf","game":"Team Fortress","app_id":440,"player_count":0,"max_players":24,"Bots":0,"server_type":"Dedicated","server_os":"Linux","password":true,"vac":true,"version":"7723704","steam_id":85568392924515191,"keywords":["nocrits","nodmgspread","payload","uncletopia"],"game_id":440,"stv_port":27036,"stv_name":"Uncletopia | Chicago | 3 | All Maps | STV","players":null},{"server_id":403,"name":"Uncletopia | Chicago | 4 | All Maps","name_short":"chi-4","host":"chi-1.us.uncletopia.com","port":27045,"enabled":true,"region":"us-central","cc":"us","latitude":41.881832,"longitude":-87.62318,"reserved":0,"last_update":"0001-01-01T00:00:00Z","name_a2s":"Uncletopia | Chicago | 4 | All Maps","protocol":17,"map":"pl_pier","folder":"tf","game":"Team Fortress","app_id":440,"player_count":0,"max_players":24,"Bots":0,"server_type":"Dedicated","server_os":"Linux","password":true,"vac":true,"version":"7723704","steam_id":85568392924515193,"keywords":["nocrits","nodmgspread","payload","uncletopia"],"game_id":440,"stv_port":27046,"stv_name":"Uncletopia | Chicago | 4 | All Maps | STV","players":null},{"server_id":36,"name":"Uncletopia | Chicago | 5 | All Maps","name_short":"chi-5","host":"chi-2.us.uncletopia.com","port":27015,"enabled":true,"region":"us-central","cc":"us","latitude":41.881832,"longitude":-87.62318,"reserved":0,"last_update":"0001-01-01T00:00:00Z","name_a2s":"Uncletopia | Chicago | 5 | All Maps","protocol":17,"map":"cp_altitude","folder":"tf","game":"Team Fortress","app_id":440,"player_count":0,"max_players":24,"Bots":0,"server_type":"Dedicated","server_os":"Linux","password":true,"vac":true,"version":"7723704","steam_id":85568392924866362,"keywords":["cp","nocrits","nodmgspread","uncletopia"],"game_id":440,"stv_port":27016,"stv_name":"Uncletopia | Chicago | 5 | All Maps | STV","players":null},{"server_id":37,"name":"Uncletopia | Chicago | 6 | All Maps","name_short":"chi-6","host":"chi-2.us.uncletopia.com","port":27025,"enabled":true,"region":"us-central","cc":"us","latitude":41.881832,"longitude":-87.62318,"reserved":0,"last_update":"0001-01-01T00:00:00Z","name_a2s":"Uncletopia | Chicago | 6 | All Maps","protocol":17,"map":"pl_swiftwater_final1","folder":"tf","game":"Team Fortress","app_id":440,"player_count":0,"max_players":24,"Bots":0,"server_type":"Dedicated","server_os":"Linux","password":true,"vac":true,"version":"7723704","steam_id":85568392924866363,"keywords":["nocrits","nodmgspread","payload","uncletopia"],"game_id":440,"stv_port":27026,"stv_name":"Uncletopia | Chicago | 6 | All Maps | STV","players":null},{"server_id":38,"name":"Uncletopia | Chicago | 7 | Stopwatch Beta","name_short":"chi-7","host":"chi-2.us.uncletopia.com","port":27035,"enabled":true,"region":"us-central","cc":"us","latitude":41.881832,"longitude":-87.62318,"reserved":0,"last_update":"0001-01-01T00:00:00Z","name_a2s":"Uncletopia | Chicago | 7 | Stopwatch Beta","protocol":17,"map":"pl_upward","folder":"tf","game":"Team Fortress","app_id":440,"player_count":0,"max_players":24,"Bots":0,"server_type":"Dedicated","server_os":"Linux","password":true,"vac":true,"version":"7723704","steam_id":85568392924866364,"keywords":["nocrits","nodmgspread","payload","uncletopia"],"game_id":440,"stv_port":27036,"stv_name":"Uncletopia | Chicago | 7 | Stopwatch Beta | STV","players":null},{"server_id":39,"name":"Uncletopia | Chicago | 8 | Community","name_short":"chi-8","host":"chi-2.us.uncletopia.com","port":27045,"enabled":true,"region":"us-central","cc":"us","latitude":41.881832,"longitude":-87.62318,"reserved":0,"last_update":"0001-01-01T00:00:00Z","name_a2s":"Uncletopia | Chicago | 8 | Community","protocol":17,"map":"pl_frontier_final","folder":"tf","game":"Team Fortress","app_id":440,"player_count":0,"max_players":24,"Bots":0,"server_type":"Dedicated","server_os":"Linux","password":true,"vac":true,"version":"7723704","steam_id":85568392924866365,"keywords":["nocrits","nodmgspread","payload","uncletopia"],"game_id":440,"stv_port":27046,"stv_name":"Uncletopia | Chicago | 8 | Community | STV","players":null},{"server_id":8,"name":"Uncletopia | Dallas | 1 | All Maps","name_short":"dal-1","host":"dal-1.us.uncletopia.com","port":27015,"enabled":true,"region":"us-central","cc":"us","latitude":32.779167,"longitude":-96.80889,"reserved":0,"last_update":"0001-01-01T00:00:00Z","name_a2s":"Uncletopia | Dallas | 1 | All Maps","protocol":17,"map":"pl_frontier_final","folder":"tf","game":"Team Fortress","app_id":440,"player_count":0,"max_players":24,"Bots":0,"server_type":"Dedicated","server_os":"Linux","password":true,"vac":true,"version":"7723704","steam_id":85568392924469986,"keywords":["nocrits","nodmgspread","payload","uncletopia"],"game_id":440,"stv_port":27016,"stv_name":"Uncletopia | Dallas | 1 | All Maps | STV","players":null},{"server_id":108,"name":"Uncletopia | Dallas | 2 | All Maps","name_short":"dal-2","host":"dal-1.us.uncletopia.com","port":27025,"enabled":true,"region":"us-central","cc":"us","latitude":32.779167,"longitude":-96.80889,"reserved":0,"last_update":"0001-01-01T00:00:00Z","name_a2s":"Uncletopia | Dallas | 2 | All Maps","protocol":17,"map":"pl_borneo","folder":"tf","game":"Team Fortress","app_id":440,"player_count":0,"max_players":24,"Bots":0,"server_type":"Dedicated","server_os":"Linux","password":true,"vac":true,"version":"7723704","steam_id":85568392924469988,"keywords":["nocrits","nodmgspread","payload","uncletopia"],"game_id":440,"stv_port":27026,"stv_name":"Uncletopia | Dallas | 2 | All Maps | STV","players":null},{"server_id":5,"name":"Uncletopia | Frankfurt | 1 | All Maps","name_short":"frk-1","host":"frk-1.de.uncletopia.com","port":27015,"enabled":true,"region":"eu","cc":"de","latitude":50.110924,"longitude":8.682127,"reserved":0,"last_update":"0001-01-01T00:00:00Z","name_a2s":"Uncletopia | Frankfurt | 1 | All Maps","protocol":17,"map":"koth_highpass","folder":"tf","game":"Team Fortress","app_id":440,"player_count":24,"max_players":24,"Bots":0,"server_type":"Dedicated","server_os":"Linux","password":true,"vac":true,"version":"7723704","steam_id":85568392924469989,"keywords":["cp","nocrits","nodmgspread","uncletopia"],"game_id":440,"stv_port":27016,"stv_name":"Uncletopia | Frankfurt | 1 | All Maps | STV","players":[{"user_id":14,"name":"Aspartus","steam_id":76561198101385763,"connected_time":1521000000000,"state":"active","ping":45},{"user_id":46,"name":"Coca162","steam_id":76561198230656540,"connected_time":610000000000,"state":"active","ping":50},{"user_id":49,"name":"Codename 50","steam_id":76561198024454833,"connected_time":286000000000,"state":"active","ping":158},{"user_id":33,"name":"eepy boy","steam_id":76561199208283508,"connected_time":973000000000,"state":"active","ping":74},{"user_id":48,"name":"‚á® ‚òÖ ‚á© ‚Üò + 2 | f,N,dd/f","steam_id":76561198397646204,"connected_time":555000000000,"state":"active","ping":60},{"user_id":22,"name":"NNikolaiii","steam_id":76561198277293255,"connected_time":1210000000000,"state":"active","ping":83},{"user_id":23,"name":"Doctor.G","steam_id":76561198166786908,"connected_time":1203000000000,"state":"active","ping":49},{"user_id":31,"name":"Nika","steam_id":76561198355965587,"connected_time":1017000000000,"state":"active","ping":60},{"user_id":32,"name":"GlassesMode","steam_id":76561199142786677,"connected_time":1012000000000,"state":"active","ping":68},{"user_id":35,"name":"Wir suchen dich!","steam_id":76561198307613521,"connected_time":823000000000,"state":"active","ping":45},{"user_id":52,"name":"Meatballs","steam_id":76561198005948884,"connected_time":222000000000,"state":"active","ping":66},{"user_id":50,"name":"Bartholomew","steam_id":76561198174914847,"connected_time":285000000000,"state":"active","ping":85},{"user_id":53,"name":"heavy sings (real)","steam_id":76561199023804405,"connected_time":78000000000,"state":"active","ping":84},{"user_id":30,"name":"FranekOcean","steam_id":76561198254852945,"connected_time":1123000000000,"state":"active","ping":70},{"user_id":36,"name":"Ultra_swimmer","steam_id":76561198049382217,"connected_time":811000000000,"state":"active","ping":75},{"user_id":54,"name":"Cippo95","steam_id":76561198255311582,"connected_time":6000000000,"state":"spawning","ping":95},{"user_id":51,"name":"Mark","steam_id":76561198808819694,"connected_time":285000000000,"state":"active","ping":46},{"user_id":40,"name":"Coyote the Airplane","steam_id":76561198344502070,"connected_time":715000000000,"state":"active","ping":87},{"user_id":41,"name":"ZXCV.res","steam_id":76561199218804625,"connected_time":694000000000,"state":"active","ping":72},{"user_id":42,"name":"thia","steam_id":76561198186366599,"connected_time":668000000000,"state":"active","ping":90},{"user_id":43,"name":"Adam Sandler","steam_id":76561198310408309,"connected_time":662000000000,"state":"active","ping":67},{"user_id":44,"name":"Milk","steam_id":76561198125876588,"connected_time":660000000000,"state":"active","ping":54},{"user_id":45,"name":"Jonkheervanflep","steam_id":76561198006853101,"connected_time":629000000000,"state":"active","ping":78},{"user_id":47,"name":"Mika Kaakinen","steam_id":76561198370473138,"connected_time":593000000000,"state":"active","ping":76}]},{"server_id":110,"name":"Uncletopia | Frankfurt | 2 | All Maps","name_short":"frk-2","host":"frk-1.de.uncletopia.com","port":27025,"enabled":true,"region":"eu","cc":"de","latitude":50.110924,"longitude":8.682127,"reserved":0,"last_update":"0001-01-01T00:00:00Z","name_a2s":"Uncletopia | Frankfurt | 2 | All Maps","protocol":17,"map":"pl_borneo","folder":"tf","game":"Team Fortress","app_id":440,"player_count":24,"max_players":24,"Bots":0,"server_type":"Dedicated","server_os":"Linux","password":true,"vac":true,"version":"7723704","steam_id":85568392924469990,"keywords":["nocrits","nodmgspread","payload","uncletopia"],"game_id":440,"stv_port":27026,"stv_name":"Uncletopia | Frankfurt | 2 | All Maps | STV","players":[{"user_id":46,"name":"ÍßÅ‡ºíXenon‡ºíÍßÇ","steam_id":76561198120502313,"connected_time":9392000000000,"state":"active","ping":61},{"user_id":130,"name":"pkp86","steam_id":76561198259581671,"connected_time":4195000000000,"state":"active","ping":111},{"user_id":180,"name":"r06u3","steam_id":76561198254099253,"connected_time":1043000000000,"state":"active","ping":179},{"user_id":139,"name":"generic alias","steam_id":76561198271607226,"connected_time":3681000000000,"state":"active","ping":87},{"user_id":157,"name":"Boobs rater","steam_id":76561198066977580,"connected_time":2569000000000,"state":"active","ping":93},{"user_id":175,"name":"Lena ^^","steam_id":76561199435586696,"connected_time":1096000000000,"state":"active","ping":90},{"user_id":177,"name":"glyph","steam_id":76561197980736364,"connected_time":1075000000000,"state":"active","ping":77},{"user_id":142,"name":"Miatthew","steam_id":76561198034102895,"connected_time":3459000000000,"state":"active","ping":57},{"user_id":144,"name":"Gordon Birdman","steam_id":76561198013382324,"connected_time":3160000000000,"state":"active","ping":75},{"user_id":153,"name":"pawcio2091","steam_id":76561198262515197,"connected_time":2699000000000,"state":"active","ping":90},{"user_id":181,"name":"Êó©‰∏äÂ•Ω‰∏≠ÂõΩ","steam_id":76561198033205384,"connected_time":980000000000,"state":"active","ping":60},{"user_id":174,"name":"para","steam_id":76561197989877167,"connected_time":1190000000000,"state":"active","ping":59},{"user_id":178,"name":"Fran","steam_id":76561199070516960,"connected_time":1075000000000,"state":"active","ping":64},{"user_id":160,"name":"Numbe","steam_id":76561198269614930,"connected_time":2231000000000,"state":"active","ping":77},{"user_id":167,"name":":/","steam_id":76561199382587543,"connected_time":1614000000000,"state":"active","ping":50},{"user_id":166,"name":"ToniGAM3S","steam_id":76561198128605351,"connected_time":1839000000000,"state":"active","ping":60},{"user_id":170,"name":"üå≠üåº Hugee","steam_id":76561198245495152,"connected_time":1458000000000,"state":"active","ping":75},{"user_id":185,"name":"Iru","steam_id":76561198077602040,"connected_time":166000000000,"state":"active","ping":61},{"user_id":158,"name":"Viperense","steam_id":76561198036206811,"connected_time":2549000000000,"state":"active","ping":82},{"user_id":163,"name":"No, Why?","steam_id":76561198888755969,"connected_time":2015000000000,"state":"active","ping":61},{"user_id":156,"name":"xiiski","steam_id":76561198152387747,"connected_time":2663000000000,"state":"active","ping":88},{"user_id":179,"name":"„ÉÜ„Ç§„É´„Çπ","steam_id":76561198022403271,"connected_time":1054000000000,"state":"active","ping":45},{"user_id":182,"name":"egg","steam_id":76561198172058047,"connected_time":870000000000,"state":"active","ping":60},{"user_id":155,"name":"Taewinzer","steam_id":76561198261820803,"connected_time":2677000000000,"state":"active","ping":75}]},{"server_id":308,"name":"Uncletopia | Frankfurt | 3 | All Maps","name_short":"frk-3","host":"frk-1.de.uncletopia.com","port":27035,"enabled":true,"region":"eu","cc":"de","latitude":50.110924,"longitude":8.682127,"reserved":0,"last_update":"0001-01-01T00:00:00Z","name_a2s":"Uncletopia | Frankfurt | 3 | All Maps","protocol":17,"map":"cp_mountainlab","folder":"tf","game":"Team Fortress","app_id":440,"player_count":23,"max_players":24,"Bots":0,"server_type":"Dedicated","server_os":"Linux","password":true,"vac":true,"version":"7723704","steam_id":85568392924504274,"keywords":["cp","nocrits","nodmgspread","uncletopia"],"game_id":440,"stv_port":27036,"stv_name":"Uncletopia | Frankfurt | 3 | All Maps | STV","players":[{"user_id":185,"name":"HatMann","steam_id":76561198821664938,"connected_time":2959000000000,"state":"active","ping":92},{"user_id":241,"name":"Crazedspicy","steam_id":76561199004590962,"connected_time":83000000000,"state":"active","ping":49},{"user_id":242,"name":"Maerk","steam_id":76561199119121016,"connected_time":79000000000,"state":"active","ping":81},{"user_id":187,"name":"victor men)","steam_id":76561198059210214,"connected_time":2738000000000,"state":"active","ping":60},{"user_id":57,"name":"gagalak","steam_id":76561198089979108,"connected_time":12646000000000,"state":"active","ping":87},{"user_id":222,"name":"naleksi","steam_id":76561198018391055,"connected_time":1075000000000,"state":"active","ping":95},{"user_id":236,"name":"–ò–≤–∞–Ω–æ–≤","steam_id":76561198817596606,"connected_time":243000000000,"state":"active","ping":62},{"user_id":240,"name":"prosto crabic","steam_id":76561198294473783,"connected_time":108000000000,"state":"active","ping":99},{"user_id":219,"name":"PLUTO","steam_id":76561198312436128,"connected_time":1103000000000,"state":"active","ping":118},{"user_id":170,"name":"Jab the Flower","steam_id":76561198094987503,"connected_time":4314000000000,"state":"active","ping":91},{"user_id":239,"name":"ShinuEmu","steam_id":76561199380734528,"connected_time":158000000000,"state":"active","ping":148},{"user_id":238,"name":"Nick","steam_id":76561198036109469,"connected_time":173000000000,"state":"active","ping":94},{"user_id":228,"name":"My name is Spencer, Di Spencer","steam_id":76561198152697674,"connected_time":1011000000000,"state":"active","ping":50},{"user_id":139,"name":"snazzyyy","steam_id":76561198143529110,"connected_time":6157000000000,"state":"active","ping":45},{"user_id":243,"name":"imperia400","steam_id":76561199036095993,"connected_time":73000000000,"state":"active","ping":77},{"user_id":204,"name":"SugipuLaur","steam_id":76561199138556623,"connected_time":1603000000000,"state":"active","ping":75},{"user_id":143,"name":"Cuthbert","steam_id":76561198204649481,"connected_time":5760000000000,"state":"active","ping":96},{"user_id":237,"name":"anairat","steam_id":76561198863788240,"connected_time":215000000000,"state":"active","ping":78},{"user_id":229,"name":"The Funny Cat-Heaby","steam_id":76561198439978112,"connected_time":1006000000000,"state":"active","ping":95},{"user_id":208,"name":"0______0","steam_id":76561198118695421,"connected_time":1510000000000,"state":"active","ping":73},{"user_id":226,"name":"Chang supremacy","steam_id":76561198179324075,"connected_time":1045000000000,"state":"active","ping":75},{"user_id":180,"name":"kvlt","steam_id":76561198119420945,"connected_time":3708000000000,"state":"active","ping":77},{"user_id":230,"name":"Burgoo_King","steam_id":76561198133572225,"connected_time":985000000000,"state":"active","ping":67}]},{"server_id":309,"name":"Uncletopia | Frankfurt | 4 | All Maps","name_short":"frk-4","host":"frk-1.de.uncletopia.com","port":27045,"enabled":true,"region":"eu","cc":"de","latitude":50.110924,"longitude":8.682127,"reserved":0,"last_update":"0001-01-01T00:00:00Z","name_a2s":"Uncletopia | Frankfurt | 4 | All Maps","protocol":17,"map":"cp_sunshine","folder":"tf","game":"Team Fortress","app_id":440,"player_count":0,"max_players":24,"Bots":0,"server_type":"Dedicated","server_os":"Linux","password":true,"vac":true,"version":"7723704","steam_id":85568392924504275,"keywords":["cp","nocrits","nodmgspread","uncletopia"],"game_id":440,"stv_port":27046,"stv_name":"Uncletopia | Frankfurt | 4 | All Maps | STV","players":null},{"server_id":310,"name":"Uncletopia | Frankfurt | 5 | All Maps","name_short":"frk-5","host":"frk-1.de.uncletopia.com","port":27055,"enabled":true,"region":"eu","cc":"de","latitude":50.110924,"longitude":8.682127,"reserved":0,"last_update":"0001-01-01T00:00:00Z","name_a2s":"Uncletopia | Frankfurt | 5 | All Maps","protocol":17,"map":"pl_swiftwater_final1","folder":"tf","game":"Team Fortress","app_id":440,"player_count":24,"max_players":24,"Bots":0,"server_type":"Dedicated","server_os":"Linux","password":true,"vac":true,"version":"7723704","steam_id":85568392924504277,"keywords":["nocrits","nodmgspread","payload","uncletopia"],"game_id":440,"stv_port":27056,"stv_name":"Uncletopia | Frankfurt | 5 | All Maps | STV","players":[{"user_id":191,"name":"Pyromana","steam_id":76561198088421655,"connected_time":384000000000,"state":"active","ping":53},{"user_id":190,"name":"Kili","steam_id":76561198138456346,"connected_time":397000000000,"state":"active","ping":69},{"user_id":178,"name":"Loop_Cat","steam_id":76561199045902145,"connected_time":627000000000,"state":"active","ping":114},{"user_id":133,"name":"Passionatly Drunk Irishman","steam_id":76561198372536459,"connected_time":4042000000000,"state":"active","ping":66},{"user_id":157,"name":"Goliath","steam_id":76561198088583638,"connected_time":2033000000000,"state":"active","ping":54},{"user_id":179,"name":"frEnCH dRuNK gUy","steam_id":76561198893686453,"connected_time":597000000000,"state":"active","ping":67},{"user_id":195,"name":"Gordon Freemason.","steam_id":76561199249733628,"connected_time":213000000000,"state":"active","ping":164},{"user_id":175,"name":"Carpe diem.","steam_id":76561199065917088,"connected_time":729000000000,"state":"active","ping":74},{"user_id":180,"name":"Itai","steam_id":76561198804555329,"connected_time":581000000000,"state":"active","ping":111},{"user_id":186,"name":"kotamine","steam_id":76561198068907991,"connected_time":502000000000,"state":"active","ping":71},{"user_id":176,"name":"ash","steam_id":76561198004728744,"connected_time":679000000000,"state":"active","ping":45},{"user_id":182,"name":"Cant find a large enough condom","steam_id":76561198170081058,"connected_time":561000000000,"state":"active","ping":53},{"user_id":183,"name":"System","steam_id":76561199442503973,"connected_time":555000000000,"state":"active","ping":36},{"user_id":192,"name":"Light601","steam_id":76561198134998492,"connected_time":364000000000,"state":"active","ping":89},{"user_id":185,"name":"F1-M","steam_id":76561198198409875,"connected_time":523000000000,"state":"active","ping":124},{"user_id":196,"name":"Michael","steam_id":76561198003146906,"connected_time":194000000000,"state":"active","ping":56},{"user_id":174,"name":"suN","steam_id":76561198334556356,"connected_time":865000000000,"state":"active","ping":77},{"user_id":193,"name":"DSL","steam_id":76561198186770547,"connected_time":347000000000,"state":"active","ping":91},{"user_id":163,"name":"mt","steam_id":76561197961319303,"connected_time":1833000000000,"state":"active","ping":58},{"user_id":115,"name":"Milosz52","steam_id":76561199060940204,"connected_time":5168000000000,"state":"active","ping":77},{"user_id":188,"name":"tacker11","steam_id":76561198886244287,"connected_time":483000000000,"state":"active","ping":66},{"user_id":138,"name":"Yona_Man_Jones","steam_id":76561198986032201,"connected_time":3378000000000,"state":"active","ping":105},{"user_id":167,"name":"videogames1000","steam_id":76561198086976963,"connected_time":1313000000000,"state":"active","ping":90},{"user_id":194,"name":"L√∂ys√§ Masa","steam_id":76561198343396172,"connected_time":288000000000,"state":"active","ping":84}]},{"server_id":311,"name":"Uncletopia | Frankfurt | 6 | All Maps","name_short":"frk-6","host":"frk-1.de.uncletopia.com","port":27065,"enabled":true,"region":"eu","cc":"de","latitude":50.110924,"longitude":8.682127,"reserved":0,"last_update":"0001-01-01T00:00:00Z","name_a2s":"Uncletopia | Frankfurt | 6 | All Maps","protocol":17,"map":"koth_cascade","folder":"tf","game":"Team Fortress","app_id":440,"player_count":0,"max_players":24,"Bots":0,"server_type":"Dedicated","server_os":"Linux","password":true,"vac":true,"version":"7723704","steam_id":85568392924504278,"keywords":["cp","nocrits","nodmgspread","uncletopia"],"game_id":440,"stv_port":27066,"stv_name":"Uncletopia | Frankfurt | 6 | All Maps | STV","players":null},{"server_id":23,"name":"Uncletopia | Frankfurt | 7 | Stopwatch Beta","name_short":"frk-7","host":"frk-1.de.uncletopia.com","port":27075,"enabled":true,"region":"eu","cc":"de","latitude":50.110924,"longitude":8.682127,"reserved":0,"last_update":"0001-01-01T00:00:00Z","name_a2s":"Uncletopia | Frankfurt | 7 | Stopwatch Beta","protocol":17,"map":"koth_viaduct","folder":"tf","game":"Team Fortress","app_id":440,"player_count":12,"max_players":24,"Bots":0,"server_type":"Dedicated","server_os":"Linux","password":true,"vac":true,"version":"7723704","steam_id":85568392924742827,"keywords":["cp","nocrits","nodmgspread","uncletopia"],"game_id":440,"stv_port":27076,"stv_name":"Uncletopia | Frankfurt | 7 | Stopwatch Beta | STV","players":[{"user_id":23,"name":"(CAT) Kiracatala","steam_id":76561198120708257,"connected_time":49000000000,"state":"active","ping":60},{"user_id":10,"name":"[DAH] ‚õßPaublosan‚õß","steam_id":76561198026309033,"connected_time":447000000000,"state":"active","ping":71},{"user_id":13,"name":"[DAH] P E T E R","steam_id":76561199154450007,"connected_time":322000000000,"state":"active","ping":72},{"user_id":12,"name":"[DAH] *fred123pl*","steam_id":76561198085461681,"connected_time":403000000000,"state":"active","ping":62},{"user_id":14,"name":"Malik794","steam_id":76561198967164437,"connected_time":303000000000,"state":"active","ping":99},{"user_id":16,"name":"E","steam_id":76561198166340115,"connected_time":244000000000,"state":"active","ping":65},{"user_id":17,"name":"Cranjis McBasketball","steam_id":76561198051290193,"connected_time":227000000000,"state":"active","ping":60},{"user_id":24,"name":"Tataffe","steam_id":76561198042048259,"connected_time":19000000000,"state":"active","ping":40},{"user_id":19,"name":"[DAH] Leow0ok","steam_id":76561199047004064,"connected_time":210000000000,"state":"active","ping":60},{"user_id":20,"name":"F","steam_id":76561199149462792,"connected_time":167000000000,"state":"active","ping":59},{"user_id":21,"name":"Senfbaron","steam_id":76561198070370608,"connected_time":156000000000,"state":"active","ping":58},{"user_id":22,"name":"NZN_pro","steam_id":76561198862334903,"connected_time":69000000000,"state":"active","ping":148}]},{"server_id":24,"name":"Uncletopia | Frankfurt | 8 | Community","name_short":"frk-8","host":"frk-1.de.uncletopia.com","port":27085,"enabled":true,"region":"eu","cc":"de","latitude":50.110924,"longitude":8.682127,"reserved":0,"last_update":"0001-01-01T00:00:00Z","name_a2s":"Uncletopia | Frankfurt | 8 | Community","protocol":17,"map":"pl_frontier_final","folder":"tf","game":"Team Fortress","app_id":440,"player_count":0,"max_players":24,"Bots":0,"server_type":"Dedicated","server_os":"Linux","password":true,"vac":true,"version":"7723704","steam_id":85568392924742828,"keywords":["nocrits","nodmgspread","payload","uncletopia"],"game_id":440,"stv_port":27086,"stv_name":"Uncletopia | Frankfurt | 8 | Community | STV","players":null},{"server_id":202,"name":"Uncletopia | Hong Kong | 1 | All Maps","name_short":"hgk-1","host":"hgk-1.hk.uncletopia.com","port":27015,"enabled":true,"region":"asia","cc":"hk","latitude":22.302711,"longitude":114.177216,"reserved":0,"last_update":"0001-01-01T00:00:00Z","name_a2s":"Uncletopia | Hong Kong | 1 | All Maps","protocol":17,"map":"pl_frontier_final","folder":"tf","game":"Team Fortress","app_id":440,"player_count":25,"max_players":24,"Bots":0,"server_type":"Dedicated","server_os":"Linux","password":true,"vac":true,"version":"7723704","steam_id":85568392924494504,"keywords":["nocrits","nodmgspread","payload","uncletopia"],"game_id":440,"stv_port":27016,"stv_name":"Uncletopia | Hong Kong | 1 | All Maps | STV","players":[{"user_id":307,"name":"bistek","steam_id":76561198230213828,"connected_time":333000000000,"state":"active","ping":60},{"user_id":274,"name":"Maggres","steam_id":76561198369226092,"connected_time":2559000000000,"state":"active","ping":74},{"user_id":254,"name":"brizzard","steam_id":76561198048438653,"connected_time":3745000000000,"state":"active","ping":47},{"user_id":291,"name":"Corhix","steam_id":76561198968706355,"connected_time":1866000000000,"state":"active","ping":44},{"user_id":260,"name":"Pillboi","steam_id":76561198011172886,"connected_time":3532000000000,"state":"active","ping":41},{"user_id":303,"name":"killman47","steam_id":76561198348487408,"connected_time":950000000000,"state":"active","ping":42},{"user_id":283,"name":"mmelg","steam_id":76561198135898988,"connected_time":2221000000000,"state":"active","ping":74},{"user_id":302,"name":"MongGoyo63","steam_id":76561198349540834,"connected_time":990000000000,"state":"active","ping":72},{"user_id":286,"name":"Âè∞ÊπæÁ¨¨‰∏Ä","steam_id":76561198051010163,"connected_time":2040000000000,"state":"active","ping":87},{"user_id":305,"name":"get that thong out yo bussy","steam_id":76561199080667060,"connected_time":803000000000,"state":"active","ping":69},{"user_id":161,"name":"Bertengkar","steam_id":76561198213031155,"connected_time":10740000000000,"state":"active","ping":95},{"user_id":194,"name":"screaming sniper","steam_id":76561199085568674,"connected_time":8925000000000,"state":"active","ping":59},{"user_id":300,"name":"Saffron","steam_id":76561199025320247,"connected_time":1193000000000,"state":"active","ping":72},{"user_id":288,"name":"L√∫d","steam_id":76561198828840546,"connected_time":1995000000000,"state":"active","ping":78},{"user_id":249,"name":"Lu","steam_id":76561198320532821,"connected_time":3833000000000,"state":"active","ping":54},{"user_id":145,"name":"tiden2000","steam_id":76561198092969425,"connected_time":11963000000000,"state":"active","ping":69},{"user_id":297,"name":"Telekhine","steam_id":76561198387120618,"connected_time":1496000000000,"state":"active","ping":57},{"user_id":311,"name":"Cheesey","steam_id":76561198975684137,"connected_time":12000000000,"state":"spawning","ping":110},{"user_id":295,"name":"fried your balls","steam_id":76561198849060560,"connected_time":1520000000000,"state":"active","ping":81},{"user_id":299,"name":"+W+","steam_id":76561197997220367,"connected_time":1237000000000,"state":"active","ping":48},{"user_id":231,"name":":)","steam_id":76561198437941450,"connected_time":5042000000000,"state":"active","ping":79},{"user_id":312,"name":"cellum95","steam_id":76561198172146871,"connected_time":12000000000,"state":"spawning","ping":95},{"user_id":263,"name":"Sledgehammer gaming","steam_id":76561199166618082,"connected_time":3422000000000,"state":"active","ping":84},{"user_id":301,"name":"The Cake is a lie","steam_id":76561198190738610,"connected_time":1192000000000,"state":"active","ping":128},{"user_id":313,"name":"hpeed","steam_id":76561198808595586,"connected_time":12000000000,"state":"spawning","ping":143}]},{"server_id":1,"name":"Uncletopia | Los Angeles | 1 | All Maps","name_short":"lax-1","host":"lax-1.us.uncletopia.com","port":27015,"enabled":true,"region":"us-west","cc":"us","latitude":33.94279,"longitude":-118.41004,"reserved":0,"last_update":"0001-01-01T00:00:00Z","name_a2s":"Uncletopia | Los Angeles | 1 | All Maps","protocol":17,"map":"pl_snowycoast","folder":"tf","game":"Team Fortress","app_id":440,"player_count":0,"max_players":24,"Bots":0,"server_type":"Dedicated","server_os":"Linux","password":true,"vac":true,"version":"7723704","steam_id":85568392924469991,"keywords":["nocrits","nodmgspread","payload","uncletopia"],"game_id":440,"stv_port":27016,"stv_name":"Uncletopia | Los Angeles | 1 | All Maps | STV","players":null},{"server_id":112,"name":"Uncletopia | Los Angeles | 2 | All Maps","name_short":"lax-2","host":"lax-1.us.uncletopia.com","port":27025,"enabled":true,"region":"us-west","cc":"us","latitude":33.94279,"longitude":-118.41004,"reserved":0,"last_update":"0001-01-01T00:00:00Z","name_a2s":"Uncletopia | Los Angeles | 2 | All Maps","protocol":17,"map":"koth_viaduct","folder":"tf","game":"Team Fortress","app_id":440,"player_count":0,"max_players":24,"Bots":0,"server_type":"Dedicated","server_os":"Linux","password":true,"vac":true,"version":"7723704","steam_id":85568392924469992,"keywords":["cp","nocrits","nodmgspread","uncletopia"],"game_id":440,"stv_port":27026,"stv_name":"Uncletopia | Los Angeles | 2 | All Maps | STV","players":null},{"server_id":324,"name":"Uncletopia | Los Angeles | 3 | All Maps","name_short":"lax-3","host":"lax-1.us.uncletopia.com","port":27035,"enabled":true,"region":"us-west","cc":"us","latitude":33.94279,"longitude":-118.41004,"reserved":0,"last_update":"0001-01-01T00:00:00Z","name_a2s":"Uncletopia | Los Angeles | 3 | All Maps","protocol":17,"map":"koth_viaduct","folder":"tf","game":"Team Fortress","app_id":440,"player_count":0,"max_players":24,"Bots":0,"server_type":"Dedicated","server_os":"Linux","password":true,"vac":true,"version":"7723704","steam_id":85568392924510198,"keywords":["cp","nocrits","nodmgspread","uncletopia"],"game_id":440,"stv_port":27036,"stv_name":"Uncletopia | Los Angeles | 3 | All Maps | STV","players":null},{"server_id":25,"name":"Uncletopia | Los Angeles | 4 | Stopwatch Beta","name_short":"lax-4","host":"lax-1.us.uncletopia.com","port":27045,"enabled":true,"region":"us-west","cc":"us","latitude":33.94279,"longitude":-118.41004,"reserved":0,"last_update":"0001-01-01T00:00:00Z","name_a2s":"Uncletopia | Los Angeles | 4 | Stopwatch Beta","protocol":17,"map":"cp_sunshine","folder":"tf","game":"Team Fortress","app_id":440,"player_count":0,"max_players":24,"Bots":0,"server_type":"Dedicated","server_os":"Linux","password":true,"vac":true,"version":"7723704","steam_id":85568392924510199,"keywords":["cp","nocrits","nodmgspread","uncletopia"],"game_id":440,"stv_port":27046,"stv_name":"Uncletopia | Los Angeles | 4 | Stopwatch Beta | STV","players":null},{"server_id":11,"name":"Uncletopia | London | 1 | All Maps","name_short":"lon-1","host":"lon-1.uk.uncletopia.com","port":27015,"enabled":true,"region":"eu","cc":"gb","latitude":51.509865,"longitude":-0.118092,"reserved":0,"last_update":"0001-01-01T00:00:00Z","name_a2s":"Uncletopia | London | 1 | All Maps","protocol":17,"map":"koth_highpass","folder":"tf","game":"Team Fortress","app_id":440,"player_count":24,"max_players":24,"Bots":0,"server_type":"Dedicated","server_os":"Linux","password":true,"vac":true,"version":"7723704","steam_id":85568392924367362,"keywords":["cp","nocrits","nodmgspread","uncletopia"],"game_id":440,"stv_port":27016,"stv_name":"Uncletopia | London | 1 | All Maps | STV","players":[{"user_id":83,"name":"Batman2908","steam_id":76561198855401335,"connected_time":885000000000,"state":"active","ping":63},{"user_id":97,"name":"sex haver","steam_id":76561198798892497,"connected_time":409000000000,"state":"active","ping":48},{"user_id":76,"name":"Haircut Police","steam_id":76561198084197772,"connected_time":992000000000,"state":"active","ping":57},{"user_id":50,"name":"√ÉNVS DR√ÉNVS","steam_id":76561198138733015,"connected_time":4097000000000,"state":"active","ping":120},{"user_id":78,"name":"Bread 0f Box","steam_id":76561198165594721,"connected_time":934000000000,"state":"active","ping":51},{"user_id":98,"name":"Bonk","steam_id":76561198844193324,"connected_time":403000000000,"state":"active","ping":48},{"user_id":94,"name":"waddle dork","steam_id":76561198297349985,"connected_time":471000000000,"state":"active","ping":64},{"user_id":96,"name":"FemKastely","steam_id":76561198164079439,"connected_time":433000000000,"state":"active","ping":78},{"user_id":67,"name":"Zoran Snajper","steam_id":76561198312564061,"connected_time":1914000000000,"state":"active","ping":74},{"user_id":29,"name":"Him","steam_id":76561198086400484,"connected_time":4863000000000,"state":"active","ping":65},{"user_id":80,"name":"Bait","steam_id":76561198335188568,"connected_time":928000000000,"state":"active","ping":36},{"user_id":45,"name":"gamerweed5","steam_id":76561198087651151,"connected_time":4512000000000,"state":"active","ping":41},{"user_id":81,"name":"TheGuyFromFortnite","steam_id":76561199099649565,"connected_time":902000000000,"state":"active","ping":54},{"user_id":32,"name":"Smag","steam_id":76561198153675141,"connected_time":4747000000000,"state":"active","ping":46},{"user_id":70,"name":"goofy goober","steam_id":76561198013237629,"connected_time":1116000000000,"state":"active","ping":92},{"user_id":58,"name":"NormalMan","steam_id":76561198411005486,"connected_time":2907000000000,"state":"active","ping":87},{"user_id":82,"name":"DunDUNDAN","steam_id":76561198041700091,"connected_time":896000000000,"state":"active","ping":61},{"user_id":51,"name":"eggslut","steam_id":76561198010752241,"connected_time":3987000000000,"state":"active","ping":63},{"user_id":84,"name":"miko polo","steam_id":76561198430649064,"connected_time":856000000000,"state":"active","ping":68},{"user_id":39,"name":"someone8008","steam_id":76561199417258370,"connected_time":4647000000000,"state":"active","ping":92},{"user_id":88,"name":"Thors","steam_id":76561197968739075,"connected_time":741000000000,"state":"active","ping":44},{"user_id":85,"name":"*something in russian*","steam_id":76561198964471859,"connected_time":842000000000,"state":"active","ping":128},{"user_id":93,"name":"Suomenjuusto","steam_id":76561198991491758,"connected_time":559000000000,"state":"active","ping":85},{"user_id":95,"name":"Lapa Mato","steam_id":76561199052049475,"connected_time":469000000000,"state":"active","ping":102}]},{"server_id":114,"name":"Uncletopia | London | 2 | All Maps","name_short":"lon-2","host":"lon-1.uk.uncletopia.com","port":27025,"enabled":true,"region":"eu","cc":"gb","latitude":51.509865,"longitude":-0.118092,"reserved":0,"last_update":"0001-01-01T00:00:00Z","name_a2s":"Uncletopia | London | 2 | All Maps","protocol":17,"map":"koth_lakeside_final","folder":"tf","game":"Team Fortress","app_id":440,"player_count":0,"max_players":24,"Bots":0,"server_type":"Dedicated","server_os":"Linux","password":true,"vac":true,"version":"7723704","steam_id":85568392924470941,"keywords":["cp","nocrits","nodmgspread","uncletopia"],"game_id":440,"stv_port":27026,"stv_name":"Uncletopia | London | 2 | All Maps | STV","players":null},{"server_id":320,"name":"Uncletopia | London | 3 | All Maps","name_short":"lon-3","host":"lon-1.uk.uncletopia.com","port":27035,"enabled":true,"region":"eu","cc":"gb","latitude":51.509865,"longitude":-0.118092,"reserved":0,"last_update":"0001-01-01T00:00:00Z","name_a2s":"Uncletopia | London | 3 | All Maps","protocol":17,"map":"pl_pier","folder":"tf","game":"Team Fortress","app_id":440,"player_count":24,"max_players":24,"Bots":0,"server_type":"Dedicated","server_os":"Linux","password":true,"vac":true,"version":"7723704","steam_id":85568392924510192,"keywords":["nocrits","nodmgspread","payload","uncletopia"],"game_id":440,"stv_port":27036,"stv_name":"Uncletopia | London | 3 | All Maps | STV","players":[{"user_id":276,"name":"$VODOO^","steam_id":76561198909089348,"connected_time":1583000000000,"state":"active","ping":159},{"user_id":261,"name":"socaramel","steam_id":76561197984480336,"connected_time":2717000000000,"state":"active","ping":75},{"user_id":277,"name":"NonProphet","steam_id":76561198280149820,"connected_time":1324000000000,"state":"active","ping":46},{"user_id":247,"name":"TEN YEARS IN THE JOINT","steam_id":76561198393528841,"connected_time":3281000000000,"state":"active","ping":91},{"user_id":199,"name":"T_G_G","steam_id":76561199114568070,"connected_time":6062000000000,"state":"active","ping":87},{"user_id":264,"name":"‚ñ∫hAppser‚óÑ","steam_id":76561198255221005,"connected_time":2169000000000,"state":"active","ping":88},{"user_id":273,"name":"SpilledMilk","steam_id":76561198174123971,"connected_time":1768000000000,"state":"active","ping":64},{"user_id":266,"name":"maakgis","steam_id":76561198851703804,"connected_time":2078000000000,"state":"active","ping":122},{"user_id":256,"name":"LAMC","steam_id":76561199066888917,"connected_time":3056000000000,"state":"active","ping":69},{"user_id":282,"name":"Narvhal√∏","steam_id":76561198147495474,"connected_time":885000000000,"state":"active","ping":44},{"user_id":289,"name":"One-Face","steam_id":76561197999384826,"connected_time":132000000000,"state":"active","ping":60},{"user_id":251,"name":"Tort","steam_id":76561198329646769,"connected_time":3184000000000,"state":"active","ping":49},{"user_id":278,"name":"Yuval","steam_id":76561198241802390,"connected_time":1300000000000,"state":"active","ping":107},{"user_id":178,"name":"Minecraftien_76","steam_id":76561198443111849,"connected_time":7323000000000,"state":"active","ping":95},{"user_id":259,"name":"Croissant au chocolatine","steam_id":76561198162063872,"connected_time":2815000000000,"state":"active","ping":55},{"user_id":205,"name":"DrExplosive","steam_id":76561198063678579,"connected_time":5612000000000,"state":"active","ping":32},{"user_id":279,"name":"Cocaine bear","steam_id":76561199213901239,"connected_time":1273000000000,"state":"active","ping":40},{"user_id":285,"name":"The Fighting Doll","steam_id":76561197990347787,"connected_time":425000000000,"state":"active","ping":49},{"user_id":291,"name":"sjef kef","steam_id":76561198131951354,"connected_time":23000000000,"state":"active","ping":62},{"user_id":280,"name":"Yahn","steam_id":76561198119195982,"connected_time":1074000000000,"state":"active","ping":59},{"user_id":283,"name":"tristan","steam_id":76561198096097448,"connected_time":794000000000,"state":"active","ping":48},{"user_id":284,"name":"ti ebanutiy?","steam_id":76561198244445226,"connected_time":761000000000,"state":"active","ping":88},{"user_id":248,"name":"gion","steam_id":76561199065121816,"connected_time":3265000000000,"state":"active","ping":92},{"user_id":275,"name":"Vertically Challenged","steam_id":76561198257158275,"connected_time":1604000000000,"state":"active","ping":151}]},{"server_id":321,"name":"Uncletopia | London | 4 | All Maps","name_short":"lon-4","host":"lon-1.uk.uncletopia.com","port":27045,"enabled":true,"region":"eu","cc":"gb","latitude":51.509865,"longitude":-0.118092,"reserved":0,"last_update":"0001-01-01T00:00:00Z","name_a2s":"Uncletopia | London | 4 | All Maps","protocol":17,"map":"koth_lakeside_final","folder":"tf","game":"Team Fortress","app_id":440,"player_count":0,"max_players":24,"Bots":0,"server_type":"Dedicated","server_os":"Linux","password":true,"vac":true,"version":"7723704","steam_id":85568392924510193,"keywords":["cp","nocrits","nodmgspread","uncletopia"],"game_id":440,"stv_port":27046,"stv_name":"Uncletopia | London | 4 | All Maps | STV","players":null},{"server_id":21,"name":"Uncletopia | London | 5 | All Maps","name_short":"lon-5","host":"lon-1.uk.uncletopia.com","port":27055,"enabled":true,"region":"eu","cc":"gb","latitude":51.509865,"longitude":-0.118092,"reserved":0,"last_update":"0001-01-01T00:00:00Z","name_a2s":"Uncletopia | London | 5 | All Maps","protocol":17,"map":"koth_viaduct","folder":"tf","game":"Team Fortress","app_id":440,"player_count":0,"max_players":24,"Bots":0,"server_type":"Dedicated","server_os":"Linux","password":true,"vac":true,"version":"7723704","steam_id":85568392924742829,"keywords":["cp","nocrits","nodmgspread","uncletopia"],"game_id":440,"stv_port":27056,"stv_name":"Uncletopia | London | 5 | All Maps | STV","players":null},{"server_id":22,"name":"Uncletopia | London | 6 | All Maps","name_short":"lon-6","host":"lon-1.uk.uncletopia.com","port":27065,"enabled":true,"region":"eu","cc":"gb","latitude":51.509865,"longitude":-0.118092,"reserved":0,"last_update":"0001-01-01T00:00:00Z","name_a2s":"Uncletopia | London | 6 | All Maps","protocol":17,"map":"pl_upward","folder":"tf","game":"Team Fortress","app_id":440,"player_count":0,"max_players":24,"Bots":0,"server_type":"Dedicated","server_os":"Linux","password":true,"vac":true,"version":"7723704","steam_id":85568392924742830,"keywords":["nocrits","nodmgspread","payload","uncletopia"],"game_id":440,"stv_port":27066,"stv_name":"Uncletopia | London | 6 | All Maps | STV","players":null},{"server_id":40,"name":"Uncletopia | London | 7 | No Payload","name_short":"lon-7","host":"lon-1.uk.uncletopia.com","port":27075,"enabled":true,"region":"eu","cc":"gb","latitude":51.509865,"longitude":-0.118092,"reserved":0,"last_update":"0001-01-01T00:00:00Z","name_a2s":"Uncletopia | London | 7 | No Payload","protocol":17,"map":"koth_viaduct","folder":"tf","game":"Team Fortress","app_id":440,"player_count":2,"max_players":24,"Bots":0,"server_type":"Dedicated","server_os":"Linux","password":true,"vac":true,"version":"7723704","steam_id":85568392924964314,"keywords":["cp","nocrits","nodmgspread","uncletopia"],"game_id":440,"stv_port":27076,"stv_name":"Uncletopia | London | 7 | No Payload | STV","players":[{"user_id":4,"name":"[DAH] Crusad3r04","steam_id":76561198138197113,"connected_time":52000000000,"state":"active","ping":905},{"user_id":5,"name":"[DAH] O r a c l e","steam_id":76561198044057163,"connected_time":37000000000,"state":"active","ping":67}]},{"server_id":41,"name":"Uncletopia | London | 8 | Community","name_short":"lon-8","host":"lon-1.uk.uncletopia.com","port":27085,"enabled":true,"region":"eu","cc":"gb","latitude":51.509865,"longitude":-0.118092,"reserved":0,"last_update":"0001-01-01T00:00:00Z","name_a2s":"Uncletopia | London | 8 | Community","protocol":17,"map":"koth_highpass","folder":"tf","game":"Team Fortress","app_id":440,"player_count":0,"max_players":24,"Bots":0,"server_type":"Dedicated","server_os":"Linux","password":true,"vac":true,"version":"7723704","steam_id":85568392924964315,"keywords":["cp","nocrits","nodmgspread","uncletopia"],"game_id":440,"stv_port":27086,"stv_name":"Uncletopia | London | 8 | Community | STV","players":null},{"server_id":300,"name":"Uncletopia | Montr√©al | 1 | All Maps","name_short":"mtl-1","host":"mtl-1.ca.uncletopia.com","port":27015,"enabled":true,"region":"us-east","cc":"ca","latitude":45.50889,"longitude":-73.56167,"reserved":0,"last_update":"0001-01-01T00:00:00Z","name_a2s":"Uncletopia | Montr√©al | 1 | All Maps","protocol":17,"map":"pl_snowycoast","folder":"tf","game":"Team Fortress","app_id":440,"player_count":0,"max_players":24,"Bots":0,"server_type":"Dedicated","server_os":"Linux","password":true,"vac":true,"version":"7723704","steam_id":85568392924500087,"keywords":["nocrits","nodmgspread","payload","uncletopia"],"game_id":440,"stv_port":27016,"stv_name":"Uncletopia | Montr√©al | 1 | All Maps | STV","players":null},{"server_id":301,"name":"Uncletopia | Montr√©al | 2 | All Maps","name_short":"mtl-2","host":"mtl-1.ca.uncletopia.com","port":27025,"enabled":true,"region":"us-east","cc":"ca","latitude":45.50889,"longitude":-73.56167,"reserved":0,"last_update":"0001-01-01T00:00:00Z","name_a2s":"Uncletopia | Montr√©al | 2 | All Maps","protocol":17,"map":"cp_process_final","folder":"tf","game":"Team Fortress","app_id":440,"player_count":0,"max_players":24,"Bots":0,"server_type":"Dedicated","server_os":"Linux","password":true,"vac":true,"version":"7723704","steam_id":85568392924500088,"keywords":["cp","nocrits","nodmgspread","uncletopia"],"game_id":440,"stv_port":27026,"stv_name":"Uncletopia | Montr√©al | 2 | All Maps | STV","players":null},{"server_id":302,"name":"Uncletopia | Montr√©al | 3 | All Maps","name_short":"mtl-3","host":"mtl-1.ca.uncletopia.com","port":27035,"enabled":true,"region":"us-east","cc":"ca","latitude":45.50889,"longitude":-73.56167,"reserved":0,"last_update":"0001-01-01T00:00:00Z","name_a2s":"Uncletopia | Montr√©al | 3 | All Maps","protocol":17,"map":"pl_barnblitz","folder":"tf","game":"Team Fortress","app_id":440,"player_count":0,"max_players":24,"Bots":0,"server_type":"Dedicated","server_os":"Linux","password":true,"vac":true,"version":"7723704","steam_id":85568392924500089,"keywords":["nocrits","nodmgspread","payload","uncletopia"],"game_id":440,"stv_port":27036,"stv_name":"Uncletopia | Montr√©al | 3 | All Maps | STV","players":null},{"server_id":303,"name":"Uncletopia | Montr√©al | 4 | No Payload","name_short":"mtl-4","host":"mtl-1.ca.uncletopia.com","port":27045,"enabled":true,"region":"us-east","cc":"ca","latitude":45.50889,"longitude":-73.56167,"reserved":0,"last_update":"0001-01-01T00:00:00Z","name_a2s":"Uncletopia | Montr√©al | 4 | No Payload","protocol":17,"map":"koth_cascade","folder":"tf","game":"Team Fortress","app_id":440,"player_count":0,"max_players":24,"Bots":0,"server_type":"Dedicated","server_os":"Linux","password":true,"vac":true,"version":"7723704","steam_id":85568392924500090,"keywords":["cp","nocrits","nodmgspread","uncletopia"],"game_id":440,"stv_port":27046,"stv_name":"Uncletopia | Montr√©al | 4 | No Payload | STV","players":null},{"server_id":13,"name":"Uncletopia | New York City | 1 | All Maps","name_short":"nyc-1","host":"nyc-1.us.uncletopia.com","port":27015,"enabled":true,"region":"us-east","cc":"us","latitude":40.73061,"longitude":-73.93524,"reserved":0,"last_update":"0001-01-01T00:00:00Z","name_a2s":"Uncletopia | New York City | 1 | All Maps","protocol":17,"map":"pl_upward","folder":"tf","game":"Team Fortress","app_id":440,"player_count":1,"max_players":24,"Bots":0,"server_type":"Dedicated","server_os":"Linux","password":true,"vac":true,"version":"7723704","steam_id":85568392924469993,"keywords":["nocrits","nodmgspread","payload","uncletopia"],"game_id":440,"stv_port":27016,"stv_name":"Uncletopia | New York City | 1 | All Maps | STV","players":[{"user_id":3,"name":"The Rambler","steam_id":76561198109648603,"connected_time":741000000000,"state":"active","ping":69}]},{"server_id":14,"name":"Uncletopia | New York City | 2 | All Maps","name_short":"nyc-2","host":"nyc-1.us.uncletopia.com","port":27025,"enabled":true,"region":"us-east","cc":"us","latitude":40.73061,"longitude":-73.93524,"reserved":0,"last_update":"0001-01-01T00:00:00Z","name_a2s":"Uncletopia | New York City | 2 | All Maps","protocol":17,"map":"pl_barnblitz","folder":"tf","game":"Team Fortress","app_id":440,"player_count":0,"max_players":24,"Bots":0,"server_type":"Dedicated","server_os":"Linux","password":true,"vac":true,"version":"7723704","steam_id":85568392924469994,"keywords":["nocrits","nodmgspread","payload","uncletopia"],"game_id":440,"stv_port":27026,"stv_name":"Uncletopia | New York City | 2 | All Maps | STV","players":null},{"server_id":15,"name":"Uncletopia | New York City | 3 | Stopwatch Beta","name_short":"nyc-3","host":"nyc-1.us.uncletopia.com","port":27035,"enabled":true,"region":"us-east","cc":"us","latitude":40.73061,"longitude":-73.93524,"reserved":0,"last_update":"0001-01-01T00:00:00Z","name_a2s":"Uncletopia | New York City | 3 | Stopwatch Beta","protocol":17,"map":"cp_sunshine","folder":"tf","game":"Team Fortress","app_id":440,"player_count":0,"max_players":24,"Bots":0,"server_type":"Dedicated","server_os":"Linux","password":true,"vac":true,"version":"7723704","steam_id":85568392924742820,"keywords":["cp","nocrits","nodmgspread","uncletopia"],"game_id":440,"stv_port":27036,"stv_name":"Uncletopia | New York City | 3 | Stopwatch Beta | STV","players":null},{"server_id":16,"name":"Uncletopia | New York City | 4 | Community","name_short":"nyc-4","host":"nyc-1.us.uncletopia.com","port":27045,"enabled":true,"region":"us-east","cc":"us","latitude":40.73061,"longitude":-73.93524,"reserved":0,"last_update":"0001-01-01T00:00:00Z","name_a2s":"Uncletopia | New York City | 4 | Community","protocol":17,"map":"pl_frontier_final","folder":"tf","game":"Team Fortress","app_id":440,"player_count":0,"max_players":24,"Bots":0,"server_type":"Dedicated","server_os":"Linux","password":true,"vac":true,"version":"7723704","steam_id":85568392924742821,"keywords":["nocrits","nodmgspread","payload","uncletopia"],"game_id":440,"stv_port":27046,"stv_name":"Uncletopia | New York City | 4 | Community | STV","players":null},{"server_id":142,"name":"Uncletopia | S√£o Paulo | 1 | All Maps","name_short":"sao-1","host":"sao-1.br.uncletopia.com","port":27015,"enabled":true,"region":"sa","cc":"br","latitude":-23.533773,"longitude":-46.62529,"reserved":0,"last_update":"0001-01-01T00:00:00Z","name_a2s":"Uncletopia | S√£o Paulo | 1 | All Maps","protocol":17,"map":"pl_badwater","folder":"tf","game":"Team Fortress","app_id":440,"player_count":0,"max_players":24,"Bots":0,"server_type":"Dedicated","server_os":"Linux","password":true,"vac":true,"version":"7723704","steam_id":85568392924469996,"keywords":["nocrits","nodmgspread","payload","uncletopia"],"game_id":440,"stv_port":27016,"stv_name":"Uncletopia | S√£o Paulo | 1 | All Maps | STV","players":null},{"server_id":143,"name":"Uncletopia | S√£o Paulo | 2 | All Maps","name_short":"sao-2","host":"sao-2.br.uncletopia.com","port":27015,"enabled":true,"region":"sa","cc":"br","latitude":-23.533773,"longitude":-46.62529,"reserved":0,"last_update":"0001-01-01T00:00:00Z","name_a2s":"Uncletopia | S√£o Paulo | 2 | All Maps","protocol":17,"map":"pl_frontier_final","folder":"tf","game":"Team Fortress","app_id":440,"player_count":0,"max_players":24,"Bots":0,"server_type":"Dedicated","server_os":"Linux","password":true,"vac":true,"version":"7723704","steam_id":85568392924485349,"keywords":["nocrits","nodmgspread","payload","uncletopia"],"game_id":440,"stv_port":27016,"stv_name":"Uncletopia | S√£o Paulo | 2 | All Maps | STV","players":null},{"server_id":7,"name":"Uncletopia | Seattle | 1 | All Maps","name_short":"sea-1","host":"sea-1.us.uncletopia.com","port":27015,"enabled":true,"region":"us-west","cc":"us","latitude":47.608013,"longitude":-122.33517,"reserved":0,"last_update":"0001-01-01T00:00:00Z","name_a2s":"Uncletopia | Seattle | 1 | All Maps","protocol":17,"map":"koth_highpass","folder":"tf","game":"Team Fortress","app_id":440,"player_count":0,"max_players":24,"Bots":0,"server_type":"Dedicated","server_os":"Linux","password":true,"vac":true,"version":"7723704","steam_id":85568392924469997,"keywords":["cp","nocrits","nodmgspread","uncletopia"],"game_id":440,"stv_port":27016,"stv_name":"Uncletopia | Seattle | 1 | All Maps | STV","players":null},{"server_id":119,"name":"Uncletopia | Seattle | 2 | All Maps","name_short":"sea-2","host":"sea-1.us.uncletopia.com","port":27025,"enabled":true,"region":"us-west","cc":"us","latitude":47.608013,"longitude":-122.33517,"reserved":0,"last_update":"0001-01-01T00:00:00Z","name_a2s":"Uncletopia | Seattle | 2 | All Maps","protocol":17,"map":"pl_frontier_final","folder":"tf","game":"Team Fortress","app_id":440,"player_count":7,"max_players":24,"Bots":0,"server_type":"Dedicated","server_os":"Linux","password":true,"vac":true,"version":"7723704","steam_id":85568392924469998,"keywords":["nocrits","nodmgspread","payload","uncletopia"],"game_id":440,"stv_port":27026,"stv_name":"Uncletopia | Seattle | 2 | All Maps | STV","players":[{"user_id":214,"name":"brimstone","steam_id":76561198066619792,"connected_time":4483000000000,"state":"active","ping":75},{"user_id":265,"name":"Chromatic","steam_id":76561198355976286,"connected_time":74000000000,"state":"active","ping":183},{"user_id":249,"name":"Solaris","steam_id":76561198073166053,"connected_time":1221000000000,"state":"active","ping":112},{"user_id":264,"name":"Michiru Kagemori","steam_id":76561198257241799,"connected_time":227000000000,"state":"active","ping":91},{"user_id":263,"name":"Professional catboy hunter","steam_id":76561198290124697,"connected_time":291000000000,"state":"active","ping":59},{"user_id":262,"name":"dkrgrptgj","steam_id":76561199445694770,"connected_time":443000000000,"state":"active","ping":206},{"user_id":193,"name":"noraneko","steam_id":76561198025418738,"connected_time":5924000000000,"state":"active","ping":29}]},{"server_id":406,"name":"Uncletopia | Seattle | 3 | Stopwatch Beta","name_short":"sea-3","host":"sea-1.us.uncletopia.com","port":27035,"enabled":true,"region":"us-west","cc":"us","latitude":47.608013,"longitude":-122.33517,"reserved":0,"last_update":"0001-01-01T00:00:00Z","name_a2s":"Uncletopia | Seattle | 3 | Stopwatch Beta","protocol":17,"map":"cp_altitude","folder":"tf","game":"Team Fortress","app_id":440,"player_count":0,"max_players":24,"Bots":0,"server_type":"Dedicated","server_os":"Linux","password":true,"vac":false,"version":"7723704","steam_id":0,"keywords":["cp","nocrits","nodmgspread","uncletopia"],"game_id":440,"stv_port":27036,"stv_name":"Uncletopia | Seattle | 3 | Stopwatch Beta | STV","players":null},{"server_id":17,"name":"Uncletopia | San Francisco | 1 | All Maps","name_short":"sfo-1","host":"sfo-1.us.uncletopia.com","port":27015,"enabled":true,"region":"us-west","cc":"us","latitude":37.77397,"longitude":-122.4313,"reserved":0,"last_update":"0001-01-01T00:00:00Z","name_a2s":"Uncletopia | San Francisco | 1 | All Maps","protocol":17,"map":"pl_borneo","folder":"tf","game":"Team Fortress","app_id":440,"player_count":0,"max_players":24,"Bots":0,"server_type":"Dedicated","server_os":"Linux","password":true,"vac":true,"version":"7723704","steam_id":85568392924469999,"keywords":["nocrits","nodmgspread","payload","uncletopia"],"game_id":440,"stv_port":27016,"stv_name":"Uncletopia | San Francisco | 1 | All Maps | STV","players":null},{"server_id":18,"name":"Uncletopia | San Francisco | 2 | All Maps","name_short":"sfo-2","host":"sfo-1.us.uncletopia.com","port":27025,"enabled":true,"region":"us-west","cc":"us","latitude":37.77397,"longitude":-122.4313,"reserved":0,"last_update":"0001-01-01T00:00:00Z","name_a2s":"Uncletopia | San Francisco | 2 | All Maps","protocol":17,"map":"pl_borneo","folder":"tf","game":"Team Fortress","app_id":440,"player_count":0,"max_players":24,"Bots":0,"server_type":"Dedicated","server_os":"Linux","password":true,"vac":true,"version":"7723704","steam_id":85568392924470000,"keywords":["nocrits","nodmgspread","payload","uncletopia"],"game_id":440,"stv_port":27026,"stv_name":"Uncletopia | San Francisco | 2 | All Maps | STV","players":null},{"server_id":19,"name":"Uncletopia | San Francisco | 3 | Stopwatch Beta","name_short":"sfo-3","host":"sfo-1.us.uncletopia.com","port":27035,"enabled":true,"region":"us-west","cc":"us","latitude":37.77397,"longitude":-122.4313,"reserved":0,"last_update":"0001-01-01T00:00:00Z","name_a2s":"Uncletopia | San Francisco | 3 | Stopwatch Beta","protocol":17,"map":"cp_gullywash_final1","folder":"tf","game":"Team Fortress","app_id":440,"player_count":0,"max_players":24,"Bots":0,"server_type":"Dedicated","server_os":"Linux","password":true,"vac":true,"version":"7723704","steam_id":85568392924742824,"keywords":["cp","nocrits","nodmgspread","uncletopia"],"game_id":440,"stv_port":27036,"stv_name":"Uncletopia | San Francisco | 3 | Stopwatch Beta | STV","players":null},{"server_id":20,"name":"Uncletopia | San Francisco | 4 | Community","name_short":"sfo-4","host":"sfo-1.us.uncletopia.com","port":27045,"enabled":true,"region":"us-west","cc":"us","latitude":37.77397,"longitude":-122.4313,"reserved":0,"last_update":"0001-01-01T00:00:00Z","name_a2s":"Uncletopia | San Francisco | 4 | Community","protocol":17,"map":"koth_cascade","folder":"tf","game":"Team Fortress","app_id":440,"player_count":0,"max_players":24,"Bots":0,"server_type":"Dedicated","server_os":"Linux","password":true,"vac":true,"version":"7723704","steam_id":85568392924742826,"keywords":["cp","nocrits","nodmgspread","uncletopia"],"game_id":440,"stv_port":27046,"stv_name":"Uncletopia | San Francisco | 4 | Community | STV","players":null},{"server_id":141,"name":"Uncletopia | Sydney | 1 | All Maps","name_short":"syd-1","host":"syd-1.au.uncletopia.com","port":27015,"enabled":true,"region":"au","cc":"au","latitude":-33.865143,"longitude":151.2099,"reserved":0,"last_update":"0001-01-01T00:00:00Z","name_a2s":"Uncletopia | Sydney | 1 | All Maps","protocol":17,"map":"pl_pier","folder":"tf","game":"Team Fortress","app_id":440,"player_count":0,"max_players":24,"Bots":0,"server_type":"Dedicated","server_os":"Linux","password":true,"vac":true,"version":"7723704","steam_id":85568392924470001,"keywords":["nocrits","nodmgspread","payload","uncletopia"],"game_id":440,"stv_port":27016,"stv_name":"Uncletopia | Sydney | 1 | All Maps | STV","players":null},{"server_id":123,"name":"Uncletopia | Sydney | 2 | All Maps","name_short":"syd-2","host":"syd-1.au.uncletopia.com","port":27025,"enabled":true,"region":"au","cc":"au","latitude":-33.865143,"longitude":151.2099,"reserved":0,"last_update":"0001-01-01T00:00:00Z","name_a2s":"Uncletopia | Sydney | 2 | All Maps","protocol":17,"map":"pl_upward","folder":"tf","game":"Team Fortress","app_id":440,"player_count":24,"max_players":24,"Bots":0,"server_type":"Dedicated","server_os":"Linux","password":true,"vac":true,"version":"7723704","steam_id":85568392924470002,"keywords":["nocrits","nodmgspread","payload","uncletopia"],"game_id":440,"stv_port":27026,"stv_name":"Uncletopia | Sydney | 2 | All Maps | STV","players":[{"user_id":317,"name":"yons","steam_id":76561198083920784,"connected_time":640000000000,"state":"active","ping":64},{"user_id":292,"name":"April","steam_id":76561198848287180,"connected_time":3296000000000,"state":"active","ping":44},{"user_id":299,"name":"krandlez` (Any/All)","steam_id":76561198044839726,"connected_time":2390000000000,"state":"active","ping":38},{"user_id":245,"name":"covenofbats","steam_id":76561198152117315,"connected_time":6188000000000,"state":"active","ping":45},{"user_id":306,"name":"CouldBeKarlos","steam_id":76561198956180767,"connected_time":1094000000000,"state":"active","ping":48},{"user_id":308,"name":"timboe","steam_id":76561198003442007,"connected_time":1063000000000,"state":"active","ping":58},{"user_id":279,"name":"LightningBlock","steam_id":76561198289997742,"connected_time":3971000000000,"state":"active","ping":33},{"user_id":304,"name":"ItsSnakey","steam_id":76561199187623513,"connected_time":2085000000000,"state":"active","ping":66},{"user_id":312,"name":"Grecko","steam_id":76561198032976002,"connected_time":830000000000,"state":"active","ping":61},{"user_id":310,"name":"bird","steam_id":76561198258514103,"connected_time":999000000000,"state":"active","ping":64},{"user_id":305,"name":"Mungbean","steam_id":76561198192300679,"connected_time":1097000000000,"state":"active","ping":76},{"user_id":314,"name":"Novix","steam_id":76561198255494226,"connected_time":811000000000,"state":"active","ping":45},{"user_id":289,"name":"Ultra","steam_id":76561198061828206,"connected_time":3461000000000,"state":"active","ping":58},{"user_id":319,"name":"Priince","steam_id":76561198057802660,"connected_time":480000000000,"state":"active","ping":87},{"user_id":268,"name":"hooligan","steam_id":76561198156362137,"connected_time":4704000000000,"state":"active","ping":91},{"user_id":311,"name":"gave my love to a shooting star","steam_id":76561197990537324,"connected_time":997000000000,"state":"active","ping":110},{"user_id":215,"name":"las","steam_id":76561198039162155,"connected_time":7651000000000,"state":"active","ping":54},{"user_id":293,"name":"bill","steam_id":76561198066726621,"connected_time":3018000000000,"state":"active","ping":55},{"user_id":320,"name":"Zeron","steam_id":76561198125778202,"connected_time":445000000000,"state":"active","ping":45},{"user_id":269,"name":"lapisss","steam_id":76561198828325267,"connected_time":4698000000000,"state":"active","ping":70},{"user_id":270,"name":"Big_Poma","steam_id":76561199087498008,"connected_time":4671000000000,"state":"active","ping":66},{"user_id":273,"name":"Abraham Lincoln","steam_id":76561198095292515,"connected_time":4394000000000,"state":"active","ping":64},{"user_id":290,"name":"Charm","steam_id":76561198028891054,"connected_time":3450000000000,"state":"active","ping":61},{"user_id":303,"name":"Rogue (Anti-fire)","steam_id":76561198055404248,"connected_time":2349000000000,"state":"active","ping":48}]},{"server_id":395,"name":"Uncletopia | Sydney | 3 | All Maps","name_short":"syd-3","host":"syd-1.au.uncletopia.com","port":27035,"enabled":true,"region":"au","cc":"au","latitude":-33.865143,"longitude":151.2099,"reserved":0,"last_update":"0001-01-01T00:00:00Z","name_a2s":"Uncletopia | Sydney | 3 | All Maps","protocol":17,"map":"cp_altitude","folder":"tf","game":"Team Fortress","app_id":440,"player_count":0,"max_players":24,"Bots":0,"server_type":"Dedicated","server_os":"Linux","password":true,"vac":true,"version":"7723704","steam_id":85568392925194467,"keywords":["cp","nocrits","nodmgspread","uncletopia"],"game_id":440,"stv_port":27036,"stv_name":"Uncletopia | Sydney | 3 | All Maps | STV","players":null},{"server_id":396,"name":"Uncletopia | Sydney | 4 | All Maps","name_short":"syd-4","host":"syd-1.au.uncletopia.com","port":27045,"enabled":true,"region":"au","cc":"au","latitude":-33.865143,"longitude":151.2099,"reserved":0,"last_update":"0001-01-01T00:00:00Z","name_a2s":"Uncletopia | Sydney | 4 | All Maps","protocol":17,"map":"koth_cascade","folder":"tf","game":"Team Fortress","app_id":440,"player_count":0,"max_players":24,"Bots":0,"server_type":"Dedicated","server_os":"Linux","password":true,"vac":true,"version":"7723704","steam_id":85568392925397958,"keywords":["cp","nocrits","nodmgspread","uncletopia"],"game_id":440,"stv_port":27046,"stv_name":"Uncletopia | Sydney | 4 | All Maps | STV","players":null},{"server_id":58,"name":"Uncletopia | Sydney | 5 | Stopwatch Beta","name_short":"syd-5","host":"syd-1.au.uncletopia.com","port":27055,"enabled":true,"region":"au","cc":"au","latitude":-33.865143,"longitude":151.2099,"reserved":0,"last_update":"0001-01-01T00:00:00Z","name_a2s":"Uncletopia | Sydney | 5 | Stopwatch Beta","protocol":17,"map":"cp_altitude","folder":"tf","game":"Team Fortress","app_id":440,"player_count":0,"max_players":24,"Bots":0,"server_type":"Dedicated","server_os":"Linux","password":true,"vac":true,"version":"7723704","steam_id":85568392925397959,"keywords":["cp","nocrits","nodmgspread","uncletopia"],"game_id":440,"stv_port":27056,"stv_name":"Uncletopia | Sydney | 5 | Stopwatch Beta | STV","players":null},{"server_id":59,"name":"Uncletopia | Sydney | 6 | Community","name_short":"syd-6","host":"syd-1.au.uncletopia.com","port":27065,"enabled":true,"region":"au","cc":"au","latitude":-33.865143,"longitude":151.2099,"reserved":0,"last_update":"0001-01-01T00:00:00Z","name_a2s":"Uncletopia | Sydney | 6 | Community","protocol":17,"map":"workshop/pl_cactuscanyon_redux_rc4b.ugc2579644293","folder":"tf","game":"Team Fortress","app_id":440,"player_count":7,"max_players":24,"Bots":0,"server_type":"Dedicated","server_os":"Linux","password":true,"vac":true,"version":"7723704","steam_id":85568392925397960,"keywords":["nocrits","nodmgspread","payload","uncletopia"],"game_id":440,"stv_port":27066,"stv_name":"Uncletopia | Sydney | 6 | Community | STV","players":[{"user_id":12,"name":"P'pot","steam_id":76561198117278590,"connected_time":464000000000,"state":"active","ping":50},{"user_id":15,"name":"xfol","steam_id":76561197973048879,"connected_time":347000000000,"state":"active","ping":57},{"user_id":10,"name":"Tanky","steam_id":76561198179309667,"connected_time":532000000000,"state":"active","ping":153},{"user_id":16,"name":"gaming","steam_id":76561198267552367,"connected_time":334000000000,"state":"active","ping":74},{"user_id":8,"name":"P√§iv√§t√§r.","steam_id":76561198948183007,"connected_time":1129000000000,"state":"active","ping":59},{"user_id":9,"name":"Expresso","steam_id":76561198848523318,"connected_time":1124000000000,"state":"active","ping":56},{"user_id":13,"name":"Jacob","steam_id":76561198059341907,"connected_time":420000000000,"state":"active","ping":40}]},{"server_id":49,"name":"Uncletopia | Warsaw | 1 | All Maps","name_short":"waw-1","host":"waw-1.pl.uncletopia.com","port":27015,"enabled":true,"region":"eu","cc":"pl","latitude":52.2297,"longitude":21.017532,"reserved":0,"last_update":"0001-01-01T00:00:00Z","name_a2s":"Uncletopia | Warsaw | 1 | All Maps","protocol":17,"map":"cp_dustbowl","folder":"tf","game":"Team Fortress","app_id":440,"player_count":0,"max_players":24,"Bots":0,"server_type":"Dedicated","server_os":"Linux","password":true,"vac":true,"version":"7723704","steam_id":85568392925397850,"keywords":["cp","nocrits","nodmgspread","uncletopia"],"game_id":440,"stv_port":27016,"stv_name":"Uncletopia | Warsaw | 1 | All Maps | STV","players":null},{"server_id":50,"name":"Uncletopia | Warsaw | 2 | All Maps","name_short":"waw-2","host":"waw-1.pl.uncletopia.com","port":27025,"enabled":true,"region":"eu","cc":"pl","latitude":52.2297,"longitude":21.017532,"reserved":0,"last_update":"0001-01-01T00:00:00Z","name_a2s":"Uncletopia | Warsaw | 2 | All Maps","protocol":17,"map":"pl_barnblitz","folder":"tf","game":"Team Fortress","app_id":440,"player_count":0,"max_players":24,"Bots":0,"server_type":"Dedicated","server_os":"Linux","password":true,"vac":true,"version":"7723704","steam_id":85568392925397851,"keywords":["nocrits","nodmgspread","payload","uncletopia"],"game_id":440,"stv_port":27026,"stv_name":"Uncletopia | Warsaw | 2 | All Maps | STV","players":null},{"server_id":51,"name":"Uncletopia | Warsaw | 3 | All Maps","name_short":"waw-3","host":"waw-1.pl.uncletopia.com","port":27035,"enabled":true,"region":"eu","cc":"pl","latitude":52.2297,"longitude":21.017532,"reserved":0,"last_update":"0001-01-01T00:00:00Z","name_a2s":"Uncletopia | Warsaw | 3 | All Maps","protocol":17,"map":"pl_barnblitz","folder":"tf","game":"Team Fortress","app_id":440,"player_count":0,"max_players":24,"Bots":0,"server_type":"Dedicated","server_os":"Linux","password":true,"vac":true,"version":"7723704","steam_id":85568392925397852,"keywords":["nocrits","nodmgspread","payload","uncletopia"],"game_id":440,"stv_port":27036,"stv_name":"Uncletopia | Warsaw | 3 | All Maps | STV","players":null},{"server_id":52,"name":"Uncletopia | Warsaw | 4 | All Maps","name_short":"waw-4","host":"waw-1.pl.uncletopia.com","port":27045,"enabled":true,"region":"eu","cc":"pl","latitude":52.2297,"longitude":21.017532,"reserved":0,"last_update":"0001-01-01T00:00:00Z","name_a2s":"Uncletopia | Warsaw | 4 | All Maps","protocol":17,"map":"koth_viaduct","folder":"tf","game":"Team Fortress","app_id":440,"player_count":0,"max_players":24,"Bots":0,"server_type":"Dedicated","server_os":"Linux","password":true,"vac":true,"version":"7723704","steam_id":85568392925397853,"keywords":["cp","nocrits","nodmgspread","uncletopia"],"game_id":440,"stv_port":27046,"stv_name":"Uncletopia | Warsaw | 4 | All Maps | STV","players":null},{"server_id":53,"name":"Uncletopia | Warsaw | 5 | Stopwatch Beta","name_short":"waw-5","host":"waw-1.pl.uncletopia.com","port":27055,"enabled":true,"region":"eu","cc":"pl","latitude":52.2297,"longitude":21.017532,"reserved":0,"last_update":"0001-01-01T00:00:00Z","name_a2s":"Uncletopia | Warsaw | 5 | Stopwatch Beta","protocol":17,"map":"cp_sunshine","folder":"tf","game":"Team Fortress","app_id":440,"player_count":0,"max_players":24,"Bots":0,"server_type":"Dedicated","server_os":"Linux","password":true,"vac":true,"version":"7723704","steam_id":85568392925397854,"keywords":["cp","nocrits","nodmgspread","uncletopia"],"game_id":440,"stv_port":27056,"stv_name":"Uncletopia | Warsaw | 5 | Stopwatch Beta | STV","players":null},{"server_id":54,"name":"Uncletopia | Warsaw | 6 | Community","name_short":"waw-6","host":"waw-1.pl.uncletopia.com","port":27065,"enabled":true,"region":"eu","cc":"pl","latitude":52.2297,"longitude":21.017532,"reserved":0,"last_update":"0001-01-01T00:00:00Z","name_a2s":"Uncletopia | Warsaw | 6 | Community","protocol":17,"map":"pl_snowycoast","folder":"tf","game":"Team Fortress","app_id":440,"player_count":0,"max_players":24,"Bots":0,"server_type":"Dedicated","server_os":"Linux","password":true,"vac":true,"version":"7723704","steam_id":85568392925397856,"keywords":["nocrits","nodmgspread","payload","uncletopia"],"game_id":440,"stv_port":27066,"stv_name":"Uncletopia | Warsaw | 6 | Community | STV","players":null}]}