{"status":true,"message":"","result":[{"server_id":9,"name":"Uncletopia | Atlanta | 1 | All Maps","name_short":"atl-1","host":"atl-1.us.uncletopia.com","port":27015,"enabled":true,"region":"us-east","cc":"us","latitude":33.753746,"longitude":-84.38633,"reserved":0,"last_update":"0001-01-01T00:00:00Z","name_a2s":"Uncletopia | Atlanta | 1 | All Maps","protocol":17,"map":"cp_dustbowl","folder":"tf","game":"Team Fortress","app_id":440,"player_count":0,"max_players":24,"Bots":0,"server_type":"Dedicated","server_os":"Linux","password":true,"vac":true,"version":"7961495","steam_id":85568392924469982,"keywords":["cp","nocrits","nodmgspread","uncletopia"],"game_id":440,"stv_port":27016,"stv_name":"Uncletopia | Atlanta | 1 | All Maps | STV","players":null},{"server_id":104,"name":"Uncletopia | Atlanta | 2 | All Maps","name_short":"atl-2","host":"atl-1.us.uncletopia.com","port":27025,"enabled":true,"region":"us-east","cc":"us","latitude":33.753746,"longitude":-84.38633,"reserved":0,"last_update":"0001-01-01T00:00:00Z","name_a2s":"Uncletopia | Atlanta | 2 | All Maps","protocol":17,"map":"koth_cascade","folder":"tf","game":"Team Fortress","app_id":440,"player_count":0,"max_players":24,"Bots":0,"server_type":"Dedicated","server_os":"Linux","password":true,"vac":true,"version":"7961495","steam_id":85568392924469983,"keywords":["cp","nocrits","nodmgspread","uncletopia"],"game_id":440,"stv_port":27026,"stv_name":"Uncletopia | Atlanta | 2 | All Maps | STV","players":null},{"server_id":400,"name":"Uncletopia | Atlanta | 3 | Stopwatch","name_short":"atl-3","host":"atl-1.us.uncletopia.com","port":27035,"enabled":true,"region":"us-east","cc":"us","latitude":33.753746,"longitude":-84.38633,"reserved":0,"last_update":"0001-01-01T00:00:00Z","name_a2s":"Uncletopia | Atlanta | 3 | Stopwatch","protocol":17,"map":"pl_badwater","folder":"tf","game":"Team Fortress","app_id":440,"player_count":0,"max_players":24,"Bots":0,"server_type":"Dedicated","server_os":"Linux","password":true,"vac":true,"version":"7961495","steam_id":85568392924515187,"keywords":["nocrits","nodmgspread","payload","uncletopia"],"game_id":440,"stv_port":27036,"stv_name":"Uncletopia | Atlanta | 3 | Stopwatch | STV","players":null},{"server_id":401,"name":"Uncletopia | Atlanta | 4 | Community","name_short":"atl-4","host":"atl-1.us.uncletopia.com","port":27045,"enabled":true,"region":"us-east","cc":"us","latitude":33.753746,"longitude":-84.38633,"reserved":0,"last_update":"0001-01-01T00:00:00Z","name_a2s":"Uncletopia | Atlanta | 4 | Community","protocol":17,"map":"cp_sunshine","folder":"tf","game":"Team Fortress","app_id":440,"player_count":0,"max_players":24,"Bots":0,"server_type":"Dedicated","server_os":"Linux","password":true,"vac":true,"version":"7961495","steam_id":85568392924515188,"keywords":["cp","nocrits","nodmgspread","uncletopia"],"game_id":440,"stv_port":27046,"stv_name":"Uncletopia | Atlanta | 4 | Community | STV","players":null},{"server_id":2,"name":"Uncletopia | Chicago | 1 | All Maps","name_short":"chi-1","host":"chi-1.us.uncletopia.com","port":27015,"enabled":true,"region":"us-central","cc":"us","latitude":41.881832,"longitude":-87.62318,"reserved":0,"last_update":"0001-01-01T00:00:00Z","name_a2s":"Uncletopia | Chicago | 1 | All Maps","protocol":17,"map":"koth_highpass","folder":"tf","game":"Team Fortress","app_id":440,"player_count":0,"max_players":24,"Bots":0,"server_type":"Dedicated","server_os":"Linux","password":true,"vac":true,"version":"7961495","steam_id":85568392924469984,"keywords":["cp","nocrits","nodmgspread","uncletopia"],"game_id":440,"stv_port":27016,"stv_name":"Uncletopia | Chicago | 1 | All Maps | STV","players":null},{"server_id":106,"name":"Uncletopia | Chicago | 2 | All Maps","name_short":"chi-2","host":"chi-1.us.uncletopia.com","port":27025,"enabled":true,"region":"us-central","cc":"us","latitude":41.881832,"longitude":-87.62318,"reserved":0,"last_update":"0001-01-01T00:00:00Z","name_a2s":"Uncletopia | Chicago | 2 | All Maps","protocol":17,"map":"pl_upward","folder":"tf","game":"Team Fortress","app_id":440,"player_count":24,"max_players":24,"Bots":0,"server_type":"Dedicated","server_os":"Linux","password":true,"vac":true,"version":"7961495","steam_id":85568392924469985,"keywords":["nocrits","nodmgspread","payload","uncletopia"],"game_id":440,"stv_port":27026,"stv_name":"Uncletopia | Chicago | 2 | All Maps | STV","players":[{"user_id":12,"name":"menonamed","steam_id":76561198199564382,"connected_time":2563000000000,"state":"active","ping":66},{"user_id":20,"name":"Snitzman","steam_id":76561198068303272,"connected_time":1880000000000,"state":"active","ping":104},{"user_id":11,"name":"bleach65","steam_id":76561198115270571,"connected_time":3240000000000,"state":"active","ping":77},{"user_id":13,"name":"Esteban Delsin","steam_id":76561198433519639,"connected_time":2407000000000,"state":"active","ping":141},{"user_id":14,"name":"dadgummit","steam_id":76561198005806915,"connected_time":2320000000000,"state":"active","ping":59},{"user_id":36,"name":"Alfonso Molestro","steam_id":76561197998677099,"connected_time":1488000000000,"state":"active","ping":77},{"user_id":37,"name":"Psychosis","steam_id":76561198078659070,"connected_time":1452000000000,"state":"active","ping":74},{"user_id":43,"name":"dr peppah chug!","steam_id":76561198068835693,"connected_time":854000000000,"state":"active","ping":97},{"user_id":24,"name":"wolf_71","steam_id":76561198963570945,"connected_time":1811000000000,"state":"active","ping":67},{"user_id":19,"name":"Golumpus","steam_id":76561198053549635,"connected_time":1966000000000,"state":"active","ping":84},{"user_id":46,"name":"SlayerFan43","steam_id":76561198099975634,"connected_time":187000000000,"state":"active","ping":59},{"user_id":22,"name":"Kartyac","steam_id":76561197991069005,"connected_time":1837000000000,"state":"active","ping":77},{"user_id":23,"name":"Ricky Dicky Do-da Grimes","steam_id":76561198016095410,"connected_time":1835000000000,"state":"active","ping":73},{"user_id":47,"name":"Gluteus","steam_id":76561198039122699,"connected_time":163000000000,"state":"active","ping":64},{"user_id":41,"name":"manbug","steam_id":76561198169219561,"connected_time":1399000000000,"state":"active","ping":91},{"user_id":27,"name":"Degenerate Mustang Owner","steam_id":76561198259388205,"connected_time":1750000000000,"state":"active","ping":51},{"user_id":45,"name":"troll","steam_id":76561198082680563,"connected_time":590000000000,"state":"active","ping":54},{"user_id":29,"name":"KFC Rat","steam_id":76561198135128086,"connected_time":1640000000000,"state":"active","ping":118},{"user_id":44,"name":"Woke Portugal Agenda","steam_id":76561198083276946,"connected_time":787000000000,"state":"active","ping":67},{"user_id":49,"name":"Cheese4Everyone","steam_id":76561198022333985,"connected_time":85000000000,"state":"active","ping":72},{"user_id":32,"name":"VioletSpecs (She/Her)","steam_id":76561198089366466,"connected_time":1607000000000,"state":"active","ping":70},{"user_id":34,"name":"god","steam_id":76561198278008225,"connected_time":1533000000000,"state":"active","ping":76},{"user_id":50,"name":"Sickmind33","steam_id":76561198036248611,"connected_time":27000000000,"state":"spawning","ping":55},{"user_id":39,"name":"Dr. Han","steam_id":76561198811130843,"connected_time":1425000000000,"state":"active","ping":78}]},{"server_id":402,"name":"Uncletopia | Chicago | 3 | All Maps","name_short":"chi-3","host":"chi-1.us.uncletopia.com","port":27035,"enabled":true,"region":"us-central","cc":"us","latitude":41.881832,"longitude":-87.62318,"reserved":0,"last_update":"0001-01-01T00:00:00Z","name_a2s":"Uncletopia | Chicago | 3 | All Maps","protocol":17,"map":"cp_snakewater_final1","folder":"tf","game":"Team Fortress","app_id":440,"player_count":1,"max_players":24,"Bots":0,"server_type":"Dedicated","server_os":"Linux","password":true,"vac":true,"version":"7961495","steam_id":85568392924515191,"keywords":["cp","nocrits","nodmgspread","uncletopia"],"game_id":440,"stv_port":27036,"stv_name":"Uncletopia | Chicago | 3 | All Maps | STV","players":[{"user_id":8,"name":"Obelisk","steam_id":76561198049416866,"connected_time":62000000000,"state":"active","ping":75}]},{"server_id":403,"name":"Uncletopia | Chicago | 4 | All Maps","name_short":"chi-4","host":"chi-1.us.uncletopia.com","port":27045,"enabled":true,"region":"us-central","cc":"us","latitude":41.881832,"longitude":-87.62318,"reserved":0,"last_update":"0001-01-01T00:00:00Z","name_a2s":"Uncletopia | Chicago | 4 | All Maps","protocol":17,"map":"ctf_well","folder":"tf","game":"Team Fortress","app_id":440,"player_count":24,"max_players":24,"Bots":0,"server_type":"Dedicated","server_os":"Linux","password":true,"vac":true,"version":"7961495","steam_id":85568392924515193,"keywords":["ctf","nocrits","nodmgspread","uncletopia"],"game_id":440,"stv_port":27046,"stv_name":"Uncletopia | Chicago | 4 | All Maps | STV","players":[{"user_id":255,"name":"SexySpectacles","steam_id":76561198211449103,"connected_time":553000000000,"state":"active","ping":38},{"user_id":256,"name":"glitch","steam_id":76561197979495589,"connected_time":543000000000,"state":"active","ping":66},{"user_id":141,"name":"Chakra monitoring device","steam_id":76561197995620232,"connected_time":10409000000000,"state":"active","ping":48},{"user_id":120,"name":"Aske Bros Jr","steam_id":76561198045972115,"connected_time":12469000000000,"state":"active","ping":102},{"user_id":234,"name":"jxh300","steam_id":76561199196579894,"connected_time":3876000000000,"state":"active","ping":73},{"user_id":253,"name":"denzell05","steam_id":76561198086987061,"connected_time":955000000000,"state":"active","ping":108},{"user_id":9,"name":"Reese","steam_id":76561198044035968,"connected_time":22045000000000,"state":"active","ping":64},{"user_id":236,"name":"Baron von Whoopsie","steam_id":76561197996691013,"connected_time":3691000000000,"state":"active","ping":76},{"user_id":207,"name":"ATL1 | cola","steam_id":76561198374390458,"connected_time":6216000000000,"state":"active","ping":76},{"user_id":242,"name":"what the freak","steam_id":76561198080754727,"connected_time":2891000000000,"state":"active","ping":80},{"user_id":248,"name":"Horrowes","steam_id":76561198318446417,"connected_time":2459000000000,"state":"active","ping":80},{"user_id":257,"name":"Tideflat","steam_id":76561198179850851,"connected_time":533000000000,"state":"active","ping":103},{"user_id":262,"name":"Brownsftbl1","steam_id":76561198027578414,"connected_time":349000000000,"state":"active","ping":67},{"user_id":263,"name":"why","steam_id":76561199059732212,"connected_time":283000000000,"state":"active","ping":66},{"user_id":258,"name":"Mcfighter2","steam_id":76561198168073956,"connected_time":505000000000,"state":"active","ping":59},{"user_id":259,"name":"Sinta","steam_id":76561198098398841,"connected_time":498000000000,"state":"active","ping":63},{"user_id":250,"name":"Captain","steam_id":76561198155723294,"connected_time":2344000000000,"state":"active","ping":59},{"user_id":264,"name":"MINILEGOLAS","steam_id":76561198859362058,"connected_time":220000000000,"state":"active","ping":127},{"user_id":252,"name":"Kilphax","steam_id":76561197993814144,"connected_time":1580000000000,"state":"active","ping":61},{"user_id":260,"name":"The Devil of Ramadi","steam_id":76561198060121935,"connected_time":479000000000,"state":"active","ping":70},{"user_id":175,"name":"ThatGamingKiwi","steam_id":76561199170522237,"connected_time":8609000000000,"state":"active","ping":80},{"user_id":214,"name":"Cowborg","steam_id":76561199407170452,"connected_time":5757000000000,"state":"active","ping":98},{"user_id":233,"name":"SHUSH nikoOS","steam_id":76561198180020521,"connected_time":4026000000000,"state":"active","ping":112},{"user_id":191,"name":"frick sniper","steam_id":76561198079603532,"connected_time":7730000000000,"state":"active","ping":58}]},{"server_id":36,"name":"Uncletopia | Chicago | 5 | All Maps","name_short":"chi-5","host":"chi-2.us.uncletopia.com","port":27015,"enabled":true,"region":"us-central","cc":"us","latitude":41.881832,"longitude":-87.62318,"reserved":0,"last_update":"0001-01-01T00:00:00Z","name_a2s":"Uncletopia | Chicago | 5 | All Maps","protocol":17,"map":"pl_badwater","folder":"tf","game":"Team Fortress","app_id":440,"player_count":23,"max_players":24,"Bots":0,"server_type":"Dedicated","server_os":"Linux","password":true,"vac":true,"version":"7961495","steam_id":85568392924866362,"keywords":["nocrits","nodmgspread","payload","uncletopia"],"game_id":440,"stv_port":27016,"stv_name":"Uncletopia | Chicago | 5 | All Maps | STV","players":[{"user_id":119,"name":"HanakoToast","steam_id":76561198045233131,"connected_time":102000000000,"state":"active","ping":102},{"user_id":108,"name":"Void","steam_id":76561198326537225,"connected_time":584000000000,"state":"active","ping":65},{"user_id":6,"name":"Jonathan","steam_id":76561199066653753,"connected_time":7612000000000,"state":"active","ping":74},{"user_id":84,"name":"Window Licker #pride","steam_id":76561198386717007,"connected_time":2962000000000,"state":"active","ping":47},{"user_id":105,"name":"Makima Enjoyer","steam_id":76561198852044774,"connected_time":640000000000,"state":"active","ping":79},{"user_id":117,"name":"TrashBoat","steam_id":76561199089671432,"connected_time":337000000000,"state":"active","ping":105},{"user_id":118,"name":":(","steam_id":76561198347969061,"connected_time":335000000000,"state":"active","ping":58},{"user_id":109,"name":"bladees realest, saddest verse","steam_id":76561198098099826,"connected_time":573000000000,"state":"active","ping":93},{"user_id":74,"name":"Fred Durst's #1 Fan","steam_id":76561198282395338,"connected_time":3572000000000,"state":"active","ping":81},{"user_id":120,"name":"üÖúüÖîüÖîüÖöüÖ¢üÖ£üÖî\ufffd\ufffd\ufffd","steam_id":76561197999748343,"connected_time":91000000000,"state":"active","ping":61},{"user_id":113,"name":"gooselover42069","steam_id":76561198059562839,"connected_time":441000000000,"state":"active","ping":56},{"user_id":97,"name":"shirts","steam_id":76561199019533093,"connected_time":1642000000000,"state":"active","ping":68},{"user_id":86,"name":"Tyler\u0026Fingers","steam_id":76561198085154485,"connected_time":2943000000000,"state":"active","ping":88},{"user_id":61,"name":"Battalion's Backup","steam_id":76561198066153777,"connected_time":4381000000000,"state":"active","ping":38},{"user_id":103,"name":"Luci‚òÖFer","steam_id":76561199030343810,"connected_time":955000000000,"state":"active","ping":52},{"user_id":121,"name":"twizted","steam_id":76561197960407274,"connected_time":47000000000,"state":"spawning","ping":64},{"user_id":116,"name":"Stop voting for PL","steam_id":76561198138420251,"connected_time":377000000000,"state":"active","ping":61},{"user_id":122,"name":"Luke","steam_id":76561198253533632,"connected_time":8000000000,"state":"spawning","ping":68},{"user_id":93,"name":"Heathcliff","steam_id":76561198044288534,"connected_time":2449000000000,"state":"active","ping":91},{"user_id":94,"name":"War on Drugs Fighter","steam_id":76561198103211035,"connected_time":2240000000000,"state":"active","ping":65},{"user_id":69,"name":"Gaminglast","steam_id":76561198362927765,"connected_time":3961000000000,"state":"active","ping":172},{"user_id":77,"name":"glue eater","steam_id":76561198858155238,"connected_time":3448000000000,"state":"active","ping":104},{"user_id":96,"name":"DualiTea","steam_id":76561198081733870,"connected_time":2225000000000,"state":"active","ping":47}]},{"server_id":37,"name":"Uncletopia | Chicago | 6 | All Maps","name_short":"chi-6","host":"chi-2.us.uncletopia.com","port":27025,"enabled":true,"region":"us-central","cc":"us","latitude":41.881832,"longitude":-87.62318,"reserved":0,"last_update":"0001-01-01T00:00:00Z","name_a2s":"Uncletopia | Chicago | 6 | All Maps","protocol":17,"map":"cp_process_final","folder":"tf","game":"Team Fortress","app_id":440,"player_count":0,"max_players":24,"Bots":0,"server_type":"Dedicated","server_os":"Linux","password":true,"vac":true,"version":"7961495","steam_id":85568392924866363,"keywords":["cp","nocrits","nodmgspread","uncletopia"],"game_id":440,"stv_port":27026,"stv_name":"Uncletopia | Chicago | 6 | All Maps | STV","players":null},{"server_id":38,"name":"Uncletopia | Chicago | 7 | Stopwatch","name_short":"chi-7","host":"chi-2.us.uncletopia.com","port":27035,"enabled":true,"region":"us-central","cc":"us","latitude":41.881832,"longitude":-87.62318,"reserved":0,"last_update":"0001-01-01T00:00:00Z","name_a2s":"Uncletopia | Chicago | 7 | Stopwatch","protocol":17,"map":"workshop/koth_ramjam_rc1.ugc459778887","folder":"tf","game":"Team Fortress","app_id":440,"player_count":0,"max_players":24,"Bots":0,"server_type":"Dedicated","server_os":"Linux","password":true,"vac":true,"version":"7961495","steam_id":85568392924866364,"keywords":["cp","nocrits","nodmgspread","uncletopia"],"game_id":440,"stv_port":27036,"stv_name":"Uncletopia | Chicago | 7 | Stopwatch | STV","players":null},{"server_id":39,"name":"Uncletopia | Chicago | 8 | Community","name_short":"chi-8","host":"chi-2.us.uncletopia.com","port":27045,"enabled":true,"region":"us-central","cc":"us","latitude":41.881832,"longitude":-87.62318,"reserved":0,"last_update":"0001-01-01T00:00:00Z","name_a2s":"Uncletopia | Chicago | 8 | Community","protocol":17,"map":"pl_pier","folder":"tf","game":"Team Fortress","app_id":440,"player_count":0,"max_players":24,"Bots":0,"server_type":"Dedicated","server_os":"Linux","password":true,"vac":true,"version":"7961495","steam_id":85568392924866365,"keywords":["nocrits","nodmgspread","payload","uncletopia"],"game_id":440,"stv_port":27046,"stv_name":"Uncletopia | Chicago | 8 | Community | STV","players":null},{"server_id":8,"name":"Uncletopia | Dallas | 1 | All Maps","name_short":"dal-1","host":"dal-1.us.uncletopia.com","port":27015,"enabled":true,"region":"us-central","cc":"us","latitude":32.779167,"longitude":-96.80889,"reserved":0,"last_update":"0001-01-01T00:00:00Z","name_a2s":"Uncletopia | Dallas | 1 | All Maps","protocol":17,"map":"pl_swiftwater_final1","folder":"tf","game":"Team Fortress","app_id":440,"player_count":0,"max_players":24,"Bots":0,"server_type":"Dedicated","server_os":"Linux","password":true,"vac":true,"version":"7961495","steam_id":85568392924469986,"keywords":["nocrits","nodmgspread","payload","uncletopia"],"game_id":440,"stv_port":27016,"stv_name":"Uncletopia | Dallas | 1 | All Maps | STV","players":null},{"server_id":108,"name":"Uncletopia | Dallas | 2 | All Maps","name_short":"dal-2","host":"dal-1.us.uncletopia.com","port":27025,"enabled":true,"region":"us-central","cc":"us","latitude":32.779167,"longitude":-96.80889,"reserved":0,"last_update":"0001-01-01T00:00:00Z","name_a2s":"Uncletopia | Dallas | 2 | All Maps","protocol":17,"map":"pl_pier","folder":"tf","game":"Team Fortress","app_id":440,"player_count":24,"max_players":24,"Bots":0,"server_type":"Dedicated","server_os":"Linux","password":true,"vac":true,"version":"7961495","steam_id":85568392924469988,"keywords":["nocrits","nodmgspread","payload","uncletopia"],"game_id":440,"stv_port":27026,"stv_name":"Uncletopia | Dallas | 2 | All Maps | STV","players":[{"user_id":35,"name":"cook","steam_id":76561198073106278,"connected_time":379000000000,"state":"active","ping":55},{"user_id":41,"name":"leopardo123atl","steam_id":76561198872648238,"connected_time":43000000000,"state":"active","ping":71},{"user_id":36,"name":"[S7UPID]","steam_id":76561197982564931,"connected_time":346000000000,"state":"active","ping":70},{"user_id":13,"name":"Gragerus","steam_id":76561199434059545,"connected_time":1451000000000,"state":"active","ping":81},{"user_id":40,"name":"kamala harris gaming","steam_id":76561198132803810,"connected_time":218000000000,"state":"active","ping":59},{"user_id":15,"name":"Papy_rat","steam_id":76561198088207937,"connected_time":1104000000000,"state":"active","ping":91},{"user_id":16,"name":"Mellou","steam_id":76561198212048740,"connected_time":1047000000000,"state":"active","ping":46},{"user_id":17,"name":"Kuyumiester","steam_id":76561198126835302,"connected_time":994000000000,"state":"active","ping":61},{"user_id":27,"name":"Never Ovaryacting","steam_id":76561198158691254,"connected_time":663000000000,"state":"active","ping":76},{"user_id":19,"name":"who ate the cheese","steam_id":76561198275408467,"connected_time":969000000000,"state":"active","ping":59},{"user_id":38,"name":"arsenicCatnip","steam_id":76561198102052297,"connected_time":323000000000,"state":"active","ping":86},{"user_id":21,"name":"Lettuce_Plays","steam_id":76561198872255639,"connected_time":926000000000,"state":"active","ping":86},{"user_id":22,"name":"Fake21","steam_id":76561198282065071,"connected_time":906000000000,"state":"active","ping":51},{"user_id":23,"name":"Piranhaplant","steam_id":76561198447663050,"connected_time":826000000000,"state":"active","ping":62},{"user_id":24,"name":"clam gaming","steam_id":76561198405168492,"connected_time":796000000000,"state":"active","ping":102},{"user_id":25,"name":"UwU","steam_id":76561198971629959,"connected_time":756000000000,"state":"active","ping":134},{"user_id":26,"name":"Lex","steam_id":76561198069948353,"connected_time":700000000000,"state":"active","ping":60},{"user_id":28,"name":"Transgender Guy Fieri","steam_id":76561198801467075,"connected_time":583000000000,"state":"active","ping":62},{"user_id":29,"name":"penzfan","steam_id":76561198230422640,"connected_time":581000000000,"state":"active","ping":77},{"user_id":30,"name":"shakoiwa","steam_id":76561199059441773,"connected_time":576000000000,"state":"active","ping":85},{"user_id":31,"name":"Tomoscones","steam_id":76561198813586588,"connected_time":570000000000,"state":"active","ping":101},{"user_id":32,"name":"BL√òRG","steam_id":76561198036126673,"connected_time":562000000000,"state":"active","ping":75},{"user_id":33,"name":"scrapheap","steam_id":76561198202407087,"connected_time":556000000000,"state":"active","ping":91},{"user_id":34,"name":"Randoman111","steam_id":76561198904545497,"connected_time":547000000000,"state":"active","ping":147}]},{"server_id":404,"name":"Uncletopia | Dallas | 3 | All Maps","name_short":"dal-3","host":"dal-1.us.uncletopia.com","port":27035,"enabled":true,"region":"us-central","cc":"us","latitude":32.779167,"longitude":-96.80889,"reserved":0,"last_update":"0001-01-01T00:00:00Z","name_a2s":"Uncletopia | Dallas | 3 | All Maps","protocol":17,"map":"pl_badwater","folder":"tf","game":"Team Fortress","app_id":440,"player_count":0,"max_players":24,"Bots":0,"server_type":"Dedicated","server_os":"Linux","password":true,"vac":true,"version":"7961495","steam_id":85568392924515219,"keywords":["nocrits","nodmgspread","payload","uncletopia"],"game_id":440,"stv_port":27036,"stv_name":"Uncletopia | Dallas | 3 | All Maps | STV","players":null},{"server_id":405,"name":"Uncletopia | Dallas | 4 | Community","name_short":"dal-4","host":"dal-1.us.uncletopia.com","port":27045,"enabled":true,"region":"us-central","cc":"us","latitude":32.779167,"longitude":-96.80889,"reserved":0,"last_update":"0001-01-01T00:00:00Z","name_a2s":"Uncletopia | Dallas | 4 | Community","protocol":17,"map":"workshop/cp_villa_b19.ugc2113052569","folder":"tf","game":"Team Fortress","app_id":440,"player_count":0,"max_players":24,"Bots":0,"server_type":"Dedicated","server_os":"Linux","password":true,"vac":true,"version":"7961495","steam_id":85568392924515220,"keywords":["cp","nocrits","nodmgspread","uncletopia"],"game_id":440,"stv_port":27046,"stv_name":"Uncletopia | Dallas | 4 | Community | STV","players":null},{"server_id":5,"name":"Uncletopia | Frankfurt | 1 | All Maps","name_short":"frk-1","host":"frk-1.de.uncletopia.com","port":27015,"enabled":true,"region":"eu","cc":"de","latitude":50.110924,"longitude":8.682127,"reserved":0,"last_update":"0001-01-01T00:00:00Z","name_a2s":"Uncletopia | Frankfurt | 1 | All Maps","protocol":17,"map":"cp_dustbowl","folder":"tf","game":"Team Fortress","app_id":440,"player_count":21,"max_players":24,"Bots":0,"server_type":"Dedicated","server_os":"Linux","password":true,"vac":true,"version":"7961495","steam_id":85568392924469989,"keywords":["cp","nocrits","nodmgspread","uncletopia"],"game_id":440,"stv_port":27016,"stv_name":"Uncletopia | Frankfurt | 1 | All Maps | STV","players":[{"user_id":297,"name":"cister0","steam_id":76561198130195469,"connected_time":1281000000000,"state":"active","ping":74},{"user_id":314,"name":"keleos82","steam_id":76561198123916013,"connected_time":630000000000,"state":"active","ping":54},{"user_id":282,"name":"Carry Krypl","steam_id":76561198136938121,"connected_time":2119000000000,"state":"active","ping":57},{"user_id":315,"name":"PanPatrik","steam_id":76561198293331527,"connected_time":567000000000,"state":"active","ping":48},{"user_id":325,"name":"Speedyjoestar","steam_id":76561198907130963,"connected_time":71000000000,"state":"active","ping":62},{"user_id":277,"name":"LE","steam_id":76561198810056289,"connected_time":2843000000000,"state":"active","ping":89},{"user_id":317,"name":"A moon goose","steam_id":76561198064734905,"connected_time":552000000000,"state":"active","ping":90},{"user_id":288,"name":"Glonkdod","steam_id":76561198035119964,"connected_time":2018000000000,"state":"active","ping":55},{"user_id":312,"name":"Obscure Rock Album","steam_id":76561198032359132,"connected_time":650000000000,"state":"active","ping":57},{"user_id":212,"name":"Jpeg","steam_id":76561198166767537,"connected_time":7403000000000,"state":"active","ping":59},{"user_id":248,"name":"Moses","steam_id":76561198257652671,"connected_time":5656000000000,"state":"active","ping":61},{"user_id":318,"name":"jangomango","steam_id":76561198357591412,"connected_time":514000000000,"state":"active","ping":60},{"user_id":283,"name":"socaramel","steam_id":76561197984480336,"connected_time":2059000000000,"state":"active","ping":80},{"user_id":300,"name":"Yonio","steam_id":76561198408428132,"connected_time":1260000000000,"state":"active","ping":74},{"user_id":313,"name":"finbar","steam_id":76561198056812396,"connected_time":645000000000,"state":"active","ping":83},{"user_id":322,"name":"Stabing spy","steam_id":76561198847888227,"connected_time":227000000000,"state":"active","ping":107},{"user_id":320,"name":"jon arbuckle gaming","steam_id":76561199060384919,"connected_time":462000000000,"state":"active","ping":45},{"user_id":323,"name":"supercow","steam_id":76561198163201973,"connected_time":197000000000,"state":"active","ping":68},{"user_id":273,"name":"d1sk","steam_id":76561197986511308,"connected_time":3206000000000,"state":"active","ping":72},{"user_id":324,"name":"Lord of the Ping","steam_id":76561198019648669,"connected_time":141000000000,"state":"active","ping":47},{"user_id":294,"name":"Ratman","steam_id":76561198121888714,"connected_time":1957000000000,"state":"active","ping":71}]},{"server_id":110,"name":"Uncletopia | Frankfurt | 2 | All Maps","name_short":"frk-2","host":"frk-1.de.uncletopia.com","port":27025,"enabled":true,"region":"eu","cc":"de","latitude":50.110924,"longitude":8.682127,"reserved":0,"last_update":"0001-01-01T00:00:00Z","name_a2s":"Uncletopia | Frankfurt | 2 | All Maps","protocol":17,"map":"pl_barnblitz","folder":"tf","game":"Team Fortress","app_id":440,"player_count":23,"max_players":24,"Bots":0,"server_type":"Dedicated","server_os":"Linux","password":true,"vac":true,"version":"7961495","steam_id":85568392924469990,"keywords":["nocrits","nodmgspread","payload","uncletopia"],"game_id":440,"stv_port":27026,"stv_name":"Uncletopia | Frankfurt | 2 | All Maps | STV","players":[{"user_id":298,"name":"SaltyCupcakes","steam_id":76561198256386417,"connected_time":1091000000000,"state":"active","ping":51},{"user_id":300,"name":"Richard Hammond","steam_id":76561199223016965,"connected_time":1052000000000,"state":"active","ping":60},{"user_id":307,"name":"dwarf man","steam_id":76561199501952182,"connected_time":834000000000,"state":"active","ping":86},{"user_id":264,"name":"pepsimus_maximus (pepsi/max)","steam_id":76561198062425104,"connected_time":3476000000000,"state":"active","ping":82},{"user_id":308,"name":"transgender ketchup bottle","steam_id":76561199496867563,"connected_time":443000000000,"state":"active","ping":95},{"user_id":297,"name":"Soulman25 (FIN)","steam_id":76561198103611974,"connected_time":1102000000000,"state":"active","ping":83},{"user_id":301,"name":"UJAGaming","steam_id":76561198147959101,"connected_time":1051000000000,"state":"active","ping":100},{"user_id":288,"name":"Rigby","steam_id":76561198021552128,"connected_time":1775000000000,"state":"active","ping":93},{"user_id":302,"name":"DRAGONFLY","steam_id":76561198104896547,"connected_time":1041000000000,"state":"active","ping":68},{"user_id":299,"name":"WarSheep","steam_id":76561198404750266,"connected_time":1080000000000,"state":"active","ping":98},{"user_id":278,"name":"KFD","steam_id":76561198157183003,"connected_time":3038000000000,"state":"active","ping":79},{"user_id":303,"name":"DanDog","steam_id":76561198274722633,"connected_time":1035000000000,"state":"active","ping":71},{"user_id":287,"name":"5UP3R TH30 B4G","steam_id":76561198852348375,"connected_time":2167000000000,"state":"active","ping":59},{"user_id":191,"name":"[UM-monster","steam_id":76561198085098243,"connected_time":8127000000000,"state":"active","ping":108},{"user_id":242,"name":"Equipment of war","steam_id":76561198030563843,"connected_time":4520000000000,"state":"active","ping":78},{"user_id":279,"name":"NALA","steam_id":76561198039806469,"connected_time":3006000000000,"state":"active","ping":71},{"user_id":311,"name":"Devi!","steam_id":76561198321996449,"connected_time":174000000000,"state":"active","ping":77},{"user_id":187,"name":"Defender hunter","steam_id":76561198041458028,"connected_time":8274000000000,"state":"active","ping":104},{"user_id":292,"name":"$t@lker_Tim","steam_id":76561198963658042,"connected_time":1490000000000,"state":"active","ping":106},{"user_id":284,"name":"—Ç–µ—Å—Ç–æ—Å—Ç–µ—Ä–æ–Ω–≤–∏–∑–ª\ufffd","steam_id":76561198107146733,"connected_time":2775000000000,"state":"active","ping":75},{"user_id":276,"name":"kurd","steam_id":76561198116530769,"connected_time":3131000000000,"state":"active","ping":85},{"user_id":309,"name":"Ivarr","steam_id":76561198115629118,"connected_time":394000000000,"state":"active","ping":57},{"user_id":305,"name":"tequila sunset","steam_id":76561198315969106,"connected_time":1034000000000,"state":"active","ping":92}]},{"server_id":308,"name":"Uncletopia | Frankfurt | 3 | All Maps","name_short":"frk-3","host":"frk-1.de.uncletopia.com","port":27035,"enabled":true,"region":"eu","cc":"de","latitude":50.110924,"longitude":8.682127,"reserved":0,"last_update":"0001-01-01T00:00:00Z","name_a2s":"Uncletopia | Frankfurt | 3 | All Maps","protocol":17,"map":"pl_borneo","folder":"tf","game":"Team Fortress","app_id":440,"player_count":24,"max_players":24,"Bots":0,"server_type":"Dedicated","server_os":"Linux","password":true,"vac":true,"version":"7961495","steam_id":85568392924504274,"keywords":["nocrits","nodmgspread","payload","uncletopia"],"game_id":440,"stv_port":27036,"stv_name":"Uncletopia | Frankfurt | 3 | All Maps | STV","players":[{"user_id":289,"name":"Dolcelatte","steam_id":76561198038501770,"connected_time":106000000000,"state":"active","ping":46},{"user_id":208,"name":"Sugardaddy_pep","steam_id":76561198807512589,"connected_time":5020000000000,"state":"active","ping":74},{"user_id":259,"name":"Nymph","steam_id":76561198042801329,"connected_time":1858000000000,"state":"active","ping":56},{"user_id":269,"name":"nex flex","steam_id":76561198341583052,"connected_time":840000000000,"state":"active","ping":89},{"user_id":280,"name":"maki","steam_id":76561198354558052,"connected_time":408000000000,"state":"active","ping":58},{"user_id":262,"name":"JohnTraveltime","steam_id":76561199244281754,"connected_time":1732000000000,"state":"active","ping":73},{"user_id":281,"name":"THE SPIRIT","steam_id":76561198170744597,"connected_time":400000000000,"state":"active","ping":66},{"user_id":292,"name":"Choas","steam_id":76561198075500651,"connected_time":27000000000,"state":"active","ping":40},{"user_id":198,"name":"Play slowly, pls","steam_id":76561198006463587,"connected_time":6322000000000,"state":"active","ping":142},{"user_id":236,"name":"night.s","steam_id":76561198326287823,"connected_time":3421000000000,"state":"active","ping":78},{"user_id":267,"name":"Nuke Dukem","steam_id":76561198229220632,"connected_time":1199000000000,"state":"active","ping":76},{"user_id":278,"name":"–®–∞–ø–∫–∞ #TF2Center","steam_id":76561198368792603,"connected_time":591000000000,"state":"active","ping":65},{"user_id":248,"name":"Wubba","steam_id":76561198409725218,"connected_time":2077000000000,"state":"active","ping":56},{"user_id":265,"name":"Tomato","steam_id":76561199124472513,"connected_time":1284000000000,"state":"active","ping":115},{"user_id":271,"name":"waluigi","steam_id":76561198215809251,"connected_time":792000000000,"state":"active","ping":56},{"user_id":283,"name":"Fabric","steam_id":76561198118742661,"connected_time":379000000000,"state":"active","ping":75},{"user_id":291,"name":"brtaba","steam_id":76561198796334790,"connected_time":48000000000,"state":"active","ping":56},{"user_id":284,"name":"Bin_Laden","steam_id":76561199151047724,"connected_time":358000000000,"state":"active","ping":90},{"user_id":272,"name":"—Ç–æ–≤–∞—Ä–æ–µ–¥","steam_id":76561198101603592,"connected_time":764000000000,"state":"active","ping":105},{"user_id":285,"name":"Sandells bl√•a piller https://y","steam_id":76561198061122902,"connected_time":342000000000,"state":"active","ping":73},{"user_id":275,"name":"main weapon machine broke","steam_id":76561198041329823,"connected_time":684000000000,"state":"active","ping":77},{"user_id":288,"name":"Dr. Tedi","steam_id":76561198279510483,"connected_time":228000000000,"state":"active","ping":51},{"user_id":293,"name":"team dinosaure","steam_id":76561198072093365,"connected_time":25000000000,"state":"active","ping":47},{"user_id":276,"name":"All my homies love the husk","steam_id":76561198173218318,"connected_time":662000000000,"state":"active","ping":58}]},{"server_id":309,"name":"Uncletopia | Frankfurt | 4 | All Maps","name_short":"frk-4","host":"frk-1.de.uncletopia.com","port":27045,"enabled":true,"region":"eu","cc":"de","latitude":50.110924,"longitude":8.682127,"reserved":0,"last_update":"0001-01-01T00:00:00Z","name_a2s":"Uncletopia | Frankfurt | 4 | All Maps","protocol":17,"map":"pl_borneo","folder":"tf","game":"Team Fortress","app_id":440,"player_count":13,"max_players":24,"Bots":0,"server_type":"Dedicated","server_os":"Linux","password":true,"vac":true,"version":"7961495","steam_id":85568392924504275,"keywords":["nocrits","nodmgspread","payload","uncletopia"],"game_id":440,"stv_port":27046,"stv_name":"Uncletopia | Frankfurt | 4 | All Maps | STV","players":[{"user_id":21,"name":"G√º√ßl√ºAYraNsAƒû","steam_id":76561199184988396,"connected_time":2714000000000,"state":"active","ping":95},{"user_id":27,"name":"Gorgeous George","steam_id":76561198144256544,"connected_time":1255000000000,"state":"active","ping":60},{"user_id":28,"name":"kingdead4","steam_id":76561198079576655,"connected_time":1219000000000,"state":"active","ping":67},{"user_id":30,"name":"Relix18144","steam_id":76561199202454318,"connected_time":1084000000000,"state":"active","ping":103},{"user_id":26,"name":"typomen","steam_id":76561198405351951,"connected_time":1547000000000,"state":"active","ping":75},{"user_id":32,"name":"CAR DOOR","steam_id":76561198055283295,"connected_time":629000000000,"state":"active","ping":38},{"user_id":33,"name":"goz","steam_id":76561198155229347,"connected_time":624000000000,"state":"active","ping":52},{"user_id":34,"name":"gŒ±–≤—î Œ∑œÉ√´‚Ñì","steam_id":76561198067342352,"connected_time":622000000000,"state":"active","ping":61},{"user_id":35,"name":"Hell Mommy","steam_id":76561198349648942,"connected_time":576000000000,"state":"active","ping":85},{"user_id":36,"name":"Ablativus","steam_id":76561198025698470,"connected_time":573000000000,"state":"active","ping":61},{"user_id":37,"name":"WeskerTea","steam_id":76561198803536180,"connected_time":381000000000,"state":"active","ping":104},{"user_id":39,"name":"Kahvi","steam_id":76561198723244199,"connected_time":124000000000,"state":"active","ping":82},{"user_id":40,"name":"Ozzak","steam_id":76561198353664262,"connected_time":109000000000,"state":"active","ping":46}]},{"server_id":310,"name":"Uncletopia | Frankfurt | 5 | All Maps","name_short":"frk-5","host":"frk-1.de.uncletopia.com","port":27055,"enabled":true,"region":"eu","cc":"de","latitude":50.110924,"longitude":8.682127,"reserved":0,"last_update":"0001-01-01T00:00:00Z","name_a2s":"Uncletopia | Frankfurt | 5 | All Maps","protocol":17,"map":"pl_swiftwater_final1","folder":"tf","game":"Team Fortress","app_id":440,"player_count":24,"max_players":24,"Bots":0,"server_type":"Dedicated","server_os":"Linux","password":true,"vac":true,"version":"7961495","steam_id":85568392924504277,"keywords":["nocrits","nodmgspread","payload","uncletopia"],"game_id":440,"stv_port":27056,"stv_name":"Uncletopia | Frankfurt | 5 | All Maps | STV","players":[{"user_id":433,"name":"Joe","steam_id":76561198145639903,"connected_time":463000000000,"state":"active","ping":90},{"user_id":428,"name":"Duke Fishlord","steam_id":76561198079928327,"connected_time":975000000000,"state":"active","ping":55},{"user_id":427,"name":"Random Romain","steam_id":76561198355825319,"connected_time":1106000000000,"state":"active","ping":79},{"user_id":429,"name":"hbdie_","steam_id":76561198109996675,"connected_time":896000000000,"state":"active","ping":47},{"user_id":416,"name":"Wattseyy","steam_id":76561198248567360,"connected_time":1195000000000,"state":"active","ping":54},{"user_id":407,"name":"Ml√©ƒçn√Ω Cecek","steam_id":76561198138939377,"connected_time":1506000000000,"state":"active","ping":54},{"user_id":409,"name":"Vel0city","steam_id":76561198049687798,"connected_time":1397000000000,"state":"active","ping":55},{"user_id":435,"name":"Pfaff Ferenc","steam_id":76561199502583278,"connected_time":430000000000,"state":"active","ping":57},{"user_id":400,"name":"powej","steam_id":76561198056381418,"connected_time":2111000000000,"state":"active","ping":47},{"user_id":401,"name":"Lowqualitybeans","steam_id":76561198069405114,"connected_time":2109000000000,"state":"active","ping":78},{"user_id":411,"name":"Dakeyras","steam_id":76561198057069564,"connected_time":1378000000000,"state":"active","ping":113},{"user_id":372,"name":"Kr√≥l_nale≈õnik√≥w","steam_id":76561199188837264,"connected_time":4009000000000,"state":"active","ping":87},{"user_id":436,"name":"szprot","steam_id":76561198938098190,"connected_time":314000000000,"state":"active","ping":72},{"user_id":425,"name":"poo","steam_id":76561199368726811,"connected_time":1137000000000,"state":"active","ping":78},{"user_id":410,"name":"UndercoverFurbyHunter","steam_id":76561198265722644,"connected_time":1384000000000,"state":"active","ping":92},{"user_id":408,"name":"Chill Spirit","steam_id":76561198845001725,"connected_time":1466000000000,"state":"active","ping":44},{"user_id":418,"name":"anders McFlanders","steam_id":76561198022811995,"connected_time":1167000000000,"state":"active","ping":63},{"user_id":430,"name":"warforge3","steam_id":76561199276024310,"connected_time":842000000000,"state":"active","ping":96},{"user_id":405,"name":"please do not the cat","steam_id":76561198089003514,"connected_time":1607000000000,"state":"active","ping":45},{"user_id":393,"name":"q`","steam_id":76561197985597838,"connected_time":2696000000000,"state":"active","ping":67},{"user_id":392,"name":"co","steam_id":76561198188225497,"connected_time":2817000000000,"state":"active","ping":77},{"user_id":403,"name":"antlionguard","steam_id":76561198072747143,"connected_time":1811000000000,"state":"active","ping":104},{"user_id":431,"name":"I919I","steam_id":76561198141049923,"connected_time":735000000000,"state":"active","ping":73},{"user_id":432,"name":"SalCrabber deluxe","steam_id":76561198275942961,"connected_time":695000000000,"state":"active","ping":45}]},{"server_id":311,"name":"Uncletopia | Frankfurt | 6 | All Maps","name_short":"frk-6","host":"frk-1.de.uncletopia.com","port":27065,"enabled":true,"region":"eu","cc":"de","latitude":50.110924,"longitude":8.682127,"reserved":0,"last_update":"0001-01-01T00:00:00Z","name_a2s":"Uncletopia | Frankfurt | 6 | All Maps","protocol":17,"map":"koth_highpass","folder":"tf","game":"Team Fortress","app_id":440,"player_count":0,"max_players":24,"Bots":0,"server_type":"Dedicated","server_os":"Linux","password":true,"vac":true,"version":"7961495","steam_id":85568392924504278,"keywords":["cp","nocrits","nodmgspread","uncletopia"],"game_id":440,"stv_port":27066,"stv_name":"Uncletopia | Frankfurt | 6 | All Maps | STV","players":null},{"server_id":23,"name":"Uncletopia | Frankfurt | 7 | Stopwatch","name_short":"frk-7","host":"frk-1.de.uncletopia.com","port":27075,"enabled":true,"region":"eu","cc":"de","latitude":50.110924,"longitude":8.682127,"reserved":0,"last_update":"0001-01-01T00:00:00Z","name_a2s":"Uncletopia | Frankfurt | 7 | Stopwatch","protocol":17,"map":"pl_frontier_final","folder":"tf","game":"Team Fortress","app_id":440,"player_count":0,"max_players":24,"Bots":0,"server_type":"Dedicated","server_os":"Linux","password":true,"vac":true,"version":"7961495","steam_id":85568392924742827,"keywords":["nocrits","nodmgspread","payload","uncletopia"],"game_id":440,"stv_port":27076,"stv_name":"Uncletopia | Frankfurt | 7 | Stopwatch | STV","players":null},{"server_id":24,"name":"Uncletopia | Frankfurt | 8 | Community","name_short":"frk-8","host":"frk-1.de.uncletopia.com","port":27085,"enabled":true,"region":"eu","cc":"de","latitude":50.110924,"longitude":8.682127,"reserved":0,"last_update":"0001-01-01T00:00:00Z","name_a2s":"Uncletopia | Frankfurt | 8 | Community","protocol":17,"map":"workshop/koth_product_final.ugc454272353","folder":"tf","game":"Team Fortress","app_id":440,"player_count":0,"max_players":24,"Bots":0,"server_type":"Dedicated","server_os":"Linux","password":true,"vac":true,"version":"7961495","steam_id":85568392924742828,"keywords":["cp","nocrits","nodmgspread","uncletopia"],"game_id":440,"stv_port":27086,"stv_name":"Uncletopia | Frankfurt | 8 | Community | STV","players":null},{"server_id":202,"name":"Uncletopia | Hong Kong | 1 | All Maps","name_short":"hgk-1","host":"hgk-1.hk.uncletopia.com","port":27015,"enabled":true,"region":"asia","cc":"hk","latitude":22.302711,"longitude":114.177216,"reserved":0,"last_update":"0001-01-01T00:00:00Z","name_a2s":"Uncletopia | Hong Kong | 1 | All Maps","protocol":17,"map":"cp_dustbowl","folder":"tf","game":"Team Fortress","app_id":440,"player_count":6,"max_players":24,"Bots":0,"server_type":"Dedicated","server_os":"Linux","password":true,"vac":true,"version":"7961495","steam_id":85568392924494504,"keywords":["cp","nocrits","nodmgspread","uncletopia"],"game_id":440,"stv_port":27016,"stv_name":"Uncletopia | Hong Kong | 1 | All Maps | STV","players":[{"user_id":672,"name":"candle71234","steam_id":76561198842831834,"connected_time":68000000000,"state":"active","ping":102},{"user_id":658,"name":"Kolu","steam_id":76561199503762460,"connected_time":1491000000000,"state":"active","ping":75},{"user_id":667,"name":"Ohio","steam_id":76561198136873218,"connected_time":423000000000,"state":"active","ping":77},{"user_id":623,"name":"ÍπÄÍ¥ëÎßå","steam_id":76561198295279503,"connected_time":4327000000000,"state":"active","ping":100},{"user_id":663,"name":"PhantomReaper","steam_id":76561199058312643,"connected_time":705000000000,"state":"active","ping":111},{"user_id":633,"name":"Insomniac","steam_id":76561199180653046,"connected_time":3484000000000,"state":"active","ping":134}]},{"server_id":1,"name":"Uncletopia | Los Angeles | 1 | All Maps","name_short":"lax-1","host":"lax-1.us.uncletopia.com","port":27015,"enabled":true,"region":"us-west","cc":"us","latitude":33.94279,"longitude":-118.41004,"reserved":0,"last_update":"0001-01-01T00:00:00Z","name_a2s":"Uncletopia | Los Angeles | 1 | All Maps","protocol":17,"map":"pl_snowycoast","folder":"tf","game":"Team Fortress","app_id":440,"player_count":0,"max_players":24,"Bots":0,"server_type":"Dedicated","server_os":"Linux","password":true,"vac":true,"version":"7961495","steam_id":85568392924469991,"keywords":["nocrits","nodmgspread","payload","uncletopia"],"game_id":440,"stv_port":27016,"stv_name":"Uncletopia | Los Angeles | 1 | All Maps | STV","players":null},{"server_id":112,"name":"Uncletopia | Los Angeles | 2 | All Maps","name_short":"lax-2","host":"lax-1.us.uncletopia.com","port":27025,"enabled":true,"region":"us-west","cc":"us","latitude":33.94279,"longitude":-118.41004,"reserved":0,"last_update":"0001-01-01T00:00:00Z","name_a2s":"Uncletopia | Los Angeles | 2 | All Maps","protocol":17,"map":"cp_mountainlab","folder":"tf","game":"Team Fortress","app_id":440,"player_count":0,"max_players":24,"Bots":0,"server_type":"Dedicated","server_os":"Linux","password":true,"vac":true,"version":"7961495","steam_id":85568392924469992,"keywords":["cp","nocrits","nodmgspread","uncletopia"],"game_id":440,"stv_port":27026,"stv_name":"Uncletopia | Los Angeles | 2 | All Maps | STV","players":null},{"server_id":324,"name":"Uncletopia | Los Angeles | 3 | All Maps","name_short":"lax-3","host":"lax-1.us.uncletopia.com","port":27035,"enabled":true,"region":"us-west","cc":"us","latitude":33.94279,"longitude":-118.41004,"reserved":0,"last_update":"0001-01-01T00:00:00Z","name_a2s":"Uncletopia | Los Angeles | 3 | All Maps","protocol":17,"map":"pl_frontier_final","folder":"tf","game":"Team Fortress","app_id":440,"player_count":0,"max_players":24,"Bots":0,"server_type":"Dedicated","server_os":"Linux","password":true,"vac":true,"version":"7961495","steam_id":85568392924510198,"keywords":["nocrits","nodmgspread","payload","uncletopia"],"game_id":440,"stv_port":27036,"stv_name":"Uncletopia | Los Angeles | 3 | All Maps | STV","players":null},{"server_id":25,"name":"Uncletopia | Los Angeles | 4 | Stopwatch","name_short":"lax-4","host":"lax-1.us.uncletopia.com","port":27045,"enabled":true,"region":"us-west","cc":"us","latitude":33.94279,"longitude":-118.41004,"reserved":0,"last_update":"0001-01-01T00:00:00Z","name_a2s":"Uncletopia | Los Angeles | 4 | Stopwatch","protocol":17,"map":"pl_barnblitz","folder":"tf","game":"Team Fortress","app_id":440,"player_count":0,"max_players":24,"Bots":0,"server_type":"Dedicated","server_os":"Linux","password":true,"vac":true,"version":"7961495","steam_id":85568392924510199,"keywords":["nocrits","nodmgspread","payload","uncletopia"],"game_id":440,"stv_port":27046,"stv_name":"Uncletopia | Los Angeles | 4 | Stopwatch | STV","players":null},{"server_id":11,"name":"Uncletopia | London | 1 | All Maps","name_short":"lon-1","host":"lon-1.uk.uncletopia.com","port":27015,"enabled":true,"region":"eu","cc":"gb","latitude":51.509865,"longitude":-0.118092,"reserved":0,"last_update":"0001-01-01T00:00:00Z","name_a2s":"Uncletopia | London | 1 | All Maps","protocol":17,"map":"pl_badwater","folder":"tf","game":"Team Fortress","app_id":440,"player_count":24,"max_players":24,"Bots":0,"server_type":"Dedicated","server_os":"Linux","password":true,"vac":true,"version":"7961495","steam_id":85568392924367362,"keywords":["nocrits","nodmgspread","payload","uncletopia"],"game_id":440,"stv_port":27016,"stv_name":"Uncletopia | London | 1 | All Maps | STV","players":[{"user_id":569,"name":"ber","steam_id":76561197993892057,"connected_time":3600000000000,"state":"active","ping":78},{"user_id":634,"name":"Garoseth","steam_id":76561197961387454,"connected_time":1046000000000,"state":"active","ping":60},{"user_id":672,"name":"Prince Flip","steam_id":76561198023462157,"connected_time":42000000000,"state":"active","ping":52},{"user_id":673,"name":"Datsunbrah","steam_id":76561198088494680,"connected_time":36000000000,"state":"active","ping":93},{"user_id":555,"name":"Ghetto Reimo","steam_id":76561198189315728,"connected_time":4274000000000,"state":"active","ping":75},{"user_id":629,"name":"Pats (Gifted items Collector)","steam_id":76561198418538887,"connected_time":1226000000000,"state":"active","ping":81},{"user_id":589,"name":"mertefe","steam_id":76561199237126613,"connected_time":2400000000000,"state":"active","ping":103},{"user_id":653,"name":"The indomitable human spirit","steam_id":76561198368339225,"connected_time":648000000000,"state":"active","ping":114},{"user_id":566,"name":"soil.dirt.earth","steam_id":76561198014377623,"connected_time":3913000000000,"state":"active","ping":31},{"user_id":588,"name":"Finkaksu Devourer of Sour Candy","steam_id":76561198201389163,"connected_time":2442000000000,"state":"active","ping":65},{"user_id":674,"name":"CAA Agent 02","steam_id":76561198088727093,"connected_time":14000000000,"state":"spawning","ping":40},{"user_id":596,"name":"Hardlight","steam_id":76561198128064834,"connected_time":1940000000000,"state":"active","ping":69},{"user_id":606,"name":"TOP G","steam_id":76561198138928548,"connected_time":1646000000000,"state":"active","ping":60},{"user_id":675,"name":"Arizona Ranger","steam_id":76561198859118707,"connected_time":13000000000,"state":"active","ping":199},{"user_id":676,"name":"Gustavo_Fring_6969","steam_id":76561199373610279,"connected_time":7000000000,"state":"spawning","ping":76},{"user_id":568,"name":"GamerPanda","steam_id":76561198061454277,"connected_time":3720000000000,"state":"active","ping":60},{"user_id":671,"name":"Na'vi Misato (by popular demand","steam_id":76561198130860698,"connected_time":83000000000,"state":"active","ping":100},{"user_id":631,"name":"Keany","steam_id":76561199041393458,"connected_time":1176000000000,"state":"active","ping":60},{"user_id":667,"name":"hasky","steam_id":76561197986052798,"connected_time":287000000000,"state":"active","ping":71},{"user_id":597,"name":"GogsCrunchyNuts","steam_id":76561198150599213,"connected_time":1937000000000,"state":"active","ping":82},{"user_id":648,"name":"Frank Horrigan","steam_id":76561198209184131,"connected_time":720000000000,"state":"active","ping":58},{"user_id":615,"name":"swayze","steam_id":76561198141744030,"connected_time":1423000000000,"state":"active","ping":50},{"user_id":610,"name":"heal","steam_id":76561198046754534,"connected_time":1585000000000,"state":"active","ping":90},{"user_id":662,"name":"bigwish | bmod.tf","steam_id":76561197997859723,"connected_time":397000000000,"state":"active","ping":79}]},{"server_id":114,"name":"Uncletopia | London | 2 | All Maps","name_short":"lon-2","host":"lon-1.uk.uncletopia.com","port":27025,"enabled":true,"region":"eu","cc":"gb","latitude":51.509865,"longitude":-0.118092,"reserved":0,"last_update":"0001-01-01T00:00:00Z","name_a2s":"Uncletopia | London | 2 | All Maps","protocol":17,"map":"cp_badlands","folder":"tf","game":"Team Fortress","app_id":440,"player_count":24,"max_players":24,"Bots":0,"server_type":"Dedicated","server_os":"Linux","password":true,"vac":true,"version":"7961495","steam_id":85568392924470941,"keywords":["cp","nocrits","nodmgspread","uncletopia"],"game_id":440,"stv_port":27026,"stv_name":"Uncletopia | London | 2 | All Maps | STV","players":[{"user_id":207,"name":"lore","steam_id":76561198120984188,"connected_time":750000000000,"state":"active","ping":65},{"user_id":193,"name":"Flying skyhigh","steam_id":76561198372971096,"connected_time":936000000000,"state":"active","ping":76},{"user_id":204,"name":"Wenolainen","steam_id":76561198334592800,"connected_time":829000000000,"state":"active","ping":86},{"user_id":205,"name":"r06u3","steam_id":76561198254099253,"connected_time":782000000000,"state":"active","ping":179},{"user_id":150,"name":"Hexagon","steam_id":76561198151205758,"connected_time":3816000000000,"state":"active","ping":59},{"user_id":216,"name":"yuno appreciator","steam_id":76561198083286511,"connected_time":449000000000,"state":"active","ping":35},{"user_id":159,"name":"r0la","steam_id":76561198128315340,"connected_time":3625000000000,"state":"active","ping":84},{"user_id":214,"name":"JustFloys","steam_id":76561199233581310,"connected_time":481000000000,"state":"active","ping":107},{"user_id":224,"name":"Udinese Dion","steam_id":76561198067931573,"connected_time":23000000000,"state":"active","ping":61},{"user_id":194,"name":"Imnoo","steam_id":76561198367875115,"connected_time":930000000000,"state":"active","ping":72},{"user_id":213,"name":"CallMeUnoriginal","steam_id":76561198977528294,"connected_time":542000000000,"state":"active","ping":47},{"user_id":217,"name":"Name","steam_id":76561197990757157,"connected_time":413000000000,"state":"active","ping":73},{"user_id":186,"name":"WER_CLEGENDARY","steam_id":76561199110907464,"connected_time":1002000000000,"state":"active","ping":99},{"user_id":223,"name":"MercuryPlate","steam_id":76561199154144220,"connected_time":124000000000,"state":"active","ping":161},{"user_id":169,"name":"free back real estate","steam_id":76561197999437155,"connected_time":3242000000000,"state":"active","ping":50},{"user_id":158,"name":"Mentlegen","steam_id":76561198064764010,"connected_time":3666000000000,"state":"active","ping":123},{"user_id":195,"name":"TheColdChiliPepper","steam_id":76561199027155811,"connected_time":927000000000,"state":"active","ping":160},{"user_id":215,"name":"mt","steam_id":76561197961319303,"connected_time":476000000000,"state":"active","ping":55},{"user_id":197,"name":"woof","steam_id":76561198233092760,"connected_time":916000000000,"state":"active","ping":73},{"user_id":218,"name":"heddwch","steam_id":76561198076097983,"connected_time":357000000000,"state":"active","ping":77},{"user_id":199,"name":"SSAAMMII","steam_id":76561199168609647,"connected_time":897000000000,"state":"active","ping":56},{"user_id":219,"name":"Ullr","steam_id":76561198140547483,"connected_time":341000000000,"state":"active","ping":36},{"user_id":210,"name":"Goldblade","steam_id":76561198382997614,"connected_time":736000000000,"state":"active","ping":80},{"user_id":222,"name":"Djoser326","steam_id":76561198051035537,"connected_time":238000000000,"state":"active","ping":60}]},{"server_id":320,"name":"Uncletopia | London | 3 | All Maps","name_short":"lon-3","host":"lon-1.uk.uncletopia.com","port":27035,"enabled":true,"region":"eu","cc":"gb","latitude":51.509865,"longitude":-0.118092,"reserved":0,"last_update":"0001-01-01T00:00:00Z","name_a2s":"Uncletopia | London | 3 | All Maps","protocol":17,"map":"koth_viaduct","folder":"tf","game":"Team Fortress","app_id":440,"player_count":6,"max_players":24,"Bots":0,"server_type":"Dedicated","server_os":"Linux","password":true,"vac":true,"version":"7961495","steam_id":85568392924510192,"keywords":["cp","nocrits","nodmgspread","uncletopia"],"game_id":440,"stv_port":27036,"stv_name":"Uncletopia | London | 3 | All Maps | STV","players":[{"user_id":9,"name":"RayTrain","steam_id":76561198874299515,"connected_time":1186000000000,"state":"active","ping":85},{"user_id":10,"name":"Moondrop","steam_id":76561199421181719,"connected_time":1183000000000,"state":"active","ping":75},{"user_id":11,"name":"CaPTAIN_EglOO","steam_id":76561199492497672,"connected_time":1156000000000,"state":"active","ping":60},{"user_id":18,"name":"Ghostly Gibus Gabe","steam_id":76561199390953085,"connected_time":240000000000,"state":"active","ping":68},{"user_id":17,"name":"–¥–∂–µ–≥–µ–º–∏ —Ö—ç–ø–∫–∏–Ω–≥—Å","steam_id":76561198131531394,"connected_time":372000000000,"state":"active","ping":103},{"user_id":20,"name":"Tx_madmash \u0026 knuckles","steam_id":76561198924656512,"connected_time":9000000000,"state":"spawning","ping":56}]},{"server_id":321,"name":"Uncletopia | London | 4 | All Maps","name_short":"lon-4","host":"lon-1.uk.uncletopia.com","port":27045,"enabled":true,"region":"eu","cc":"gb","latitude":51.509865,"longitude":-0.118092,"reserved":0,"last_update":"0001-01-01T00:00:00Z","name_a2s":"Uncletopia | London | 4 | All Maps","protocol":17,"map":"koth_cascade","folder":"tf","game":"Team Fortress","app_id":440,"player_count":0,"max_players":24,"Bots":0,"server_type":"Dedicated","server_os":"Linux","password":true,"vac":true,"version":"7961495","steam_id":85568392924510193,"keywords":["cp","nocrits","nodmgspread","uncletopia"],"game_id":440,"stv_port":27046,"stv_name":"Uncletopia | London | 4 | All Maps | STV","players":null},{"server_id":21,"name":"Uncletopia | London | 5 | All Maps","name_short":"lon-5","host":"lon-1.uk.uncletopia.com","port":27055,"enabled":true,"region":"eu","cc":"gb","latitude":51.509865,"longitude":-0.118092,"reserved":0,"last_update":"0001-01-01T00:00:00Z","name_a2s":"Uncletopia | London | 5 | All Maps","protocol":17,"map":"cp_sunshine","folder":"tf","game":"Team Fortress","app_id":440,"player_count":0,"max_players":24,"Bots":0,"server_type":"Dedicated","server_os":"Linux","password":true,"vac":true,"version":"7961495","steam_id":85568392924742829,"keywords":["cp","nocrits","nodmgspread","uncletopia"],"game_id":440,"stv_port":27056,"stv_name":"Uncletopia | London | 5 | All Maps | STV","players":null},{"server_id":22,"name":"Uncletopia | London | 6 | All Maps","name_short":"lon-6","host":"lon-1.uk.uncletopia.com","port":27065,"enabled":true,"region":"eu","cc":"gb","latitude":51.509865,"longitude":-0.118092,"reserved":0,"last_update":"0001-01-01T00:00:00Z","name_a2s":"Uncletopia | London | 6 | All Maps","protocol":17,"map":"koth_king","folder":"tf","game":"Team Fortress","app_id":440,"player_count":20,"max_players":24,"Bots":0,"server_type":"Dedicated","server_os":"Linux","password":true,"vac":true,"version":"7961495","steam_id":85568392924742830,"keywords":["cp","nocrits","nodmgspread","uncletopia"],"game_id":440,"stv_port":27066,"stv_name":"Uncletopia | London | 6 | All Maps | STV","players":[{"user_id":172,"name":"Kaziocalvice","steam_id":76561198146425583,"connected_time":146000000000,"state":"active","ping":65},{"user_id":151,"name":"M","steam_id":76561199220785307,"connected_time":1100000000000,"state":"active","ping":150},{"user_id":108,"name":"Scorcho","steam_id":76561198134147449,"connected_time":2322000000000,"state":"active","ping":58},{"user_id":170,"name":"Salt Syndrome","steam_id":76561198046584592,"connected_time":328000000000,"state":"active","ping":158},{"user_id":121,"name":"MrChester","steam_id":76561199213192992,"connected_time":1972000000000,"state":"active","ping":69},{"user_id":162,"name":"The One (and only)","steam_id":76561198827193499,"connected_time":564000000000,"state":"active","ping":72},{"user_id":140,"name":"Emuruh","steam_id":76561198312038610,"connected_time":1465000000000,"state":"active","ping":54},{"user_id":163,"name":"Guwop","steam_id":76561197970425737,"connected_time":552000000000,"state":"active","ping":140},{"user_id":120,"name":"Head empty","steam_id":76561198067561269,"connected_time":2036000000000,"state":"active","ping":60},{"user_id":145,"name":"kylie","steam_id":76561199213901239,"connected_time":1339000000000,"state":"active","ping":54},{"user_id":69,"name":"mechanic person","steam_id":76561199007707341,"connected_time":5061000000000,"state":"active","ping":65},{"user_id":154,"name":"Malai","steam_id":76561198062537014,"connected_time":792000000000,"state":"active","ping":73},{"user_id":144,"name":"maciejkrzysteczko","steam_id":76561199140822962,"connected_time":1422000000000,"state":"active","ping":77},{"user_id":167,"name":"Ark-e","steam_id":76561198261870909,"connected_time":497000000000,"state":"active","ping":32},{"user_id":131,"name":"THIS","steam_id":76561198103269397,"connected_time":1770000000000,"state":"active","ping":74},{"user_id":36,"name":"Space","steam_id":76561198378357559,"connected_time":6223000000000,"state":"active","ping":44},{"user_id":98,"name":"Taska","steam_id":76561198807325888,"connected_time":2966000000000,"state":"active","ping":92},{"user_id":80,"name":"Laru","steam_id":76561197998838438,"connected_time":4272000000000,"state":"active","ping":74},{"user_id":166,"name":"Omyskull","steam_id":76561198131711758,"connected_time":507000000000,"state":"active","ping":64},{"user_id":165,"name":"uwubarb","steam_id":76561199015373569,"connected_time":531000000000,"state":"active","ping":72}]},{"server_id":40,"name":"Uncletopia | London | 7 | Stopwatch","name_short":"lon-7","host":"lon-1.uk.uncletopia.com","port":27075,"enabled":true,"region":"eu","cc":"gb","latitude":51.509865,"longitude":-0.118092,"reserved":0,"last_update":"0001-01-01T00:00:00Z","name_a2s":"Uncletopia | London | 7 | Stopwatch","protocol":17,"map":"pl_swiftwater_final1","folder":"tf","game":"Team Fortress","app_id":440,"player_count":0,"max_players":24,"Bots":0,"server_type":"Dedicated","server_os":"Linux","password":true,"vac":true,"version":"7961495","steam_id":85568392924964314,"keywords":["nocrits","nodmgspread","payload","uncletopia"],"game_id":440,"stv_port":27076,"stv_name":"Uncletopia | London | 7 | Stopwatch | STV","players":null},{"server_id":41,"name":"Uncletopia | London | 8 | Community","name_short":"lon-8","host":"lon-1.uk.uncletopia.com","port":27085,"enabled":true,"region":"eu","cc":"gb","latitude":51.509865,"longitude":-0.118092,"reserved":0,"last_update":"0001-01-01T00:00:00Z","name_a2s":"Uncletopia | London | 8 | Community","protocol":17,"map":"workshop/cp_alloy_rc3.ugc592805587","folder":"tf","game":"Team Fortress","app_id":440,"player_count":9,"max_players":24,"Bots":0,"server_type":"Dedicated","server_os":"Linux","password":true,"vac":true,"version":"7961495","steam_id":85568392924964315,"keywords":["cp","nocrits","nodmgspread","uncletopia"],"game_id":440,"stv_port":27086,"stv_name":"Uncletopia | London | 8 | Community | STV","players":[{"user_id":26,"name":"^1MARAMA PALEX","steam_id":76561198311372563,"connected_time":81000000000,"state":"active","ping":73},{"user_id":20,"name":"TSx* Osa__PL","steam_id":76561198027016799,"connected_time":652000000000,"state":"active","ping":73},{"user_id":21,"name":"TSx* Naxer","steam_id":76561198011986779,"connected_time":593000000000,"state":"active","ping":76},{"user_id":22,"name":"Skatnaset","steam_id":76561198298457353,"connected_time":502000000000,"state":"active","ping":65},{"user_id":12,"name":"Puhaur","steam_id":76561198404557509,"connected_time":1317000000000,"state":"active","ping":46},{"user_id":13,"name":"BGH1009","steam_id":76561198894761820,"connected_time":1273000000000,"state":"active","ping":65},{"user_id":23,"name":"TSx* Bargal","steam_id":76561198040266872,"connected_time":447000000000,"state":"active","ping":79},{"user_id":24,"name":"fire","steam_id":76561198063674613,"connected_time":421000000000,"state":"active","ping":60},{"user_id":25,"name":"TSx* {Demon-Angel}","steam_id":76561198151486463,"connected_time":320000000000,"state":"active","ping":89}]},{"server_id":300,"name":"Uncletopia | Montr√©al | 1 | One Thousand Uncles","name_short":"mtl-1","host":"mtl-1.ca.uncletopia.com","port":27015,"enabled":true,"region":"us-east","cc":"ca","latitude":45.50889,"longitude":-73.56167,"reserved":0,"last_update":"0001-01-01T00:00:00Z","name_a2s":"","protocol":0,"map":"","folder":"","game":"","app_id":0,"player_count":0,"max_players":0,"Bots":0,"server_type":"","server_os":"","password":false,"vac":false,"version":"","steam_id":0,"keywords":null,"game_id":0,"stv_port":0,"stv_name":"","players":null},{"server_id":301,"name":"Uncletopia | Montr√©al | 2 | One Thousand Uncles","name_short":"mtl-2","host":"mtl-1.ca.uncletopia.com","port":27025,"enabled":true,"region":"us-east","cc":"ca","latitude":45.50889,"longitude":-73.56167,"reserved":0,"last_update":"0001-01-01T00:00:00Z","name_a2s":"","protocol":0,"map":"","folder":"","game":"","app_id":0,"player_count":0,"max_players":0,"Bots":0,"server_type":"","server_os":"","password":false,"vac":false,"version":"","steam_id":0,"keywords":null,"game_id":0,"stv_port":0,"stv_name":"","players":null},{"server_id":302,"name":"Uncletopia | Montr√©al | 3 | One Thousand Uncles","name_short":"mtl-3","host":"mtl-1.ca.uncletopia.com","port":27035,"enabled":true,"region":"us-east","cc":"ca","latitude":45.50889,"longitude":-73.56167,"reserved":0,"last_update":"0001-01-01T00:00:00Z","name_a2s":"","protocol":0,"map":"","folder":"","game":"","app_id":0,"player_count":0,"max_players":0,"Bots":0,"server_type":"","server_os":"","password":false,"vac":false,"version":"","steam_id":0,"keywords":null,"game_id":0,"stv_port":0,"stv_name":"","players":null},{"server_id":13,"name":"Uncletopia | New York City | 1 | All Maps","name_short":"nyc-1","host":"nyc-1.us.uncletopia.com","port":27015,"enabled":true,"region":"us-east","cc":"us","latitude":40.73061,"longitude":-73.93524,"reserved":0,"last_update":"0001-01-01T00:00:00Z","name_a2s":"Uncletopia | New York City | 1 | All Maps","protocol":17,"map":"pl_pier","folder":"tf","game":"Team Fortress","app_id":440,"player_count":0,"max_players":24,"Bots":0,"server_type":"Dedicated","server_os":"Linux","password":true,"vac":true,"version":"7961495","steam_id":85568392924469993,"keywords":["nocrits","nodmgspread","payload","uncletopia"],"game_id":440,"stv_port":27016,"stv_name":"Uncletopia | New York City | 1 | All Maps | STV","players":null},{"server_id":14,"name":"Uncletopia | New York City | 2 | All Maps","name_short":"nyc-2","host":"nyc-1.us.uncletopia.com","port":27025,"enabled":true,"region":"us-east","cc":"us","latitude":40.73061,"longitude":-73.93524,"reserved":0,"last_update":"0001-01-01T00:00:00Z","name_a2s":"Uncletopia | New York City | 2 | All Maps","protocol":17,"map":"koth_lakeside_final","folder":"tf","game":"Team Fortress","app_id":440,"player_count":3,"max_players":24,"Bots":0,"server_type":"Dedicated","server_os":"Linux","password":true,"vac":true,"version":"7961495","steam_id":85568392924469994,"keywords":["cp","nocrits","nodmgspread","uncletopia"],"game_id":440,"stv_port":27026,"stv_name":"Uncletopia | New York City | 2 | All Maps | STV","players":[{"user_id":7,"name":"MageNicho","steam_id":76561198142151997,"connected_time":108000000000,"state":"active","ping":55},{"user_id":8,"name":"RedDragon2014","steam_id":76561198327354219,"connected_time":103000000000,"state":"active","ping":53},{"user_id":9,"name":"Random Shonen Smear","steam_id":76561198397873029,"connected_time":68000000000,"state":"spawning","ping":53}]},{"server_id":15,"name":"Uncletopia | New York City | 3 | Stopwatch","name_short":"nyc-3","host":"nyc-1.us.uncletopia.com","port":27035,"enabled":true,"region":"us-east","cc":"us","latitude":40.73061,"longitude":-73.93524,"reserved":0,"last_update":"0001-01-01T00:00:00Z","name_a2s":"Uncletopia | New York City | 3 | Stopwatch","protocol":17,"map":"koth_highpass","folder":"tf","game":"Team Fortress","app_id":440,"player_count":0,"max_players":24,"Bots":0,"server_type":"Dedicated","server_os":"Linux","password":true,"vac":true,"version":"7961495","steam_id":85568392924742820,"keywords":["cp","nocrits","nodmgspread","uncletopia"],"game_id":440,"stv_port":27036,"stv_name":"Uncletopia | New York City | 3 | Stopwatch | STV","players":null},{"server_id":16,"name":"Uncletopia | New York City | 4 | Community","name_short":"nyc-4","host":"nyc-1.us.uncletopia.com","port":27045,"enabled":true,"region":"us-east","cc":"us","latitude":40.73061,"longitude":-73.93524,"reserved":0,"last_update":"0001-01-01T00:00:00Z","name_a2s":"Uncletopia | New York City | 4 | Community","protocol":17,"map":"workshop/koth_slaughter_rc1.ugc1712845210","folder":"tf","game":"Team Fortress","app_id":440,"player_count":0,"max_players":24,"Bots":0,"server_type":"Dedicated","server_os":"Linux","password":true,"vac":true,"version":"7961495","steam_id":85568392924742821,"keywords":["cp","nocrits","nodmgspread","uncletopia"],"game_id":440,"stv_port":27046,"stv_name":"Uncletopia | New York City | 4 | Community | STV","players":null},{"server_id":142,"name":"Uncletopia | S√£o Paulo | 1 | All Maps","name_short":"sao-1","host":"sao-1.br.uncletopia.com","port":27015,"enabled":true,"region":"sa","cc":"br","latitude":-23.533773,"longitude":-46.62529,"reserved":0,"last_update":"0001-01-01T00:00:00Z","name_a2s":"Uncletopia | S√£o Paulo | 1 | All Maps","protocol":17,"map":"pl_pier","folder":"tf","game":"Team Fortress","app_id":440,"player_count":11,"max_players":24,"Bots":0,"server_type":"Dedicated","server_os":"Linux","password":true,"vac":true,"version":"7961495","steam_id":85568392924469996,"keywords":["nocrits","nodmgspread","payload","uncletopia"],"game_id":440,"stv_port":27016,"stv_name":"Uncletopia | S√£o Paulo | 1 | All Maps | STV","players":[{"user_id":58,"name":"Neko","steam_id":76561198978401898,"connected_time":486000000000,"state":"active","ping":51},{"user_id":7,"name":"Mar","steam_id":76561199156601871,"connected_time":6818000000000,"state":"active","ping":131},{"user_id":48,"name":"krp","steam_id":76561198819057069,"connected_time":967000000000,"state":"active","ping":55},{"user_id":51,"name":"dopamine","steam_id":76561198359039043,"connected_time":932000000000,"state":"active","ping":130},{"user_id":46,"name":"wetcementdrinker455","steam_id":76561198886569680,"connected_time":1005000000000,"state":"active","ping":58},{"user_id":55,"name":"Jivus","steam_id":76561198162678827,"connected_time":659000000000,"state":"active","ping":65},{"user_id":59,"name":"juanfa","steam_id":76561199404264543,"connected_time":117000000000,"state":"active","ping":78},{"user_id":54,"name":"XjhulioX","steam_id":76561198410184724,"connected_time":837000000000,"state":"active","ping":120},{"user_id":38,"name":"Liz","steam_id":76561199063196183,"connected_time":1940000000000,"state":"active","ping":40},{"user_id":20,"name":"Mrk","steam_id":76561198962992068,"connected_time":3394000000000,"state":"active","ping":100},{"user_id":21,"name":"simply, a sophisticated gamer","steam_id":76561199071542092,"connected_time":3211000000000,"state":"active","ping":43}]},{"server_id":143,"name":"Uncletopia | S√£o Paulo | 2 | Community","name_short":"sao-2","host":"sao-2.br.uncletopia.com","port":27015,"enabled":true,"region":"sa","cc":"br","latitude":-23.533773,"longitude":-46.62529,"reserved":0,"last_update":"0001-01-01T00:00:00Z","name_a2s":"Uncletopia | S√£o Paulo | 2 | Community","protocol":17,"map":"workshop/koth_ramjam_rc1.ugc459778887","folder":"tf","game":"Team Fortress","app_id":440,"player_count":0,"max_players":24,"Bots":0,"server_type":"Dedicated","server_os":"Linux","password":true,"vac":true,"version":"7961495","steam_id":85568392924485349,"keywords":["cp","nocrits","nodmgspread","uncletopia"],"game_id":440,"stv_port":27016,"stv_name":"Uncletopia | S√£o Paulo | 2 | Community | STV","players":null},{"server_id":7,"name":"Uncletopia | Seattle | 1 | All Maps","name_short":"sea-1","host":"sea-1.us.uncletopia.com","port":27015,"enabled":true,"region":"us-west","cc":"us","latitude":47.608013,"longitude":-122.33517,"reserved":0,"last_update":"0001-01-01T00:00:00Z","name_a2s":"Uncletopia | Seattle | 1 | All Maps","protocol":17,"map":"pl_borneo","folder":"tf","game":"Team Fortress","app_id":440,"player_count":22,"max_players":24,"Bots":0,"server_type":"Dedicated","server_os":"Linux","password":true,"vac":true,"version":"7961495","steam_id":85568392924469997,"keywords":["nocrits","nodmgspread","payload","uncletopia"],"game_id":440,"stv_port":27016,"stv_name":"Uncletopia | Seattle | 1 | All Maps | STV","players":[{"user_id":130,"name":"BooGotShot","steam_id":76561198039062270,"connected_time":1702000000000,"state":"active","ping":99},{"user_id":129,"name":"Brain Magic","steam_id":76561198010201477,"connected_time":1784000000000,"state":"active","ping":75},{"user_id":126,"name":"I INCREASE MY SPEED","steam_id":76561198248461754,"connected_time":2221000000000,"state":"active","ping":72},{"user_id":139,"name":"SHADOW","steam_id":76561198207768148,"connected_time":1146000000000,"state":"active","ping":52},{"user_id":115,"name":"Shark Sandwich","steam_id":76561198025007938,"connected_time":2938000000000,"state":"active","ping":45},{"user_id":151,"name":"Spruce","steam_id":76561198081684676,"connected_time":241000000000,"state":"active","ping":46},{"user_id":88,"name":"Lovedaddy","steam_id":76561198006569710,"connected_time":5700000000000,"state":"active","ping":122},{"user_id":133,"name":"a mouse with a gun","steam_id":76561198066154333,"connected_time":1405000000000,"state":"active","ping":130},{"user_id":134,"name":"Petrivus","steam_id":76561198202152453,"connected_time":1390000000000,"state":"active","ping":45},{"user_id":76,"name":"Recluse","steam_id":76561198155011568,"connected_time":6175000000000,"state":"active","ping":115},{"user_id":120,"name":"realhedgehog2082","steam_id":76561198168931330,"connected_time":2863000000000,"state":"active","ping":100},{"user_id":135,"name":"Other Players, My One Weakness","steam_id":76561197989247588,"connected_time":1388000000000,"state":"active","ping":71},{"user_id":149,"name":"nooblet bitch","steam_id":76561198103496593,"connected_time":320000000000,"state":"active","ping":108},{"user_id":104,"name":"Tracey [sillymoder]","steam_id":76561198202235495,"connected_time":4814000000000,"state":"active","ping":45},{"user_id":138,"name":"ReDiculous22","steam_id":76561198038391383,"connected_time":1222000000000,"state":"active","ping":90},{"user_id":140,"name":"Drilly22","steam_id":76561198068838338,"connected_time":1139000000000,"state":"active","ping":93},{"user_id":141,"name":"THE CUMEST LORD","steam_id":76561198061412592,"connected_time":1138000000000,"state":"active","ping":107},{"user_id":142,"name":"HappilyDisturbed","steam_id":76561198156158743,"connected_time":1120000000000,"state":"active","ping":100},{"user_id":148,"name":"ClownTown","steam_id":76561199350870177,"connected_time":346000000000,"state":"active","ping":111},{"user_id":145,"name":"Patio","steam_id":76561197986082608,"connected_time":1044000000000,"state":"active","ping":45},{"user_id":146,"name":"jammy nutrient boy genius","steam_id":76561198165086917,"connected_time":1042000000000,"state":"active","ping":77},{"user_id":150,"name":"Bob","steam_id":76561198059258610,"connected_time":320000000000,"state":"active","ping":78}]},{"server_id":119,"name":"Uncletopia | Seattle | 2 | All Maps","name_short":"sea-2","host":"sea-1.us.uncletopia.com","port":27025,"enabled":true,"region":"us-west","cc":"us","latitude":47.608013,"longitude":-122.33517,"reserved":0,"last_update":"0001-01-01T00:00:00Z","name_a2s":"Uncletopia | Seattle | 2 | All Maps","protocol":17,"map":"pl_upward","folder":"tf","game":"Team Fortress","app_id":440,"player_count":0,"max_players":24,"Bots":0,"server_type":"Dedicated","server_os":"Linux","password":true,"vac":true,"version":"7961495","steam_id":85568392924469998,"keywords":["nocrits","nodmgspread","payload","uncletopia"],"game_id":440,"stv_port":27026,"stv_name":"Uncletopia | Seattle | 2 | All Maps | STV","players":null},{"server_id":406,"name":"Uncletopia | Seattle | 3 | Stopwatch","name_short":"sea-3","host":"sea-1.us.uncletopia.com","port":27035,"enabled":true,"region":"us-west","cc":"us","latitude":47.608013,"longitude":-122.33517,"reserved":0,"last_update":"0001-01-01T00:00:00Z","name_a2s":"Uncletopia | Seattle | 3 | Stopwatch","protocol":17,"map":"pl_pier","folder":"tf","game":"Team Fortress","app_id":440,"player_count":0,"max_players":24,"Bots":0,"server_type":"Dedicated","server_os":"Linux","password":true,"vac":true,"version":"7961495","steam_id":85568392924515217,"keywords":["nocrits","nodmgspread","payload","uncletopia"],"game_id":440,"stv_port":27036,"stv_name":"Uncletopia | Seattle | 3 | Stopwatch | STV","players":null},{"server_id":17,"name":"Uncletopia | San Francisco | 1 | All Maps","name_short":"sfo-1","host":"sfo-1.us.uncletopia.com","port":27015,"enabled":true,"region":"us-west","cc":"us","latitude":37.77397,"longitude":-122.4313,"reserved":0,"last_update":"0001-01-01T00:00:00Z","name_a2s":"Uncletopia | San Francisco | 1 | All Maps","protocol":17,"map":"koth_cascade","folder":"tf","game":"Team Fortress","app_id":440,"player_count":0,"max_players":24,"Bots":0,"server_type":"Dedicated","server_os":"Linux","password":true,"vac":true,"version":"7961495","steam_id":85568392924469999,"keywords":["cp","nocrits","nodmgspread","uncletopia"],"game_id":440,"stv_port":27016,"stv_name":"Uncletopia | San Francisco | 1 | All Maps | STV","players":null},{"server_id":18,"name":"Uncletopia | San Francisco | 2 | All Maps","name_short":"sfo-2","host":"sfo-1.us.uncletopia.com","port":27025,"enabled":true,"region":"us-west","cc":"us","latitude":37.77397,"longitude":-122.4313,"reserved":0,"last_update":"0001-01-01T00:00:00Z","name_a2s":"Uncletopia | San Francisco | 2 | All Maps","protocol":17,"map":"pl_badwater","folder":"tf","game":"Team Fortress","app_id":440,"player_count":23,"max_players":24,"Bots":0,"server_type":"Dedicated","server_os":"Linux","password":true,"vac":true,"version":"7961495","steam_id":85568392924470000,"keywords":["nocrits","nodmgspread","payload","uncletopia"],"game_id":440,"stv_port":27026,"stv_name":"Uncletopia | San Francisco | 2 | All Maps | STV","players":[{"user_id":37,"name":"DangusWangus","steam_id":76561198063521423,"connected_time":1073000000000,"state":"active","ping":112},{"user_id":14,"name":"blue duck the 2nd","steam_id":76561198263142765,"connected_time":2792000000000,"state":"active","ping":94},{"user_id":46,"name":"John Calibur","steam_id":76561197999986606,"connected_time":16000000000,"state":"active","ping":60},{"user_id":41,"name":"Zero","steam_id":76561198106851285,"connected_time":749000000000,"state":"active","ping":175},{"user_id":8,"name":"EclipseHellhound","steam_id":76561199192649470,"connected_time":3581000000000,"state":"active","ping":61},{"user_id":40,"name":"Jakal's pender score of 184","steam_id":76561198098769929,"connected_time":936000000000,"state":"active","ping":65},{"user_id":11,"name":"Weegee","steam_id":76561198140095755,"connected_time":3297000000000,"state":"active","ping":64},{"user_id":44,"name":"Laxoloni","steam_id":76561199197045700,"connected_time":367000000000,"state":"active","ping":66},{"user_id":20,"name":"Versuski","steam_id":76561198085193084,"connected_time":2161000000000,"state":"active","ping":109},{"user_id":38,"name":"Sean","steam_id":76561199367470003,"connected_time":1013000000000,"state":"active","ping":67},{"user_id":43,"name":"Strike Force Lightning","steam_id":76561198271519776,"connected_time":527000000000,"state":"active","ping":114},{"user_id":29,"name":"snowcap","steam_id":76561198344164944,"connected_time":1720000000000,"state":"active","ping":61},{"user_id":39,"name":"Beta Fish","steam_id":76561198073504861,"connected_time":946000000000,"state":"active","ping":103},{"user_id":24,"name":"Arcticman","steam_id":76561198131418911,"connected_time":1905000000000,"state":"active","ping":96},{"user_id":25,"name":"dantheman","steam_id":76561199486390813,"connected_time":1883000000000,"state":"active","ping":136},{"user_id":26,"name":"KingBoss","steam_id":76561198206346569,"connected_time":1878000000000,"state":"active","ping":112},{"user_id":42,"name":"canna van gogh","steam_id":76561198056331193,"connected_time":609000000000,"state":"active","ping":67},{"user_id":28,"name":"willow","steam_id":76561198049481773,"connected_time":1811000000000,"state":"active","ping":89},{"user_id":30,"name":"\u003c3","steam_id":76561198196829267,"connected_time":1686000000000,"state":"active","ping":62},{"user_id":45,"name":"Firedust19","steam_id":76561198153238631,"connected_time":207000000000,"state":"active","ping":78},{"user_id":33,"name":"incredirocks","steam_id":76561198061079993,"connected_time":1456000000000,"state":"active","ping":95},{"user_id":35,"name":"allahsdroptop (Bag/Chaser)","steam_id":76561198133195238,"connected_time":1440000000000,"state":"active","ping":61},{"user_id":36,"name":"Dog","steam_id":76561198041841128,"connected_time":1397000000000,"state":"active","ping":53}]},{"server_id":19,"name":"Uncletopia | San Francisco | 3 | Stopwatch","name_short":"sfo-3","host":"sfo-1.us.uncletopia.com","port":27035,"enabled":true,"region":"us-west","cc":"us","latitude":37.77397,"longitude":-122.4313,"reserved":0,"last_update":"0001-01-01T00:00:00Z","name_a2s":"Uncletopia | San Francisco | 3 | Stopwatch","protocol":17,"map":"pl_pier","folder":"tf","game":"Team Fortress","app_id":440,"player_count":0,"max_players":24,"Bots":0,"server_type":"Dedicated","server_os":"Linux","password":true,"vac":true,"version":"7961495","steam_id":85568392924742824,"keywords":["nocrits","nodmgspread","payload","uncletopia"],"game_id":440,"stv_port":27036,"stv_name":"Uncletopia | San Francisco | 3 | Stopwatch | STV","players":null},{"server_id":20,"name":"Uncletopia | San Francisco | 4 | Community","name_short":"sfo-4","host":"sfo-1.us.uncletopia.com","port":27045,"enabled":true,"region":"us-west","cc":"us","latitude":37.77397,"longitude":-122.4313,"reserved":0,"last_update":"0001-01-01T00:00:00Z","name_a2s":"Uncletopia | San Francisco | 4 | Community","protocol":17,"map":"pl_pier","folder":"tf","game":"Team Fortress","app_id":440,"player_count":0,"max_players":24,"Bots":0,"server_type":"Dedicated","server_os":"Linux","password":true,"vac":true,"version":"7961495","steam_id":85568392924742826,"keywords":["nocrits","nodmgspread","payload","uncletopia"],"game_id":440,"stv_port":27046,"stv_name":"Uncletopia | San Francisco | 4 | Community | STV","players":null},{"server_id":141,"name":"Uncletopia | Sydney | 1 | All Maps","name_short":"syd-1","host":"syd-1.au.uncletopia.com","port":27015,"enabled":true,"region":"au","cc":"au","latitude":-33.865143,"longitude":151.2099,"reserved":0,"last_update":"0001-01-01T00:00:00Z","name_a2s":"Uncletopia | Sydney | 1 | All Maps","protocol":17,"map":"koth_highpass","folder":"tf","game":"Team Fortress","app_id":440,"player_count":1,"max_players":24,"Bots":0,"server_type":"Dedicated","server_os":"Linux","password":true,"vac":true,"version":"7961495","steam_id":85568392924470001,"keywords":["cp","nocrits","nodmgspread","uncletopia"],"game_id":440,"stv_port":27016,"stv_name":"Uncletopia | Sydney | 1 | All Maps | STV","players":[{"user_id":351,"name":"Hammy","steam_id":76561198073189329,"connected_time":1526000000000,"state":"active","ping":77}]},{"server_id":123,"name":"Uncletopia | Sydney | 2 | All Maps","name_short":"syd-2","host":"syd-1.au.uncletopia.com","port":27025,"enabled":true,"region":"au","cc":"au","latitude":-33.865143,"longitude":151.2099,"reserved":0,"last_update":"0001-01-01T00:00:00Z","name_a2s":"Uncletopia | Sydney | 2 | All Maps","protocol":17,"map":"koth_cascade","folder":"tf","game":"Team Fortress","app_id":440,"player_count":0,"max_players":24,"Bots":0,"server_type":"Dedicated","server_os":"Linux","password":true,"vac":true,"version":"7961495","steam_id":85568392924470002,"keywords":["cp","nocrits","nodmgspread","uncletopia"],"game_id":440,"stv_port":27026,"stv_name":"Uncletopia | Sydney | 2 | All Maps | STV","players":null},{"server_id":395,"name":"Uncletopia | Sydney | 3 | All Maps","name_short":"syd-3","host":"syd-1.au.uncletopia.com","port":27035,"enabled":true,"region":"au","cc":"au","latitude":-33.865143,"longitude":151.2099,"reserved":0,"last_update":"0001-01-01T00:00:00Z","name_a2s":"Uncletopia | Sydney | 3 | All Maps","protocol":17,"map":"koth_highpass","folder":"tf","game":"Team Fortress","app_id":440,"player_count":0,"max_players":24,"Bots":0,"server_type":"Dedicated","server_os":"Linux","password":true,"vac":true,"version":"7961495","steam_id":85568392925194467,"keywords":["cp","nocrits","nodmgspread","uncletopia"],"game_id":440,"stv_port":27036,"stv_name":"Uncletopia | Sydney | 3 | All Maps | STV","players":null},{"server_id":396,"name":"Uncletopia | Sydney | 4 | All Maps","name_short":"syd-4","host":"syd-1.au.uncletopia.com","port":27045,"enabled":true,"region":"au","cc":"au","latitude":-33.865143,"longitude":151.2099,"reserved":0,"last_update":"0001-01-01T00:00:00Z","name_a2s":"Uncletopia | Sydney | 4 | All Maps","protocol":17,"map":"koth_highpass","folder":"tf","game":"Team Fortress","app_id":440,"player_count":0,"max_players":24,"Bots":0,"server_type":"Dedicated","server_os":"Linux","password":true,"vac":true,"version":"7961495","steam_id":85568392925397958,"keywords":["cp","nocrits","nodmgspread","uncletopia"],"game_id":440,"stv_port":27046,"stv_name":"Uncletopia | Sydney | 4 | All Maps | STV","players":null},{"server_id":58,"name":"Uncletopia | Sydney | 5 | Stopwatch","name_short":"syd-5","host":"syd-1.au.uncletopia.com","port":27055,"enabled":true,"region":"au","cc":"au","latitude":-33.865143,"longitude":151.2099,"reserved":0,"last_update":"0001-01-01T00:00:00Z","name_a2s":"Uncletopia | Sydney | 5 | Stopwatch","protocol":17,"map":"pl_frontier_final","folder":"tf","game":"Team Fortress","app_id":440,"player_count":0,"max_players":24,"Bots":0,"server_type":"Dedicated","server_os":"Linux","password":true,"vac":true,"version":"7961495","steam_id":85568392925397959,"keywords":["nocrits","nodmgspread","payload","uncletopia"],"game_id":440,"stv_port":27056,"stv_name":"Uncletopia | Sydney | 5 | Stopwatch | STV","players":null},{"server_id":59,"name":"Uncletopia | Sydney | 6 | Community","name_short":"syd-6","host":"syd-1.au.uncletopia.com","port":27065,"enabled":true,"region":"au","cc":"au","latitude":-33.865143,"longitude":151.2099,"reserved":0,"last_update":"0001-01-01T00:00:00Z","name_a2s":"Uncletopia | Sydney | 6 | Community","protocol":17,"map":"cp_sunshine","folder":"tf","game":"Team Fortress","app_id":440,"player_count":1,"max_players":24,"Bots":0,"server_type":"Dedicated","server_os":"Linux","password":true,"vac":true,"version":"7961495","steam_id":85568392925397960,"keywords":["cp","nocrits","nodmgspread","uncletopia"],"game_id":440,"stv_port":27066,"stv_name":"Uncletopia | Sydney | 6 | Community | STV","players":[{"user_id":3,"name":"Matt VII (7) (seven)","steam_id":76561198065340795,"connected_time":66000000000,"state":"active","ping":50}]},{"server_id":49,"name":"Uncletopia | Warsaw | 1 | One Thousand Uncles","name_short":"waw-1","host":"waw-1.pl.uncletopia.com","port":27015,"enabled":true,"region":"eu","cc":"pl","latitude":52.2297,"longitude":21.017532,"reserved":0,"last_update":"0001-01-01T00:00:00Z","name_a2s":"Uncletopia | Warsaw | 1 | One Thousand Uncles","protocol":17,"map":"cp_dustbowl","folder":"tf","game":"Team Fortress","app_id":440,"player_count":26,"max_players":32,"Bots":16,"server_type":"Dedicated","server_os":"Linux","password":true,"vac":true,"version":"7961495","steam_id":85568392925397850,"keywords":["alltalk","bots","cp","danepve","increased_maxplayers","nocrits","norespawntime","uncletopia"],"game_id":440,"stv_port":0,"stv_name":"","players":[{"user_id":349,"name":"0scr_","steam_id":76561198042631352,"connected_time":3373000000000,"state":"active","ping":80},{"user_id":360,"name":"Papa Stalin","steam_id":76561198298953716,"connected_time":2038000000000,"state":"active","ping":63},{"user_id":362,"name":"Scout","steam_id":76561198992898803,"connected_time":1795000000000,"state":"active","ping":75},{"user_id":363,"name":"aaaaaa","steam_id":76561198086304421,"connected_time":1746000000000,"state":"active","ping":84},{"user_id":364,"name":"ZharMeny","steam_id":76561199086841610,"connected_time":1698000000000,"state":"active","ping":106},{"user_id":316,"name":"‡∏ô‡∏¥‡∏Å‡πÄ‡∏Å‡∏≠‡∏£‡πå","steam_id":76561199084680369,"connected_time":6661000000000,"state":"active","ping":36},{"user_id":370,"name":"T_Crow","steam_id":76561198052999669,"connected_time":272000000000,"state":"active","ping":48},{"user_id":372,"name":"Domcxz","steam_id":76561198291703984,"connected_time":254000000000,"state":"active","ping":51},{"user_id":340,"name":"omriIL","steam_id":76561198842175727,"connected_time":4802000000000,"state":"active","ping":101},{"user_id":368,"name":"antagonist","steam_id":76561198045125796,"connected_time":1088000000000,"state":"active","ping":102}]},{"server_id":50,"name":"Uncletopia | Warsaw | 2 | One Thousand Uncles","name_short":"waw-2","host":"waw-1.pl.uncletopia.com","port":27025,"enabled":true,"region":"eu","cc":"pl","latitude":52.2297,"longitude":21.017532,"reserved":0,"last_update":"0001-01-01T00:00:00Z","name_a2s":"Uncletopia | Warsaw | 2 | One Thousand Uncles","protocol":17,"map":"pl_snowycoast","folder":"tf","game":"Team Fortress","app_id":440,"player_count":20,"max_players":32,"Bots":16,"server_type":"Dedicated","server_os":"Linux","password":true,"vac":true,"version":"7961495","steam_id":85568392925397851,"keywords":["alltalk","bots","danepve","increased_maxplayers","nocrits","norespawntime","payload","uncletopia"],"game_id":440,"stv_port":0,"stv_name":"","players":[{"user_id":443,"name":"Oreo Principle","steam_id":76561198063929217,"connected_time":1481000000000,"state":"active","ping":44},{"user_id":389,"name":"d u k k i","steam_id":76561198071807437,"connected_time":4963000000000,"state":"active","ping":59},{"user_id":446,"name":"WEEN | :0","steam_id":76561198073607799,"connected_time":1072000000000,"state":"active","ping":83},{"user_id":412,"name":"Fatmagic Mukbang ASMR","steam_id":76561198063492110,"connected_time":2913000000000,"state":"active","ping":86}]},{"server_id":51,"name":"Uncletopia | Warsaw | 3 | All Maps","name_short":"waw-3","host":"waw-1.pl.uncletopia.com","port":27035,"enabled":true,"region":"eu","cc":"pl","latitude":52.2297,"longitude":21.017532,"reserved":0,"last_update":"0001-01-01T00:00:00Z","name_a2s":"Uncletopia | Warsaw | 3 | All Maps","protocol":17,"map":"plr_pipeline","folder":"tf","game":"Team Fortress","app_id":440,"player_count":0,"max_players":24,"Bots":0,"server_type":"Dedicated","server_os":"Linux","password":true,"vac":true,"version":"7961495","steam_id":85568392925397852,"keywords":["nocrits","nodmgspread","payload","uncletopia"],"game_id":440,"stv_port":27036,"stv_name":"Uncletopia | Warsaw | 3 | All Maps | STV","players":null},{"server_id":52,"name":"Uncletopia | Warsaw | 4 | All Maps","name_short":"waw-4","host":"waw-1.pl.uncletopia.com","port":27045,"enabled":true,"region":"eu","cc":"pl","latitude":52.2297,"longitude":21.017532,"reserved":0,"last_update":"0001-01-01T00:00:00Z","name_a2s":"Uncletopia | Warsaw | 4 | All Maps","protocol":17,"map":"pl_pier","folder":"tf","game":"Team Fortress","app_id":440,"player_count":0,"max_players":24,"Bots":0,"server_type":"Dedicated","server_os":"Linux","password":true,"vac":true,"version":"7961495","steam_id":85568392925397853,"keywords":["nocrits","nodmgspread","payload","uncletopia"],"game_id":440,"stv_port":27046,"stv_name":"Uncletopia | Warsaw | 4 | All Maps | STV","players":null},{"server_id":53,"name":"Uncletopia | Warsaw | 5 | Stopwatch","name_short":"waw-5","host":"waw-1.pl.uncletopia.com","port":27055,"enabled":true,"region":"eu","cc":"pl","latitude":52.2297,"longitude":21.017532,"reserved":0,"last_update":"0001-01-01T00:00:00Z","name_a2s":"Uncletopia | Warsaw | 5 | Stopwatch","protocol":17,"map":"pl_upward","folder":"tf","game":"Team Fortress","app_id":440,"player_count":0,"max_players":24,"Bots":0,"server_type":"Dedicated","server_os":"Linux","password":true,"vac":true,"version":"7961495","steam_id":85568392925397854,"keywords":["nocrits","nodmgspread","payload","uncletopia"],"game_id":440,"stv_port":27056,"stv_name":"Uncletopia | Warsaw | 5 | Stopwatch | STV","players":null},{"server_id":54,"name":"Uncletopia | Warsaw | 6 | Community","name_short":"waw-6","host":"waw-1.pl.uncletopia.com","port":27065,"enabled":true,"region":"eu","cc":"pl","latitude":52.2297,"longitude":21.017532,"reserved":0,"last_update":"0001-01-01T00:00:00Z","name_a2s":"Uncletopia | Warsaw | 6 | Community","protocol":17,"map":"workshop/pl_badwater_pro_v12.ugc2142942074","folder":"tf","game":"Team Fortress","app_id":440,"player_count":5,"max_players":24,"Bots":0,"server_type":"Dedicated","server_os":"Linux","password":true,"vac":true,"version":"7961495","steam_id":85568392925397856,"keywords":["nocrits","nodmgspread","payload","uncletopia"],"game_id":440,"stv_port":27066,"stv_name":"Uncletopia | Warsaw | 6 | Community | STV","players":[{"user_id":6,"name":"Juuni","steam_id":76561198388345739,"connected_time":2001000000000,"state":"active","ping":85},{"user_id":8,"name":"Smol","steam_id":76561199001607121,"connected_time":1803000000000,"state":"active","ping":52},{"user_id":9,"name":"h e a v y","steam_id":76561199161084988,"connected_time":1742000000000,"state":"active","ping":98},{"user_id":10,"name":"Kotya","steam_id":76561198264896621,"connected_time":1633000000000,"state":"active","ping":83},{"user_id":11,"name":"MedSik","steam_id":76561198166558215,"connected_time":1565000000000,"state":"active","ping":44}]}]}