{"status":true,"message":"","result":[{"server_id":9,"name":"Uncletopia | Atlanta | 1 | All Maps","name_short":"atl-1","host":"atl-1.us.uncletopia.com","port":27015,"enabled":true,"region":"us-east","cc":"us","latitude":33.753746,"longitude":-84.38633,"reserved":0,"last_update":"0001-01-01T00:00:00Z","name_a2s":"Uncletopia | Atlanta | 1 | All Maps","protocol":17,"map":"koth_lakeside_final","folder":"tf","game":"Team Fortress","app_id":440,"player_count":0,"max_players":24,"Bots":0,"server_type":"Dedicated","server_os":"Linux","password":true,"vac":true,"version":"7882260","steam_id":85568392924469982,"keywords":["cp","nocrits","nodmgspread","uncletopia"],"game_id":440,"stv_port":27016,"stv_name":"Uncletopia | Atlanta | 1 | All Maps | STV","players":null},{"server_id":104,"name":"Uncletopia | Atlanta | 2 | All Maps","name_short":"atl-2","host":"atl-1.us.uncletopia.com","port":27025,"enabled":true,"region":"us-east","cc":"us","latitude":33.753746,"longitude":-84.38633,"reserved":0,"last_update":"0001-01-01T00:00:00Z","name_a2s":"Uncletopia | Atlanta | 2 | All Maps","protocol":17,"map":"cp_sunshine","folder":"tf","game":"Team Fortress","app_id":440,"player_count":0,"max_players":24,"Bots":0,"server_type":"Dedicated","server_os":"Linux","password":true,"vac":true,"version":"7882260","steam_id":85568392924469983,"keywords":["cp","nocrits","nodmgspread","uncletopia"],"game_id":440,"stv_port":27026,"stv_name":"Uncletopia | Atlanta | 2 | All Maps | STV","players":null},{"server_id":400,"name":"Uncletopia | Atlanta | 3 | Community","name_short":"atl-3","host":"atl-1.us.uncletopia.com","port":27035,"enabled":true,"region":"us-east","cc":"us","latitude":33.753746,"longitude":-84.38633,"reserved":0,"last_update":"0001-01-01T00:00:00Z","name_a2s":"Uncletopia | Atlanta | 3 | Community","protocol":17,"map":"workshop/koth_synthetic_rc6a.ugc1549817316","folder":"tf","game":"Team Fortress","app_id":440,"player_count":0,"max_players":24,"Bots":0,"server_type":"Dedicated","server_os":"Linux","password":true,"vac":true,"version":"7882260","steam_id":85568392924515187,"keywords":["cp","nocrits","nodmgspread","uncletopia"],"game_id":440,"stv_port":27036,"stv_name":"Uncletopia | Atlanta | 3 | Community | STV","players":null},{"server_id":401,"name":"Uncletopia | Atlanta | 4 | No Payload","name_short":"atl-4","host":"atl-1.us.uncletopia.com","port":27045,"enabled":true,"region":"us-east","cc":"us","latitude":33.753746,"longitude":-84.38633,"reserved":0,"last_update":"0001-01-01T00:00:00Z","name_a2s":"","protocol":0,"map":"","folder":"","game":"","app_id":0,"player_count":0,"max_players":0,"Bots":0,"server_type":"","server_os":"","password":false,"vac":false,"version":"","steam_id":0,"keywords":null,"game_id":0,"stv_port":0,"stv_name":"","players":null},{"server_id":2,"name":"Uncletopia | Chicago | 1 | All Maps","name_short":"chi-1","host":"chi-1.us.uncletopia.com","port":27015,"enabled":true,"region":"us-central","cc":"us","latitude":41.881832,"longitude":-87.62318,"reserved":0,"last_update":"0001-01-01T00:00:00Z","name_a2s":"Uncletopia | Chicago | 1 | All Maps","protocol":17,"map":"pl_borneo","folder":"tf","game":"Team Fortress","app_id":440,"player_count":24,"max_players":24,"Bots":0,"server_type":"Dedicated","server_os":"Linux","password":true,"vac":true,"version":"7882260","steam_id":85568392924469984,"keywords":["nocrits","nodmgspread","payload","uncletopia"],"game_id":440,"stv_port":27016,"stv_name":"Uncletopia | Chicago | 1 | All Maps | STV","players":[{"user_id":880,"name":"Khaiden","steam_id":76561198104454754,"connected_time":545000000000,"state":"active","ping":170},{"user_id":864,"name":"Elias","steam_id":76561198106431732,"connected_time":1484000000000,"state":"active","ping":45},{"user_id":870,"name":"Argo","steam_id":76561198353725622,"connected_time":1381000000000,"state":"active","ping":76},{"user_id":858,"name":"DoubleCheck","steam_id":76561198105194407,"connected_time":1627000000000,"state":"active","ping":34},{"user_id":877,"name":"Iron","steam_id":76561198247918478,"connected_time":1056000000000,"state":"active","ping":57},{"user_id":881,"name":"Drago","steam_id":76561198206572733,"connected_time":536000000000,"state":"active","ping":116},{"user_id":827,"name":"Professional Chef","steam_id":76561198197721155,"connected_time":4608000000000,"state":"active","ping":77},{"user_id":855,"name":"Ned","steam_id":76561198074662946,"connected_time":1868000000000,"state":"active","ping":65},{"user_id":868,"name":"Scrux","steam_id":76561198129763115,"connected_time":1430000000000,"state":"active","ping":104},{"user_id":876,"name":"HertLezz","steam_id":76561198159972289,"connected_time":1128000000000,"state":"active","ping":108},{"user_id":862,"name":"playguy carter","steam_id":76561198080679337,"connected_time":1504000000000,"state":"active","ping":58},{"user_id":872,"name":"Franz","steam_id":76561198041929745,"connected_time":1223000000000,"state":"active","ping":99},{"user_id":863,"name":"Mitsubishi Materials","steam_id":76561198151871198,"connected_time":1489000000000,"state":"active","ping":60},{"user_id":865,"name":"choppa凸(►˛◄'!)","steam_id":76561198123236186,"connected_time":1479000000000,"state":"active","ping":89},{"user_id":854,"name":"Yeets3er","steam_id":76561199137127757,"connected_time":1987000000000,"state":"active","ping":164},{"user_id":875,"name":"laddie","steam_id":76561198063029230,"connected_time":1141000000000,"state":"active","ping":72},{"user_id":727,"name":"nori_420 (mute)","steam_id":76561199117134203,"connected_time":12190000000000,"state":"active","ping":97},{"user_id":850,"name":"Joker's Skull","steam_id":76561199185320627,"connected_time":2854000000000,"state":"active","ping":165},{"user_id":866,"name":"rice white","steam_id":76561198320732910,"connected_time":1476000000000,"state":"active","ping":75},{"user_id":818,"name":"Archie","steam_id":76561198137112917,"connected_time":4891000000000,"state":"active","ping":99},{"user_id":869,"name":"Kaluka","steam_id":76561198036861445,"connected_time":1408000000000,"state":"active","ping":75},{"user_id":831,"name":"Gachalover","steam_id":76561199231552074,"connected_time":4454000000000,"state":"active","ping":77},{"user_id":867,"name":"lorelius hogglefart","steam_id":76561198211781375,"connected_time":1475000000000,"state":"active","ping":90},{"user_id":879,"name":"ǟʐǟȶɦօȶɦ","steam_id":76561198003376593,"connected_time":658000000000,"state":"active","ping":59}]},{"server_id":106,"name":"Uncletopia | Chicago | 2 | All Maps","name_short":"chi-2","host":"chi-1.us.uncletopia.com","port":27025,"enabled":true,"region":"us-central","cc":"us","latitude":41.881832,"longitude":-87.62318,"reserved":0,"last_update":"0001-01-01T00:00:00Z","name_a2s":"Uncletopia | Chicago | 2 | All Maps","protocol":17,"map":"pl_goldrush","folder":"tf","game":"Team Fortress","app_id":440,"player_count":23,"max_players":24,"Bots":0,"server_type":"Dedicated","server_os":"Linux","password":true,"vac":true,"version":"7882260","steam_id":85568392924469985,"keywords":["nocrits","nodmgspread","payload","uncletopia"],"game_id":440,"stv_port":27026,"stv_name":"Uncletopia | Chicago | 2 | All Maps | STV","players":[{"user_id":1192,"name":"TeyiaYT","steam_id":76561199216048520,"connected_time":603000000000,"state":"active","ping":76},{"user_id":1170,"name":"Ark","steam_id":76561198053000340,"connected_time":2702000000000,"state":"active","ping":61},{"user_id":1193,"name":"FCUKSTACK","steam_id":76561197961775030,"connected_time":600000000000,"state":"active","ping":92},{"user_id":1173,"name":"Rakhim Chakhkiev","steam_id":76561198989045941,"connected_time":1759000000000,"state":"active","ping":169},{"user_id":1174,"name":"Teleporter","steam_id":76561199132214008,"connected_time":1705000000000,"state":"active","ping":89},{"user_id":1191,"name":"Divineluke","steam_id":76561198040763324,"connected_time":638000000000,"state":"active","ping":60},{"user_id":1196,"name":"Mr. Caesar","steam_id":76561198166329161,"connected_time":530000000000,"state":"active","ping":153},{"user_id":1189,"name":"Gumthrax™","steam_id":76561198047286282,"connected_time":643000000000,"state":"active","ping":57},{"user_id":1160,"name":"tacofever","steam_id":76561198010966507,"connected_time":4037000000000,"state":"active","ping":102},{"user_id":1195,"name":"nox","steam_id":76561198054390505,"connected_time":547000000000,"state":"active","ping":52},{"user_id":1085,"name":"VIEGO J3L2404","steam_id":76561198273568117,"connected_time":8615000000000,"state":"active","ping":74},{"user_id":1197,"name":"|AG| Level","steam_id":76561198063633592,"connected_time":527000000000,"state":"active","ping":112},{"user_id":1183,"name":"BurdBrain","steam_id":76561197962097737,"connected_time":1004000000000,"state":"active","ping":113},{"user_id":1176,"name":"Sunny","steam_id":76561198125892600,"connected_time":1370000000000,"state":"active","ping":60},{"user_id":1177,"name":"Oixo","steam_id":76561198076035468,"connected_time":1358000000000,"state":"active","ping":65},{"user_id":1178,"name":"PocketTieAMPLFY","steam_id":76561199080485881,"connected_time":1341000000000,"state":"active","ping":111},{"user_id":1188,"name":"Virtual Zorua","steam_id":76561198196180302,"connected_time":654000000000,"state":"active","ping":84},{"user_id":1198,"name":"Tanuki in your attic.","steam_id":76561198027487285,"connected_time":517000000000,"state":"active","ping":108},{"user_id":1179,"name":"Tranq","steam_id":76561197967250757,"connected_time":1233000000000,"state":"active","ping":59},{"user_id":1180,"name":"Yongle","steam_id":76561198068591156,"connected_time":1181000000000,"state":"active","ping":58},{"user_id":1181,"name":"Wolf Hat","steam_id":76561198099996051,"connected_time":1133000000000,"state":"active","ping":71},{"user_id":1200,"name":"Anonymus765","steam_id":76561198822513770,"connected_time":454000000000,"state":"active","ping":174},{"user_id":1185,"name":"cornships","steam_id":76561199220411023,"connected_time":909000000000,"state":"active","ping":50}]},{"server_id":402,"name":"Uncletopia | Chicago | 3 | All Maps","name_short":"chi-3","host":"chi-1.us.uncletopia.com","port":27035,"enabled":true,"region":"us-central","cc":"us","latitude":41.881832,"longitude":-87.62318,"reserved":0,"last_update":"0001-01-01T00:00:00Z","name_a2s":"Uncletopia | Chicago | 3 | All Maps","protocol":17,"map":"koth_lakeside_final","folder":"tf","game":"Team Fortress","app_id":440,"player_count":0,"max_players":24,"Bots":0,"server_type":"Dedicated","server_os":"Linux","password":true,"vac":true,"version":"7882260","steam_id":85568392924515191,"keywords":["cp","nocrits","nodmgspread","uncletopia"],"game_id":440,"stv_port":27036,"stv_name":"Uncletopia | Chicago | 3 | All Maps | STV","players":null},{"server_id":403,"name":"Uncletopia | Chicago | 4 | All Maps","name_short":"chi-4","host":"chi-1.us.uncletopia.com","port":27045,"enabled":true,"region":"us-central","cc":"us","latitude":41.881832,"longitude":-87.62318,"reserved":0,"last_update":"0001-01-01T00:00:00Z","name_a2s":"Uncletopia | Chicago | 4 | All Maps","protocol":17,"map":"pl_snowycoast","folder":"tf","game":"Team Fortress","app_id":440,"player_count":0,"max_players":24,"Bots":0,"server_type":"Dedicated","server_os":"Linux","password":true,"vac":true,"version":"7882260","steam_id":85568392924515193,"keywords":["nocrits","nodmgspread","payload","uncletopia"],"game_id":440,"stv_port":27046,"stv_name":"Uncletopia | Chicago | 4 | All Maps | STV","players":null},{"server_id":36,"name":"Uncletopia | Chicago | 5 | All Maps","name_short":"chi-5","host":"chi-2.us.uncletopia.com","port":27015,"enabled":true,"region":"us-central","cc":"us","latitude":41.881832,"longitude":-87.62318,"reserved":0,"last_update":"0001-01-01T00:00:00Z","name_a2s":"Uncletopia | Chicago | 5 | All Maps","protocol":17,"map":"cp_mountainlab","folder":"tf","game":"Team Fortress","app_id":440,"player_count":0,"max_players":24,"Bots":0,"server_type":"Dedicated","server_os":"Linux","password":true,"vac":true,"version":"7882260","steam_id":85568392924866362,"keywords":["cp","nocrits","nodmgspread","uncletopia"],"game_id":440,"stv_port":27016,"stv_name":"Uncletopia | Chicago | 5 | All Maps | STV","players":null},{"server_id":37,"name":"Uncletopia | Chicago | 6 | All Maps","name_short":"chi-6","host":"chi-2.us.uncletopia.com","port":27025,"enabled":true,"region":"us-central","cc":"us","latitude":41.881832,"longitude":-87.62318,"reserved":0,"last_update":"0001-01-01T00:00:00Z","name_a2s":"Uncletopia | Chicago | 6 | All Maps","protocol":17,"map":"koth_suijin","folder":"tf","game":"Team Fortress","app_id":440,"player_count":1,"max_players":24,"Bots":0,"server_type":"Dedicated","server_os":"Linux","password":true,"vac":true,"version":"7882260","steam_id":85568392924866363,"keywords":["cp","nocrits","nodmgspread","uncletopia"],"game_id":440,"stv_port":27026,"stv_name":"Uncletopia | Chicago | 6 | All Maps | STV","players":[{"user_id":946,"name":"War-thog125","steam_id":76561198139383220,"connected_time":4557000000000,"state":"active","ping":55}]},{"server_id":38,"name":"Uncletopia | Chicago | 7 | Stopwatch Beta","name_short":"chi-7","host":"chi-2.us.uncletopia.com","port":27035,"enabled":true,"region":"us-central","cc":"us","latitude":41.881832,"longitude":-87.62318,"reserved":0,"last_update":"0001-01-01T00:00:00Z","name_a2s":"Uncletopia | Chicago | 7 | Stopwatch Beta","protocol":17,"map":"pl_borneo","folder":"tf","game":"Team Fortress","app_id":440,"player_count":0,"max_players":24,"Bots":0,"server_type":"Dedicated","server_os":"Linux","password":true,"vac":true,"version":"7882260","steam_id":85568392924866364,"keywords":["nocrits","nodmgspread","payload","uncletopia"],"game_id":440,"stv_port":27036,"stv_name":"Uncletopia | Chicago | 7 | Stopwatch Beta | STV","players":null},{"server_id":39,"name":"Uncletopia | Chicago | 8 | Community","name_short":"chi-8","host":"chi-2.us.uncletopia.com","port":27045,"enabled":true,"region":"us-central","cc":"us","latitude":41.881832,"longitude":-87.62318,"reserved":0,"last_update":"0001-01-01T00:00:00Z","name_a2s":"Uncletopia | Chicago | 8 | Community","protocol":17,"map":"workshop/cp_fulgur_rc2a.ugc2068252300","folder":"tf","game":"Team Fortress","app_id":440,"player_count":0,"max_players":24,"Bots":0,"server_type":"Dedicated","server_os":"Linux","password":true,"vac":true,"version":"7882260","steam_id":85568392924866365,"keywords":["cp","nocrits","nodmgspread","uncletopia"],"game_id":440,"stv_port":27046,"stv_name":"Uncletopia | Chicago | 8 | Community | STV","players":null},{"server_id":8,"name":"Uncletopia | Dallas | 1 | All Maps","name_short":"dal-1","host":"dal-1.us.uncletopia.com","port":27015,"enabled":true,"region":"us-central","cc":"us","latitude":32.779167,"longitude":-96.80889,"reserved":0,"last_update":"0001-01-01T00:00:00Z","name_a2s":"Uncletopia | Dallas | 1 | All Maps","protocol":17,"map":"pl_badwater","folder":"tf","game":"Team Fortress","app_id":440,"player_count":24,"max_players":24,"Bots":0,"server_type":"Dedicated","server_os":"Linux","password":true,"vac":true,"version":"7882260","steam_id":85568392924469986,"keywords":["nocrits","nodmgspread","payload","uncletopia"],"game_id":440,"stv_port":27016,"stv_name":"Uncletopia | Dallas | 1 | All Maps | STV","players":[{"user_id":919,"name":"Mistah Kurtz","steam_id":76561198289595379,"connected_time":8000000000,"state":"spawning","ping":80},{"user_id":896,"name":"ThePissBender","steam_id":76561199145149251,"connected_time":1955000000000,"state":"active","ping":86},{"user_id":857,"name":"life drop-out","steam_id":76561198366299848,"connected_time":4440000000000,"state":"active","ping":64},{"user_id":910,"name":"XBlueBeam","steam_id":76561199084917373,"connected_time":434000000000,"state":"active","ping":166},{"user_id":862,"name":"HellaCopter","steam_id":76561198062313698,"connected_time":3995000000000,"state":"active","ping":90},{"user_id":900,"name":"TÖZI","steam_id":76561198045268695,"connected_time":1818000000000,"state":"active","ping":96},{"user_id":774,"name":"bolainassr0","steam_id":76561199079078845,"connected_time":10871000000000,"state":"active","ping":81},{"user_id":901,"name":"Mac Rophecy","steam_id":76561198336945932,"connected_time":1720000000000,"state":"active","ping":86},{"user_id":867,"name":"PIMPOLOGY","steam_id":76561198062054335,"connected_time":3312000000000,"state":"active","ping":76},{"user_id":877,"name":"Howl","steam_id":76561198199217834,"connected_time":2800000000000,"state":"active","ping":95},{"user_id":868,"name":"skram82","steam_id":76561198975850921,"connected_time":3303000000000,"state":"active","ping":164},{"user_id":882,"name":"Teddi","steam_id":76561198000764012,"connected_time":2605000000000,"state":"active","ping":117},{"user_id":911,"name":"LEEROY JENKINS","steam_id":76561199070160646,"connected_time":340000000000,"state":"active","ping":127},{"user_id":876,"name":"ATL1 | on my hunting trip","steam_id":76561198315341646,"connected_time":2859000000000,"state":"active","ping":89},{"user_id":912,"name":"Atlas","steam_id":76561198127975050,"connected_time":328000000000,"state":"active","ping":63},{"user_id":917,"name":"Suolainen","steam_id":76561198133341026,"connected_time":182000000000,"state":"active","ping":181},{"user_id":914,"name":"milo","steam_id":76561199061380038,"connected_time":294000000000,"state":"active","ping":59},{"user_id":915,"name":"CloraPhoas","steam_id":76561199162750715,"connected_time":274000000000,"state":"active","ping":76},{"user_id":916,"name":"kermeeee","steam_id":76561198106278670,"connected_time":250000000000,"state":"active","ping":60},{"user_id":893,"name":"twitch.tv/kegaman_","steam_id":76561198043632775,"connected_time":2231000000000,"state":"active","ping":73},{"user_id":887,"name":"BurningKev","steam_id":76561198057688837,"connected_time":2489000000000,"state":"active","ping":62},{"user_id":905,"name":"Crownedwings","steam_id":76561198211578571,"connected_time":1491000000000,"state":"active","ping":83},{"user_id":907,"name":"the tf2 player of all time","steam_id":76561198881665250,"connected_time":1098000000000,"state":"active","ping":88},{"user_id":918,"name":"xd Clover","steam_id":76561198038905361,"connected_time":161000000000,"state":"active","ping":76}]},{"server_id":108,"name":"Uncletopia | Dallas | 2 | All Maps","name_short":"dal-2","host":"dal-1.us.uncletopia.com","port":27025,"enabled":true,"region":"us-central","cc":"us","latitude":32.779167,"longitude":-96.80889,"reserved":0,"last_update":"0001-01-01T00:00:00Z","name_a2s":"Uncletopia | Dallas | 2 | All Maps","protocol":17,"map":"koth_lakeside_final","folder":"tf","game":"Team Fortress","app_id":440,"player_count":0,"max_players":24,"Bots":0,"server_type":"Dedicated","server_os":"Linux","password":true,"vac":true,"version":"7882260","steam_id":85568392924469988,"keywords":["cp","nocrits","nodmgspread","uncletopia"],"game_id":440,"stv_port":27026,"stv_name":"Uncletopia | Dallas | 2 | All Maps | STV","players":null},{"server_id":5,"name":"Uncletopia | Frankfurt | 1 | All Maps","name_short":"frk-1","host":"frk-1.de.uncletopia.com","port":27015,"enabled":true,"region":"eu","cc":"de","latitude":50.110924,"longitude":8.682127,"reserved":0,"last_update":"0001-01-01T00:00:00Z","name_a2s":"Uncletopia | Frankfurt | 1 | All Maps","protocol":17,"map":"cp_snakewater_final1","folder":"tf","game":"Team Fortress","app_id":440,"player_count":22,"max_players":24,"Bots":0,"server_type":"Dedicated","server_os":"Linux","password":true,"vac":true,"version":"7882260","steam_id":85568392924469989,"keywords":["cp","nocrits","nodmgspread","uncletopia"],"game_id":440,"stv_port":27016,"stv_name":"Uncletopia | Frankfurt | 1 | All Maps | STV","players":[{"user_id":3,"name":"GZimmer","steam_id":76561198088794767,"connected_time":2214000000000,"state":"active","ping":46},{"user_id":8,"name":"sunshine (he/him)","steam_id":76561198084597975,"connected_time":1963000000000,"state":"active","ping":60},{"user_id":10,"name":"Polarity","steam_id":76561198220120544,"connected_time":1663000000000,"state":"active","ping":71},{"user_id":28,"name":"Dzieciol","steam_id":76561198160237556,"connected_time":1043000000000,"state":"active","ping":61},{"user_id":50,"name":"Жыве Беларусь!","steam_id":76561199293036742,"connected_time":263000000000,"state":"active","ping":46},{"user_id":16,"name":"Maxy Luck","steam_id":76561199009583144,"connected_time":1435000000000,"state":"active","ping":96},{"user_id":14,"name":"Neimon","steam_id":76561198343485710,"connected_time":1498000000000,"state":"active","ping":121},{"user_id":15,"name":"Thing","steam_id":76561197997904403,"connected_time":1493000000000,"state":"active","ping":103},{"user_id":17,"name":"Ash","steam_id":76561198148738525,"connected_time":1378000000000,"state":"active","ping":117},{"user_id":49,"name":"twin kobraz","steam_id":76561198387405805,"connected_time":330000000000,"state":"active","ping":66},{"user_id":19,"name":"Sonic","steam_id":76561198081692577,"connected_time":1203000000000,"state":"active","ping":60},{"user_id":42,"name":"hipster_doofus","steam_id":76561197970902697,"connected_time":826000000000,"state":"active","ping":74},{"user_id":22,"name":"mindas","steam_id":76561198056839438,"connected_time":1147000000000,"state":"active","ping":57},{"user_id":43,"name":"heavily augmented cumsock","steam_id":76561198401523966,"connected_time":810000000000,"state":"active","ping":101},{"user_id":24,"name":"sipuli456","steam_id":76561199436845241,"connected_time":1109000000000,"state":"active","ping":152},{"user_id":51,"name":"pfear","steam_id":76561197999207328,"connected_time":159000000000,"state":"active","ping":74},{"user_id":26,"name":"Ladi","steam_id":76561198047735194,"connected_time":1085000000000,"state":"active","ping":67},{"user_id":27,"name":"cow child","steam_id":76561199431003443,"connected_time":1054000000000,"state":"active","ping":54},{"user_id":31,"name":"Purple","steam_id":76561199032365015,"connected_time":1019000000000,"state":"active","ping":96},{"user_id":30,"name":"Huru_mies30","steam_id":76561199240991587,"connected_time":1028000000000,"state":"active","ping":55},{"user_id":32,"name":"kel584","steam_id":76561199484115378,"connected_time":1018000000000,"state":"active","ping":72},{"user_id":38,"name":"MrvicaKing69","steam_id":76561199268407840,"connected_time":912000000000,"state":"active","ping":88}]},{"server_id":110,"name":"Uncletopia | Frankfurt | 2 | All Maps","name_short":"frk-2","host":"frk-1.de.uncletopia.com","port":27025,"enabled":true,"region":"eu","cc":"de","latitude":50.110924,"longitude":8.682127,"reserved":0,"last_update":"0001-01-01T00:00:00Z","name_a2s":"Uncletopia | Frankfurt | 2 | All Maps","protocol":17,"map":"pl_swiftwater_final1","folder":"tf","game":"Team Fortress","app_id":440,"player_count":18,"max_players":24,"Bots":0,"server_type":"Dedicated","server_os":"Linux","password":true,"vac":true,"version":"7882260","steam_id":85568392924469990,"keywords":["nocrits","nodmgspread","payload","uncletopia"],"game_id":440,"stv_port":27026,"stv_name":"Uncletopia | Frankfurt | 2 | All Maps | STV","players":[{"user_id":5,"name":"a freakin' knight","steam_id":76561198371341044,"connected_time":695000000000,"state":"active","ping":131},{"user_id":6,"name":"Innu","steam_id":76561198232704060,"connected_time":637000000000,"state":"active","ping":110},{"user_id":7,"name":"Akira","steam_id":76561198323636432,"connected_time":595000000000,"state":"active","ping":69},{"user_id":8,"name":"Purpurea","steam_id":76561198075376419,"connected_time":547000000000,"state":"active","ping":68},{"user_id":20,"name":"fifrok","steam_id":76561198799267621,"connected_time":221000000000,"state":"active","ping":71},{"user_id":18,"name":"captaidemon","steam_id":76561198977470008,"connected_time":302000000000,"state":"active","ping":71},{"user_id":13,"name":"Rai","steam_id":76561199408923294,"connected_time":427000000000,"state":"active","ping":87},{"user_id":19,"name":"Mal","steam_id":76561198262337669,"connected_time":278000000000,"state":"active","ping":64},{"user_id":15,"name":"sBLOCKER  85","steam_id":76561198939078994,"connected_time":405000000000,"state":"active","ping":135},{"user_id":26,"name":"Avitz","steam_id":76561197986150359,"connected_time":77000000000,"state":"active","ping":56},{"user_id":22,"name":"fröga","steam_id":76561198412559828,"connected_time":185000000000,"state":"active","ping":102},{"user_id":23,"name":"Bottle O' Scrumpy","steam_id":76561199244250562,"connected_time":156000000000,"state":"active","ping":88},{"user_id":24,"name":"Cortilex","steam_id":76561198850619406,"connected_time":132000000000,"state":"active","ping":71},{"user_id":25,"name":"crab?","steam_id":76561199203565008,"connected_time":108000000000,"state":"active","ping":78},{"user_id":27,"name":"szmen","steam_id":76561198072569764,"connected_time":74000000000,"state":"active","ping":70},{"user_id":28,"name":"Drift7114","steam_id":76561199044419505,"connected_time":32000000000,"state":"active","ping":82},{"user_id":29,"name":"Rachugh","steam_id":76561199235852578,"connected_time":30000000000,"state":"active","ping":180},{"user_id":30,"name":"Teksta","steam_id":76561198045087695,"connected_time":12000000000,"state":"spawning","ping":44}]},{"server_id":308,"name":"Uncletopia | Frankfurt | 3 | All Maps","name_short":"frk-3","host":"frk-1.de.uncletopia.com","port":27035,"enabled":true,"region":"eu","cc":"de","latitude":50.110924,"longitude":8.682127,"reserved":0,"last_update":"0001-01-01T00:00:00Z","name_a2s":"Uncletopia | Frankfurt | 3 | All Maps","protocol":17,"map":"pl_barnblitz","folder":"tf","game":"Team Fortress","app_id":440,"player_count":0,"max_players":24,"Bots":0,"server_type":"Dedicated","server_os":"Linux","password":true,"vac":true,"version":"7882260","steam_id":85568392924504274,"keywords":["nocrits","nodmgspread","payload","uncletopia"],"game_id":440,"stv_port":27036,"stv_name":"Uncletopia | Frankfurt | 3 | All Maps | STV","players":null},{"server_id":309,"name":"Uncletopia | Frankfurt | 4 | All Maps","name_short":"frk-4","host":"frk-1.de.uncletopia.com","port":27045,"enabled":true,"region":"eu","cc":"de","latitude":50.110924,"longitude":8.682127,"reserved":0,"last_update":"0001-01-01T00:00:00Z","name_a2s":"Uncletopia | Frankfurt | 4 | All Maps","protocol":17,"map":"pl_upward","folder":"tf","game":"Team Fortress","app_id":440,"player_count":24,"max_players":24,"Bots":0,"server_type":"Dedicated","server_os":"Linux","password":true,"vac":true,"version":"7882260","steam_id":85568392924504275,"keywords":["nocrits","nodmgspread","payload","uncletopia"],"game_id":440,"stv_port":27046,"stv_name":"Uncletopia | Frankfurt | 4 | All Maps | STV","players":[{"user_id":105,"name":"Acbh","steam_id":76561198158271672,"connected_time":3069000000000,"state":"active","ping":60},{"user_id":124,"name":"Prole","steam_id":76561198049837199,"connected_time":1226000000000,"state":"active","ping":133},{"user_id":147,"name":"Umbro","steam_id":76561198087930438,"connected_time":41000000000,"state":"active","ping":79},{"user_id":123,"name":"elliot","steam_id":76561198055010039,"connected_time":1539000000000,"state":"active","ping":60},{"user_id":110,"name":"Spinyapickle","steam_id":76561198086653667,"connected_time":2660000000000,"state":"active","ping":60},{"user_id":125,"name":"Hubero","steam_id":76561198017053653,"connected_time":1051000000000,"state":"active","ping":71},{"user_id":115,"name":"lyon","steam_id":76561197998096172,"connected_time":1937000000000,"state":"active","ping":77},{"user_id":128,"name":"hichem","steam_id":76561198056197307,"connected_time":1030000000000,"state":"active","ping":58},{"user_id":92,"name":"Rin-Nakaret","steam_id":76561197971051188,"connected_time":4211000000000,"state":"active","ping":60},{"user_id":102,"name":"on1on (roughly chopped)","steam_id":76561197995304137,"connected_time":3229000000000,"state":"active","ping":61},{"user_id":138,"name":"Gorzel","steam_id":76561198828273330,"connected_time":754000000000,"state":"active","ping":77},{"user_id":144,"name":"Virgil","steam_id":76561198248786778,"connected_time":120000000000,"state":"active","ping":119},{"user_id":130,"name":"mkwii","steam_id":76561198062507768,"connected_time":1025000000000,"state":"active","ping":58},{"user_id":134,"name":"engie?","steam_id":76561198331852832,"connected_time":1010000000000,"state":"active","ping":59},{"user_id":140,"name":"Mac Bean","steam_id":76561198133782205,"connected_time":461000000000,"state":"active","ping":119},{"user_id":141,"name":"KAZAM | Tervez","steam_id":76561198045459068,"connected_time":400000000000,"state":"active","ping":86},{"user_id":114,"name":"A stripper","steam_id":76561198034865891,"connected_time":1948000000000,"state":"active","ping":70},{"user_id":132,"name":"Kokos","steam_id":76561198085501501,"connected_time":1016000000000,"state":"active","ping":77},{"user_id":143,"name":"faze girldick","steam_id":76561199044306780,"connected_time":321000000000,"state":"active","ping":84},{"user_id":145,"name":"Someone","steam_id":76561199030195879,"connected_time":114000000000,"state":"active","ping":58},{"user_id":146,"name":"Timpanojnoj","steam_id":76561197970334448,"connected_time":93000000000,"state":"active","ping":91},{"user_id":62,"name":"AAAAAAAAAAAAAAAAAAAAAAAAAAAAAAA","steam_id":76561198044583116,"connected_time":6280000000000,"state":"active","ping":93},{"user_id":120,"name":"Bonduelle#Savetf2","steam_id":76561199041992422,"connected_time":1732000000000,"state":"active","ping":158},{"user_id":122,"name":"S.V.I.L.A.R","steam_id":76561198828348612,"connected_time":1731000000000,"state":"active","ping":94}]},{"server_id":310,"name":"Uncletopia | Frankfurt | 5 | All Maps","name_short":"frk-5","host":"frk-1.de.uncletopia.com","port":27055,"enabled":true,"region":"eu","cc":"de","latitude":50.110924,"longitude":8.682127,"reserved":0,"last_update":"0001-01-01T00:00:00Z","name_a2s":"Uncletopia | Frankfurt | 5 | All Maps","protocol":17,"map":"cp_mountainlab","folder":"tf","game":"Team Fortress","app_id":440,"player_count":1,"max_players":24,"Bots":0,"server_type":"Dedicated","server_os":"Linux","password":true,"vac":true,"version":"7882260","steam_id":85568392924504277,"keywords":["cp","nocrits","nodmgspread","uncletopia"],"game_id":440,"stv_port":27056,"stv_name":"Uncletopia | Frankfurt | 5 | All Maps | STV","players":[{"user_id":7,"name":"♥Medical student♥","steam_id":76561199119401415,"connected_time":216000000000,"state":"active","ping":123}]},{"server_id":311,"name":"Uncletopia | Frankfurt | 6 | All Maps","name_short":"frk-6","host":"frk-1.de.uncletopia.com","port":27065,"enabled":true,"region":"eu","cc":"de","latitude":50.110924,"longitude":8.682127,"reserved":0,"last_update":"0001-01-01T00:00:00Z","name_a2s":"Uncletopia | Frankfurt | 6 | All Maps","protocol":17,"map":"pl_badwater","folder":"tf","game":"Team Fortress","app_id":440,"player_count":0,"max_players":24,"Bots":0,"server_type":"Dedicated","server_os":"Linux","password":true,"vac":true,"version":"7882260","steam_id":85568392924504278,"keywords":["nocrits","nodmgspread","payload","uncletopia"],"game_id":440,"stv_port":27066,"stv_name":"Uncletopia | Frankfurt | 6 | All Maps | STV","players":null},{"server_id":23,"name":"Uncletopia | Frankfurt | 7 | Stopwatch Beta","name_short":"frk-7","host":"frk-1.de.uncletopia.com","port":27075,"enabled":true,"region":"eu","cc":"de","latitude":50.110924,"longitude":8.682127,"reserved":0,"last_update":"0001-01-01T00:00:00Z","name_a2s":"Uncletopia | Frankfurt | 7 | Stopwatch Beta","protocol":17,"map":"cp_dustbowl","folder":"tf","game":"Team Fortress","app_id":440,"player_count":0,"max_players":24,"Bots":0,"server_type":"Dedicated","server_os":"Linux","password":true,"vac":true,"version":"7882260","steam_id":85568392924742827,"keywords":["cp","nocrits","nodmgspread","uncletopia"],"game_id":440,"stv_port":27076,"stv_name":"Uncletopia | Frankfurt | 7 | Stopwatch Beta | STV","players":null},{"server_id":24,"name":"Uncletopia | Frankfurt | 8 | Community","name_short":"frk-8","host":"frk-1.de.uncletopia.com","port":27085,"enabled":true,"region":"eu","cc":"de","latitude":50.110924,"longitude":8.682127,"reserved":0,"last_update":"0001-01-01T00:00:00Z","name_a2s":"Uncletopia | Frankfurt | 8 | Community","protocol":17,"map":"koth_cascade","folder":"tf","game":"Team Fortress","app_id":440,"player_count":0,"max_players":24,"Bots":0,"server_type":"Dedicated","server_os":"Linux","password":true,"vac":true,"version":"7882260","steam_id":85568392924742828,"keywords":["cp","nocrits","nodmgspread","uncletopia"],"game_id":440,"stv_port":27086,"stv_name":"Uncletopia | Frankfurt | 8 | Community | STV","players":null},{"server_id":202,"name":"Uncletopia | Hong Kong | 1 | All Maps","name_short":"hgk-1","host":"hgk-1.hk.uncletopia.com","port":27015,"enabled":true,"region":"asia","cc":"hk","latitude":22.302711,"longitude":114.177216,"reserved":0,"last_update":"0001-01-01T00:00:00Z","name_a2s":"Uncletopia | Hong Kong | 1 | All Maps","protocol":17,"map":"koth_king","folder":"tf","game":"Team Fortress","app_id":440,"player_count":24,"max_players":24,"Bots":0,"server_type":"Dedicated","server_os":"Linux","password":true,"vac":true,"version":"7882260","steam_id":85568392924494504,"keywords":["cp","nocrits","nodmgspread","uncletopia"],"game_id":440,"stv_port":27016,"stv_name":"Uncletopia | Hong Kong | 1 | All Maps | STV","players":[{"user_id":83,"name":"BAD PYRO PLAYER","steam_id":76561198074339034,"connected_time":11069000000000,"state":"active","ping":75},{"user_id":166,"name":"UltraFat","steam_id":76561198253918132,"connected_time":591000000000,"state":"active","ping":87},{"user_id":174,"name":"Coffeethecat","steam_id":76561198983462827,"connected_time":35000000000,"state":"spawning","ping":554},{"user_id":168,"name":"daigennki","steam_id":76561198046328609,"connected_time":578000000000,"state":"active","ping":104},{"user_id":173,"name":"Puddin","steam_id":76561198140052918,"connected_time":203000000000,"state":"active","ping":85},{"user_id":161,"name":"桃之夭夭","steam_id":76561198147305117,"connected_time":1507000000000,"state":"active","ping":86},{"user_id":162,"name":"MongGoyo63","steam_id":76561198349540834,"connected_time":1307000000000,"state":"active","ping":99},{"user_id":150,"name":"SlimeyRainbow","steam_id":76561198805655229,"connected_time":2558000000000,"state":"active","ping":76},{"user_id":125,"name":"쿠키","steam_id":76561197997220367,"connected_time":5028000000000,"state":"active","ping":51},{"user_id":151,"name":"eeeeeee","steam_id":76561199205561410,"connected_time":2462000000000,"state":"active","ping":147},{"user_id":169,"name":"Dagoth Ur","steam_id":76561198289388650,"connected_time":575000000000,"state":"active","ping":113},{"user_id":171,"name":"Piss Boy","steam_id":76561197999099632,"connected_time":480000000000,"state":"active","ping":75},{"user_id":155,"name":"Banana Milk","steam_id":76561198005156257,"connected_time":1649000000000,"state":"active","ping":135},{"user_id":117,"name":"spinach (old mouse)","steam_id":76561198042539541,"connected_time":6016000000000,"state":"active","ping":75},{"user_id":143,"name":"NootNoot","steam_id":76561199122109977,"connected_time":3957000000000,"state":"active","ping":91},{"user_id":82,"name":"帕","steam_id":76561198439343999,"connected_time":11177000000000,"state":"active","ping":106},{"user_id":118,"name":"Momoxhien","steam_id":76561198414997429,"connected_time":6010000000000,"state":"active","ping":60},{"user_id":158,"name":"Milf (The fan O'Milk)","steam_id":76561198213031155,"connected_time":1606000000000,"state":"active","ping":94},{"user_id":165,"name":"\"SKS\"","steam_id":76561198187995386,"connected_time":1085000000000,"state":"active","ping":84},{"user_id":121,"name":"Vortex Swagger","steam_id":76561198833527091,"connected_time":5580000000000,"state":"active","ping":88},{"user_id":114,"name":"๋r/sinkpissers","steam_id":76561198413116920,"connected_time":7336000000000,"state":"active","ping":88},{"user_id":167,"name":"You got a war face?","steam_id":76561198047057420,"connected_time":591000000000,"state":"active","ping":139},{"user_id":139,"name":"17","steam_id":76561198241530712,"connected_time":4056000000000,"state":"active","ping":54},{"user_id":170,"name":"NoWay","steam_id":76561198223517060,"connected_time":573000000000,"state":"active","ping":115}]},{"server_id":1,"name":"Uncletopia | Los Angeles | 1 | All Maps","name_short":"lax-1","host":"lax-1.us.uncletopia.com","port":27015,"enabled":true,"region":"us-west","cc":"us","latitude":33.94279,"longitude":-118.41004,"reserved":0,"last_update":"0001-01-01T00:00:00Z","name_a2s":"Uncletopia | Los Angeles | 1 | All Maps","protocol":17,"map":"cp_sunshine","folder":"tf","game":"Team Fortress","app_id":440,"player_count":0,"max_players":24,"Bots":0,"server_type":"Dedicated","server_os":"Linux","password":true,"vac":true,"version":"7882260","steam_id":85568392924469991,"keywords":["cp","nocrits","nodmgspread","uncletopia"],"game_id":440,"stv_port":27016,"stv_name":"Uncletopia | Los Angeles | 1 | All Maps | STV","players":null},{"server_id":112,"name":"Uncletopia | Los Angeles | 2 | All Maps","name_short":"lax-2","host":"lax-1.us.uncletopia.com","port":27025,"enabled":true,"region":"us-west","cc":"us","latitude":33.94279,"longitude":-118.41004,"reserved":0,"last_update":"0001-01-01T00:00:00Z","name_a2s":"Uncletopia | Los Angeles | 2 | All Maps","protocol":17,"map":"plr_hightower","folder":"tf","game":"Team Fortress","app_id":440,"player_count":0,"max_players":24,"Bots":0,"server_type":"Dedicated","server_os":"Linux","password":true,"vac":true,"version":"7882260","steam_id":85568392924469992,"keywords":["nocrits","nodmgspread","payload","uncletopia"],"game_id":440,"stv_port":27026,"stv_name":"Uncletopia | Los Angeles | 2 | All Maps | STV","players":null},{"server_id":324,"name":"Uncletopia | Los Angeles | 3 | All Maps","name_short":"lax-3","host":"lax-1.us.uncletopia.com","port":27035,"enabled":true,"region":"us-west","cc":"us","latitude":33.94279,"longitude":-118.41004,"reserved":0,"last_update":"0001-01-01T00:00:00Z","name_a2s":"Uncletopia | Los Angeles | 3 | All Maps","protocol":17,"map":"pl_pier","folder":"tf","game":"Team Fortress","app_id":440,"player_count":3,"max_players":24,"Bots":0,"server_type":"Dedicated","server_os":"Linux","password":true,"vac":true,"version":"7882260","steam_id":85568392924510198,"keywords":["nocrits","nodmgspread","payload","uncletopia"],"game_id":440,"stv_port":27036,"stv_name":"Uncletopia | Los Angeles | 3 | All Maps | STV","players":[{"user_id":556,"name":"cringy","steam_id":76561198323000455,"connected_time":2158000000000,"state":"active","ping":57},{"user_id":568,"name":"Bread","steam_id":76561198309684977,"connected_time":1111000000000,"state":"active","ping":151},{"user_id":570,"name":"(0.0)","steam_id":76561198217747041,"connected_time":810000000000,"state":"active","ping":59}]},{"server_id":25,"name":"Uncletopia | Los Angeles | 4 | Stopwatch Beta","name_short":"lax-4","host":"lax-1.us.uncletopia.com","port":27045,"enabled":true,"region":"us-west","cc":"us","latitude":33.94279,"longitude":-118.41004,"reserved":0,"last_update":"0001-01-01T00:00:00Z","name_a2s":"Uncletopia | Los Angeles | 4 | Stopwatch Beta","protocol":17,"map":"koth_lakeside_final","folder":"tf","game":"Team Fortress","app_id":440,"player_count":0,"max_players":24,"Bots":0,"server_type":"Dedicated","server_os":"Linux","password":true,"vac":true,"version":"7882260","steam_id":85568392924510199,"keywords":["cp","nocrits","nodmgspread","uncletopia"],"game_id":440,"stv_port":27046,"stv_name":"Uncletopia | Los Angeles | 4 | Stopwatch Beta | STV","players":null},{"server_id":11,"name":"Uncletopia | London | 1 | All Maps","name_short":"lon-1","host":"lon-1.uk.uncletopia.com","port":27015,"enabled":true,"region":"eu","cc":"gb","latitude":51.509865,"longitude":-0.118092,"reserved":0,"last_update":"0001-01-01T00:00:00Z","name_a2s":"Uncletopia | London | 1 | All Maps","protocol":17,"map":"pl_upward","folder":"tf","game":"Team Fortress","app_id":440,"player_count":0,"max_players":24,"Bots":0,"server_type":"Dedicated","server_os":"Linux","password":true,"vac":true,"version":"7882260","steam_id":85568392924367362,"keywords":["nocrits","nodmgspread","payload","uncletopia"],"game_id":440,"stv_port":27016,"stv_name":"Uncletopia | London | 1 | All Maps | STV","players":null},{"server_id":114,"name":"Uncletopia | London | 2 | All Maps","name_short":"lon-2","host":"lon-1.uk.uncletopia.com","port":27025,"enabled":true,"region":"eu","cc":"gb","latitude":51.509865,"longitude":-0.118092,"reserved":0,"last_update":"0001-01-01T00:00:00Z","name_a2s":"Uncletopia | London | 2 | All Maps","protocol":17,"map":"cp_mountainlab","folder":"tf","game":"Team Fortress","app_id":440,"player_count":0,"max_players":24,"Bots":0,"server_type":"Dedicated","server_os":"Linux","password":true,"vac":true,"version":"7882260","steam_id":85568392924470941,"keywords":["cp","nocrits","nodmgspread","uncletopia"],"game_id":440,"stv_port":27026,"stv_name":"Uncletopia | London | 2 | All Maps | STV","players":null},{"server_id":320,"name":"Uncletopia | London | 3 | All Maps","name_short":"lon-3","host":"lon-1.uk.uncletopia.com","port":27035,"enabled":true,"region":"eu","cc":"gb","latitude":51.509865,"longitude":-0.118092,"reserved":0,"last_update":"0001-01-01T00:00:00Z","name_a2s":"Uncletopia | London | 3 | All Maps","protocol":17,"map":"cp_snakewater_final1","folder":"tf","game":"Team Fortress","app_id":440,"player_count":24,"max_players":24,"Bots":0,"server_type":"Dedicated","server_os":"Linux","password":true,"vac":true,"version":"7882260","steam_id":85568392924510192,"keywords":["cp","nocrits","nodmgspread","uncletopia"],"game_id":440,"stv_port":27036,"stv_name":"Uncletopia | London | 3 | All Maps | STV","players":[{"user_id":229,"name":"Dwevy","steam_id":76561198090379437,"connected_time":592000000000,"state":"active","ping":46},{"user_id":209,"name":"Paul Bäumer","steam_id":76561198308302932,"connected_time":1888000000000,"state":"active","ping":104},{"user_id":226,"name":"Creasman","steam_id":76561198875379322,"connected_time":803000000000,"state":"active","ping":126},{"user_id":220,"name":"Jyghc","steam_id":76561198405980575,"connected_time":1189000000000,"state":"active","ping":74},{"user_id":222,"name":"jt7","steam_id":76561198073655162,"connected_time":1137000000000,"state":"active","ping":82},{"user_id":45,"name":"It's time","steam_id":76561198061197114,"connected_time":12284000000000,"state":"active","ping":77},{"user_id":216,"name":"CarBombEnthusiast","steam_id":76561199448185434,"connected_time":1651000000000,"state":"active","ping":65},{"user_id":219,"name":"The_Jaystone","steam_id":76561198126280691,"connected_time":1322000000000,"state":"active","ping":32},{"user_id":228,"name":"Sarinya","steam_id":76561198079919172,"connected_time":626000000000,"state":"active","ping":75},{"user_id":233,"name":"Patch","steam_id":76561198217360709,"connected_time":31000000000,"state":"spawning","ping":69},{"user_id":212,"name":"zorze supreme.exe","steam_id":76561198996333022,"connected_time":1811000000000,"state":"active","ping":74},{"user_id":231,"name":"gexfan3165","steam_id":76561199459414738,"connected_time":105000000000,"state":"active","ping":77},{"user_id":186,"name":"brownish","steam_id":76561198032525741,"connected_time":2924000000000,"state":"active","ping":108},{"user_id":230,"name":"Mr. Frog","steam_id":76561198016568920,"connected_time":159000000000,"state":"active","ping":55},{"user_id":137,"name":"ppprc","steam_id":76561199100663886,"connected_time":6095000000000,"state":"active","ping":72},{"user_id":225,"name":"(1)Milk","steam_id":76561198125876588,"connected_time":926000000000,"state":"active","ping":39},{"user_id":217,"name":"Tevinell81","steam_id":76561198340658904,"connected_time":1609000000000,"state":"active","ping":104},{"user_id":234,"name":"Remizer","steam_id":76561198799755616,"connected_time":9000000000,"state":"spawning","ping":179},{"user_id":205,"name":"B52 stealth bomber","steam_id":76561198878274997,"connected_time":1980000000000,"state":"active","ping":88},{"user_id":180,"name":"ACur","steam_id":76561198880488491,"connected_time":3220000000000,"state":"active","ping":56},{"user_id":187,"name":"Milk","steam_id":76561198039005763,"connected_time":2892000000000,"state":"active","ping":37},{"user_id":232,"name":"Fat Pigeon","steam_id":76561198817940142,"connected_time":100000000000,"state":"active","ping":46},{"user_id":199,"name":"wide appreciator","steam_id":76561198083286511,"connected_time":2330000000000,"state":"active","ping":35},{"user_id":202,"name":"Lessoz","steam_id":76561199211572036,"connected_time":2289000000000,"state":"active","ping":90}]},{"server_id":321,"name":"Uncletopia | London | 4 | All Maps","name_short":"lon-4","host":"lon-1.uk.uncletopia.com","port":27045,"enabled":true,"region":"eu","cc":"gb","latitude":51.509865,"longitude":-0.118092,"reserved":0,"last_update":"0001-01-01T00:00:00Z","name_a2s":"Uncletopia | London | 4 | All Maps","protocol":17,"map":"pl_upward","folder":"tf","game":"Team Fortress","app_id":440,"player_count":0,"max_players":24,"Bots":0,"server_type":"Dedicated","server_os":"Linux","password":true,"vac":true,"version":"7882260","steam_id":85568392924510193,"keywords":["nocrits","nodmgspread","payload","uncletopia"],"game_id":440,"stv_port":27046,"stv_name":"Uncletopia | London | 4 | All Maps | STV","players":null},{"server_id":21,"name":"Uncletopia | London | 5 | All Maps","name_short":"lon-5","host":"lon-1.uk.uncletopia.com","port":27055,"enabled":true,"region":"eu","cc":"gb","latitude":51.509865,"longitude":-0.118092,"reserved":0,"last_update":"0001-01-01T00:00:00Z","name_a2s":"Uncletopia | London | 5 | All Maps","protocol":17,"map":"pl_frontier_final","folder":"tf","game":"Team Fortress","app_id":440,"player_count":0,"max_players":24,"Bots":0,"server_type":"Dedicated","server_os":"Linux","password":true,"vac":true,"version":"7882260","steam_id":85568392924742829,"keywords":["nocrits","nodmgspread","payload","uncletopia"],"game_id":440,"stv_port":27056,"stv_name":"Uncletopia | London | 5 | All Maps | STV","players":null},{"server_id":22,"name":"Uncletopia | London | 6 | All Maps","name_short":"lon-6","host":"lon-1.uk.uncletopia.com","port":27065,"enabled":true,"region":"eu","cc":"gb","latitude":51.509865,"longitude":-0.118092,"reserved":0,"last_update":"0001-01-01T00:00:00Z","name_a2s":"Uncletopia | London | 6 | All Maps","protocol":17,"map":"cp_altitude","folder":"tf","game":"Team Fortress","app_id":440,"player_count":0,"max_players":24,"Bots":0,"server_type":"Dedicated","server_os":"Linux","password":true,"vac":true,"version":"7882260","steam_id":85568392924742830,"keywords":["cp","nocrits","nodmgspread","uncletopia"],"game_id":440,"stv_port":27066,"stv_name":"Uncletopia | London | 6 | All Maps | STV","players":null},{"server_id":40,"name":"Uncletopia | London | 7 | No Payload","name_short":"lon-7","host":"lon-1.uk.uncletopia.com","port":27075,"enabled":true,"region":"eu","cc":"gb","latitude":51.509865,"longitude":-0.118092,"reserved":0,"last_update":"0001-01-01T00:00:00Z","name_a2s":"Uncletopia | London | 7 | No Payload","protocol":17,"map":"pl_pier","folder":"tf","game":"Team Fortress","app_id":440,"player_count":0,"max_players":24,"Bots":0,"server_type":"Dedicated","server_os":"Linux","password":true,"vac":true,"version":"7882260","steam_id":85568392924964314,"keywords":["nocrits","nodmgspread","payload","uncletopia"],"game_id":440,"stv_port":27076,"stv_name":"Uncletopia | London | 7 | No Payload | STV","players":null},{"server_id":41,"name":"Uncletopia | London | 8 | Community","name_short":"lon-8","host":"lon-1.uk.uncletopia.com","port":27085,"enabled":true,"region":"eu","cc":"gb","latitude":51.509865,"longitude":-0.118092,"reserved":0,"last_update":"0001-01-01T00:00:00Z","name_a2s":"Uncletopia | London | 8 | Community","protocol":17,"map":"pl_swiftwater_final1","folder":"tf","game":"Team Fortress","app_id":440,"player_count":1,"max_players":24,"Bots":0,"server_type":"Dedicated","server_os":"Linux","password":true,"vac":true,"version":"7882260","steam_id":85568392924964315,"keywords":["nocrits","nodmgspread","payload","uncletopia"],"game_id":440,"stv_port":27086,"stv_name":"Uncletopia | London | 8 | Community | STV","players":null},{"server_id":300,"name":"Uncletopia | Montréal | 1 | All Maps","name_short":"mtl-1","host":"mtl-1.ca.uncletopia.com","port":27015,"enabled":true,"region":"us-east","cc":"ca","latitude":45.50889,"longitude":-73.56167,"reserved":0,"last_update":"0001-01-01T00:00:00Z","name_a2s":"Uncletopia | Montréal | 1 | All Maps","protocol":17,"map":"koth_suijin","folder":"tf","game":"Team Fortress","app_id":440,"player_count":0,"max_players":24,"Bots":0,"server_type":"Dedicated","server_os":"Linux","password":true,"vac":true,"version":"7882260","steam_id":85568392924500087,"keywords":["cp","nocrits","nodmgspread","uncletopia"],"game_id":440,"stv_port":27016,"stv_name":"Uncletopia | Montréal | 1 | All Maps | STV","players":null},{"server_id":301,"name":"Uncletopia | Montréal | 2 | All Maps","name_short":"mtl-2","host":"mtl-1.ca.uncletopia.com","port":27025,"enabled":true,"region":"us-east","cc":"ca","latitude":45.50889,"longitude":-73.56167,"reserved":0,"last_update":"0001-01-01T00:00:00Z","name_a2s":"Uncletopia | Montréal | 2 | All Maps","protocol":17,"map":"cp_sunshine","folder":"tf","game":"Team Fortress","app_id":440,"player_count":0,"max_players":24,"Bots":0,"server_type":"Dedicated","server_os":"Linux","password":true,"vac":true,"version":"7882260","steam_id":85568392924500088,"keywords":["cp","nocrits","nodmgspread","uncletopia"],"game_id":440,"stv_port":27026,"stv_name":"Uncletopia | Montréal | 2 | All Maps | STV","players":null},{"server_id":302,"name":"Uncletopia | Montréal | 3 | All Maps","name_short":"mtl-3","host":"mtl-1.ca.uncletopia.com","port":27035,"enabled":true,"region":"us-east","cc":"ca","latitude":45.50889,"longitude":-73.56167,"reserved":0,"last_update":"0001-01-01T00:00:00Z","name_a2s":"Uncletopia | Montréal | 3 | All Maps","protocol":17,"map":"koth_highpass","folder":"tf","game":"Team Fortress","app_id":440,"player_count":0,"max_players":24,"Bots":0,"server_type":"Dedicated","server_os":"Linux","password":true,"vac":true,"version":"7882260","steam_id":85568392924500089,"keywords":["cp","nocrits","nodmgspread","uncletopia"],"game_id":440,"stv_port":27036,"stv_name":"Uncletopia | Montréal | 3 | All Maps | STV","players":null},{"server_id":303,"name":"Uncletopia | Montréal | 4 | No Payload","name_short":"mtl-4","host":"mtl-1.ca.uncletopia.com","port":27045,"enabled":true,"region":"us-east","cc":"ca","latitude":45.50889,"longitude":-73.56167,"reserved":0,"last_update":"0001-01-01T00:00:00Z","name_a2s":"Uncletopia | Montréal | 4 | No Payload","protocol":17,"map":"cp_altitude","folder":"tf","game":"Team Fortress","app_id":440,"player_count":0,"max_players":24,"Bots":0,"server_type":"Dedicated","server_os":"Linux","password":true,"vac":true,"version":"7882260","steam_id":85568392924500090,"keywords":["cp","nocrits","nodmgspread","uncletopia"],"game_id":440,"stv_port":27046,"stv_name":"Uncletopia | Montréal | 4 | No Payload | STV","players":null},{"server_id":13,"name":"Uncletopia | New York City | 1 | All Maps","name_short":"nyc-1","host":"nyc-1.us.uncletopia.com","port":27015,"enabled":true,"region":"us-east","cc":"us","latitude":40.73061,"longitude":-73.93524,"reserved":0,"last_update":"0001-01-01T00:00:00Z","name_a2s":"Uncletopia | New York City | 1 | All Maps","protocol":17,"map":"cp_process_final","folder":"tf","game":"Team Fortress","app_id":440,"player_count":0,"max_players":24,"Bots":0,"server_type":"Dedicated","server_os":"Linux","password":true,"vac":true,"version":"7882260","steam_id":85568392924469993,"keywords":["cp","nocrits","nodmgspread","uncletopia"],"game_id":440,"stv_port":27016,"stv_name":"Uncletopia | New York City | 1 | All Maps | STV","players":null},{"server_id":14,"name":"Uncletopia | New York City | 2 | All Maps","name_short":"nyc-2","host":"nyc-1.us.uncletopia.com","port":27025,"enabled":true,"region":"us-east","cc":"us","latitude":40.73061,"longitude":-73.93524,"reserved":0,"last_update":"0001-01-01T00:00:00Z","name_a2s":"Uncletopia | New York City | 2 | All Maps","protocol":17,"map":"koth_nucleus","folder":"tf","game":"Team Fortress","app_id":440,"player_count":4,"max_players":24,"Bots":0,"server_type":"Dedicated","server_os":"Linux","password":true,"vac":true,"version":"7882260","steam_id":85568392924469994,"keywords":["cp","nocrits","nodmgspread","uncletopia"],"game_id":440,"stv_port":27026,"stv_name":"Uncletopia | New York City | 2 | All Maps | STV","players":[{"user_id":529,"name":"Rognoch","steam_id":76561199073488006,"connected_time":1012000000000,"state":"active","ping":141},{"user_id":528,"name":"bglaptop","steam_id":76561199465756040,"connected_time":2008000000000,"state":"active","ping":155},{"user_id":515,"name":"Periculosum PhD in Funny","steam_id":76561198123370914,"connected_time":7087000000000,"state":"active","ping":80},{"user_id":530,"name":"desertcamila","steam_id":76561198249331208,"connected_time":882000000000,"state":"active","ping":63}]},{"server_id":15,"name":"Uncletopia | New York City | 3 | Stopwatch Beta","name_short":"nyc-3","host":"nyc-1.us.uncletopia.com","port":27035,"enabled":true,"region":"us-east","cc":"us","latitude":40.73061,"longitude":-73.93524,"reserved":0,"last_update":"0001-01-01T00:00:00Z","name_a2s":"Uncletopia | New York City | 3 | Stopwatch Beta","protocol":17,"map":"workshop/pl_badwater_pro_v12.ugc2142942074","folder":"tf","game":"Team Fortress","app_id":440,"player_count":0,"max_players":24,"Bots":0,"server_type":"Dedicated","server_os":"Linux","password":true,"vac":true,"version":"7882260","steam_id":85568392924742820,"keywords":["nocrits","nodmgspread","payload","uncletopia"],"game_id":440,"stv_port":27036,"stv_name":"Uncletopia | New York City | 3 | Stopwatch Beta | STV","players":null},{"server_id":16,"name":"Uncletopia | New York City | 4 | Community","name_short":"nyc-4","host":"nyc-1.us.uncletopia.com","port":27045,"enabled":true,"region":"us-east","cc":"us","latitude":40.73061,"longitude":-73.93524,"reserved":0,"last_update":"0001-01-01T00:00:00Z","name_a2s":"Uncletopia | New York City | 4 | Community","protocol":17,"map":"workshop/cp_villa_b19.ugc2113052569","folder":"tf","game":"Team Fortress","app_id":440,"player_count":0,"max_players":24,"Bots":0,"server_type":"Dedicated","server_os":"Linux","password":true,"vac":true,"version":"7882260","steam_id":85568392924742821,"keywords":["cp","nocrits","nodmgspread","uncletopia"],"game_id":440,"stv_port":27046,"stv_name":"Uncletopia | New York City | 4 | Community | STV","players":null},{"server_id":142,"name":"Uncletopia | São Paulo | 1 | All Maps","name_short":"sao-1","host":"sao-1.br.uncletopia.com","port":27015,"enabled":true,"region":"sa","cc":"br","latitude":-23.533773,"longitude":-46.62529,"reserved":0,"last_update":"0001-01-01T00:00:00Z","name_a2s":"Uncletopia | São Paulo | 1 | All Maps","protocol":17,"map":"cp_process_final","folder":"tf","game":"Team Fortress","app_id":440,"player_count":0,"max_players":24,"Bots":0,"server_type":"Dedicated","server_os":"Linux","password":true,"vac":true,"version":"7882260","steam_id":85568392924469996,"keywords":["cp","nocrits","nodmgspread","uncletopia"],"game_id":440,"stv_port":27016,"stv_name":"Uncletopia | São Paulo | 1 | All Maps | STV","players":null},{"server_id":143,"name":"Uncletopia | São Paulo | 2 | All Maps","name_short":"sao-2","host":"sao-2.br.uncletopia.com","port":27015,"enabled":true,"region":"sa","cc":"br","latitude":-23.533773,"longitude":-46.62529,"reserved":0,"last_update":"0001-01-01T00:00:00Z","name_a2s":"Uncletopia | São Paulo | 2 | All Maps","protocol":17,"map":"pl_pier","folder":"tf","game":"Team Fortress","app_id":440,"player_count":0,"max_players":24,"Bots":0,"server_type":"Dedicated","server_os":"Linux","password":true,"vac":true,"version":"7882260","steam_id":85568392924485349,"keywords":["nocrits","nodmgspread","payload","uncletopia"],"game_id":440,"stv_port":27016,"stv_name":"Uncletopia | São Paulo | 2 | All Maps | STV","players":null},{"server_id":7,"name":"Uncletopia | Seattle | 1 | All Maps","name_short":"sea-1","host":"sea-1.us.uncletopia.com","port":27015,"enabled":true,"region":"us-west","cc":"us","latitude":47.608013,"longitude":-122.33517,"reserved":0,"last_update":"0001-01-01T00:00:00Z","name_a2s":"Uncletopia | Seattle | 1 | All Maps","protocol":17,"map":"pl_upward","folder":"tf","game":"Team Fortress","app_id":440,"player_count":15,"max_players":24,"Bots":0,"server_type":"Dedicated","server_os":"Linux","password":true,"vac":true,"version":"7882260","steam_id":85568392924469997,"keywords":["nocrits","nodmgspread","payload","uncletopia"],"game_id":440,"stv_port":27016,"stv_name":"Uncletopia | Seattle | 1 | All Maps | STV","players":[{"user_id":1027,"name":"Ninja_Moogle","steam_id":76561198167646553,"connected_time":9080000000000,"state":"active","ping":77},{"user_id":1091,"name":"RainboomCrash","steam_id":76561198065612273,"connected_time":1380000000000,"state":"active","ping":41},{"user_id":1092,"name":"TheTanker","steam_id":76561199204535424,"connected_time":868000000000,"state":"active","ping":220},{"user_id":1090,"name":"Dr. Hashbrown","steam_id":76561198410780370,"connected_time":1612000000000,"state":"active","ping":66},{"user_id":1093,"name":"SUS888cz","steam_id":76561198263924371,"connected_time":826000000000,"state":"active","ping":252},{"user_id":1094,"name":"Noble","steam_id":76561199013705323,"connected_time":639000000000,"state":"active","ping":113},{"user_id":1095,"name":"hammerknight(real)","steam_id":76561199275142109,"connected_time":561000000000,"state":"active","ping":247},{"user_id":1099,"name":"Pauwfs","steam_id":76561198067946226,"connected_time":245000000000,"state":"active","ping":44},{"user_id":1097,"name":"Banshee Levis","steam_id":76561198297295697,"connected_time":448000000000,"state":"active","ping":220},{"user_id":1098,"name":"Zeroxy","steam_id":76561198113710681,"connected_time":384000000000,"state":"active","ping":225},{"user_id":1101,"name":"dom2023.10","steam_id":76561199485759779,"connected_time":58000000000,"state":"active","ping":465},{"user_id":1102,"name":"Kiwi Bird(Furry) trade.tf","steam_id":76561198998492815,"connected_time":52000000000,"state":"active","ping":133},{"user_id":1031,"name":"SilentAntagonist","steam_id":76561198268205664,"connected_time":9038000000000,"state":"active","ping":70},{"user_id":1072,"name":"justgaming","steam_id":76561199103123179,"connected_time":3812000000000,"state":"active","ping":141},{"user_id":1067,"name":"lights","steam_id":76561198049192689,"connected_time":3996000000000,"state":"active","ping":72}]},{"server_id":119,"name":"Uncletopia | Seattle | 2 | All Maps","name_short":"sea-2","host":"sea-1.us.uncletopia.com","port":27025,"enabled":true,"region":"us-west","cc":"us","latitude":47.608013,"longitude":-122.33517,"reserved":0,"last_update":"0001-01-01T00:00:00Z","name_a2s":"Uncletopia | Seattle | 2 | All Maps","protocol":17,"map":"pl_badwater","folder":"tf","game":"Team Fortress","app_id":440,"player_count":23,"max_players":24,"Bots":0,"server_type":"Dedicated","server_os":"Linux","password":true,"vac":true,"version":"7882260","steam_id":85568392924469998,"keywords":["nocrits","nodmgspread","payload","uncletopia"],"game_id":440,"stv_port":27026,"stv_name":"Uncletopia | Seattle | 2 | All Maps | STV","players":[{"user_id":601,"name":"♡ ironterrortrain ♡","steam_id":76561198046460418,"connected_time":8401000000000,"state":"active","ping":77},{"user_id":689,"name":"Jawn","steam_id":76561198424248616,"connected_time":2030000000000,"state":"active","ping":120},{"user_id":638,"name":"JTuu","steam_id":76561198030606396,"connected_time":4843000000000,"state":"active","ping":38},{"user_id":662,"name":"lite","steam_id":76561198041535914,"connected_time":3828000000000,"state":"active","ping":86},{"user_id":688,"name":"Agent Mania","steam_id":76561198029741272,"connected_time":2154000000000,"state":"active","ping":84},{"user_id":702,"name":"war criminal","steam_id":76561198106441652,"connected_time":1531000000000,"state":"active","ping":109},{"user_id":711,"name":"chrome 2008 (she/they)","steam_id":76561198321277216,"connected_time":513000000000,"state":"active","ping":81},{"user_id":692,"name":"Idiotden","steam_id":76561199340950135,"connected_time":1988000000000,"state":"active","ping":76},{"user_id":679,"name":"Infuzion4","steam_id":76561198119664203,"connected_time":3010000000000,"state":"active","ping":100},{"user_id":703,"name":"mel gibson's first born","steam_id":76561198115458307,"connected_time":1216000000000,"state":"active","ping":76},{"user_id":640,"name":"Peter, what are you doing?","steam_id":76561198066452726,"connected_time":4838000000000,"state":"active","ping":72},{"user_id":693,"name":"SQbuilder","steam_id":76561198076473375,"connected_time":1929000000000,"state":"active","ping":64},{"user_id":716,"name":"Bigguysal","steam_id":76561198171204223,"connected_time":56000000000,"state":"active","ping":200},{"user_id":708,"name":"tr","steam_id":76561198046944222,"connected_time":711000000000,"state":"active","ping":45},{"user_id":656,"name":"hosewater","steam_id":76561198023383126,"connected_time":3970000000000,"state":"active","ping":62},{"user_id":694,"name":"Sovereign","steam_id":76561198018841787,"connected_time":1921000000000,"state":"active","ping":36},{"user_id":695,"name":"RegrexitHexit","steam_id":76561198069603316,"connected_time":1898000000000,"state":"active","ping":128},{"user_id":685,"name":"||BassMan||","steam_id":76561198279865229,"connected_time":2576000000000,"state":"active","ping":92},{"user_id":615,"name":"SadFapping","steam_id":76561198076651049,"connected_time":7447000000000,"state":"active","ping":57},{"user_id":666,"name":"Bagoool","steam_id":76561198065368286,"connected_time":3686000000000,"state":"active","ping":69},{"user_id":696,"name":"DOPEam1ne","steam_id":76561198112204774,"connected_time":1878000000000,"state":"active","ping":65},{"user_id":686,"name":"Capitalism","steam_id":76561198068677316,"connected_time":2568000000000,"state":"active","ping":56},{"user_id":701,"name":"toilet thief","steam_id":76561198057486874,"connected_time":1642000000000,"state":"active","ping":75}]},{"server_id":406,"name":"Uncletopia | Seattle | 3 | Stopwatch Beta","name_short":"sea-3","host":"sea-1.us.uncletopia.com","port":27035,"enabled":true,"region":"us-west","cc":"us","latitude":47.608013,"longitude":-122.33517,"reserved":0,"last_update":"0001-01-01T00:00:00Z","name_a2s":"Uncletopia | Seattle | 3 | Stopwatch Beta","protocol":17,"map":"workshop/koth_ramjam_rc1.ugc459778887","folder":"tf","game":"Team Fortress","app_id":440,"player_count":0,"max_players":24,"Bots":0,"server_type":"Dedicated","server_os":"Linux","password":true,"vac":true,"version":"7882260","steam_id":85568392924515217,"keywords":["cp","nocrits","nodmgspread","uncletopia"],"game_id":440,"stv_port":27036,"stv_name":"Uncletopia | Seattle | 3 | Stopwatch Beta | STV","players":null},{"server_id":17,"name":"Uncletopia | San Francisco | 1 | All Maps","name_short":"sfo-1","host":"sfo-1.us.uncletopia.com","port":27015,"enabled":true,"region":"us-west","cc":"us","latitude":37.77397,"longitude":-122.4313,"reserved":0,"last_update":"0001-01-01T00:00:00Z","name_a2s":"Uncletopia | San Francisco | 1 | All Maps","protocol":17,"map":"koth_lakeside_final","folder":"tf","game":"Team Fortress","app_id":440,"player_count":0,"max_players":24,"Bots":0,"server_type":"Dedicated","server_os":"Linux","password":true,"vac":true,"version":"7882260","steam_id":85568392924469999,"keywords":["cp","nocrits","nodmgspread","uncletopia"],"game_id":440,"stv_port":27016,"stv_name":"Uncletopia | San Francisco | 1 | All Maps | STV","players":null},{"server_id":18,"name":"Uncletopia | San Francisco | 2 | All Maps","name_short":"sfo-2","host":"sfo-1.us.uncletopia.com","port":27025,"enabled":true,"region":"us-west","cc":"us","latitude":37.77397,"longitude":-122.4313,"reserved":0,"last_update":"0001-01-01T00:00:00Z","name_a2s":"Uncletopia | San Francisco | 2 | All Maps","protocol":17,"map":"pl_pier","folder":"tf","game":"Team Fortress","app_id":440,"player_count":21,"max_players":24,"Bots":0,"server_type":"Dedicated","server_os":"Linux","password":true,"vac":true,"version":"7882260","steam_id":85568392924470000,"keywords":["nocrits","nodmgspread","payload","uncletopia"],"game_id":440,"stv_port":27026,"stv_name":"Uncletopia | San Francisco | 2 | All Maps | STV","players":[{"user_id":55,"name":"jorts","steam_id":76561199041179985,"connected_time":17752000000000,"state":"active","ping":68},{"user_id":228,"name":"Scorpianswag","steam_id":76561198260651036,"connected_time":2634000000000,"state":"active","ping":46},{"user_id":229,"name":"Mike Bean Burritos","steam_id":76561198173430607,"connected_time":2620000000000,"state":"active","ping":61},{"user_id":187,"name":"resh","steam_id":76561198239598834,"connected_time":5936000000000,"state":"active","ping":176},{"user_id":237,"name":"Ian","steam_id":76561198159334435,"connected_time":1279000000000,"state":"active","ping":176},{"user_id":158,"name":"Vintage TV","steam_id":76561198800334545,"connected_time":9471000000000,"state":"active","ping":53},{"user_id":212,"name":"A_Un1t_0","steam_id":76561197966223353,"connected_time":3696000000000,"state":"active","ping":57},{"user_id":243,"name":"fartstreaks active","steam_id":76561198046073848,"connected_time":629000000000,"state":"active","ping":61},{"user_id":244,"name":"ＴＨＥ ＢＡＣＫＣＡＰ","steam_id":76561198030282308,"connected_time":38000000000,"state":"active","ping":58},{"user_id":238,"name":"Pyrotek⁴","steam_id":76561198072747672,"connected_time":902000000000,"state":"active","ping":46},{"user_id":220,"name":"Coolblue","steam_id":76561198016642724,"connected_time":3243000000000,"state":"active","ping":60},{"user_id":71,"name":"roryisonamobilehotspot","steam_id":76561198065825165,"connected_time":17091000000000,"state":"active","ping":92},{"user_id":151,"name":"oil","steam_id":76561198099980149,"connected_time":9951000000000,"state":"active","ping":59},{"user_id":239,"name":"nescoceo","steam_id":76561198040801160,"connected_time":902000000000,"state":"active","ping":53},{"user_id":241,"name":"dzcreeper","steam_id":76561198072250723,"connected_time":861000000000,"state":"active","ping":99},{"user_id":140,"name":"squash","steam_id":76561198150281353,"connected_time":11294000000000,"state":"active","ping":75},{"user_id":224,"name":"Ayayayayayahuasca","steam_id":76561199002906056,"connected_time":2922000000000,"state":"active","ping":67},{"user_id":236,"name":"basmati jarate","steam_id":76561198319442494,"connected_time":1430000000000,"state":"active","ping":75},{"user_id":203,"name":"idk how to aim with this","steam_id":76561198301598124,"connected_time":4812000000000,"state":"active","ping":80},{"user_id":226,"name":"CPTforever","steam_id":76561198237767198,"connected_time":2844000000000,"state":"active","ping":59},{"user_id":240,"name":"porksoda","steam_id":76561198021451377,"connected_time":902000000000,"state":"active","ping":69}]},{"server_id":19,"name":"Uncletopia | San Francisco | 3 | Stopwatch Beta","name_short":"sfo-3","host":"sfo-1.us.uncletopia.com","port":27035,"enabled":true,"region":"us-west","cc":"us","latitude":37.77397,"longitude":-122.4313,"reserved":0,"last_update":"0001-01-01T00:00:00Z","name_a2s":"Uncletopia | San Francisco | 3 | Stopwatch Beta","protocol":17,"map":"workshop/koth_bagel_rc6.ugc2514036946","folder":"tf","game":"Team Fortress","app_id":440,"player_count":0,"max_players":24,"Bots":0,"server_type":"Dedicated","server_os":"Linux","password":true,"vac":true,"version":"7882260","steam_id":85568392924742824,"keywords":["cp","nocrits","nodmgspread","uncletopia"],"game_id":440,"stv_port":27036,"stv_name":"Uncletopia | San Francisco | 3 | Stopwatch Beta | STV","players":null},{"server_id":20,"name":"Uncletopia | San Francisco | 4 | Community","name_short":"sfo-4","host":"sfo-1.us.uncletopia.com","port":27045,"enabled":true,"region":"us-west","cc":"us","latitude":37.77397,"longitude":-122.4313,"reserved":0,"last_update":"0001-01-01T00:00:00Z","name_a2s":"Uncletopia | San Francisco | 4 | Community","protocol":17,"map":"workshop/cp_indulge.ugc528106646","folder":"tf","game":"Team Fortress","app_id":440,"player_count":0,"max_players":24,"Bots":0,"server_type":"Dedicated","server_os":"Linux","password":true,"vac":true,"version":"7882260","steam_id":85568392924742826,"keywords":["cp","nocrits","nodmgspread","uncletopia"],"game_id":440,"stv_port":27046,"stv_name":"Uncletopia | San Francisco | 4 | Community | STV","players":null},{"server_id":141,"name":"Uncletopia | Sydney | 1 | All Maps","name_short":"syd-1","host":"syd-1.au.uncletopia.com","port":27015,"enabled":true,"region":"au","cc":"au","latitude":-33.865143,"longitude":151.2099,"reserved":0,"last_update":"0001-01-01T00:00:00Z","name_a2s":"Uncletopia | Sydney | 1 | All Maps","protocol":17,"map":"cp_badlands","folder":"tf","game":"Team Fortress","app_id":440,"player_count":24,"max_players":24,"Bots":0,"server_type":"Dedicated","server_os":"Linux","password":true,"vac":true,"version":"7882260","steam_id":85568392924470001,"keywords":["cp","nocrits","nodmgspread","uncletopia"],"game_id":440,"stv_port":27016,"stv_name":"Uncletopia | Sydney | 1 | All Maps | STV","players":[{"user_id":920,"name":"CoolGuyMatt","steam_id":76561198009757360,"connected_time":2676000000000,"state":"active","ping":68},{"user_id":905,"name":"ibus","steam_id":76561199026701614,"connected_time":3389000000000,"state":"active","ping":56},{"user_id":943,"name":"Frog Friend","steam_id":76561198054505772,"connected_time":1508000000000,"state":"active","ping":59},{"user_id":940,"name":"cas ganister","steam_id":76561198879023728,"connected_time":1526000000000,"state":"active","ping":56},{"user_id":902,"name":"Qwertles","steam_id":76561198033779273,"connected_time":3551000000000,"state":"active","ping":59},{"user_id":938,"name":"mushroom","steam_id":76561197992336470,"connected_time":1541000000000,"state":"active","ping":91},{"user_id":939,"name":"Charm","steam_id":76561198028891054,"connected_time":1538000000000,"state":"active","ping":62},{"user_id":910,"name":"Lord Oink","steam_id":76561198125237921,"connected_time":3070000000000,"state":"active","ping":38},{"user_id":935,"name":"toadload","steam_id":76561197995852421,"connected_time":1746000000000,"state":"active","ping":58},{"user_id":893,"name":"therealllamait","steam_id":76561198841226950,"connected_time":4337000000000,"state":"active","ping":72},{"user_id":933,"name":"DCG Alsander And Ciaran -BvM-","steam_id":76561198192632255,"connected_time":2009000000000,"state":"active","ping":77},{"user_id":950,"name":"Tiger_Tan","steam_id":76561198221733844,"connected_time":49000000000,"state":"active","ping":65},{"user_id":944,"name":"Rashid Of The Dank Memes","steam_id":76561198281398078,"connected_time":1504000000000,"state":"active","ping":64},{"user_id":949,"name":"A writhing mass of bees","steam_id":76561198317860338,"connected_time":838000000000,"state":"active","ping":56},{"user_id":948,"name":"Kadbury","steam_id":76561199037283811,"connected_time":1081000000000,"state":"active","ping":55},{"user_id":913,"name":"Powersurge The Protogen -BvM-","steam_id":76561198013117218,"connected_time":3027000000000,"state":"active","ping":52},{"user_id":946,"name":"Krerzer","steam_id":76561198063077180,"connected_time":1207000000000,"state":"active","ping":49},{"user_id":947,"name":"Fluffy","steam_id":76561198177356557,"connected_time":1183000000000,"state":"active","ping":75},{"user_id":919,"name":"Shiki Eiki","steam_id":76561198095744048,"connected_time":2741000000000,"state":"active","ping":99},{"user_id":923,"name":"Sentry Gun (EpicGuy4227)","steam_id":76561198094132328,"connected_time":2647000000000,"state":"active","ping":52},{"user_id":924,"name":"weezer","steam_id":76561199439508788,"connected_time":2641000000000,"state":"active","ping":65},{"user_id":925,"name":"Critz Eastwood","steam_id":76561198050094688,"connected_time":2629000000000,"state":"active","ping":58},{"user_id":930,"name":"wombraidre","steam_id":76561199375834537,"connected_time":2381000000000,"state":"active","ping":129},{"user_id":937,"name":"Abraham Lincoln","steam_id":76561198095292515,"connected_time":1624000000000,"state":"active","ping":69}]},{"server_id":123,"name":"Uncletopia | Sydney | 2 | All Maps","name_short":"syd-2","host":"syd-1.au.uncletopia.com","port":27025,"enabled":true,"region":"au","cc":"au","latitude":-33.865143,"longitude":151.2099,"reserved":0,"last_update":"0001-01-01T00:00:00Z","name_a2s":"Uncletopia | Sydney | 2 | All Maps","protocol":17,"map":"cp_dustbowl","folder":"tf","game":"Team Fortress","app_id":440,"player_count":24,"max_players":24,"Bots":0,"server_type":"Dedicated","server_os":"Linux","password":true,"vac":true,"version":"7882260","steam_id":85568392924470002,"keywords":["cp","nocrits","nodmgspread","uncletopia"],"game_id":440,"stv_port":27026,"stv_name":"Uncletopia | Sydney | 2 | All Maps | STV","players":[{"user_id":234,"name":"RustyMeat","steam_id":76561198119162442,"connected_time":3156000000000,"state":"active","ping":67},{"user_id":275,"name":"FonyWill","steam_id":76561198398001399,"connected_time":1008000000000,"state":"active","ping":68},{"user_id":255,"name":"Bin","steam_id":76561199117653318,"connected_time":1697000000000,"state":"active","ping":63},{"user_id":287,"name":"tom :D","steam_id":76561198073393715,"connected_time":203000000000,"state":"active","ping":113},{"user_id":288,"name":"Zepi","steam_id":76561198018887052,"connected_time":89000000000,"state":"active","ping":55},{"user_id":264,"name":"TheTherepistAU","steam_id":76561198070250012,"connected_time":1455000000000,"state":"active","ping":52},{"user_id":282,"name":"little raw meat boy","steam_id":76561199248254676,"connected_time":500000000000,"state":"active","ping":77},{"user_id":267,"name":"Grey Hat","steam_id":76561199185507683,"connected_time":1408000000000,"state":"active","ping":62},{"user_id":289,"name":"fourjaf","steam_id":76561198163147051,"connected_time":44000000000,"state":"active","ping":44},{"user_id":261,"name":"Milker","steam_id":76561197969370286,"connected_time":1584000000000,"state":"active","ping":69},{"user_id":228,"name":"Jodelkönig Franzl Lang","steam_id":76561198007667830,"connected_time":3361000000000,"state":"active","ping":59},{"user_id":243,"name":"Arro","steam_id":76561198084990929,"connected_time":2634000000000,"state":"active","ping":87},{"user_id":242,"name":"FrOStY","steam_id":76561198088155805,"connected_time":2701000000000,"state":"active","ping":96},{"user_id":281,"name":"Olly","steam_id":76561198078303228,"connected_time":641000000000,"state":"active","ping":59},{"user_id":232,"name":"Bigrichard","steam_id":76561198032092945,"connected_time":3254000000000,"state":"active","ping":89},{"user_id":280,"name":"Hippity_Hoppity","steam_id":76561198861050395,"connected_time":748000000000,"state":"active","ping":70},{"user_id":290,"name":"lugig","steam_id":76561198264839805,"connected_time":36000000000,"state":"spawning","ping":66},{"user_id":278,"name":"Mario","steam_id":76561198828095685,"connected_time":925000000000,"state":"active","ping":70},{"user_id":270,"name":"Wario","steam_id":76561198188708730,"connected_time":1338000000000,"state":"active","ping":57},{"user_id":271,"name":"makour","steam_id":76561198114622693,"connected_time":1309000000000,"state":"active","ping":56},{"user_id":279,"name":"TheCherry","steam_id":76561198062312012,"connected_time":915000000000,"state":"active","ping":78},{"user_id":256,"name":"The stub gobbler","steam_id":76561198842186924,"connected_time":1695000000000,"state":"active","ping":47},{"user_id":223,"name":"goof","steam_id":76561198054034465,"connected_time":3762000000000,"state":"active","ping":71},{"user_id":285,"name":"Blondie","steam_id":76561198046977058,"connected_time":372000000000,"state":"active","ping":61}]},{"server_id":395,"name":"Uncletopia | Sydney | 3 | All Maps","name_short":"syd-3","host":"syd-1.au.uncletopia.com","port":27035,"enabled":true,"region":"au","cc":"au","latitude":-33.865143,"longitude":151.2099,"reserved":0,"last_update":"0001-01-01T00:00:00Z","name_a2s":"Uncletopia | Sydney | 3 | All Maps","protocol":17,"map":"pl_swiftwater_final1","folder":"tf","game":"Team Fortress","app_id":440,"player_count":1,"max_players":24,"Bots":0,"server_type":"Dedicated","server_os":"Linux","password":true,"vac":true,"version":"7882260","steam_id":85568392925194467,"keywords":["nocrits","nodmgspread","payload","uncletopia"],"game_id":440,"stv_port":27036,"stv_name":"Uncletopia | Sydney | 3 | All Maps | STV","players":[{"user_id":39,"name":"Glockenspe (She/Her)","steam_id":76561199184115241,"connected_time":236000000000,"state":"active","ping":53}]},{"server_id":396,"name":"Uncletopia | Sydney | 4 | All Maps","name_short":"syd-4","host":"syd-1.au.uncletopia.com","port":27045,"enabled":true,"region":"au","cc":"au","latitude":-33.865143,"longitude":151.2099,"reserved":0,"last_update":"0001-01-01T00:00:00Z","name_a2s":"Uncletopia | Sydney | 4 | All Maps","protocol":17,"map":"pl_barnblitz","folder":"tf","game":"Team Fortress","app_id":440,"player_count":0,"max_players":24,"Bots":0,"server_type":"Dedicated","server_os":"Linux","password":true,"vac":true,"version":"7882260","steam_id":85568392925397958,"keywords":["nocrits","nodmgspread","payload","uncletopia"],"game_id":440,"stv_port":27046,"stv_name":"Uncletopia | Sydney | 4 | All Maps | STV","players":null},{"server_id":58,"name":"Uncletopia | Sydney | 5 | Stopwatch Beta","name_short":"syd-5","host":"syd-1.au.uncletopia.com","port":27055,"enabled":true,"region":"au","cc":"au","latitude":-33.865143,"longitude":151.2099,"reserved":0,"last_update":"0001-01-01T00:00:00Z","name_a2s":"Uncletopia | Sydney | 5 | Stopwatch Beta","protocol":17,"map":"workshop/pl_vigil_rc9.ugc1266210012","folder":"tf","game":"Team Fortress","app_id":440,"player_count":0,"max_players":24,"Bots":0,"server_type":"Dedicated","server_os":"Linux","password":true,"vac":true,"version":"7882260","steam_id":85568392925397959,"keywords":["nocrits","nodmgspread","payload","uncletopia"],"game_id":440,"stv_port":27056,"stv_name":"Uncletopia | Sydney | 5 | Stopwatch Beta | STV","players":null},{"server_id":59,"name":"Uncletopia | Sydney | 6 | Community","name_short":"syd-6","host":"syd-1.au.uncletopia.com","port":27065,"enabled":true,"region":"au","cc":"au","latitude":-33.865143,"longitude":151.2099,"reserved":0,"last_update":"0001-01-01T00:00:00Z","name_a2s":"Uncletopia | Sydney | 6 | Community","protocol":17,"map":"workshop/rd_asteroid_redux_b1.ugc2154902912","folder":"tf","game":"Team Fortress","app_id":440,"player_count":0,"max_players":24,"Bots":0,"server_type":"Dedicated","server_os":"Linux","password":true,"vac":true,"version":"7882260","steam_id":85568392925397960,"keywords":["beta","nocrits","nodmgspread","rd","uncletopia"],"game_id":440,"stv_port":27066,"stv_name":"Uncletopia | Sydney | 6 | Community | STV","players":null},{"server_id":49,"name":"Uncletopia | Warsaw | 1 | All Maps","name_short":"waw-1","host":"waw-1.pl.uncletopia.com","port":27015,"enabled":true,"region":"eu","cc":"pl","latitude":52.2297,"longitude":21.017532,"reserved":0,"last_update":"0001-01-01T00:00:00Z","name_a2s":"","protocol":0,"map":"","folder":"","game":"","app_id":0,"player_count":0,"max_players":0,"Bots":0,"server_type":"","server_os":"","password":false,"vac":false,"version":"","steam_id":0,"keywords":null,"game_id":0,"stv_port":0,"stv_name":"","players":null},{"server_id":50,"name":"Uncletopia | Warsaw | 2 | All Maps","name_short":"waw-2","host":"waw-1.pl.uncletopia.com","port":27025,"enabled":true,"region":"eu","cc":"pl","latitude":52.2297,"longitude":21.017532,"reserved":0,"last_update":"0001-01-01T00:00:00Z","name_a2s":"Uncletopia | Warsaw | 2 | All Maps","protocol":17,"map":"pl_swiftwater_final1","folder":"tf","game":"Team Fortress","app_id":440,"player_count":0,"max_players":24,"Bots":0,"server_type":"Dedicated","server_os":"Linux","password":true,"vac":true,"version":"7882260","steam_id":85568392925397851,"keywords":["nocrits","nodmgspread","payload","uncletopia"],"game_id":440,"stv_port":27026,"stv_name":"Uncletopia | Warsaw | 2 | All Maps | STV","players":null},{"server_id":51,"name":"Uncletopia | Warsaw | 3 | All Maps","name_short":"waw-3","host":"waw-1.pl.uncletopia.com","port":27035,"enabled":true,"region":"eu","cc":"pl","latitude":52.2297,"longitude":21.017532,"reserved":0,"last_update":"0001-01-01T00:00:00Z","name_a2s":"Uncletopia | Warsaw | 3 | All Maps","protocol":17,"map":"koth_viaduct","folder":"tf","game":"Team Fortress","app_id":440,"player_count":0,"max_players":24,"Bots":0,"server_type":"Dedicated","server_os":"Linux","password":true,"vac":true,"version":"7882260","steam_id":85568392925397852,"keywords":["cp","nocrits","nodmgspread","uncletopia"],"game_id":440,"stv_port":27036,"stv_name":"Uncletopia | Warsaw | 3 | All Maps | STV","players":null},{"server_id":52,"name":"Uncletopia | Warsaw | 4 | All Maps","name_short":"waw-4","host":"waw-1.pl.uncletopia.com","port":27045,"enabled":true,"region":"eu","cc":"pl","latitude":52.2297,"longitude":21.017532,"reserved":0,"last_update":"0001-01-01T00:00:00Z","name_a2s":"Uncletopia | Warsaw | 4 | All Maps","protocol":17,"map":"koth_highpass","folder":"tf","game":"Team Fortress","app_id":440,"player_count":0,"max_players":24,"Bots":0,"server_type":"Dedicated","server_os":"Linux","password":true,"vac":true,"version":"7882260","steam_id":85568392925397853,"keywords":["cp","nocrits","nodmgspread","uncletopia"],"game_id":440,"stv_port":27046,"stv_name":"Uncletopia | Warsaw | 4 | All Maps | STV","players":null},{"server_id":53,"name":"Uncletopia | Warsaw | 5 | Stopwatch Beta","name_short":"waw-5","host":"waw-1.pl.uncletopia.com","port":27055,"enabled":true,"region":"eu","cc":"pl","latitude":52.2297,"longitude":21.017532,"reserved":0,"last_update":"0001-01-01T00:00:00Z","name_a2s":"Uncletopia | Warsaw | 5 | Stopwatch Beta","protocol":17,"map":"cp_mountainlab","folder":"tf","game":"Team Fortress","app_id":440,"player_count":0,"max_players":24,"Bots":0,"server_type":"Dedicated","server_os":"Linux","password":true,"vac":true,"version":"7882260","steam_id":85568392925397854,"keywords":["cp","nocrits","nodmgspread","uncletopia"],"game_id":440,"stv_port":27056,"stv_name":"Uncletopia | Warsaw | 5 | Stopwatch Beta | STV","players":null},{"server_id":54,"name":"Uncletopia | Warsaw | 6 | Community","name_short":"waw-6","host":"waw-1.pl.uncletopia.com","port":27065,"enabled":true,"region":"eu","cc":"pl","latitude":52.2297,"longitude":21.017532,"reserved":0,"last_update":"0001-01-01T00:00:00Z","name_a2s":"Uncletopia | Warsaw | 6 | Community","protocol":17,"map":"koth_viaduct","folder":"tf","game":"Team Fortress","app_id":440,"player_count":0,"max_players":24,"Bots":0,"server_type":"Dedicated","server_os":"Linux","password":true,"vac":true,"version":"7882260","steam_id":85568392925397856,"keywords":["cp","nocrits","nodmgspread","uncletopia"],"game_id":440,"stv_port":27066,"stv_name":"Uncletopia | Warsaw | 6 | Community | STV","players":null}]}