{"status":true,"message":"","result":[{"server_id":9,"name":"Uncletopia | Atlanta | 1 | All Maps","name_short":"atl-1","host":"atl-1.us.uncletopia.com","port":27015,"enabled":true,"region":"us-east","cc":"us","latitude":33.753746,"longitude":-84.38633,"reserved":0,"last_update":"0001-01-01T00:00:00Z","name_a2s":"Uncletopia | Atlanta | 1 | All Maps","protocol":17,"map":"pl_snowycoast","folder":"tf","game":"Team Fortress","app_id":440,"player_count":24,"max_players":24,"Bots":0,"server_type":"Dedicated","server_os":"Linux","password":true,"vac":true,"version":"7961495","steam_id":85568392924469982,"keywords":["nocrits","nodmgspread","payload","uncletopia"],"game_id":440,"stv_port":27016,"stv_name":"Uncletopia | Atlanta | 1 | All Maps | STV","players":null},{"server_id":104,"name":"Uncletopia | Atlanta | 2 | All Maps","name_short":"atl-2","host":"atl-1.us.uncletopia.com","port":27025,"enabled":true,"region":"us-east","cc":"us","latitude":33.753746,"longitude":-84.38633,"reserved":0,"last_update":"0001-01-01T00:00:00Z","name_a2s":"Uncletopia | Atlanta | 2 | All Maps","protocol":17,"map":"cp_dustbowl","folder":"tf","game":"Team Fortress","app_id":440,"player_count":16,"max_players":24,"Bots":0,"server_type":"Dedicated","server_os":"Linux","password":true,"vac":true,"version":"7961495","steam_id":85568392924469983,"keywords":["cp","nocrits","nodmgspread","uncletopia"],"game_id":440,"stv_port":27026,"stv_name":"Uncletopia | Atlanta | 2 | All Maps | STV","players":null},{"server_id":400,"name":"Uncletopia | Atlanta | 3 | Stopwatch","name_short":"atl-3","host":"atl-1.us.uncletopia.com","port":27035,"enabled":true,"region":"us-east","cc":"us","latitude":33.753746,"longitude":-84.38633,"reserved":0,"last_update":"0001-01-01T00:00:00Z","name_a2s":"Uncletopia | Atlanta | 3 | Stopwatch","protocol":17,"map":"pl_vigil_rc10","folder":"tf","game":"Team Fortress","app_id":440,"player_count":0,"max_players":24,"Bots":0,"server_type":"Dedicated","server_os":"Linux","password":true,"vac":true,"version":"7961495","steam_id":85568392924515187,"keywords":["nocrits","nodmgspread","payload","uncletopia"],"game_id":440,"stv_port":27036,"stv_name":"Uncletopia | Atlanta | 3 | Stopwatch | STV","players":null},{"server_id":401,"name":"Uncletopia | Atlanta | 4 | Community","name_short":"atl-4","host":"atl-1.us.uncletopia.com","port":27045,"enabled":true,"region":"us-east","cc":"us","latitude":33.753746,"longitude":-84.38633,"reserved":0,"last_update":"0001-01-01T00:00:00Z","name_a2s":"Uncletopia | Atlanta | 4 | Community","protocol":17,"map":"koth_kemptown_rc1","folder":"tf","game":"Team Fortress","app_id":440,"player_count":6,"max_players":24,"Bots":0,"server_type":"Dedicated","server_os":"Linux","password":true,"vac":true,"version":"7961495","steam_id":85568392924515188,"keywords":["cp","nocrits","nodmgspread","uncletopia"],"game_id":440,"stv_port":27046,"stv_name":"Uncletopia | Atlanta | 4 | Community | STV","players":null},{"server_id":2,"name":"Uncletopia | Chicago | 1 | All Maps","name_short":"chi-1","host":"chi-1.us.uncletopia.com","port":27015,"enabled":true,"region":"us-central","cc":"us","latitude":41.881832,"longitude":-87.62318,"reserved":0,"last_update":"0001-01-01T00:00:00Z","name_a2s":"Uncletopia | Chicago | 1 | All Maps","protocol":17,"map":"cp_dustbowl","folder":"tf","game":"Team Fortress","app_id":440,"player_count":24,"max_players":24,"Bots":0,"server_type":"Dedicated","server_os":"Linux","password":true,"vac":true,"version":"7961495","steam_id":85568392924469984,"keywords":["cp","nocrits","nodmgspread","uncletopia"],"game_id":440,"stv_port":27016,"stv_name":"Uncletopia | Chicago | 1 | All Maps | STV","players":[{"user_id":698,"name":"Swash","steam_id":76561197969421355,"connected_time":3853000000000,"state":"active","ping":72},{"user_id":725,"name":"Commander Buzzo","steam_id":76561198123704342,"connected_time":2075000000000,"state":"active","ping":72},{"user_id":751,"name":"Sentry Gun Main Man","steam_id":76561198327938247,"connected_time":298000000000,"state":"active","ping":85},{"user_id":714,"name":"Ibrahim","steam_id":76561198028320625,"connected_time":2820000000000,"state":"active","ping":67},{"user_id":740,"name":"WheelockWarlock","steam_id":76561198171456553,"connected_time":1478000000000,"state":"active","ping":88},{"user_id":742,"name":"Neformdot","steam_id":76561198065384925,"connected_time":1435000000000,"state":"active","ping":61},{"user_id":734,"name":"Major Woody","steam_id":76561198835541533,"connected_time":1548000000000,"state":"active","ping":100},{"user_id":720,"name":"PKBEAST_7","steam_id":76561198177136537,"connected_time":2399000000000,"state":"active","ping":89},{"user_id":755,"name":"Bottom Trans Cowgirl","steam_id":76561198304239680,"connected_time":168000000000,"state":"active","ping":79},{"user_id":715,"name":"Furry Saul Goodman","steam_id":76561198069580305,"connected_time":2733000000000,"state":"active","ping":47},{"user_id":752,"name":"Mank","steam_id":76561198189421005,"connected_time":237000000000,"state":"active","ping":46},{"user_id":744,"name":"MrLonelySlayer","steam_id":76561198061793470,"connected_time":1346000000000,"state":"active","ping":71},{"user_id":701,"name":"Your Local Queer Librarian","steam_id":76561198013077080,"connected_time":3809000000000,"state":"active","ping":59},{"user_id":658,"name":"hej","steam_id":76561197996366940,"connected_time":8370000000000,"state":"active","ping":60},{"user_id":680,"name":"Rtx Fred ●","steam_id":76561198999217575,"connected_time":5738000000000,"state":"active","ping":67},{"user_id":666,"name":"MedRed™ #IATAH","steam_id":76561198002962970,"connected_time":7607000000000,"state":"active","ping":99},{"user_id":741,"name":"TheOneZoot","steam_id":76561198121944243,"connected_time":1476000000000,"state":"active","ping":80},{"user_id":748,"name":"A tree","steam_id":76561198309065247,"connected_time":363000000000,"state":"active","ping":87},{"user_id":745,"name":"L to the OG","steam_id":76561199215811448,"connected_time":1269000000000,"state":"active","ping":80},{"user_id":756,"name":"clicky clicky","steam_id":76561198099084394,"connected_time":80000000000,"state":"active","ping":66},{"user_id":743,"name":"tooba","steam_id":76561198202589758,"connected_time":1412000000000,"state":"active","ping":73},{"user_id":754,"name":"Tibalt Nyahuma","steam_id":76561198034779431,"connected_time":208000000000,"state":"active","ping":73},{"user_id":737,"name":"Dr. Pleasant","steam_id":76561198111945101,"connected_time":1530000000000,"state":"active","ping":73},{"user_id":750,"name":"DinkleBerg","steam_id":76561198891626233,"connected_time":340000000000,"state":"active","ping":70}]},{"server_id":106,"name":"Uncletopia | Chicago | 2 | All Maps","name_short":"chi-2","host":"chi-1.us.uncletopia.com","port":27025,"enabled":true,"region":"us-central","cc":"us","latitude":41.881832,"longitude":-87.62318,"reserved":0,"last_update":"0001-01-01T00:00:00Z","name_a2s":"Uncletopia | Chicago | 2 | All Maps","protocol":17,"map":"pl_barnblitz","folder":"tf","game":"Team Fortress","app_id":440,"player_count":23,"max_players":24,"Bots":0,"server_type":"Dedicated","server_os":"Linux","password":true,"vac":true,"version":"7961495","steam_id":85568392924469985,"keywords":["nocrits","nodmgspread","payload","uncletopia"],"game_id":440,"stv_port":27026,"stv_name":"Uncletopia | Chicago | 2 | All Maps | STV","players":[{"user_id":534,"name":"Shaby_Frost","steam_id":76561198401334563,"connected_time":2040000000000,"state":"active","ping":44},{"user_id":520,"name":"salty like Lot's wife","steam_id":76561197998619845,"connected_time":2511000000000,"state":"active","ping":61},{"user_id":562,"name":"Mythical Lag","steam_id":76561198347031281,"connected_time":17000000000,"state":"active","ping":71},{"user_id":555,"name":"♡Hunter♡","steam_id":76561199109153042,"connected_time":193000000000,"state":"active","ping":243},{"user_id":535,"name":"Cassius Money","steam_id":76561197979696414,"connected_time":2026000000000,"state":"active","ping":48},{"user_id":542,"name":"mac_cheese","steam_id":76561198071334162,"connected_time":1601000000000,"state":"active","ping":105},{"user_id":528,"name":"Deathpill","steam_id":76561197994404793,"connected_time":2320000000000,"state":"active","ping":72},{"user_id":553,"name":"孫子","steam_id":76561198083112681,"connected_time":241000000000,"state":"active","ping":53},{"user_id":549,"name":"Just Chuck","steam_id":76561198121697504,"connected_time":1091000000000,"state":"active","ping":74},{"user_id":556,"name":"Sheppy","steam_id":76561198295126940,"connected_time":78000000000,"state":"active","ping":62},{"user_id":552,"name":"Ten","steam_id":76561199056335837,"connected_time":710000000000,"state":"active","ping":53},{"user_id":554,"name":"ÜberBurst inVinci","steam_id":76561198044470684,"connected_time":239000000000,"state":"active","ping":70},{"user_id":557,"name":"caca sniffer","steam_id":76561199099914725,"connected_time":76000000000,"state":"active","ping":107},{"user_id":541,"name":"rainintokyo","steam_id":76561198436383373,"connected_time":1636000000000,"state":"active","ping":138},{"user_id":537,"name":"dailyspesh","steam_id":76561197988072369,"connected_time":2007000000000,"state":"active","ping":73},{"user_id":558,"name":"AntiCapitalist","steam_id":76561198055447355,"connected_time":72000000000,"state":"active","ping":69},{"user_id":559,"name":"Gaming god","steam_id":76561199439234114,"connected_time":71000000000,"state":"spawning","ping":130},{"user_id":503,"name":"Discourse","steam_id":76561198984286678,"connected_time":3259000000000,"state":"active","ping":56},{"user_id":561,"name":"Plasmie{ylo}","steam_id":76561198083513154,"connected_time":57000000000,"state":"active","ping":78},{"user_id":538,"name":"CMahaff","steam_id":76561198017229519,"connected_time":2007000000000,"state":"active","ping":78},{"user_id":524,"name":"HemoTox","steam_id":76561197999713466,"connected_time":2463000000000,"state":"active","ping":63},{"user_id":547,"name":"Final_MarioXD","steam_id":76561199184862419,"connected_time":1268000000000,"state":"active","ping":87},{"user_id":545,"name":"shnowshner","steam_id":76561198066450438,"connected_time":1321000000000,"state":"active","ping":85}]},{"server_id":402,"name":"Uncletopia | Chicago | 3 | All Maps","name_short":"chi-3","host":"chi-1.us.uncletopia.com","port":27035,"enabled":true,"region":"us-central","cc":"us","latitude":41.881832,"longitude":-87.62318,"reserved":0,"last_update":"0001-01-01T00:00:00Z","name_a2s":"Uncletopia | Chicago | 3 | All Maps","protocol":17,"map":"pl_swiftwater_final1","folder":"tf","game":"Team Fortress","app_id":440,"player_count":24,"max_players":24,"Bots":0,"server_type":"Dedicated","server_os":"Linux","password":true,"vac":true,"version":"7961495","steam_id":85568392924515191,"keywords":["nocrits","nodmgspread","payload","uncletopia"],"game_id":440,"stv_port":27036,"stv_name":"Uncletopia | Chicago | 3 | All Maps | STV","players":[{"user_id":360,"name":"Stauxie","steam_id":76561198255030077,"connected_time":3948000000000,"state":"active","ping":84},{"user_id":361,"name":"nbwingdinger","steam_id":76561198412627015,"connected_time":3943000000000,"state":"active","ping":113},{"user_id":414,"name":"the rizzard","steam_id":76561198431594430,"connected_time":82000000000,"state":"active","ping":58},{"user_id":346,"name":"stick","steam_id":76561198049489094,"connected_time":5073000000000,"state":"active","ping":53},{"user_id":402,"name":"Eugene Thaddeus Hinkle V","steam_id":76561198821535846,"connected_time":1088000000000,"state":"active","ping":70},{"user_id":322,"name":"Six Piece Chicken McNobody","steam_id":76561198129848222,"connected_time":6843000000000,"state":"active","ping":72},{"user_id":375,"name":"Gerald Jay Sussman","steam_id":76561198114515026,"connected_time":2913000000000,"state":"active","ping":53},{"user_id":398,"name":"Bee","steam_id":76561198074681324,"connected_time":1302000000000,"state":"active","ping":53},{"user_id":373,"name":"Mortal Flame","steam_id":76561198130698418,"connected_time":2941000000000,"state":"active","ping":99},{"user_id":411,"name":"TruffShuff","steam_id":76561198055869160,"connected_time":887000000000,"state":"active","ping":56},{"user_id":399,"name":"Nefy","steam_id":76561198030017316,"connected_time":1289000000000,"state":"active","ping":90},{"user_id":412,"name":"badboy6996","steam_id":76561197969386201,"connected_time":647000000000,"state":"active","ping":45},{"user_id":376,"name":"[82DK] Ike","steam_id":76561198135256526,"connected_time":2855000000000,"state":"active","ping":69},{"user_id":352,"name":"gaming gerald","steam_id":76561198011707083,"connected_time":4498000000000,"state":"active","ping":57},{"user_id":403,"name":"-W3E- grim10465","steam_id":76561198045698581,"connected_time":1084000000000,"state":"active","ping":45},{"user_id":382,"name":"homewurk","steam_id":76561199080327081,"connected_time":2226000000000,"state":"active","ping":128},{"user_id":405,"name":"HOW2TAKEASHIT@ABITCHCRIB","steam_id":76561198144766439,"connected_time":1067000000000,"state":"active","ping":48},{"user_id":406,"name":"Who's Mutzy?","steam_id":76561198085858203,"connected_time":1061000000000,"state":"active","ping":57},{"user_id":408,"name":"kup","steam_id":76561198046816932,"connected_time":1046000000000,"state":"active","ping":62},{"user_id":367,"name":"the rizzler","steam_id":76561198012917426,"connected_time":3429000000000,"state":"active","ping":73},{"user_id":413,"name":"big steve","steam_id":76561199037050183,"connected_time":476000000000,"state":"active","ping":96},{"user_id":391,"name":"LVL","steam_id":76561198334403617,"connected_time":1958000000000,"state":"active","ping":56},{"user_id":396,"name":"Raccoon.Of.Waffle.House","steam_id":76561199018770554,"connected_time":1800000000000,"state":"active","ping":87},{"user_id":409,"name":"Hatin Ass Al'","steam_id":76561199080912379,"connected_time":1035000000000,"state":"active","ping":113}]},{"server_id":403,"name":"Uncletopia | Chicago | 4 | All Maps","name_short":"chi-4","host":"chi-1.us.uncletopia.com","port":27045,"enabled":true,"region":"us-central","cc":"us","latitude":41.881832,"longitude":-87.62318,"reserved":0,"last_update":"0001-01-01T00:00:00Z","name_a2s":"Uncletopia | Chicago | 4 | All Maps","protocol":17,"map":"cp_gorge","folder":"tf","game":"Team Fortress","app_id":440,"player_count":23,"max_players":24,"Bots":0,"server_type":"Dedicated","server_os":"Linux","password":true,"vac":true,"version":"7961495","steam_id":85568392924515193,"keywords":["cp","nocrits","nodmgspread","uncletopia"],"game_id":440,"stv_port":27046,"stv_name":"Uncletopia | Chicago | 4 | All Maps | STV","players":[{"user_id":234,"name":"RocketMann","steam_id":76561198361105163,"connected_time":293000000000,"state":"active","ping":70},{"user_id":208,"name":"LeopoldVR","steam_id":76561198041597869,"connected_time":2781000000000,"state":"active","ping":71},{"user_id":231,"name":"bunsy","steam_id":76561198097292857,"connected_time":381000000000,"state":"active","ping":71},{"user_id":242,"name":"Boboblin:)","steam_id":76561199030131717,"connected_time":42000000000,"state":"active","ping":87},{"user_id":209,"name":"hot pants™","steam_id":76561198033652282,"connected_time":2780000000000,"state":"active","ping":74},{"user_id":210,"name":"Engie-Deer","steam_id":76561198817620456,"connected_time":2749000000000,"state":"active","ping":77},{"user_id":219,"name":"Ojen","steam_id":76561197998414482,"connected_time":2525000000000,"state":"active","ping":60},{"user_id":243,"name":"you what mate","steam_id":76561198175825737,"connected_time":32000000000,"state":"active","ping":57},{"user_id":233,"name":"BoyKisser","steam_id":76561199200969139,"connected_time":344000000000,"state":"active","ping":122},{"user_id":200,"name":"I don't play games anymore","steam_id":76561198069233124,"connected_time":3178000000000,"state":"active","ping":37},{"user_id":235,"name":"Denzel McFlurry","steam_id":76561199231296521,"connected_time":278000000000,"state":"active","ping":74},{"user_id":236,"name":"Punsequence64","steam_id":76561199201885917,"connected_time":266000000000,"state":"active","ping":70},{"user_id":237,"name":"Ace Chromatica","steam_id":76561198042211131,"connected_time":261000000000,"state":"active","ping":52},{"user_id":212,"name":"Jaguar lft/ring","steam_id":76561197971152439,"connected_time":2707000000000,"state":"active","ping":58},{"user_id":238,"name":"King","steam_id":76561198039763676,"connected_time":185000000000,"state":"active","ping":67},{"user_id":239,"name":"Memphis","steam_id":76561198140551486,"connected_time":163000000000,"state":"active","ping":79},{"user_id":240,"name":"Revenge of the Jews in 3D","steam_id":76561199381623663,"connected_time":159000000000,"state":"active","ping":191},{"user_id":204,"name":"Lord butter,stick","steam_id":76561198987249913,"connected_time":3038000000000,"state":"active","ping":73},{"user_id":225,"name":"The Rock","steam_id":76561198433328517,"connected_time":2150000000000,"state":"active","ping":83},{"user_id":216,"name":"qt pa 2t","steam_id":76561198066867150,"connected_time":2673000000000,"state":"active","ping":68},{"user_id":217,"name":"OddSlaush","steam_id":76561198043898488,"connected_time":2672000000000,"state":"active","ping":92},{"user_id":190,"name":"Dr Oshawott","steam_id":76561198042021629,"connected_time":3747000000000,"state":"active","ping":65},{"user_id":241,"name":"Kiervce","steam_id":76561199175427371,"connected_time":153000000000,"state":"active","ping":67}]},{"server_id":36,"name":"Uncletopia | Chicago | 5 | All Maps","name_short":"chi-5","host":"chi-2.us.uncletopia.com","port":27015,"enabled":true,"region":"us-central","cc":"us","latitude":41.881832,"longitude":-87.62318,"reserved":0,"last_update":"0001-01-01T00:00:00Z","name_a2s":"Uncletopia | Chicago | 5 | All Maps","protocol":17,"map":"cp_dustbowl","folder":"tf","game":"Team Fortress","app_id":440,"player_count":24,"max_players":24,"Bots":0,"server_type":"Dedicated","server_os":"Linux","password":true,"vac":true,"version":"7961495","steam_id":85568392924866362,"keywords":["cp","nocrits","nodmgspread","uncletopia"],"game_id":440,"stv_port":27016,"stv_name":"Uncletopia | Chicago | 5 | All Maps | STV","players":[{"user_id":372,"name":"Quark","steam_id":76561198328155605,"connected_time":5341000000000,"state":"active","ping":56},{"user_id":429,"name":"snobis","steam_id":76561198084927866,"connected_time":405000000000,"state":"active","ping":54},{"user_id":419,"name":"EpicNGamerz","steam_id":76561198304292582,"connected_time":727000000000,"state":"active","ping":112},{"user_id":422,"name":"nines","steam_id":76561198078992548,"connected_time":609000000000,"state":"active","ping":75},{"user_id":437,"name":"The Caretaker","steam_id":76561198125241411,"connected_time":160000000000,"state":"active","ping":97},{"user_id":435,"name":"Rat God","steam_id":76561198066161598,"connected_time":240000000000,"state":"active","ping":57},{"user_id":438,"name":"DerpMan","steam_id":76561198341191324,"connected_time":89000000000,"state":"active","ping":104},{"user_id":394,"name":"c64guy","steam_id":76561198023022744,"connected_time":3518000000000,"state":"active","ping":63},{"user_id":417,"name":"roadkill smoothie","steam_id":76561198083250301,"connected_time":989000000000,"state":"active","ping":75},{"user_id":349,"name":"Kantamoe","steam_id":76561198046661611,"connected_time":6373000000000,"state":"active","ping":86},{"user_id":426,"name":"freak","steam_id":76561198035350959,"connected_time":496000000000,"state":"active","ping":44},{"user_id":439,"name":"Antwan","steam_id":76561198246200638,"connected_time":66000000000,"state":"active","ping":71},{"user_id":379,"name":"begolds8","steam_id":76561198841069098,"connected_time":4646000000000,"state":"active","ping":75},{"user_id":432,"name":"hashmap","steam_id":76561198043794014,"connected_time":384000000000,"state":"active","ping":54},{"user_id":440,"name":"unusualnuma","steam_id":76561198856016840,"connected_time":42000000000,"state":"active","ping":67},{"user_id":411,"name":"Rainbeon","steam_id":76561198046150531,"connected_time":1968000000000,"state":"active","ping":58},{"user_id":424,"name":"At","steam_id":76561198381841894,"connected_time":587000000000,"state":"active","ping":59},{"user_id":425,"name":"ooidial","steam_id":76561199086221916,"connected_time":554000000000,"state":"active","ping":80},{"user_id":427,"name":"spooby","steam_id":76561198168114366,"connected_time":461000000000,"state":"active","ping":57},{"user_id":428,"name":"Mr. Soupman","steam_id":76561198021649598,"connected_time":438000000000,"state":"active","ping":61},{"user_id":431,"name":"Dustin Bones","steam_id":76561198019314474,"connected_time":401000000000,"state":"active","ping":74},{"user_id":433,"name":"BILL KAZMAIER'S FOREARMS","steam_id":76561197994418884,"connected_time":371000000000,"state":"active","ping":75},{"user_id":401,"name":"Skeleton Hotel","steam_id":76561198041704727,"connected_time":2974000000000,"state":"active","ping":62},{"user_id":434,"name":"General Mightyian11","steam_id":76561199125278476,"connected_time":337000000000,"state":"active","ping":70}]},{"server_id":37,"name":"Uncletopia | Chicago | 6 | All Maps","name_short":"chi-6","host":"chi-2.us.uncletopia.com","port":27025,"enabled":true,"region":"us-central","cc":"us","latitude":41.881832,"longitude":-87.62318,"reserved":0,"last_update":"0001-01-01T00:00:00Z","name_a2s":"Uncletopia | Chicago | 6 | All Maps","protocol":17,"map":"koth_king","folder":"tf","game":"Team Fortress","app_id":440,"player_count":23,"max_players":24,"Bots":0,"server_type":"Dedicated","server_os":"Linux","password":true,"vac":true,"version":"7961495","steam_id":85568392924866363,"keywords":["cp","nocrits","nodmgspread","uncletopia"],"game_id":440,"stv_port":27026,"stv_name":"Uncletopia | Chicago | 6 | All Maps | STV","players":[{"user_id":201,"name":"Average Anarchist","steam_id":76561199175442910,"connected_time":4175000000000,"state":"active","ping":80},{"user_id":228,"name":"ok","steam_id":76561199074875663,"connected_time":1886000000000,"state":"active","ping":80},{"user_id":251,"name":"Wookie257","steam_id":76561198984452441,"connected_time":461000000000,"state":"active","ping":74},{"user_id":237,"name":"The Angel of Death","steam_id":76561198026079349,"connected_time":1480000000000,"state":"active","ping":115},{"user_id":195,"name":"WitheringLeo","steam_id":76561198046722918,"connected_time":4837000000000,"state":"active","ping":87},{"user_id":250,"name":"The_Stomach_Stone_Surgeon","steam_id":76561198044643725,"connected_time":536000000000,"state":"active","ping":81},{"user_id":248,"name":"LILGI4THAW","steam_id":76561198403803842,"connected_time":587000000000,"state":"active","ping":115},{"user_id":231,"name":"Infinity","steam_id":76561199134919099,"connected_time":1790000000000,"state":"active","ping":73},{"user_id":253,"name":"shmoney maker","steam_id":76561198241948526,"connected_time":370000000000,"state":"active","ping":60},{"user_id":254,"name":"BigNugs","steam_id":76561198056402610,"connected_time":366000000000,"state":"active","ping":72},{"user_id":258,"name":"Mania13","steam_id":76561198334886955,"connected_time":211000000000,"state":"active","ping":92},{"user_id":249,"name":"♥ alixei! ♥","steam_id":76561198014557455,"connected_time":566000000000,"state":"active","ping":60},{"user_id":206,"name":"RexCreeper456","steam_id":76561199319578396,"connected_time":3600000000000,"state":"active","ping":63},{"user_id":233,"name":"Lizzo","steam_id":76561198000178269,"connected_time":1749000000000,"state":"active","ping":102},{"user_id":246,"name":"Fortnite the movie","steam_id":76561199068219264,"connected_time":670000000000,"state":"active","ping":68},{"user_id":256,"name":"Dude","steam_id":76561199058616824,"connected_time":256000000000,"state":"active","ping":74},{"user_id":235,"name":"Jousty","steam_id":76561199162677853,"connected_time":1690000000000,"state":"active","ping":95},{"user_id":190,"name":"BANANA","steam_id":76561198418614551,"connected_time":5187000000000,"state":"active","ping":64},{"user_id":197,"name":"DoggyDogWhirl","steam_id":76561198042841344,"connected_time":4749000000000,"state":"active","ping":88},{"user_id":259,"name":"mersaults","steam_id":76561198079927127,"connected_time":166000000000,"state":"active","ping":44},{"user_id":236,"name":"PocketTieAMPLFY","steam_id":76561199080485881,"connected_time":1685000000000,"state":"active","ping":117},{"user_id":257,"name":"rattlin' bog","steam_id":76561198224551028,"connected_time":240000000000,"state":"active","ping":74},{"user_id":260,"name":"Yummy Kabobz","steam_id":76561198067661705,"connected_time":144000000000,"state":"active","ping":66}]},{"server_id":38,"name":"Uncletopia | Chicago | 7 | Stopwatch","name_short":"chi-7","host":"chi-2.us.uncletopia.com","port":27035,"enabled":true,"region":"us-central","cc":"us","latitude":41.881832,"longitude":-87.62318,"reserved":0,"last_update":"0001-01-01T00:00:00Z","name_a2s":"Uncletopia | Chicago | 7 | Stopwatch","protocol":17,"map":"workshop/koth_ramjam_rc1.ugc459778887","folder":"tf","game":"Team Fortress","app_id":440,"player_count":21,"max_players":24,"Bots":0,"server_type":"Dedicated","server_os":"Linux","password":true,"vac":true,"version":"7961495","steam_id":85568392924866364,"keywords":["cp","nocrits","nodmgspread","uncletopia"],"game_id":440,"stv_port":27036,"stv_name":"Uncletopia | Chicago | 7 | Stopwatch | STV","players":[{"user_id":529,"name":"Lukkar","steam_id":76561198151674242,"connected_time":238000000000,"state":"active","ping":124},{"user_id":456,"name":"Turbulent Tilapia","steam_id":76561198004630011,"connected_time":2969000000000,"state":"active","ping":46},{"user_id":488,"name":"Cosmo","steam_id":76561199218315330,"connected_time":1696000000000,"state":"active","ping":74},{"user_id":467,"name":"yoodle doodle","steam_id":76561198054897884,"connected_time":2509000000000,"state":"active","ping":71},{"user_id":331,"name":"flu walrus","steam_id":76561198207940136,"connected_time":6475000000000,"state":"active","ping":86},{"user_id":468,"name":"joshtrademark","steam_id":76561198097422133,"connected_time":2484000000000,"state":"active","ping":60},{"user_id":453,"name":"raspy","steam_id":76561198027298961,"connected_time":3176000000000,"state":"active","ping":60},{"user_id":319,"name":"carcin","steam_id":76561198042271448,"connected_time":6572000000000,"state":"active","ping":66},{"user_id":326,"name":"Dirtin","steam_id":76561198082291174,"connected_time":6558000000000,"state":"active","ping":69},{"user_id":530,"name":"my pronouns are trans/mission","steam_id":76561198807020633,"connected_time":225000000000,"state":"active","ping":69},{"user_id":414,"name":"Honesty","steam_id":76561198066094995,"connected_time":4368000000000,"state":"active","ping":78},{"user_id":323,"name":"\u003c3","steam_id":76561198065872641,"connected_time":6565000000000,"state":"active","ping":106},{"user_id":528,"name":"femboy on hrt","steam_id":76561198204075083,"connected_time":319000000000,"state":"active","ping":82},{"user_id":325,"name":"realCptJack","steam_id":76561198021082168,"connected_time":6560000000000,"state":"active","ping":72},{"user_id":527,"name":"bob","steam_id":76561198196374619,"connected_time":326000000000,"state":"active","ping":104},{"user_id":355,"name":"ballsack wizard","steam_id":76561198302771784,"connected_time":5939000000000,"state":"active","ping":59},{"user_id":473,"name":"--_Cook_--","steam_id":76561198080855748,"connected_time":2284000000000,"state":"active","ping":45},{"user_id":472,"name":"floral incandescent porpoises","steam_id":76561198172454407,"connected_time":2295000000000,"state":"active","ping":75},{"user_id":483,"name":"yummynumnums #1 fan","steam_id":76561198069600113,"connected_time":1879000000000,"state":"active","ping":60},{"user_id":479,"name":"the rock","steam_id":76561198046251318,"connected_time":2163000000000,"state":"active","ping":59},{"user_id":338,"name":"poobis","steam_id":76561198043034787,"connected_time":6361000000000,"state":"active","ping":101}]},{"server_id":39,"name":"Uncletopia | Chicago | 8 | Community","name_short":"chi-8","host":"chi-2.us.uncletopia.com","port":27045,"enabled":true,"region":"us-central","cc":"us","latitude":41.881832,"longitude":-87.62318,"reserved":0,"last_update":"0001-01-01T00:00:00Z","name_a2s":"Uncletopia | Chicago | 8 | Community","protocol":17,"map":"workshop/koth_trenchfoot_b1a.ugc731436616","folder":"tf","game":"Team Fortress","app_id":440,"player_count":0,"max_players":24,"Bots":0,"server_type":"Dedicated","server_os":"Linux","password":true,"vac":true,"version":"7961495","steam_id":85568392924866365,"keywords":["cp","nocrits","nodmgspread","uncletopia"],"game_id":440,"stv_port":27046,"stv_name":"Uncletopia | Chicago | 8 | Community | STV","players":null},{"server_id":8,"name":"Uncletopia | Dallas | 1 | All Maps","name_short":"dal-1","host":"dal-1.us.uncletopia.com","port":27015,"enabled":true,"region":"us-central","cc":"us","latitude":32.779167,"longitude":-96.80889,"reserved":0,"last_update":"0001-01-01T00:00:00Z","name_a2s":"Uncletopia | Dallas | 1 | All Maps","protocol":17,"map":"pl_snowycoast","folder":"tf","game":"Team Fortress","app_id":440,"player_count":19,"max_players":24,"Bots":0,"server_type":"Dedicated","server_os":"Linux","password":true,"vac":true,"version":"7961495","steam_id":85568392924469986,"keywords":["nocrits","nodmgspread","payload","uncletopia"],"game_id":440,"stv_port":27016,"stv_name":"Uncletopia | Dallas | 1 | All Maps | STV","players":[{"user_id":386,"name":"Speejoink","steam_id":76561198076863045,"connected_time":2489000000000,"state":"connecting","ping":59},{"user_id":419,"name":"Обама","steam_id":76561198134415874,"connected_time":702000000000,"state":"connecting","ping":75},{"user_id":399,"name":"Player Zero","steam_id":76561198070751040,"connected_time":1610000000000,"state":"connecting","ping":60},{"user_id":408,"name":"wckid","steam_id":76561198044856349,"connected_time":1187000000000,"state":"connecting","ping":84},{"user_id":367,"name":"CHIEF","steam_id":76561198011209422,"connected_time":5005000000000,"state":"connecting","ping":57},{"user_id":414,"name":"Sage","steam_id":76561198143101697,"connected_time":787000000000,"state":"connecting","ping":139},{"user_id":316,"name":"Proud Swift City Resident","steam_id":76561198036283992,"connected_time":8097000000000,"state":"connecting","ping":91},{"user_id":426,"name":"sophia!!! (killer)","steam_id":76561198049802690,"connected_time":127000000000,"state":"connecting","ping":127},{"user_id":412,"name":"schmuck","steam_id":76561198143789773,"connected_time":966000000000,"state":"connecting","ping":72},{"user_id":415,"name":"flippercurve","steam_id":76561199238295034,"connected_time":786000000000,"state":"connecting","ping":68},{"user_id":404,"name":"MOVEMENTPLAYER bladeefan12","steam_id":76561198274959371,"connected_time":1352000000000,"state":"connecting","ping":109},{"user_id":338,"name":"Spazz","steam_id":76561198036167494,"connected_time":6990000000000,"state":"connecting","ping":61},{"user_id":427,"name":"Team Fartpiss Poo","steam_id":76561199163591880,"connected_time":115000000000,"state":"connecting","ping":109},{"user_id":366,"name":"LooneyMonkey","steam_id":76561198414675183,"connected_time":5068000000000,"state":"connecting","ping":58},{"user_id":397,"name":"Agent Bowtie","steam_id":76561198175839279,"connected_time":1951000000000,"state":"connecting","ping":53},{"user_id":423,"name":"Trolley","steam_id":76561198106695948,"connected_time":338000000000,"state":"connecting","ping":88},{"user_id":411,"name":"Fightin Cow","steam_id":76561198080941486,"connected_time":1073000000000,"state":"connecting","ping":58},{"user_id":429,"name":"GB_Ry3","steam_id":76561198353746090,"connected_time":53000000000,"state":"connecting","ping":88},{"user_id":413,"name":"Neptune˖⁺｡˚⋆˙♥","steam_id":76561199054203198,"connected_time":950000000000,"state":"connecting","ping":160}]},{"server_id":108,"name":"Uncletopia | Dallas | 2 | All Maps","name_short":"dal-2","host":"dal-1.us.uncletopia.com","port":27025,"enabled":true,"region":"us-central","cc":"us","latitude":32.779167,"longitude":-96.80889,"reserved":0,"last_update":"0001-01-01T00:00:00Z","name_a2s":"Uncletopia | Dallas | 2 | All Maps","protocol":17,"map":"cp_steel","folder":"tf","game":"Team Fortress","app_id":440,"player_count":22,"max_players":24,"Bots":0,"server_type":"Dedicated","server_os":"Linux","password":true,"vac":true,"version":"7961495","steam_id":85568392924469988,"keywords":["cp","nocrits","nodmgspread","uncletopia"],"game_id":440,"stv_port":27026,"stv_name":"Uncletopia | Dallas | 2 | All Maps | STV","players":[{"user_id":647,"name":"heroine(real)","steam_id":76561199026721822,"connected_time":3759000000000,"state":"active","ping":115},{"user_id":676,"name":"raya","steam_id":76561198051504581,"connected_time":449000000000,"state":"active","ping":45},{"user_id":632,"name":"Mr. Hankey","steam_id":76561198872852200,"connected_time":4433000000000,"state":"active","ping":136},{"user_id":646,"name":"King of Lames","steam_id":76561198006366763,"connected_time":3951000000000,"state":"active","ping":45},{"user_id":681,"name":"Dknight2","steam_id":76561199187382295,"connected_time":41000000000,"state":"active","ping":69},{"user_id":644,"name":"♥ DorkyPickle ♥","steam_id":76561198096221632,"connected_time":4153000000000,"state":"active","ping":71},{"user_id":672,"name":"Quick-Fix","steam_id":76561198295501978,"connected_time":660000000000,"state":"active","ping":51},{"user_id":645,"name":"Seshreb","steam_id":76561198846614634,"connected_time":4027000000000,"state":"active","ping":91},{"user_id":680,"name":"UNIT 220","steam_id":76561198042243497,"connected_time":65000000000,"state":"active","ping":90},{"user_id":679,"name":"BlancaLamb","steam_id":76561198025646073,"connected_time":148000000000,"state":"active","ping":84},{"user_id":626,"name":"Darko","steam_id":76561198872531879,"connected_time":5369000000000,"state":"active","ping":97},{"user_id":668,"name":"vifi269","steam_id":76561198283749166,"connected_time":1327000000000,"state":"active","ping":49},{"user_id":648,"name":"radicalPolio","steam_id":76561197961561855,"connected_time":3432000000000,"state":"active","ping":43},{"user_id":682,"name":"dopadream","steam_id":76561198068383694,"connected_time":15000000000,"state":"active","ping":59},{"user_id":678,"name":"H2OBourne","steam_id":76561198396293109,"connected_time":265000000000,"state":"active","ping":59},{"user_id":631,"name":"mario DIES in the movie bro","steam_id":76561198800386026,"connected_time":4584000000000,"state":"active","ping":100},{"user_id":662,"name":"Unarmed Gun Man","steam_id":76561199489296949,"connected_time":1892000000000,"state":"active","ping":139},{"user_id":659,"name":"RockMan","steam_id":76561199228684720,"connected_time":2031000000000,"state":"active","ping":65},{"user_id":664,"name":"Howell at the Moon","steam_id":76561198060827426,"connected_time":1821000000000,"state":"active","ping":75},{"user_id":667,"name":"Argon","steam_id":76561199254804349,"connected_time":1364000000000,"state":"active","ping":85},{"user_id":642,"name":"Didwhy","steam_id":76561198040956974,"connected_time":4206000000000,"state":"active","ping":57},{"user_id":584,"name":"Anon","steam_id":76561198109740776,"connected_time":8625000000000,"state":"active","ping":95}]},{"server_id":404,"name":"Uncletopia | Dallas | 3 | All Maps","name_short":"dal-3","host":"dal-1.us.uncletopia.com","port":27035,"enabled":true,"region":"us-central","cc":"us","latitude":32.779167,"longitude":-96.80889,"reserved":0,"last_update":"0001-01-01T00:00:00Z","name_a2s":"Uncletopia | Dallas | 3 | All Maps","protocol":17,"map":"pl_badwater","folder":"tf","game":"Team Fortress","app_id":440,"player_count":24,"max_players":24,"Bots":0,"server_type":"Dedicated","server_os":"Linux","password":true,"vac":true,"version":"7961495","steam_id":85568392924515219,"keywords":["nocrits","nodmgspread","payload","uncletopia"],"game_id":440,"stv_port":27036,"stv_name":"Uncletopia | Dallas | 3 | All Maps | STV","players":[{"user_id":214,"name":"oh god i'm gonna CHUM","steam_id":76561198019210187,"connected_time":338000000000,"state":"active","ping":45},{"user_id":212,"name":"brewkey","steam_id":76561198057896324,"connected_time":507000000000,"state":"active","ping":51},{"user_id":213,"name":"ScYoda","steam_id":76561198386510362,"connected_time":504000000000,"state":"active","ping":65},{"user_id":189,"name":"Engideer","steam_id":76561198145733164,"connected_time":2067000000000,"state":"active","ping":45},{"user_id":175,"name":"small meth pouch","steam_id":76561198130412963,"connected_time":3104000000000,"state":"active","ping":71},{"user_id":204,"name":"Kamin","steam_id":76561198255299559,"connected_time":1353000000000,"state":"active","ping":69},{"user_id":161,"name":"Just a baby","steam_id":76561198018660838,"connected_time":4143000000000,"state":"active","ping":112},{"user_id":190,"name":"Floor chicken nugget","steam_id":76561198840484105,"connected_time":2038000000000,"state":"active","ping":83},{"user_id":205,"name":"Streetwise","steam_id":76561197971684268,"connected_time":1327000000000,"state":"active","ping":132},{"user_id":215,"name":"Ket","steam_id":76561198241951244,"connected_time":331000000000,"state":"active","ping":63},{"user_id":182,"name":"gagobears","steam_id":76561198086008437,"connected_time":2465000000000,"state":"active","ping":52},{"user_id":216,"name":"General Tso's Pet Chicken","steam_id":76561197991753047,"connected_time":326000000000,"state":"active","ping":85},{"user_id":194,"name":"Mally","steam_id":76561198025013765,"connected_time":1870000000000,"state":"active","ping":93},{"user_id":221,"name":"im learning ):","steam_id":76561198083286148,"connected_time":183000000000,"state":"active","ping":48},{"user_id":222,"name":"Dabbledornk","steam_id":76561198065241300,"connected_time":102000000000,"state":"active","ping":80},{"user_id":195,"name":"SoundKitKiller","steam_id":76561198053535873,"connected_time":1739000000000,"state":"active","ping":104},{"user_id":218,"name":"BLØRG","steam_id":76561198036126673,"connected_time":308000000000,"state":"active","ping":75},{"user_id":156,"name":"Hiigara","steam_id":76561198028393133,"connected_time":4794000000000,"state":"active","ping":66},{"user_id":199,"name":"ｐｒｏｆｅ ｉｓａ","steam_id":76561198106966849,"connected_time":1621000000000,"state":"active","ping":126},{"user_id":185,"name":"smooth brain","steam_id":76561198049253541,"connected_time":2280000000000,"state":"active","ping":68},{"user_id":206,"name":"TheRandomGuy","steam_id":76561198076101385,"connected_time":1095000000000,"state":"active","ping":65},{"user_id":209,"name":"WalnutWanker","steam_id":76561198287476517,"connected_time":630000000000,"state":"active","ping":84},{"user_id":202,"name":"chikmslaad","steam_id":76561198871478705,"connected_time":1387000000000,"state":"active","ping":67},{"user_id":220,"name":"The_Pacific_gamer","steam_id":76561198089491446,"connected_time":296000000000,"state":"active","ping":101}]},{"server_id":405,"name":"Uncletopia | Dallas | 4 | Community","name_short":"dal-4","host":"dal-1.us.uncletopia.com","port":27045,"enabled":true,"region":"us-central","cc":"us","latitude":32.779167,"longitude":-96.80889,"reserved":0,"last_update":"0001-01-01T00:00:00Z","name_a2s":"Uncletopia | Dallas | 4 | Community","protocol":17,"map":"workshop/cp_mannbase_rc2a.ugc1900737467","folder":"tf","game":"Team Fortress","app_id":440,"player_count":20,"max_players":24,"Bots":0,"server_type":"Dedicated","server_os":"Linux","password":true,"vac":true,"version":"7961495","steam_id":85568392924515220,"keywords":["cp","nocrits","nodmgspread","uncletopia"],"game_id":440,"stv_port":27046,"stv_name":"Uncletopia | Dallas | 4 | Community | STV","players":[{"user_id":38,"name":"Carver Ze Derp","steam_id":76561198459813941,"connected_time":2019000000000,"state":"active","ping":41},{"user_id":35,"name":"Novakhiin","steam_id":76561198066626874,"connected_time":2423000000000,"state":"active","ping":91},{"user_id":56,"name":"SilverLife25","steam_id":76561198392015722,"connected_time":631000000000,"state":"active","ping":49},{"user_id":64,"name":"zogs","steam_id":76561198323491654,"connected_time":126000000000,"state":"active","ping":38},{"user_id":14,"name":"TheSmolPopato","steam_id":76561199076606348,"connected_time":4170000000000,"state":"active","ping":84},{"user_id":16,"name":"(TTV) The_Astrum_Guardian","steam_id":76561198130134103,"connected_time":3684000000000,"state":"active","ping":61},{"user_id":36,"name":"Space","steam_id":76561198090743707,"connected_time":2401000000000,"state":"active","ping":86},{"user_id":62,"name":"magicmellen","steam_id":76561199210337711,"connected_time":349000000000,"state":"active","ping":94},{"user_id":57,"name":"Prez","steam_id":76561198090680211,"connected_time":605000000000,"state":"active","ping":85},{"user_id":22,"name":"KOL, Kind Of Lazy","steam_id":76561199078949165,"connected_time":2849000000000,"state":"active","ping":125},{"user_id":23,"name":"BreakfastTacos","steam_id":76561198847620442,"connected_time":2818000000000,"state":"active","ping":84},{"user_id":24,"name":"No.21 - Feral Scent","steam_id":76561198045844070,"connected_time":2814000000000,"state":"active","ping":59},{"user_id":25,"name":"Xnopyt","steam_id":76561198052516404,"connected_time":2662000000000,"state":"active","ping":89},{"user_id":43,"name":"Vexel","steam_id":76561198194730938,"connected_time":1554000000000,"state":"active","ping":59},{"user_id":28,"name":"Matisguy","steam_id":76561199020903681,"connected_time":2540000000000,"state":"active","ping":61},{"user_id":63,"name":"JtsRes","steam_id":76561197994809241,"connected_time":305000000000,"state":"active","ping":59},{"user_id":59,"name":"CrossRoads23","steam_id":76561198152341160,"connected_time":513000000000,"state":"active","ping":93},{"user_id":60,"name":"Burny Sanders","steam_id":76561197961879048,"connected_time":500000000000,"state":"active","ping":44},{"user_id":61,"name":"nim chimps","steam_id":76561198012093637,"connected_time":450000000000,"state":"active","ping":56},{"user_id":50,"name":"Barbershop Quartet At Denny's","steam_id":76561198036591882,"connected_time":1300000000000,"state":"active","ping":67}]},{"server_id":5,"name":"Uncletopia | Frankfurt | 1 | All Maps","name_short":"frk-1","host":"frk-1.de.uncletopia.com","port":27015,"enabled":true,"region":"eu","cc":"de","latitude":50.110924,"longitude":8.682127,"reserved":0,"last_update":"0001-01-01T00:00:00Z","name_a2s":"Uncletopia | Frankfurt | 1 | All Maps","protocol":17,"map":"koth_highpass","folder":"tf","game":"Team Fortress","app_id":440,"player_count":0,"max_players":24,"Bots":0,"server_type":"Dedicated","server_os":"Linux","password":true,"vac":true,"version":"7961495","steam_id":85568392924469989,"keywords":["cp","nocrits","nodmgspread","uncletopia"],"game_id":440,"stv_port":27016,"stv_name":"Uncletopia | Frankfurt | 1 | All Maps | STV","players":null},{"server_id":110,"name":"Uncletopia | Frankfurt | 2 | All Maps","name_short":"frk-2","host":"frk-1.de.uncletopia.com","port":27025,"enabled":true,"region":"eu","cc":"de","latitude":50.110924,"longitude":8.682127,"reserved":0,"last_update":"0001-01-01T00:00:00Z","name_a2s":"Uncletopia | Frankfurt | 2 | All Maps","protocol":17,"map":"koth_highpass","folder":"tf","game":"Team Fortress","app_id":440,"player_count":0,"max_players":24,"Bots":0,"server_type":"Dedicated","server_os":"Linux","password":true,"vac":true,"version":"7961495","steam_id":85568392924469990,"keywords":["cp","nocrits","nodmgspread","uncletopia"],"game_id":440,"stv_port":27026,"stv_name":"Uncletopia | Frankfurt | 2 | All Maps | STV","players":null},{"server_id":308,"name":"Uncletopia | Frankfurt | 3 | All Maps","name_short":"frk-3","host":"frk-1.de.uncletopia.com","port":27035,"enabled":true,"region":"eu","cc":"de","latitude":50.110924,"longitude":8.682127,"reserved":0,"last_update":"0001-01-01T00:00:00Z","name_a2s":"Uncletopia | Frankfurt | 3 | All Maps","protocol":17,"map":"pl_frontier_final","folder":"tf","game":"Team Fortress","app_id":440,"player_count":0,"max_players":24,"Bots":0,"server_type":"Dedicated","server_os":"Linux","password":true,"vac":true,"version":"7961495","steam_id":85568392924504274,"keywords":["nocrits","nodmgspread","payload","uncletopia"],"game_id":440,"stv_port":27036,"stv_name":"Uncletopia | Frankfurt | 3 | All Maps | STV","players":null},{"server_id":309,"name":"Uncletopia | Frankfurt | 4 | All Maps","name_short":"frk-4","host":"frk-1.de.uncletopia.com","port":27045,"enabled":true,"region":"eu","cc":"de","latitude":50.110924,"longitude":8.682127,"reserved":0,"last_update":"0001-01-01T00:00:00Z","name_a2s":"Uncletopia | Frankfurt | 4 | All Maps","protocol":17,"map":"koth_highpass","folder":"tf","game":"Team Fortress","app_id":440,"player_count":0,"max_players":24,"Bots":0,"server_type":"Dedicated","server_os":"Linux","password":true,"vac":true,"version":"7961495","steam_id":85568392924504275,"keywords":["cp","nocrits","nodmgspread","uncletopia"],"game_id":440,"stv_port":27046,"stv_name":"Uncletopia | Frankfurt | 4 | All Maps | STV","players":null},{"server_id":310,"name":"Uncletopia | Frankfurt | 5 | All Maps","name_short":"frk-5","host":"frk-1.de.uncletopia.com","port":27055,"enabled":true,"region":"eu","cc":"de","latitude":50.110924,"longitude":8.682127,"reserved":0,"last_update":"0001-01-01T00:00:00Z","name_a2s":"Uncletopia | Frankfurt | 5 | All Maps","protocol":17,"map":"cp_altitude","folder":"tf","game":"Team Fortress","app_id":440,"player_count":0,"max_players":24,"Bots":0,"server_type":"Dedicated","server_os":"Linux","password":true,"vac":true,"version":"7961495","steam_id":85568392924504277,"keywords":["cp","nocrits","nodmgspread","uncletopia"],"game_id":440,"stv_port":27056,"stv_name":"Uncletopia | Frankfurt | 5 | All Maps | STV","players":null},{"server_id":311,"name":"Uncletopia | Frankfurt | 6 | All Maps","name_short":"frk-6","host":"frk-1.de.uncletopia.com","port":27065,"enabled":true,"region":"eu","cc":"de","latitude":50.110924,"longitude":8.682127,"reserved":0,"last_update":"0001-01-01T00:00:00Z","name_a2s":"Uncletopia | Frankfurt | 6 | All Maps","protocol":17,"map":"pl_badwater","folder":"tf","game":"Team Fortress","app_id":440,"player_count":0,"max_players":24,"Bots":0,"server_type":"Dedicated","server_os":"Linux","password":true,"vac":true,"version":"7961495","steam_id":85568392924504278,"keywords":["nocrits","nodmgspread","payload","uncletopia"],"game_id":440,"stv_port":27066,"stv_name":"Uncletopia | Frankfurt | 6 | All Maps | STV","players":null},{"server_id":23,"name":"Uncletopia | Frankfurt | 7 | Stopwatch","name_short":"frk-7","host":"frk-1.de.uncletopia.com","port":27075,"enabled":true,"region":"eu","cc":"de","latitude":50.110924,"longitude":8.682127,"reserved":0,"last_update":"0001-01-01T00:00:00Z","name_a2s":"Uncletopia | Frankfurt | 7 | Stopwatch","protocol":17,"map":"workshop/koth_ashville_final.ugc2130459942","folder":"tf","game":"Team Fortress","app_id":440,"player_count":0,"max_players":24,"Bots":0,"server_type":"Dedicated","server_os":"Linux","password":true,"vac":true,"version":"7961495","steam_id":85568392924742827,"keywords":["cp","nocrits","nodmgspread","uncletopia"],"game_id":440,"stv_port":27076,"stv_name":"Uncletopia | Frankfurt | 7 | Stopwatch | STV","players":null},{"server_id":24,"name":"Uncletopia | Frankfurt | 8 | Community","name_short":"frk-8","host":"frk-1.de.uncletopia.com","port":27085,"enabled":true,"region":"eu","cc":"de","latitude":50.110924,"longitude":8.682127,"reserved":0,"last_update":"0001-01-01T00:00:00Z","name_a2s":"Uncletopia | Frankfurt | 8 | Community","protocol":17,"map":"workshop/koth_trenchfoot_b1a.ugc731436616","folder":"tf","game":"Team Fortress","app_id":440,"player_count":0,"max_players":24,"Bots":0,"server_type":"Dedicated","server_os":"Linux","password":true,"vac":true,"version":"7961495","steam_id":85568392924742828,"keywords":["cp","nocrits","nodmgspread","uncletopia"],"game_id":440,"stv_port":27086,"stv_name":"Uncletopia | Frankfurt | 8 | Community | STV","players":null},{"server_id":202,"name":"Uncletopia | Hong Kong | 1 | All Maps","name_short":"hgk-1","host":"hgk-1.hk.uncletopia.com","port":27015,"enabled":true,"region":"asia","cc":"hk","latitude":22.302711,"longitude":114.177216,"reserved":0,"last_update":"0001-01-01T00:00:00Z","name_a2s":"Uncletopia | Hong Kong | 1 | All Maps","protocol":17,"map":"pl_badwater","folder":"tf","game":"Team Fortress","app_id":440,"player_count":0,"max_players":24,"Bots":0,"server_type":"Dedicated","server_os":"Linux","password":true,"vac":true,"version":"7961495","steam_id":85568392924494504,"keywords":["nocrits","nodmgspread","payload","uncletopia"],"game_id":440,"stv_port":27016,"stv_name":"Uncletopia | Hong Kong | 1 | All Maps | STV","players":null},{"server_id":1,"name":"Uncletopia | Los Angeles | 1 | All Maps","name_short":"lax-1","host":"lax-1.us.uncletopia.com","port":27015,"enabled":true,"region":"us-west","cc":"us","latitude":33.94279,"longitude":-118.41004,"reserved":0,"last_update":"0001-01-01T00:00:00Z","name_a2s":"Uncletopia | Los Angeles | 1 | All Maps","protocol":17,"map":"pl_borneo","folder":"tf","game":"Team Fortress","app_id":440,"player_count":24,"max_players":24,"Bots":0,"server_type":"Dedicated","server_os":"Linux","password":true,"vac":true,"version":"7961495","steam_id":85568392924469991,"keywords":["nocrits","nodmgspread","payload","uncletopia"],"game_id":440,"stv_port":27016,"stv_name":"Uncletopia | Los Angeles | 1 | All Maps | STV","players":[{"user_id":268,"name":"turnip","steam_id":76561197999375941,"connected_time":1576000000000,"state":"active","ping":86},{"user_id":221,"name":"cielael","steam_id":76561198043971956,"connected_time":4900000000000,"state":"active","ping":47},{"user_id":288,"name":"toxic mental instability","steam_id":76561198161760556,"connected_time":35000000000,"state":"active","ping":85},{"user_id":289,"name":"FI LO","steam_id":76561198976530881,"connected_time":22000000000,"state":"active","ping":33},{"user_id":282,"name":"Obersteuermann","steam_id":76561198044468707,"connected_time":438000000000,"state":"active","ping":75},{"user_id":287,"name":"Ian","steam_id":76561198159334435,"connected_time":77000000000,"state":"active","ping":165},{"user_id":276,"name":"PageBoiSkull","steam_id":76561198237353578,"connected_time":722000000000,"state":"active","ping":69},{"user_id":275,"name":"Tim","steam_id":76561198126844549,"connected_time":766000000000,"state":"active","ping":55},{"user_id":284,"name":"n99k","steam_id":76561198203732449,"connected_time":406000000000,"state":"active","ping":103},{"user_id":237,"name":"HiddenEgg","steam_id":76561199045105518,"connected_time":3412000000000,"state":"active","ping":49},{"user_id":265,"name":"Rango","steam_id":76561198104086771,"connected_time":1627000000000,"state":"active","ping":45},{"user_id":256,"name":"Donnie Blasto","steam_id":76561198043432005,"connected_time":2237000000000,"state":"active","ping":108},{"user_id":290,"name":"californjoe","steam_id":76561197965047795,"connected_time":22000000000,"state":"active","ping":46},{"user_id":241,"name":"OneMisguidedSlyGuy","steam_id":76561198372243261,"connected_time":3351000000000,"state":"active","ping":49},{"user_id":258,"name":"rad killl raccoon","steam_id":76561198980975595,"connected_time":2170000000000,"state":"active","ping":85},{"user_id":220,"name":"Ockulus","steam_id":76561199069638460,"connected_time":4983000000000,"state":"active","ping":54},{"user_id":277,"name":"Pah-Wraith Gul Dukat","steam_id":76561198033918106,"connected_time":636000000000,"state":"active","ping":50},{"user_id":226,"name":"r,b;","steam_id":76561198150137369,"connected_time":4109000000000,"state":"active","ping":56},{"user_id":272,"name":"walrooos","steam_id":76561198024521839,"connected_time":914000000000,"state":"active","ping":39},{"user_id":283,"name":"LeftNut","steam_id":76561198035500934,"connected_time":438000000000,"state":"active","ping":60},{"user_id":291,"name":"shai","steam_id":76561198144909435,"connected_time":16000000000,"state":"active","ping":51},{"user_id":250,"name":"type \"bad med\" to kick","steam_id":76561198076402476,"connected_time":2894000000000,"state":"active","ping":67},{"user_id":260,"name":"Korn Dawg","steam_id":76561198026941076,"connected_time":2039000000000,"state":"active","ping":61},{"user_id":270,"name":"Keamy","steam_id":76561199471434875,"connected_time":1550000000000,"state":"active","ping":75}]},{"server_id":112,"name":"Uncletopia | Los Angeles | 2 | All Maps","name_short":"lax-2","host":"lax-1.us.uncletopia.com","port":27025,"enabled":true,"region":"us-west","cc":"us","latitude":33.94279,"longitude":-118.41004,"reserved":0,"last_update":"0001-01-01T00:00:00Z","name_a2s":"Uncletopia | Los Angeles | 2 | All Maps","protocol":17,"map":"pl_barnblitz","folder":"tf","game":"Team Fortress","app_id":440,"player_count":24,"max_players":24,"Bots":0,"server_type":"Dedicated","server_os":"Linux","password":true,"vac":true,"version":"7961495","steam_id":85568392924469992,"keywords":["nocrits","nodmgspread","payload","uncletopia"],"game_id":440,"stv_port":27026,"stv_name":"Uncletopia | Los Angeles | 2 | All Maps | STV","players":[{"user_id":418,"name":"donutdagger","steam_id":76561199203048300,"connected_time":4970000000000,"state":"active","ping":64},{"user_id":407,"name":"Ralph Kramden (Slim Charles)","steam_id":76561197981687895,"connected_time":5423000000000,"state":"active","ping":53},{"user_id":461,"name":"Stran","steam_id":76561198143389308,"connected_time":2259000000000,"state":"active","ping":67},{"user_id":478,"name":"Mr. Enforce","steam_id":76561198362168020,"connected_time":705000000000,"state":"active","ping":80},{"user_id":486,"name":"Monki","steam_id":76561198964210411,"connected_time":334000000000,"state":"active","ping":61},{"user_id":463,"name":"Idiotden","steam_id":76561199340950135,"connected_time":2127000000000,"state":"active","ping":55},{"user_id":489,"name":"Roon","steam_id":76561198381478636,"connected_time":144000000000,"state":"active","ping":51},{"user_id":473,"name":"tobrehto","steam_id":76561198097544038,"connected_time":1574000000000,"state":"active","ping":53},{"user_id":439,"name":"Schnitz","steam_id":76561198265484253,"connected_time":3165000000000,"state":"active","ping":57},{"user_id":475,"name":"Knooper","steam_id":76561198096149824,"connected_time":1390000000000,"state":"active","ping":143},{"user_id":480,"name":"bald man on a plane to turkey","steam_id":76561198060296782,"connected_time":686000000000,"state":"active","ping":64},{"user_id":460,"name":"Mediocre Lobster","steam_id":76561198131201321,"connected_time":2319000000000,"state":"active","ping":65},{"user_id":481,"name":"Chaptain","steam_id":76561198452725739,"connected_time":682000000000,"state":"active","ping":74},{"user_id":425,"name":"Pez","steam_id":76561199197778137,"connected_time":4279000000000,"state":"active","ping":68},{"user_id":459,"name":"nao","steam_id":76561198073982533,"connected_time":2469000000000,"state":"active","ping":84},{"user_id":487,"name":"Lord","steam_id":76561198303081758,"connected_time":308000000000,"state":"active","ping":41},{"user_id":446,"name":"Shmootis","steam_id":76561198128764422,"connected_time":3080000000000,"state":"active","ping":74},{"user_id":482,"name":"lil rat","steam_id":76561198083413316,"connected_time":677000000000,"state":"active","ping":56},{"user_id":483,"name":"intek","steam_id":76561198052705291,"connected_time":669000000000,"state":"active","ping":108},{"user_id":484,"name":"ඞ","steam_id":76561199187895660,"connected_time":619000000000,"state":"active","ping":45},{"user_id":451,"name":"MrMind","steam_id":76561199321657653,"connected_time":3026000000000,"state":"active","ping":59},{"user_id":472,"name":"Drapph","steam_id":76561199384213314,"connected_time":1603000000000,"state":"active","ping":122},{"user_id":490,"name":"Scorpianswag","steam_id":76561198260651036,"connected_time":114000000000,"state":"active","ping":41},{"user_id":485,"name":"lp","steam_id":76561198058469527,"connected_time":610000000000,"state":"active","ping":133}]},{"server_id":324,"name":"Uncletopia | Los Angeles | 3 | All Maps","name_short":"lax-3","host":"lax-1.us.uncletopia.com","port":27035,"enabled":true,"region":"us-west","cc":"us","latitude":33.94279,"longitude":-118.41004,"reserved":0,"last_update":"0001-01-01T00:00:00Z","name_a2s":"Uncletopia | Los Angeles | 3 | All Maps","protocol":17,"map":"koth_viaduct","folder":"tf","game":"Team Fortress","app_id":440,"player_count":0,"max_players":24,"Bots":0,"server_type":"Dedicated","server_os":"Linux","password":true,"vac":true,"version":"7961495","steam_id":85568392924510198,"keywords":["cp","nocrits","nodmgspread","uncletopia"],"game_id":440,"stv_port":27036,"stv_name":"Uncletopia | Los Angeles | 3 | All Maps | STV","players":null},{"server_id":25,"name":"Uncletopia | Los Angeles | 4 | Stopwatch","name_short":"lax-4","host":"lax-1.us.uncletopia.com","port":27045,"enabled":true,"region":"us-west","cc":"us","latitude":33.94279,"longitude":-118.41004,"reserved":0,"last_update":"0001-01-01T00:00:00Z","name_a2s":"Uncletopia | Los Angeles | 4 | Stopwatch","protocol":17,"map":"workshop/pl_badwater_pro_v12.ugc2142942074","folder":"tf","game":"Team Fortress","app_id":440,"player_count":0,"max_players":24,"Bots":0,"server_type":"Dedicated","server_os":"Linux","password":true,"vac":true,"version":"7961495","steam_id":85568392924510199,"keywords":["nocrits","nodmgspread","payload","uncletopia"],"game_id":440,"stv_port":27046,"stv_name":"Uncletopia | Los Angeles | 4 | Stopwatch | STV","players":null},{"server_id":11,"name":"Uncletopia | London | 1 | All Maps","name_short":"lon-1","host":"lon-1.uk.uncletopia.com","port":27015,"enabled":true,"region":"eu","cc":"gb","latitude":51.509865,"longitude":-0.118092,"reserved":0,"last_update":"0001-01-01T00:00:00Z","name_a2s":"Uncletopia | London | 1 | All Maps","protocol":17,"map":"koth_lakeside_final","folder":"tf","game":"Team Fortress","app_id":440,"player_count":0,"max_players":24,"Bots":0,"server_type":"Dedicated","server_os":"Linux","password":true,"vac":true,"version":"7961495","steam_id":85568392924367362,"keywords":["cp","nocrits","nodmgspread","uncletopia"],"game_id":440,"stv_port":27016,"stv_name":"Uncletopia | London | 1 | All Maps | STV","players":null},{"server_id":114,"name":"Uncletopia | London | 2 | All Maps","name_short":"lon-2","host":"lon-1.uk.uncletopia.com","port":27025,"enabled":true,"region":"eu","cc":"gb","latitude":51.509865,"longitude":-0.118092,"reserved":0,"last_update":"0001-01-01T00:00:00Z","name_a2s":"Uncletopia | London | 2 | All Maps","protocol":17,"map":"pl_swiftwater_final1","folder":"tf","game":"Team Fortress","app_id":440,"player_count":24,"max_players":24,"Bots":0,"server_type":"Dedicated","server_os":"Linux","password":true,"vac":true,"version":"7961495","steam_id":85568392924470941,"keywords":["nocrits","nodmgspread","payload","uncletopia"],"game_id":440,"stv_port":27026,"stv_name":"Uncletopia | London | 2 | All Maps | STV","players":[{"user_id":488,"name":"Baku","steam_id":76561199007950722,"connected_time":791000000000,"state":"active","ping":54},{"user_id":466,"name":"FarisKO","steam_id":76561198259234555,"connected_time":2389000000000,"state":"active","ping":181},{"user_id":482,"name":"burfict!","steam_id":76561198189285389,"connected_time":1137000000000,"state":"active","ping":62},{"user_id":457,"name":"tommy","steam_id":76561198195628823,"connected_time":3128000000000,"state":"active","ping":45},{"user_id":458,"name":"etc","steam_id":76561197998394797,"connected_time":2951000000000,"state":"active","ping":47},{"user_id":494,"name":"kys rn now","steam_id":76561198146147833,"connected_time":419000000000,"state":"active","ping":32},{"user_id":497,"name":"Isaac Clarke S-laughter","steam_id":76561198133546537,"connected_time":70000000000,"state":"active","ping":62},{"user_id":474,"name":"tU croud","steam_id":76561198196853835,"connected_time":1557000000000,"state":"active","ping":41},{"user_id":440,"name":"bird ideas","steam_id":76561199480942903,"connected_time":4692000000000,"state":"active","ping":71},{"user_id":462,"name":"BlueBlueFox","steam_id":76561198053817230,"connected_time":2581000000000,"state":"active","ping":78},{"user_id":491,"name":"paradise","steam_id":76561198966057450,"connected_time":659000000000,"state":"active","ping":76},{"user_id":464,"name":"Menace activities","steam_id":76561198328805441,"connected_time":2557000000000,"state":"active","ping":100},{"user_id":496,"name":"UglyTwinYgor","steam_id":76561198132718039,"connected_time":198000000000,"state":"active","ping":76},{"user_id":495,"name":"FilipeLuk","steam_id":76561198150675438,"connected_time":269000000000,"state":"active","ping":60},{"user_id":469,"name":"Churo","steam_id":76561198016542134,"connected_time":2067000000000,"state":"active","ping":46},{"user_id":475,"name":"khan","steam_id":76561198099245500,"connected_time":1551000000000,"state":"active","ping":52},{"user_id":487,"name":"Shynii","steam_id":76561198194682105,"connected_time":859000000000,"state":"active","ping":62},{"user_id":477,"name":"Arkainiel Silver","steam_id":76561198188302519,"connected_time":1418000000000,"state":"active","ping":66},{"user_id":395,"name":"Ch4bby","steam_id":76561198058792875,"connected_time":8043000000000,"state":"active","ping":57},{"user_id":478,"name":"jonbob","steam_id":76561197963506620,"connected_time":1374000000000,"state":"active","ping":47},{"user_id":489,"name":"THOTDADDY","steam_id":76561198069868942,"connected_time":722000000000,"state":"active","ping":157},{"user_id":492,"name":"rng","steam_id":76561198436059214,"connected_time":648000000000,"state":"active","ping":41},{"user_id":484,"name":"☆bladee☆dior☆f/w2016☆","steam_id":76561198082352159,"connected_time":1038000000000,"state":"active","ping":104},{"user_id":423,"name":"Colonel Dissapointment","steam_id":76561198181891649,"connected_time":5860000000000,"state":"active","ping":155}]},{"server_id":320,"name":"Uncletopia | London | 3 | All Maps","name_short":"lon-3","host":"lon-1.uk.uncletopia.com","port":27035,"enabled":true,"region":"eu","cc":"gb","latitude":51.509865,"longitude":-0.118092,"reserved":0,"last_update":"0001-01-01T00:00:00Z","name_a2s":"Uncletopia | London | 3 | All Maps","protocol":17,"map":"pl_barnblitz","folder":"tf","game":"Team Fortress","app_id":440,"player_count":0,"max_players":24,"Bots":0,"server_type":"Dedicated","server_os":"Linux","password":true,"vac":true,"version":"7961495","steam_id":85568392924510192,"keywords":["nocrits","nodmgspread","payload","uncletopia"],"game_id":440,"stv_port":27036,"stv_name":"Uncletopia | London | 3 | All Maps | STV","players":null},{"server_id":321,"name":"Uncletopia | London | 4 | All Maps","name_short":"lon-4","host":"lon-1.uk.uncletopia.com","port":27045,"enabled":true,"region":"eu","cc":"gb","latitude":51.509865,"longitude":-0.118092,"reserved":0,"last_update":"0001-01-01T00:00:00Z","name_a2s":"Uncletopia | London | 4 | All Maps","protocol":17,"map":"koth_cascade","folder":"tf","game":"Team Fortress","app_id":440,"player_count":0,"max_players":24,"Bots":0,"server_type":"Dedicated","server_os":"Linux","password":true,"vac":true,"version":"7961495","steam_id":85568392924510193,"keywords":["cp","nocrits","nodmgspread","uncletopia"],"game_id":440,"stv_port":27046,"stv_name":"Uncletopia | London | 4 | All Maps | STV","players":null},{"server_id":21,"name":"Uncletopia | London | 5 | All Maps","name_short":"lon-5","host":"lon-1.uk.uncletopia.com","port":27055,"enabled":true,"region":"eu","cc":"gb","latitude":51.509865,"longitude":-0.118092,"reserved":0,"last_update":"0001-01-01T00:00:00Z","name_a2s":"Uncletopia | London | 5 | All Maps","protocol":17,"map":"pl_swiftwater_final1","folder":"tf","game":"Team Fortress","app_id":440,"player_count":0,"max_players":24,"Bots":0,"server_type":"Dedicated","server_os":"Linux","password":true,"vac":true,"version":"7961495","steam_id":85568392924742829,"keywords":["nocrits","nodmgspread","payload","uncletopia"],"game_id":440,"stv_port":27056,"stv_name":"Uncletopia | London | 5 | All Maps | STV","players":null},{"server_id":22,"name":"Uncletopia | London | 6 | All Maps","name_short":"lon-6","host":"lon-1.uk.uncletopia.com","port":27065,"enabled":true,"region":"eu","cc":"gb","latitude":51.509865,"longitude":-0.118092,"reserved":0,"last_update":"0001-01-01T00:00:00Z","name_a2s":"Uncletopia | London | 6 | All Maps","protocol":17,"map":"pl_borneo","folder":"tf","game":"Team Fortress","app_id":440,"player_count":0,"max_players":24,"Bots":0,"server_type":"Dedicated","server_os":"Linux","password":true,"vac":true,"version":"7961495","steam_id":85568392924742830,"keywords":["nocrits","nodmgspread","payload","uncletopia"],"game_id":440,"stv_port":27066,"stv_name":"Uncletopia | London | 6 | All Maps | STV","players":null},{"server_id":40,"name":"Uncletopia | London | 7 | Stopwatch","name_short":"lon-7","host":"lon-1.uk.uncletopia.com","port":27075,"enabled":true,"region":"eu","cc":"gb","latitude":51.509865,"longitude":-0.118092,"reserved":0,"last_update":"0001-01-01T00:00:00Z","name_a2s":"Uncletopia | London | 7 | Stopwatch","protocol":17,"map":"workshop/koth_ramjam_rc1.ugc459778887","folder":"tf","game":"Team Fortress","app_id":440,"player_count":0,"max_players":24,"Bots":0,"server_type":"Dedicated","server_os":"Linux","password":true,"vac":true,"version":"7961495","steam_id":85568392924964314,"keywords":["cp","nocrits","nodmgspread","uncletopia"],"game_id":440,"stv_port":27076,"stv_name":"Uncletopia | London | 7 | Stopwatch | STV","players":null},{"server_id":41,"name":"Uncletopia | London | 8 | Community","name_short":"lon-8","host":"lon-1.uk.uncletopia.com","port":27085,"enabled":true,"region":"eu","cc":"gb","latitude":51.509865,"longitude":-0.118092,"reserved":0,"last_update":"0001-01-01T00:00:00Z","name_a2s":"Uncletopia | London | 8 | Community","protocol":17,"map":"workshop/cp_caldera_rc2.ugc2834196889","folder":"tf","game":"Team Fortress","app_id":440,"player_count":0,"max_players":24,"Bots":0,"server_type":"Dedicated","server_os":"Linux","password":true,"vac":true,"version":"7961495","steam_id":85568392924964315,"keywords":["cp","nocrits","nodmgspread","uncletopia"],"game_id":440,"stv_port":27086,"stv_name":"Uncletopia | London | 8 | Community | STV","players":null},{"server_id":300,"name":"Uncletopia | Montréal | 1 | All Maps","name_short":"mtl-1","host":"mtl-1.ca.uncletopia.com","port":27015,"enabled":true,"region":"us-east","cc":"ca","latitude":45.50889,"longitude":-73.56167,"reserved":0,"last_update":"0001-01-01T00:00:00Z","name_a2s":"","protocol":0,"map":"","folder":"","game":"","app_id":0,"player_count":17,"max_players":0,"Bots":0,"server_type":"","server_os":"","password":false,"vac":false,"version":"","steam_id":0,"keywords":null,"game_id":0,"stv_port":0,"stv_name":"","players":[{"user_id":122,"name":"OG Pemguin","steam_id":76561199240575933,"connected_time":5702000000000,"state":"active","ping":128},{"user_id":185,"name":"JakeK","steam_id":76561198149375504,"connected_time":1021000000000,"state":"active","ping":78},{"user_id":176,"name":"GoofyGoober","steam_id":76561199209004430,"connected_time":1507000000000,"state":"active","ping":136},{"user_id":121,"name":"Slob and Sup","steam_id":76561198123441203,"connected_time":6065000000000,"state":"active","ping":55},{"user_id":141,"name":"Trubuckifan","steam_id":76561197990991360,"connected_time":4660000000000,"state":"active","ping":74},{"user_id":189,"name":"Toto","steam_id":76561198132069378,"connected_time":365000000000,"state":"active","ping":85},{"user_id":190,"name":"eryn 🗺","steam_id":76561198004433070,"connected_time":345000000000,"state":"active","ping":89},{"user_id":112,"name":"mrappledumb","steam_id":76561199133590774,"connected_time":6304000000000,"state":"active","ping":64},{"user_id":187,"name":"Fatpoob","steam_id":76561198056730096,"connected_time":715000000000,"state":"active","ping":44},{"user_id":186,"name":"Dragus","steam_id":76561198032967285,"connected_time":1011000000000,"state":"active","ping":65},{"user_id":191,"name":"Zozob farmer of chickens","steam_id":76561198009345829,"connected_time":328000000000,"state":"active","ping":87},{"user_id":180,"name":"Lord_Manship","steam_id":76561198045168765,"connected_time":1137000000000,"state":"active","ping":74},{"user_id":192,"name":"Dutc","steam_id":76561199077027954,"connected_time":240000000000,"state":"active","ping":85},{"user_id":193,"name":"WarMace","steam_id":76561198395937853,"connected_time":27000000000,"state":"active","ping":80},{"user_id":169,"name":"Violetcherry","steam_id":76561198057445944,"connected_time":2534000000000,"state":"active","ping":63},{"user_id":166,"name":"Darghul the Skeleton Lord","steam_id":76561198004140161,"connected_time":2883000000000,"state":"active","ping":60},{"user_id":129,"name":"Tesman James","steam_id":76561199093793428,"connected_time":5568000000000,"state":"active","ping":55}]},{"server_id":301,"name":"Uncletopia | Montréal | 2 | All Maps","name_short":"mtl-2","host":"mtl-1.ca.uncletopia.com","port":27025,"enabled":true,"region":"us-east","cc":"ca","latitude":45.50889,"longitude":-73.56167,"reserved":0,"last_update":"0001-01-01T00:00:00Z","name_a2s":"","protocol":0,"map":"","folder":"","game":"","app_id":0,"player_count":0,"max_players":0,"Bots":0,"server_type":"","server_os":"","password":false,"vac":false,"version":"","steam_id":0,"keywords":null,"game_id":0,"stv_port":0,"stv_name":"","players":null},{"server_id":302,"name":"Uncletopia | Montréal | 3 | All Maps","name_short":"mtl-3","host":"mtl-1.ca.uncletopia.com","port":27035,"enabled":true,"region":"us-east","cc":"ca","latitude":45.50889,"longitude":-73.56167,"reserved":0,"last_update":"0001-01-01T00:00:00Z","name_a2s":"","protocol":0,"map":"","folder":"","game":"","app_id":0,"player_count":0,"max_players":0,"Bots":0,"server_type":"","server_os":"","password":false,"vac":false,"version":"","steam_id":0,"keywords":null,"game_id":0,"stv_port":0,"stv_name":"","players":null},{"server_id":303,"name":"Uncletopia | Montréal | 4 | No Payload","name_short":"mtl-4","host":"mtl-1.ca.uncletopia.com","port":27045,"enabled":true,"region":"us-east","cc":"ca","latitude":45.50889,"longitude":-73.56167,"reserved":0,"last_update":"0001-01-01T00:00:00Z","name_a2s":"","protocol":0,"map":"","folder":"","game":"","app_id":0,"player_count":0,"max_players":0,"Bots":0,"server_type":"","server_os":"","password":false,"vac":false,"version":"","steam_id":0,"keywords":null,"game_id":0,"stv_port":0,"stv_name":"","players":null},{"server_id":13,"name":"Uncletopia | New York City | 1 | All Maps","name_short":"nyc-1","host":"nyc-1.us.uncletopia.com","port":27015,"enabled":true,"region":"us-east","cc":"us","latitude":40.73061,"longitude":-73.93524,"reserved":0,"last_update":"0001-01-01T00:00:00Z","name_a2s":"Uncletopia | New York City | 1 | All Maps","protocol":17,"map":"cp_process_final","folder":"tf","game":"Team Fortress","app_id":440,"player_count":24,"max_players":24,"Bots":0,"server_type":"Dedicated","server_os":"Linux","password":true,"vac":true,"version":"7961495","steam_id":85568392924469993,"keywords":["cp","nocrits","nodmgspread","uncletopia"],"game_id":440,"stv_port":27016,"stv_name":"Uncletopia | New York City | 1 | All Maps | STV","players":[{"user_id":401,"name":"googa","steam_id":76561198133130452,"connected_time":7196000000000,"state":"active","ping":45},{"user_id":484,"name":"NERV","steam_id":76561198111023744,"connected_time":1341000000000,"state":"active","ping":61},{"user_id":317,"name":"De","steam_id":76561198206728044,"connected_time":14465000000000,"state":"active","ping":72},{"user_id":494,"name":"capeeKo","steam_id":76561197970346623,"connected_time":333000000000,"state":"active","ping":53},{"user_id":449,"name":"Yeti","steam_id":76561198035450920,"connected_time":3516000000000,"state":"active","ping":67},{"user_id":464,"name":"Two-Teste Tommy","steam_id":76561198064308936,"connected_time":2638000000000,"state":"active","ping":60},{"user_id":445,"name":"Spiral Mountain","steam_id":76561198058683715,"connected_time":3733000000000,"state":"active","ping":75},{"user_id":478,"name":"In the Balls","steam_id":76561199015025033,"connected_time":1797000000000,"state":"active","ping":54},{"user_id":432,"name":"Doubie","steam_id":76561198104492019,"connected_time":4433000000000,"state":"active","ping":64},{"user_id":491,"name":"dansal","steam_id":76561197997042510,"connected_time":1018000000000,"state":"active","ping":98},{"user_id":450,"name":"Evan","steam_id":76561197972292926,"connected_time":3512000000000,"state":"active","ping":61},{"user_id":481,"name":"Queso2469","steam_id":76561197993024580,"connected_time":1587000000000,"state":"active","ping":44},{"user_id":486,"name":"Red_Hatkins","steam_id":76561198214004105,"connected_time":1333000000000,"state":"active","ping":89},{"user_id":442,"name":"Bert.","steam_id":76561198140666346,"connected_time":3822000000000,"state":"active","ping":56},{"user_id":488,"name":"Dr. Mosquito, M.D.","steam_id":76561198292258115,"connected_time":1292000000000,"state":"active","ping":76},{"user_id":480,"name":"Sporp","steam_id":76561197987957133,"connected_time":1721000000000,"state":"active","ping":60},{"user_id":492,"name":"Nicko","steam_id":76561198328490503,"connected_time":739000000000,"state":"active","ping":149},{"user_id":489,"name":"Jattiti","steam_id":76561199214217870,"connected_time":1280000000000,"state":"active","ping":74},{"user_id":482,"name":"Trout","steam_id":76561198075180255,"connected_time":1423000000000,"state":"active","ping":69},{"user_id":477,"name":"SnickerNoodle","steam_id":76561198064359644,"connected_time":1800000000000,"state":"active","ping":57},{"user_id":454,"name":"Frisbee","steam_id":76561197962808987,"connected_time":3450000000000,"state":"active","ping":78},{"user_id":476,"name":"Festive Panda","steam_id":76561198025758017,"connected_time":2036000000000,"state":"active","ping":72},{"user_id":456,"name":"Eviscerator","steam_id":76561197980073637,"connected_time":3159000000000,"state":"active","ping":94},{"user_id":460,"name":"Parth Makeo","steam_id":76561198002516581,"connected_time":2847000000000,"state":"active","ping":37}]},{"server_id":14,"name":"Uncletopia | New York City | 2 | All Maps","name_short":"nyc-2","host":"nyc-1.us.uncletopia.com","port":27025,"enabled":true,"region":"us-east","cc":"us","latitude":40.73061,"longitude":-73.93524,"reserved":0,"last_update":"0001-01-01T00:00:00Z","name_a2s":"Uncletopia | New York City | 2 | All Maps","protocol":17,"map":"cp_altitude","folder":"tf","game":"Team Fortress","app_id":440,"player_count":19,"max_players":24,"Bots":0,"server_type":"Dedicated","server_os":"Linux","password":true,"vac":true,"version":"7961495","steam_id":85568392924469994,"keywords":["cp","nocrits","nodmgspread","uncletopia"],"game_id":440,"stv_port":27026,"stv_name":"Uncletopia | New York City | 2 | All Maps | STV","players":[{"user_id":636,"name":"Aristotle Voulton","steam_id":76561198100174923,"connected_time":30000000000,"state":"active","ping":67},{"user_id":637,"name":"HeaT","steam_id":76561198089227368,"connected_time":14000000000,"state":"spawning","ping":217},{"user_id":613,"name":"bagel cream cheese","steam_id":76561198017954785,"connected_time":1581000000000,"state":"active","ping":85},{"user_id":634,"name":"Comfy!","steam_id":76561198008818346,"connected_time":50000000000,"state":"active","ping":45},{"user_id":622,"name":"DuplicateMan","steam_id":76561198170181466,"connected_time":751000000000,"state":"spawning","ping":61},{"user_id":573,"name":"RuinLucky","steam_id":76561199481172481,"connected_time":5135000000000,"state":"active","ping":80},{"user_id":630,"name":"STEVE","steam_id":76561198063475894,"connected_time":325000000000,"state":"active","ping":55},{"user_id":633,"name":"Nerrrd_","steam_id":76561198870129960,"connected_time":238000000000,"state":"active","ping":40},{"user_id":626,"name":"tops","steam_id":76561199121780852,"connected_time":591000000000,"state":"active","ping":64},{"user_id":635,"name":"swagman (oc)","steam_id":76561198858471424,"connected_time":47000000000,"state":"connecting","ping":56},{"user_id":631,"name":"Ellis McGruber","steam_id":76561198060739536,"connected_time":322000000000,"state":"active","ping":54},{"user_id":624,"name":"Viren","steam_id":76561198012636897,"connected_time":653000000000,"state":"active","ping":76},{"user_id":632,"name":"Lore","steam_id":76561198098407538,"connected_time":317000000000,"state":"active","ping":61},{"user_id":605,"name":"TheSnowGhost","steam_id":76561198271967286,"connected_time":2192000000000,"state":"active","ping":93},{"user_id":619,"name":"Gibs Degrossi","steam_id":76561198066152609,"connected_time":1324000000000,"state":"active","ping":55},{"user_id":568,"name":"Blade Racer","steam_id":76561198155896703,"connected_time":5610000000000,"state":"active","ping":74},{"user_id":628,"name":"Voyager","steam_id":76561198803190521,"connected_time":583000000000,"state":"active","ping":79},{"user_id":629,"name":"Runny Eggs","steam_id":76561198006785882,"connected_time":566000000000,"state":"active","ping":92},{"user_id":621,"name":"Sumireko Gaming","steam_id":76561199013422135,"connected_time":906000000000,"state":"active","ping":77}]},{"server_id":15,"name":"Uncletopia | New York City | 3 | Stopwatch","name_short":"nyc-3","host":"nyc-1.us.uncletopia.com","port":27035,"enabled":true,"region":"us-east","cc":"us","latitude":40.73061,"longitude":-73.93524,"reserved":0,"last_update":"0001-01-01T00:00:00Z","name_a2s":"Uncletopia | New York City | 3 | Stopwatch","protocol":17,"map":"workshop/pl_badwater_pro_v12.ugc2142942074","folder":"tf","game":"Team Fortress","app_id":440,"player_count":24,"max_players":24,"Bots":0,"server_type":"Dedicated","server_os":"Linux","password":true,"vac":true,"version":"7961495","steam_id":85568392924742820,"keywords":["nocrits","nodmgspread","payload","uncletopia"],"game_id":440,"stv_port":27036,"stv_name":"Uncletopia | New York City | 3 | Stopwatch | STV","players":[{"user_id":239,"name":"Zhenaj","steam_id":76561199209016136,"connected_time":767000000000,"state":"active","ping":75},{"user_id":224,"name":"nap","steam_id":76561198162714624,"connected_time":1340000000000,"state":"active","ping":88},{"user_id":246,"name":"MakutaArty1987","steam_id":76561199048865492,"connected_time":370000000000,"state":"active","ping":48},{"user_id":182,"name":"Lamp","steam_id":76561198369922506,"connected_time":4055000000000,"state":"active","ping":49},{"user_id":249,"name":"TheLuzinator","steam_id":76561198377144604,"connected_time":147000000000,"state":"active","ping":89},{"user_id":254,"name":"Sonic The Scientologist","steam_id":76561198089945709,"connected_time":25000000000,"state":"active","ping":56},{"user_id":245,"name":"Sergey","steam_id":76561198809913163,"connected_time":457000000000,"state":"active","ping":79},{"user_id":247,"name":"lunamoon250","steam_id":76561199122331888,"connected_time":358000000000,"state":"active","ping":78},{"user_id":248,"name":"Specific Ocean","steam_id":76561198306922719,"connected_time":257000000000,"state":"active","ping":141},{"user_id":250,"name":"Doctor Barber","steam_id":76561199072517908,"connected_time":146000000000,"state":"active","ping":78},{"user_id":251,"name":"Hess","steam_id":76561198351348919,"connected_time":73000000000,"state":"active","ping":85},{"user_id":252,"name":"Bheem","steam_id":76561198170453459,"connected_time":58000000000,"state":"active","ping":115},{"user_id":228,"name":"7thelden","steam_id":76561198297428761,"connected_time":1149000000000,"state":"active","ping":78},{"user_id":229,"name":"Caramel?! | Trans rights!","steam_id":76561198041863697,"connected_time":1139000000000,"state":"active","ping":105},{"user_id":214,"name":"Fuzzy","steam_id":76561198113445043,"connected_time":2267000000000,"state":"active","ping":66},{"user_id":180,"name":"lazily","steam_id":76561198051127715,"connected_time":4574000000000,"state":"active","ping":60},{"user_id":253,"name":"leumas","steam_id":76561198240408540,"connected_time":52000000000,"state":"active","ping":45},{"user_id":255,"name":"Smuggs","steam_id":76561197999456003,"connected_time":2000000000,"state":"spawning","ping":95},{"user_id":232,"name":"snos","steam_id":76561198075334330,"connected_time":1029000000000,"state":"active","ping":55},{"user_id":234,"name":"daffygoodfeller","steam_id":76561199013084916,"connected_time":969000000000,"state":"active","ping":129},{"user_id":235,"name":"josh","steam_id":76561198110063909,"connected_time":947000000000,"state":"active","ping":77},{"user_id":242,"name":"Boo(BS)","steam_id":76561199189774413,"connected_time":735000000000,"state":"active","ping":84},{"user_id":219,"name":"GetWickd","steam_id":76561198326400188,"connected_time":1947000000000,"state":"active","ping":71},{"user_id":238,"name":"Aldinach","steam_id":76561198079912615,"connected_time":923000000000,"state":"active","ping":60}]},{"server_id":16,"name":"Uncletopia | New York City | 4 | Community","name_short":"nyc-4","host":"nyc-1.us.uncletopia.com","port":27045,"enabled":true,"region":"us-east","cc":"us","latitude":40.73061,"longitude":-73.93524,"reserved":0,"last_update":"0001-01-01T00:00:00Z","name_a2s":"Uncletopia | New York City | 4 | Community","protocol":17,"map":"workshop/cp_kalinka_rc6a.ugc1272700588","folder":"tf","game":"Team Fortress","app_id":440,"player_count":24,"max_players":24,"Bots":0,"server_type":"Dedicated","server_os":"Linux","password":true,"vac":true,"version":"7961495","steam_id":85568392924742821,"keywords":["cp","nocrits","nodmgspread","uncletopia"],"game_id":440,"stv_port":27046,"stv_name":"Uncletopia | New York City | 4 | Community | STV","players":[{"user_id":192,"name":"menk3","steam_id":76561198120888597,"connected_time":790000000000,"state":"active","ping":56},{"user_id":201,"name":"womthedom","steam_id":76561198088768287,"connected_time":330000000000,"state":"active","ping":65},{"user_id":131,"name":"La()VaJ()86","steam_id":76561198247547042,"connected_time":5825000000000,"state":"active","ping":117},{"user_id":137,"name":"Rodrick Knee","steam_id":76561198283021062,"connected_time":5465000000000,"state":"active","ping":72},{"user_id":39,"name":"Shagbark","steam_id":76561198173447342,"connected_time":11323000000000,"state":"active","ping":63},{"user_id":193,"name":"Bee that flipped the Skyrim car","steam_id":76561198246170448,"connected_time":774000000000,"state":"active","ping":49},{"user_id":161,"name":"yamme","steam_id":76561198117849124,"connected_time":3074000000000,"state":"active","ping":112},{"user_id":133,"name":"Knuckles","steam_id":76561198000704259,"connected_time":5667000000000,"state":"active","ping":44},{"user_id":146,"name":"erf","steam_id":76561198078203677,"connected_time":5181000000000,"state":"active","ping":57},{"user_id":166,"name":"Skiddy","steam_id":76561198125942665,"connected_time":2358000000000,"state":"active","ping":62},{"user_id":162,"name":"tntkiller","steam_id":76561198067401676,"connected_time":3071000000000,"state":"active","ping":56},{"user_id":167,"name":"G.bo","steam_id":76561198085176270,"connected_time":2141000000000,"state":"active","ping":123},{"user_id":195,"name":"The Smell of Jazz","steam_id":76561198005860388,"connected_time":715000000000,"state":"active","ping":122},{"user_id":190,"name":"hooters","steam_id":76561198068022595,"connected_time":844000000000,"state":"active","ping":49},{"user_id":194,"name":"Nordie","steam_id":76561198102297774,"connected_time":767000000000,"state":"active","ping":77},{"user_id":199,"name":"Randumb","steam_id":76561199083286636,"connected_time":467000000000,"state":"active","ping":72},{"user_id":175,"name":"primordialheath","steam_id":76561199386942638,"connected_time":1679000000000,"state":"active","ping":71},{"user_id":197,"name":"Remmy","steam_id":76561198268857418,"connected_time":551000000000,"state":"active","ping":64},{"user_id":205,"name":"King of Ping","steam_id":76561198278737470,"connected_time":195000000000,"state":"active","ping":54},{"user_id":183,"name":"Big Boy B-Franks","steam_id":76561198050292373,"connected_time":1244000000000,"state":"active","ping":93},{"user_id":206,"name":"Zerwee","steam_id":76561198181368101,"connected_time":138000000000,"state":"active","ping":142},{"user_id":203,"name":"FluorescentDome","steam_id":76561198046897504,"connected_time":301000000000,"state":"active","ping":85},{"user_id":204,"name":"Carthage","steam_id":76561198078559015,"connected_time":290000000000,"state":"active","ping":38},{"user_id":186,"name":"Kaluka","steam_id":76561198036861445,"connected_time":1206000000000,"state":"active","ping":63}]},{"server_id":142,"name":"Uncletopia | São Paulo | 1 | All Maps","name_short":"sao-1","host":"sao-1.br.uncletopia.com","port":27015,"enabled":true,"region":"sa","cc":"br","latitude":-23.533773,"longitude":-46.62529,"reserved":0,"last_update":"0001-01-01T00:00:00Z","name_a2s":"Uncletopia | São Paulo | 1 | All Maps","protocol":17,"map":"koth_cascade","folder":"tf","game":"Team Fortress","app_id":440,"player_count":0,"max_players":24,"Bots":0,"server_type":"Dedicated","server_os":"Linux","password":true,"vac":true,"version":"7961495","steam_id":85568392924469996,"keywords":["cp","nocrits","nodmgspread","uncletopia"],"game_id":440,"stv_port":27016,"stv_name":"Uncletopia | São Paulo | 1 | All Maps | STV","players":null},{"server_id":143,"name":"Uncletopia | São Paulo | 2 | Community","name_short":"sao-2","host":"sao-2.br.uncletopia.com","port":27015,"enabled":true,"region":"sa","cc":"br","latitude":-23.533773,"longitude":-46.62529,"reserved":0,"last_update":"0001-01-01T00:00:00Z","name_a2s":"Uncletopia | São Paulo | 2 | Community","protocol":17,"map":"workshop/koth_ramjam_rc1.ugc459778887","folder":"tf","game":"Team Fortress","app_id":440,"player_count":0,"max_players":24,"Bots":0,"server_type":"Dedicated","server_os":"Linux","password":true,"vac":true,"version":"7961495","steam_id":85568392924485349,"keywords":["cp","nocrits","nodmgspread","uncletopia"],"game_id":440,"stv_port":27016,"stv_name":"Uncletopia | São Paulo | 2 | Community | STV","players":null},{"server_id":7,"name":"Uncletopia | Seattle | 1 | All Maps","name_short":"sea-1","host":"sea-1.us.uncletopia.com","port":27015,"enabled":true,"region":"us-west","cc":"us","latitude":47.608013,"longitude":-122.33517,"reserved":0,"last_update":"0001-01-01T00:00:00Z","name_a2s":"Uncletopia | Seattle | 1 | All Maps","protocol":17,"map":"pl_frontier_final","folder":"tf","game":"Team Fortress","app_id":440,"player_count":25,"max_players":24,"Bots":0,"server_type":"Dedicated","server_os":"Linux","password":true,"vac":true,"version":"7961495","steam_id":85568392924469997,"keywords":["nocrits","nodmgspread","payload","uncletopia"],"game_id":440,"stv_port":27016,"stv_name":"Uncletopia | Seattle | 1 | All Maps | STV","players":[{"user_id":513,"name":"lasky","steam_id":76561198017030029,"connected_time":4092000000000,"state":"active","ping":72},{"user_id":679,"name":"Father","steam_id":76561198055542054,"connected_time":2174000000000,"state":"active","ping":48},{"user_id":680,"name":"Can of Oranges","steam_id":76561199121813529,"connected_time":2134000000000,"state":"active","ping":53},{"user_id":695,"name":"Gamekiller839","steam_id":76561199475400469,"connected_time":863000000000,"state":"active","ping":48},{"user_id":681,"name":"Skabbety","steam_id":76561198168044257,"connected_time":2100000000000,"state":"active","ping":36},{"user_id":690,"name":"Jroticus","steam_id":76561198139511958,"connected_time":1824000000000,"state":"active","ping":135},{"user_id":628,"name":"Eraser cat","steam_id":76561199045570463,"connected_time":3145000000000,"state":"active","ping":48},{"user_id":450,"name":"tr","steam_id":76561198046944222,"connected_time":8078000000000,"state":"active","ping":45},{"user_id":696,"name":"Ayayayayayahuasca","steam_id":76561199002906056,"connected_time":852000000000,"state":"active","ping":46},{"user_id":700,"name":"Domopon","steam_id":76561199080347686,"connected_time":352000000000,"state":"active","ping":61},{"user_id":693,"name":"MxProf","steam_id":76561198044519572,"connected_time":1119000000000,"state":"active","ping":59},{"user_id":495,"name":"Username","steam_id":76561199033122306,"connected_time":4747000000000,"state":"active","ping":170},{"user_id":692,"name":"shelf","steam_id":76561198260021696,"connected_time":1491000000000,"state":"active","ping":53},{"user_id":697,"name":"CORGI.EXE","steam_id":76561198077093432,"connected_time":830000000000,"state":"active","ping":133},{"user_id":671,"name":"geekin and tweakin","steam_id":76561198095480838,"connected_time":2278000000000,"state":"active","ping":55},{"user_id":500,"name":"NEЯO","steam_id":76561197965450216,"connected_time":4353000000000,"state":"active","ping":59},{"user_id":683,"name":"pepe warlord","steam_id":76561198080819197,"connected_time":2088000000000,"state":"active","ping":83},{"user_id":684,"name":"Razorblade166","steam_id":76561198035303249,"connected_time":2058000000000,"state":"active","ping":49},{"user_id":698,"name":"Totally_faraam","steam_id":76561199230162663,"connected_time":825000000000,"state":"active","ping":92},{"user_id":694,"name":"Vincent Van Bro","steam_id":76561197966919802,"connected_time":1090000000000,"state":"active","ping":58},{"user_id":699,"name":"Frank Horrigan","steam_id":76561198066504831,"connected_time":812000000000,"state":"active","ping":132},{"user_id":640,"name":"Level 99 Mudcrab","steam_id":76561198077452771,"connected_time":2953000000000,"state":"active","ping":85},{"user_id":491,"name":"NEBULA","steam_id":76561198086878595,"connected_time":4846000000000,"state":"active","ping":66},{"user_id":701,"name":"jorts","steam_id":76561199041179985,"connected_time":27000000000,"state":"active","ping":55},{"user_id":625,"name":"Kc","steam_id":76561198210734407,"connected_time":3151000000000,"state":"active","ping":120}]},{"server_id":119,"name":"Uncletopia | Seattle | 2 | All Maps","name_short":"sea-2","host":"sea-1.us.uncletopia.com","port":27025,"enabled":true,"region":"us-west","cc":"us","latitude":47.608013,"longitude":-122.33517,"reserved":0,"last_update":"0001-01-01T00:00:00Z","name_a2s":"Uncletopia | Seattle | 2 | All Maps","protocol":17,"map":"pl_frontier_final","folder":"tf","game":"Team Fortress","app_id":440,"player_count":24,"max_players":24,"Bots":0,"server_type":"Dedicated","server_os":"Linux","password":true,"vac":true,"version":"7961495","steam_id":85568392924469998,"keywords":["nocrits","nodmgspread","payload","uncletopia"],"game_id":440,"stv_port":27026,"stv_name":"Uncletopia | Seattle | 2 | All Maps | STV","players":[{"user_id":241,"name":"Lili W.","steam_id":76561199391478575,"connected_time":6276000000000,"state":"active","ping":67},{"user_id":267,"name":"mizurush","steam_id":76561198039595304,"connected_time":4146000000000,"state":"active","ping":136},{"user_id":178,"name":"Lilmaggedon","steam_id":76561198072393166,"connected_time":12190000000000,"state":"active","ping":81},{"user_id":262,"name":"mooney","steam_id":76561199110622484,"connected_time":4699000000000,"state":"active","ping":68},{"user_id":244,"name":"slushy :))","steam_id":76561198135281802,"connected_time":6006000000000,"state":"active","ping":44},{"user_id":276,"name":"Dextersbrain","steam_id":76561198011831579,"connected_time":2698000000000,"state":"active","ping":70},{"user_id":247,"name":"c a l l i e ↟ ↟","steam_id":76561198058199952,"connected_time":5439000000000,"state":"active","ping":53},{"user_id":291,"name":"Space360","steam_id":76561198106743284,"connected_time":966000000000,"state":"active","ping":54},{"user_id":292,"name":"Pugzilla","steam_id":76561198108088960,"connected_time":958000000000,"state":"active","ping":134},{"user_id":295,"name":"R5-D4","steam_id":76561198025196439,"connected_time":123000000000,"state":"active","ping":57},{"user_id":289,"name":"Integral","steam_id":76561198158225481,"connected_time":1228000000000,"state":"active","ping":83},{"user_id":282,"name":"Mii Guest C, From Wii Sports","steam_id":76561198197964803,"connected_time":2180000000000,"state":"active","ping":68},{"user_id":273,"name":"The King of Piss World","steam_id":76561198082806956,"connected_time":3100000000000,"state":"active","ping":159},{"user_id":283,"name":"Soda","steam_id":76561198219209367,"connected_time":2124000000000,"state":"active","ping":55},{"user_id":294,"name":"Urist McDwarf","steam_id":76561198164004939,"connected_time":905000000000,"state":"active","ping":83},{"user_id":287,"name":"A UsedNom","steam_id":76561198402832756,"connected_time":1922000000000,"state":"active","ping":59},{"user_id":246,"name":"mub","steam_id":76561197961943948,"connected_time":5456000000000,"state":"active","ping":46},{"user_id":235,"name":"Sweet Iced Tea From McDonald's","steam_id":76561198081110786,"connected_time":6907000000000,"state":"active","ping":56},{"user_id":277,"name":"dougrocks421","steam_id":76561198165063918,"connected_time":2551000000000,"state":"active","ping":41},{"user_id":288,"name":"Deathkillsme","steam_id":76561198059468746,"connected_time":1254000000000,"state":"active","ping":46},{"user_id":248,"name":"CashGordon","steam_id":76561197975594096,"connected_time":5419000000000,"state":"active","ping":44},{"user_id":285,"name":"LaserDog","steam_id":76561199088111891,"connected_time":2036000000000,"state":"active","ping":121},{"user_id":256,"name":"sadlaxx","steam_id":76561198061354919,"connected_time":4880000000000,"state":"active","ping":93},{"user_id":266,"name":"♦Benji♦","steam_id":76561198313529973,"connected_time":4173000000000,"state":"active","ping":38}]},{"server_id":406,"name":"Uncletopia | Seattle | 3 | Stopwatch","name_short":"sea-3","host":"sea-1.us.uncletopia.com","port":27035,"enabled":true,"region":"us-west","cc":"us","latitude":47.608013,"longitude":-122.33517,"reserved":0,"last_update":"0001-01-01T00:00:00Z","name_a2s":"Uncletopia | Seattle | 3 | Stopwatch","protocol":17,"map":"workshop/koth_ashville_final.ugc2130459942","folder":"tf","game":"Team Fortress","app_id":440,"player_count":0,"max_players":24,"Bots":0,"server_type":"Dedicated","server_os":"Linux","password":true,"vac":true,"version":"7961495","steam_id":85568392924515217,"keywords":["cp","nocrits","nodmgspread","uncletopia"],"game_id":440,"stv_port":27036,"stv_name":"Uncletopia | Seattle | 3 | Stopwatch | STV","players":null},{"server_id":17,"name":"Uncletopia | San Francisco | 1 | All Maps","name_short":"sfo-1","host":"sfo-1.us.uncletopia.com","port":27015,"enabled":true,"region":"us-west","cc":"us","latitude":37.77397,"longitude":-122.4313,"reserved":0,"last_update":"0001-01-01T00:00:00Z","name_a2s":"Uncletopia | San Francisco | 1 | All Maps","protocol":17,"map":"pl_upward","folder":"tf","game":"Team Fortress","app_id":440,"player_count":24,"max_players":24,"Bots":0,"server_type":"Dedicated","server_os":"Linux","password":true,"vac":true,"version":"7961495","steam_id":85568392924469999,"keywords":["nocrits","nodmgspread","payload","uncletopia"],"game_id":440,"stv_port":27016,"stv_name":"Uncletopia | San Francisco | 1 | All Maps | STV","players":[{"user_id":304,"name":"✪ Jam","steam_id":76561198101672564,"connected_time":390000000000,"state":"active","ping":51},{"user_id":289,"name":"LIAM","steam_id":76561198324691143,"connected_time":1567000000000,"state":"active","ping":65},{"user_id":302,"name":"Giorno Giovanna","steam_id":76561198044106874,"connected_time":658000000000,"state":"active","ping":65},{"user_id":305,"name":"małię","steam_id":76561198337705174,"connected_time":371000000000,"state":"active","ping":75},{"user_id":292,"name":"Tideflat","steam_id":76561198179850851,"connected_time":1460000000000,"state":"active","ping":85},{"user_id":268,"name":"PJROCK101","steam_id":76561198070616561,"connected_time":3351000000000,"state":"active","ping":80},{"user_id":257,"name":"dunbar","steam_id":76561198143771806,"connected_time":3476000000000,"state":"active","ping":93},{"user_id":273,"name":"A rotting llama corpse","steam_id":76561198140840588,"connected_time":2645000000000,"state":"active","ping":95},{"user_id":284,"name":"RUF","steam_id":76561198062315805,"connected_time":1612000000000,"state":"active","ping":70},{"user_id":299,"name":"DOMO_MR_ROBOTO","steam_id":76561198077108345,"connected_time":910000000000,"state":"active","ping":97},{"user_id":258,"name":"paypur -rng","steam_id":76561198214370515,"connected_time":3469000000000,"state":"active","ping":110},{"user_id":259,"name":"Guatty","steam_id":76561198272698584,"connected_time":3465000000000,"state":"active","ping":105},{"user_id":254,"name":"Silly Shark","steam_id":76561198130714378,"connected_time":3798000000000,"state":"active","ping":82},{"user_id":298,"name":"jungus","steam_id":76561198129862008,"connected_time":1064000000000,"state":"active","ping":54},{"user_id":283,"name":"benji","steam_id":76561198084417967,"connected_time":1615000000000,"state":"active","ping":88},{"user_id":306,"name":"Bodhisattva","steam_id":76561198085228896,"connected_time":362000000000,"state":"active","ping":54},{"user_id":285,"name":"Stapler","steam_id":76561198099295077,"connected_time":1611000000000,"state":"active","ping":49},{"user_id":300,"name":"Spare(8)Ball","steam_id":76561197982432995,"connected_time":906000000000,"state":"active","ping":53},{"user_id":265,"name":"dodecadron","steam_id":76561198027397222,"connected_time":3438000000000,"state":"active","ping":79},{"user_id":303,"name":"Dreamzapp","steam_id":76561199084936632,"connected_time":580000000000,"state":"active","ping":78},{"user_id":293,"name":"5869","steam_id":76561198799616739,"connected_time":1409000000000,"state":"active","ping":90},{"user_id":295,"name":"El Chunko","steam_id":76561198839459309,"connected_time":1361000000000,"state":"active","ping":76},{"user_id":296,"name":"Sloppy Toppy Tom","steam_id":76561198321550138,"connected_time":1360000000000,"state":"active","ping":120},{"user_id":288,"name":"coffee","steam_id":76561198141061142,"connected_time":1609000000000,"state":"active","ping":88}]},{"server_id":18,"name":"Uncletopia | San Francisco | 2 | All Maps","name_short":"sfo-2","host":"sfo-1.us.uncletopia.com","port":27025,"enabled":true,"region":"us-west","cc":"us","latitude":37.77397,"longitude":-122.4313,"reserved":0,"last_update":"0001-01-01T00:00:00Z","name_a2s":"Uncletopia | San Francisco | 2 | All Maps","protocol":17,"map":"cp_snakewater_final1","folder":"tf","game":"Team Fortress","app_id":440,"player_count":24,"max_players":24,"Bots":0,"server_type":"Dedicated","server_os":"Linux","password":true,"vac":true,"version":"7961495","steam_id":85568392924470000,"keywords":["cp","nocrits","nodmgspread","uncletopia"],"game_id":440,"stv_port":27026,"stv_name":"Uncletopia | San Francisco | 2 | All Maps | STV","players":[{"user_id":561,"name":"squid game","steam_id":76561199248960166,"connected_time":1509000000000,"state":"active","ping":67},{"user_id":532,"name":"ratthew","steam_id":76561198418172095,"connected_time":2716000000000,"state":"active","ping":86},{"user_id":574,"name":"Culprit Shy","steam_id":76561198206506481,"connected_time":439000000000,"state":"active","ping":44},{"user_id":518,"name":"Captain Buggy","steam_id":76561198024444448,"connected_time":4398000000000,"state":"active","ping":64},{"user_id":560,"name":"Fgtfv567","steam_id":76561198071022525,"connected_time":1663000000000,"state":"active","ping":53},{"user_id":523,"name":"green bean","steam_id":76561198113099204,"connected_time":4148000000000,"state":"active","ping":36},{"user_id":575,"name":"b","steam_id":76561198156336213,"connected_time":174000000000,"state":"active","ping":55},{"user_id":551,"name":"thunderous prophet","steam_id":76561198131166135,"connected_time":1904000000000,"state":"active","ping":53},{"user_id":552,"name":"HuckleBerrySpinn","steam_id":76561198125651806,"connected_time":1904000000000,"state":"active","ping":67},{"user_id":483,"name":"Swag6","steam_id":76561198064110837,"connected_time":6762000000000,"state":"active","ping":46},{"user_id":553,"name":"Swag3","steam_id":76561198056166863,"connected_time":1896000000000,"state":"active","ping":49},{"user_id":565,"name":"Zorlovo","steam_id":76561198006443283,"connected_time":1359000000000,"state":"active","ping":87},{"user_id":484,"name":"Swag5","steam_id":76561198065311356,"connected_time":6756000000000,"state":"active","ping":49},{"user_id":571,"name":"summer ant","steam_id":76561198340389876,"connected_time":1094000000000,"state":"active","ping":62},{"user_id":572,"name":"5kPrime","steam_id":76561198039471915,"connected_time":1082000000000,"state":"active","ping":70},{"user_id":504,"name":"freyja","steam_id":76561198012480197,"connected_time":5047000000000,"state":"active","ping":43},{"user_id":506,"name":"Grassman (Cc)","steam_id":76561198026488532,"connected_time":5038000000000,"state":"active","ping":50},{"user_id":540,"name":"Blanke","steam_id":76561198064100364,"connected_time":2528000000000,"state":"active","ping":121},{"user_id":529,"name":"Buswolley","steam_id":76561197995205571,"connected_time":2844000000000,"state":"active","ping":52},{"user_id":573,"name":"Nine Inch Иipples","steam_id":76561198149413947,"connected_time":513000000000,"state":"active","ping":59},{"user_id":526,"name":"spurious george","steam_id":76561198043558709,"connected_time":4015000000000,"state":"active","ping":75},{"user_id":558,"name":"I am the pinnacle of funny","steam_id":76561198306393090,"connected_time":1800000000000,"state":"active","ping":86},{"user_id":559,"name":"Booxy","steam_id":76561197999872470,"connected_time":1792000000000,"state":"active","ping":77},{"user_id":528,"name":"illness","steam_id":76561198200749235,"connected_time":2913000000000,"state":"active","ping":48}]},{"server_id":19,"name":"Uncletopia | San Francisco | 3 | Stopwatch","name_short":"sfo-3","host":"sfo-1.us.uncletopia.com","port":27035,"enabled":true,"region":"us-west","cc":"us","latitude":37.77397,"longitude":-122.4313,"reserved":0,"last_update":"0001-01-01T00:00:00Z","name_a2s":"Uncletopia | San Francisco | 3 | Stopwatch","protocol":17,"map":"workshop/cp_reckoner_rc6.ugc674719999","folder":"tf","game":"Team Fortress","app_id":440,"player_count":0,"max_players":24,"Bots":0,"server_type":"Dedicated","server_os":"Linux","password":true,"vac":true,"version":"7961495","steam_id":85568392924742824,"keywords":["cp","nocrits","nodmgspread","uncletopia"],"game_id":440,"stv_port":27036,"stv_name":"Uncletopia | San Francisco | 3 | Stopwatch | STV","players":null},{"server_id":20,"name":"Uncletopia | San Francisco | 4 | Community","name_short":"sfo-4","host":"sfo-1.us.uncletopia.com","port":27045,"enabled":true,"region":"us-west","cc":"us","latitude":37.77397,"longitude":-122.4313,"reserved":0,"last_update":"0001-01-01T00:00:00Z","name_a2s":"Uncletopia | San Francisco | 4 | Community","protocol":17,"map":"workshop/cp_logjam_rc12.ugc454812035","folder":"tf","game":"Team Fortress","app_id":440,"player_count":0,"max_players":24,"Bots":0,"server_type":"Dedicated","server_os":"Linux","password":true,"vac":true,"version":"7961495","steam_id":85568392924742826,"keywords":["cp","nocrits","nodmgspread","uncletopia"],"game_id":440,"stv_port":27046,"stv_name":"Uncletopia | San Francisco | 4 | Community | STV","players":null},{"server_id":141,"name":"Uncletopia | Sydney | 1 | All Maps","name_short":"syd-1","host":"syd-1.au.uncletopia.com","port":27015,"enabled":true,"region":"au","cc":"au","latitude":-33.865143,"longitude":151.2099,"reserved":0,"last_update":"0001-01-01T00:00:00Z","name_a2s":"Uncletopia | Sydney | 1 | All Maps","protocol":17,"map":"plr_bananabay","folder":"tf","game":"Team Fortress","app_id":440,"player_count":20,"max_players":24,"Bots":0,"server_type":"Dedicated","server_os":"Linux","password":true,"vac":true,"version":"7961495","steam_id":85568392924470001,"keywords":["nocrits","nodmgspread","payload","uncletopia"],"game_id":440,"stv_port":27016,"stv_name":"Uncletopia | Sydney | 1 | All Maps | STV","players":[{"user_id":24,"name":"JP","steam_id":76561198026221737,"connected_time":4216000000000,"state":"active","ping":45},{"user_id":40,"name":"Sir Bigg","steam_id":76561199080759165,"connected_time":2303000000000,"state":"active","ping":62},{"user_id":50,"name":"Sapphie4K","steam_id":76561198442369367,"connected_time":1729000000000,"state":"active","ping":48},{"user_id":27,"name":"bread","steam_id":76561199405764106,"connected_time":3781000000000,"state":"active","ping":42},{"user_id":54,"name":"Uncle_Bowlcut","steam_id":76561198225191728,"connected_time":1276000000000,"state":"active","ping":56},{"user_id":58,"name":"ly","steam_id":76561198303878229,"connected_time":872000000000,"state":"active","ping":59},{"user_id":34,"name":"Jeshī","steam_id":76561198105982416,"connected_time":3520000000000,"state":"active","ping":48},{"user_id":52,"name":"lavanderpumpernickle(Del Davis)","steam_id":76561199093611800,"connected_time":1432000000000,"state":"active","ping":60},{"user_id":41,"name":"make like a tree and Keith","steam_id":76561198301282416,"connected_time":2269000000000,"state":"active","ping":50},{"user_id":62,"name":"Sheen","steam_id":76561198208930657,"connected_time":569000000000,"state":"active","ping":55},{"user_id":69,"name":"austinsmith","steam_id":76561198167838540,"connected_time":110000000000,"state":"active","ping":295},{"user_id":59,"name":"burfdae boi","steam_id":76561199000827969,"connected_time":866000000000,"state":"active","ping":42},{"user_id":46,"name":"Foxivan","steam_id":76561198428775175,"connected_time":2016000000000,"state":"active","ping":62},{"user_id":47,"name":"please be patient i have autism","steam_id":76561199219741520,"connected_time":1960000000000,"state":"active","ping":101},{"user_id":60,"name":"Joemamasburg","steam_id":76561198079351541,"connected_time":700000000000,"state":"active","ping":45},{"user_id":57,"name":"Zeppy","steam_id":76561198074766231,"connected_time":1167000000000,"state":"active","ping":72},{"user_id":61,"name":"alqwnq","steam_id":76561198133867907,"connected_time":666000000000,"state":"active","ping":60},{"user_id":64,"name":"Sunfish_TV","steam_id":76561198253763443,"connected_time":452000000000,"state":"active","ping":48},{"user_id":68,"name":"buggybones jones","steam_id":76561198025099660,"connected_time":129000000000,"state":"active","ping":34},{"user_id":71,"name":"dinxie","steam_id":76561199448765541,"connected_time":21000000000,"state":"spawning","ping":55}]},{"server_id":123,"name":"Uncletopia | Sydney | 2 | All Maps","name_short":"syd-2","host":"syd-1.au.uncletopia.com","port":27025,"enabled":true,"region":"au","cc":"au","latitude":-33.865143,"longitude":151.2099,"reserved":0,"last_update":"0001-01-01T00:00:00Z","name_a2s":"Uncletopia | Sydney | 2 | All Maps","protocol":17,"map":"koth_lakeside_final","folder":"tf","game":"Team Fortress","app_id":440,"player_count":0,"max_players":24,"Bots":0,"server_type":"Dedicated","server_os":"Linux","password":true,"vac":true,"version":"7961495","steam_id":85568392924470002,"keywords":["cp","nocrits","nodmgspread","uncletopia"],"game_id":440,"stv_port":27026,"stv_name":"Uncletopia | Sydney | 2 | All Maps | STV","players":null},{"server_id":395,"name":"Uncletopia | Sydney | 3 | All Maps","name_short":"syd-3","host":"syd-1.au.uncletopia.com","port":27035,"enabled":true,"region":"au","cc":"au","latitude":-33.865143,"longitude":151.2099,"reserved":0,"last_update":"0001-01-01T00:00:00Z","name_a2s":"Uncletopia | Sydney | 3 | All Maps","protocol":17,"map":"pl_frontier_final","folder":"tf","game":"Team Fortress","app_id":440,"player_count":2,"max_players":24,"Bots":0,"server_type":"Dedicated","server_os":"Linux","password":true,"vac":true,"version":"7961495","steam_id":85568392925194467,"keywords":["nocrits","nodmgspread","payload","uncletopia"],"game_id":440,"stv_port":27036,"stv_name":"Uncletopia | Sydney | 3 | All Maps | STV","players":[{"user_id":4,"name":"MrOrange","steam_id":76561198199498401,"connected_time":840000000000,"state":"active","ping":32},{"user_id":5,"name":"Blain","steam_id":76561198450542904,"connected_time":820000000000,"state":"active","ping":54}]},{"server_id":396,"name":"Uncletopia | Sydney | 4 | All Maps","name_short":"syd-4","host":"syd-1.au.uncletopia.com","port":27045,"enabled":true,"region":"au","cc":"au","latitude":-33.865143,"longitude":151.2099,"reserved":0,"last_update":"0001-01-01T00:00:00Z","name_a2s":"Uncletopia | Sydney | 4 | All Maps","protocol":17,"map":"pl_upward","folder":"tf","game":"Team Fortress","app_id":440,"player_count":0,"max_players":24,"Bots":0,"server_type":"Dedicated","server_os":"Linux","password":true,"vac":true,"version":"7961495","steam_id":85568392925397958,"keywords":["nocrits","nodmgspread","payload","uncletopia"],"game_id":440,"stv_port":27046,"stv_name":"Uncletopia | Sydney | 4 | All Maps | STV","players":null},{"server_id":58,"name":"Uncletopia | Sydney | 5 | Stopwatch","name_short":"syd-5","host":"syd-1.au.uncletopia.com","port":27055,"enabled":true,"region":"au","cc":"au","latitude":-33.865143,"longitude":151.2099,"reserved":0,"last_update":"0001-01-01T00:00:00Z","name_a2s":"Uncletopia | Sydney | 5 | Stopwatch","protocol":17,"map":"workshop/koth_ramjam_rc1.ugc459778887","folder":"tf","game":"Team Fortress","app_id":440,"player_count":0,"max_players":24,"Bots":0,"server_type":"Dedicated","server_os":"Linux","password":true,"vac":true,"version":"7961495","steam_id":85568392925397959,"keywords":["cp","nocrits","nodmgspread","uncletopia"],"game_id":440,"stv_port":27056,"stv_name":"Uncletopia | Sydney | 5 | Stopwatch | STV","players":null},{"server_id":59,"name":"Uncletopia | Sydney | 6 | Community","name_short":"syd-6","host":"syd-1.au.uncletopia.com","port":27065,"enabled":true,"region":"au","cc":"au","latitude":-33.865143,"longitude":151.2099,"reserved":0,"last_update":"0001-01-01T00:00:00Z","name_a2s":"Uncletopia | Sydney | 6 | Community","protocol":17,"map":"workshop/rd_asteroid_redux_b1.ugc2154902912","folder":"tf","game":"Team Fortress","app_id":440,"player_count":0,"max_players":24,"Bots":0,"server_type":"Dedicated","server_os":"Linux","password":true,"vac":true,"version":"7961495","steam_id":85568392925397960,"keywords":["beta","nocrits","nodmgspread","rd","uncletopia"],"game_id":440,"stv_port":27066,"stv_name":"Uncletopia | Sydney | 6 | Community | STV","players":null},{"server_id":49,"name":"Uncletopia | Warsaw | 1 | All Maps","name_short":"waw-1","host":"waw-1.pl.uncletopia.com","port":27015,"enabled":true,"region":"eu","cc":"pl","latitude":52.2297,"longitude":21.017532,"reserved":0,"last_update":"0001-01-01T00:00:00Z","name_a2s":"Uncletopia | Warsaw | 1 | All Maps","protocol":17,"map":"koth_highpass","folder":"tf","game":"Team Fortress","app_id":440,"player_count":0,"max_players":24,"Bots":0,"server_type":"Dedicated","server_os":"Linux","password":true,"vac":true,"version":"7961495","steam_id":85568392925397850,"keywords":["cp","nocrits","nodmgspread","uncletopia"],"game_id":440,"stv_port":27016,"stv_name":"Uncletopia | Warsaw | 1 | All Maps | STV","players":null},{"server_id":50,"name":"Uncletopia | Warsaw | 2 | All Maps","name_short":"waw-2","host":"waw-1.pl.uncletopia.com","port":27025,"enabled":true,"region":"eu","cc":"pl","latitude":52.2297,"longitude":21.017532,"reserved":0,"last_update":"0001-01-01T00:00:00Z","name_a2s":"Uncletopia | Warsaw | 2 | All Maps","protocol":17,"map":"koth_highpass","folder":"tf","game":"Team Fortress","app_id":440,"player_count":0,"max_players":24,"Bots":0,"server_type":"Dedicated","server_os":"Linux","password":true,"vac":true,"version":"7961495","steam_id":85568392925397851,"keywords":["cp","nocrits","nodmgspread","uncletopia"],"game_id":440,"stv_port":27026,"stv_name":"Uncletopia | Warsaw | 2 | All Maps | STV","players":null},{"server_id":51,"name":"Uncletopia | Warsaw | 3 | All Maps","name_short":"waw-3","host":"waw-1.pl.uncletopia.com","port":27035,"enabled":true,"region":"eu","cc":"pl","latitude":52.2297,"longitude":21.017532,"reserved":0,"last_update":"0001-01-01T00:00:00Z","name_a2s":"Uncletopia | Warsaw | 3 | All Maps","protocol":17,"map":"koth_viaduct","folder":"tf","game":"Team Fortress","app_id":440,"player_count":0,"max_players":24,"Bots":0,"server_type":"Dedicated","server_os":"Linux","password":true,"vac":true,"version":"7961495","steam_id":85568392925397852,"keywords":["cp","nocrits","nodmgspread","uncletopia"],"game_id":440,"stv_port":27036,"stv_name":"Uncletopia | Warsaw | 3 | All Maps | STV","players":null},{"server_id":52,"name":"Uncletopia | Warsaw | 4 | All Maps","name_short":"waw-4","host":"waw-1.pl.uncletopia.com","port":27045,"enabled":true,"region":"eu","cc":"pl","latitude":52.2297,"longitude":21.017532,"reserved":0,"last_update":"0001-01-01T00:00:00Z","name_a2s":"Uncletopia | Warsaw | 4 | All Maps","protocol":17,"map":"cp_altitude","folder":"tf","game":"Team Fortress","app_id":440,"player_count":0,"max_players":24,"Bots":0,"server_type":"Dedicated","server_os":"Linux","password":true,"vac":true,"version":"7961495","steam_id":85568392925397853,"keywords":["cp","nocrits","nodmgspread","uncletopia"],"game_id":440,"stv_port":27046,"stv_name":"Uncletopia | Warsaw | 4 | All Maps | STV","players":null},{"server_id":53,"name":"Uncletopia | Warsaw | 5 | Stopwatch","name_short":"waw-5","host":"waw-1.pl.uncletopia.com","port":27055,"enabled":true,"region":"eu","cc":"pl","latitude":52.2297,"longitude":21.017532,"reserved":0,"last_update":"0001-01-01T00:00:00Z","name_a2s":"Uncletopia | Warsaw | 5 | Stopwatch","protocol":17,"map":"cp_granary","folder":"tf","game":"Team Fortress","app_id":440,"player_count":0,"max_players":24,"Bots":0,"server_type":"Dedicated","server_os":"Linux","password":true,"vac":true,"version":"7961495","steam_id":85568392925397854,"keywords":["cp","nocrits","nodmgspread","uncletopia"],"game_id":440,"stv_port":27056,"stv_name":"Uncletopia | Warsaw | 5 | Stopwatch | STV","players":null},{"server_id":54,"name":"Uncletopia | Warsaw | 6 | Community","name_short":"waw-6","host":"waw-1.pl.uncletopia.com","port":27065,"enabled":true,"region":"eu","cc":"pl","latitude":52.2297,"longitude":21.017532,"reserved":0,"last_update":"0001-01-01T00:00:00Z","name_a2s":"Uncletopia | Warsaw | 6 | Community","protocol":17,"map":"workshop/cp_hazyfort_rc6.ugc1365963729","folder":"tf","game":"Team Fortress","app_id":440,"player_count":0,"max_players":24,"Bots":0,"server_type":"Dedicated","server_os":"Linux","password":true,"vac":true,"version":"7961495","steam_id":85568392925397856,"keywords":["cp","nocrits","nodmgspread","uncletopia"],"game_id":440,"stv_port":27066,"stv_name":"Uncletopia | Warsaw | 6 | Community | STV","players":null}]}