{"status":true,"message":"","result":[{"server_id":9,"name":"Uncletopia | Atlanta | 1 | All Maps","name_short":"atl-1","host":"atl-1.us.uncletopia.com","port":27015,"enabled":true,"region":"us-east","cc":"us","latitude":33.753746,"longitude":-84.38633,"reserved":0,"last_update":"0001-01-01T00:00:00Z","name_a2s":"Uncletopia | Atlanta | 1 | All Maps","protocol":17,"map":"koth_highpass","folder":"tf","game":"Team Fortress","app_id":440,"player_count":0,"max_players":24,"Bots":0,"server_type":"Dedicated","server_os":"Linux","password":true,"vac":true,"version":"7757534","steam_id":85568392924469982,"keywords":["cp","nocrits","nodmgspread","uncletopia"],"game_id":440,"stv_port":27016,"stv_name":"Uncletopia | Atlanta | 1 | All Maps | STV","players":null},{"server_id":400,"name":"Uncletopia | Atlanta | 3 | Community","name_short":"atl-3","host":"atl-1.us.uncletopia.com","port":27035,"enabled":true,"region":"us-east","cc":"us","latitude":33.753746,"longitude":-84.38633,"reserved":0,"last_update":"0001-01-01T00:00:00Z","name_a2s":"Uncletopia | Atlanta | 3 | Community","protocol":17,"map":"workshop/cp_reckoner_rc6.ugc674719999","folder":"tf","game":"Team Fortress","app_id":440,"player_count":0,"max_players":24,"Bots":0,"server_type":"Dedicated","server_os":"Linux","password":true,"vac":true,"version":"7757534","steam_id":85568392924515187,"keywords":["cp","nocrits","nodmgspread","uncletopia"],"game_id":440,"stv_port":27036,"stv_name":"Uncletopia | Atlanta | 3 | Community | STV","players":null},{"server_id":401,"name":"Uncletopia | Atlanta | 4 | No Payload","name_short":"atl-4","host":"atl-1.us.uncletopia.com","port":27045,"enabled":true,"region":"us-east","cc":"us","latitude":33.753746,"longitude":-84.38633,"reserved":0,"last_update":"0001-01-01T00:00:00Z","name_a2s":"","protocol":0,"map":"","folder":"","game":"","app_id":0,"player_count":0,"max_players":0,"Bots":0,"server_type":"","server_os":"","password":false,"vac":false,"version":"","steam_id":0,"keywords":null,"game_id":0,"stv_port":0,"stv_name":"","players":null},{"server_id":2,"name":"Uncletopia | Chicago | 1 | All Maps","name_short":"chi-1","host":"chi-1.us.uncletopia.com","port":27015,"enabled":true,"region":"us-central","cc":"us","latitude":41.881832,"longitude":-87.62318,"reserved":0,"last_update":"0001-01-01T00:00:00Z","name_a2s":"Uncletopia | Chicago | 1 | All Maps","protocol":17,"map":"pl_frontier_final","folder":"tf","game":"Team Fortress","app_id":440,"player_count":24,"max_players":24,"Bots":0,"server_type":"Dedicated","server_os":"Linux","password":true,"vac":true,"version":"7757534","steam_id":85568392924469984,"keywords":["nocrits","nodmgspread","payload","uncletopia"],"game_id":440,"stv_port":27016,"stv_name":"Uncletopia | Chicago | 1 | All Maps | STV","players":[{"user_id":720,"name":"Hindmost","steam_id":76561199081837220,"connected_time":3598000000000,"state":"active","ping":80},{"user_id":774,"name":"ocky","steam_id":76561198313049944,"connected_time":303000000000,"state":"active","ping":110},{"user_id":767,"name":"AlaNo","steam_id":76561198133099582,"connected_time":440000000000,"state":"active","ping":106},{"user_id":733,"name":"LerN","steam_id":76561198083463877,"connected_time":3132000000000,"state":"active","ping":52},{"user_id":765,"name":"Saldaña","steam_id":76561198214473001,"connected_time":467000000000,"state":"active","ping":88},{"user_id":777,"name":"vivid but the bad","steam_id":76561198296879897,"connected_time":180000000000,"state":"active","ping":75},{"user_id":778,"name":"El pandora","steam_id":76561198075490385,"connected_time":82000000000,"state":"active","ping":96},{"user_id":757,"name":"starfungus","steam_id":76561198158312789,"connected_time":1263000000000,"state":"active","ping":75},{"user_id":727,"name":"harlowng","steam_id":76561198060542928,"connected_time":3314000000000,"state":"active","ping":121},{"user_id":691,"name":"white ray","steam_id":76561198026664629,"connected_time":6375000000000,"state":"active","ping":55},{"user_id":730,"name":"reis","steam_id":76561199232952016,"connected_time":3219000000000,"state":"active","ping":191},{"user_id":769,"name":"Jkbh1","steam_id":76561198093449670,"connected_time":411000000000,"state":"active","ping":102},{"user_id":728,"name":"BUDWARD","steam_id":76561198014832479,"connected_time":3310000000000,"state":"active","ping":50},{"user_id":686,"name":"World Famous Skater Sean Pablo","steam_id":76561197999261387,"connected_time":6488000000000,"state":"active","ping":83},{"user_id":718,"name":"rudy","steam_id":76561198088712799,"connected_time":3775000000000,"state":"active","ping":72},{"user_id":742,"name":"bash -lc ./asshat.sh","steam_id":76561198004584315,"connected_time":2415000000000,"state":"active","ping":67},{"user_id":758,"name":"sweaterfan","steam_id":76561199389567214,"connected_time":1116000000000,"state":"active","ping":63},{"user_id":755,"name":"YeetethYoteth","steam_id":76561198957396090,"connected_time":1420000000000,"state":"active","ping":92},{"user_id":771,"name":"Sarah","steam_id":76561199013702818,"connected_time":388000000000,"state":"active","ping":160},{"user_id":750,"name":"Enchanced","steam_id":76561198797393854,"connected_time":1565000000000,"state":"active","ping":144},{"user_id":772,"name":"how do i control my guy?","steam_id":76561198158855211,"connected_time":372000000000,"state":"active","ping":99},{"user_id":731,"name":"ryghehn","steam_id":76561198195359229,"connected_time":3196000000000,"state":"active","ping":75},{"user_id":732,"name":"Kzjytsugn","steam_id":76561198130241974,"connected_time":3180000000000,"state":"active","ping":98},{"user_id":776,"name":"jello","steam_id":76561198094320477,"connected_time":213000000000,"state":"active","ping":79}]},{"server_id":106,"name":"Uncletopia | Chicago | 2 | All Maps","name_short":"chi-2","host":"chi-1.us.uncletopia.com","port":27025,"enabled":true,"region":"us-central","cc":"us","latitude":41.881832,"longitude":-87.62318,"reserved":0,"last_update":"0001-01-01T00:00:00Z","name_a2s":"Uncletopia | Chicago | 2 | All Maps","protocol":17,"map":"pl_frontier_final","folder":"tf","game":"Team Fortress","app_id":440,"player_count":0,"max_players":24,"Bots":0,"server_type":"Dedicated","server_os":"Linux","password":true,"vac":true,"version":"7757534","steam_id":85568392924469985,"keywords":["nocrits","nodmgspread","payload","uncletopia"],"game_id":440,"stv_port":27026,"stv_name":"Uncletopia | Chicago | 2 | All Maps | STV","players":null},{"server_id":402,"name":"Uncletopia | Chicago | 3 | All Maps","name_short":"chi-3","host":"chi-1.us.uncletopia.com","port":27035,"enabled":true,"region":"us-central","cc":"us","latitude":41.881832,"longitude":-87.62318,"reserved":0,"last_update":"0001-01-01T00:00:00Z","name_a2s":"Uncletopia | Chicago | 3 | All Maps","protocol":17,"map":"cp_powerhouse","folder":"tf","game":"Team Fortress","app_id":440,"player_count":24,"max_players":24,"Bots":0,"server_type":"Dedicated","server_os":"Linux","password":true,"vac":true,"version":"7757534","steam_id":85568392924515191,"keywords":["cp","nocrits","nodmgspread","uncletopia"],"game_id":440,"stv_port":27036,"stv_name":"Uncletopia | Chicago | 3 | All Maps | STV","players":[{"user_id":677,"name":"ScoutBox","steam_id":76561198111539895,"connected_time":1142000000000,"state":"active","ping":92},{"user_id":637,"name":"Jack Studs","steam_id":76561198803014281,"connected_time":3990000000000,"state":"active","ping":77},{"user_id":666,"name":"frizzle fried","steam_id":76561198062991744,"connected_time":1631000000000,"state":"active","ping":64},{"user_id":649,"name":"big oog corp","steam_id":76561198138221795,"connected_time":3126000000000,"state":"active","ping":73},{"user_id":682,"name":"Slug Warrior","steam_id":76561197996052704,"connected_time":540000000000,"state":"active","ping":79},{"user_id":577,"name":"Maj. Problem","steam_id":76561198240148840,"connected_time":8587000000000,"state":"active","ping":85},{"user_id":685,"name":"CheeseCake488","steam_id":76561199407617942,"connected_time":385000000000,"state":"active","ping":141},{"user_id":594,"name":"cixcin","steam_id":76561199215821942,"connected_time":6919000000000,"state":"active","ping":67},{"user_id":684,"name":"wabba doo","steam_id":76561198867130576,"connected_time":446000000000,"state":"active","ping":67},{"user_id":664,"name":"Galvatron","steam_id":76561198093688740,"connected_time":1870000000000,"state":"active","ping":71},{"user_id":595,"name":"i luv fat bitches","steam_id":76561198038291026,"connected_time":6918000000000,"state":"active","ping":54},{"user_id":624,"name":"⊰Aero⊱","steam_id":76561198084648457,"connected_time":4898000000000,"state":"active","ping":65},{"user_id":652,"name":"【Crime】","steam_id":76561198319631200,"connected_time":2956000000000,"state":"active","ping":113},{"user_id":667,"name":"Wockheim Bingsley","steam_id":76561198077872443,"connected_time":1618000000000,"state":"active","ping":82},{"user_id":671,"name":"king of bogers","steam_id":76561198045731295,"connected_time":1524000000000,"state":"active","ping":77},{"user_id":668,"name":"Honest Tunnel Salesman","steam_id":76561198059071100,"connected_time":1594000000000,"state":"active","ping":70},{"user_id":669,"name":"floofy","steam_id":76561198389769098,"connected_time":1590000000000,"state":"active","ping":75},{"user_id":689,"name":"chickenman400","steam_id":76561198304265800,"connected_time":203000000000,"state":"active","ping":87},{"user_id":687,"name":"samantha","steam_id":76561198299290069,"connected_time":349000000000,"state":"active","ping":76},{"user_id":643,"name":"Kromeousible","steam_id":76561198087317232,"connected_time":3655000000000,"state":"active","ping":85},{"user_id":678,"name":"PaintMyMeow","steam_id":76561198056860387,"connected_time":1126000000000,"state":"active","ping":70},{"user_id":688,"name":"OldFishPool","steam_id":76561198126632005,"connected_time":296000000000,"state":"active","ping":55},{"user_id":680,"name":"munke","steam_id":76561198053092437,"connected_time":634000000000,"state":"active","ping":105},{"user_id":674,"name":"Chip_Chip","steam_id":76561198113757111,"connected_time":1421000000000,"state":"active","ping":78}]},{"server_id":403,"name":"Uncletopia | Chicago | 4 | All Maps","name_short":"chi-4","host":"chi-1.us.uncletopia.com","port":27045,"enabled":true,"region":"us-central","cc":"us","latitude":41.881832,"longitude":-87.62318,"reserved":0,"last_update":"0001-01-01T00:00:00Z","name_a2s":"Uncletopia | Chicago | 4 | All Maps","protocol":17,"map":"koth_cascade","folder":"tf","game":"Team Fortress","app_id":440,"player_count":0,"max_players":24,"Bots":0,"server_type":"Dedicated","server_os":"Linux","password":true,"vac":true,"version":"7757534","steam_id":85568392924515193,"keywords":["cp","nocrits","nodmgspread","uncletopia"],"game_id":440,"stv_port":27046,"stv_name":"Uncletopia | Chicago | 4 | All Maps | STV","players":null},{"server_id":36,"name":"Uncletopia | Chicago | 5 | All Maps","name_short":"chi-5","host":"chi-2.us.uncletopia.com","port":27015,"enabled":true,"region":"us-central","cc":"us","latitude":41.881832,"longitude":-87.62318,"reserved":0,"last_update":"0001-01-01T00:00:00Z","name_a2s":"Uncletopia | Chicago | 5 | All Maps","protocol":17,"map":"pl_upward","folder":"tf","game":"Team Fortress","app_id":440,"player_count":0,"max_players":24,"Bots":0,"server_type":"Dedicated","server_os":"Linux","password":true,"vac":true,"version":"7757534","steam_id":85568392924866362,"keywords":["nocrits","nodmgspread","payload","uncletopia"],"game_id":440,"stv_port":27016,"stv_name":"Uncletopia | Chicago | 5 | All Maps | STV","players":null},{"server_id":37,"name":"Uncletopia | Chicago | 6 | All Maps","name_short":"chi-6","host":"chi-2.us.uncletopia.com","port":27025,"enabled":true,"region":"us-central","cc":"us","latitude":41.881832,"longitude":-87.62318,"reserved":0,"last_update":"0001-01-01T00:00:00Z","name_a2s":"Uncletopia | Chicago | 6 | All Maps","protocol":17,"map":"koth_cascade","folder":"tf","game":"Team Fortress","app_id":440,"player_count":0,"max_players":24,"Bots":0,"server_type":"Dedicated","server_os":"Linux","password":true,"vac":true,"version":"7757534","steam_id":85568392924866363,"keywords":["cp","nocrits","nodmgspread","uncletopia"],"game_id":440,"stv_port":27026,"stv_name":"Uncletopia | Chicago | 6 | All Maps | STV","players":null},{"server_id":38,"name":"Uncletopia | Chicago | 7 | Stopwatch Beta","name_short":"chi-7","host":"chi-2.us.uncletopia.com","port":27035,"enabled":true,"region":"us-central","cc":"us","latitude":41.881832,"longitude":-87.62318,"reserved":0,"last_update":"0001-01-01T00:00:00Z","name_a2s":"Uncletopia | Chicago | 7 | Stopwatch Beta","protocol":17,"map":"pl_swiftwater_final1","folder":"tf","game":"Team Fortress","app_id":440,"player_count":0,"max_players":24,"Bots":0,"server_type":"Dedicated","server_os":"Linux","password":true,"vac":true,"version":"7757534","steam_id":85568392924866364,"keywords":["nocrits","nodmgspread","payload","uncletopia"],"game_id":440,"stv_port":27036,"stv_name":"Uncletopia | Chicago | 7 | Stopwatch Beta | STV","players":null},{"server_id":39,"name":"Uncletopia | Chicago | 8 | Community","name_short":"chi-8","host":"chi-2.us.uncletopia.com","port":27045,"enabled":true,"region":"us-central","cc":"us","latitude":41.881832,"longitude":-87.62318,"reserved":0,"last_update":"0001-01-01T00:00:00Z","name_a2s":"Uncletopia | Chicago | 8 | Community","protocol":17,"map":"workshop/koth_trenchfoot_b1a.ugc731436616","folder":"tf","game":"Team Fortress","app_id":440,"player_count":0,"max_players":24,"Bots":0,"server_type":"Dedicated","server_os":"Linux","password":true,"vac":true,"version":"7757534","steam_id":85568392924866365,"keywords":["cp","nocrits","nodmgspread","uncletopia"],"game_id":440,"stv_port":27046,"stv_name":"Uncletopia | Chicago | 8 | Community | STV","players":null},{"server_id":8,"name":"Uncletopia | Dallas | 1 | All Maps","name_short":"dal-1","host":"dal-1.us.uncletopia.com","port":27015,"enabled":true,"region":"us-central","cc":"us","latitude":32.779167,"longitude":-96.80889,"reserved":0,"last_update":"0001-01-01T00:00:00Z","name_a2s":"Uncletopia | Dallas | 1 | All Maps","protocol":17,"map":"cp_steel","folder":"tf","game":"Team Fortress","app_id":440,"player_count":24,"max_players":24,"Bots":0,"server_type":"Dedicated","server_os":"Linux","password":true,"vac":true,"version":"7757534","steam_id":85568392924469986,"keywords":["cp","nocrits","nodmgspread","uncletopia"],"game_id":440,"stv_port":27016,"stv_name":"Uncletopia | Dallas | 1 | All Maps | STV","players":[{"user_id":451,"name":"ansoonii","steam_id":76561198092494136,"connected_time":239000000000,"state":"active","ping":46},{"user_id":440,"name":"Salad","steam_id":76561198298056979,"connected_time":828000000000,"state":"active","ping":103},{"user_id":448,"name":"Riske","steam_id":76561198115840568,"connected_time":522000000000,"state":"active","ping":90},{"user_id":432,"name":"BotchyAlarm8","steam_id":76561198092682129,"connected_time":1473000000000,"state":"active","ping":93},{"user_id":442,"name":"Shpadukin","steam_id":76561198160248914,"connected_time":788000000000,"state":"active","ping":90},{"user_id":450,"name":"ZanoSkull","steam_id":76561198095644372,"connected_time":337000000000,"state":"active","ping":77},{"user_id":419,"name":"lost in spaaaaace","steam_id":76561199085974120,"connected_time":2906000000000,"state":"active","ping":85},{"user_id":444,"name":"FCKGW-RHQQ2-YXRKT-8TG6W-2B7Q8","steam_id":76561197993138592,"connected_time":584000000000,"state":"active","ping":91},{"user_id":407,"name":"The Announcer's Feet","steam_id":76561199443456893,"connected_time":4415000000000,"state":"active","ping":78},{"user_id":384,"name":"Bliztank | RGL.gg","steam_id":76561198019252798,"connected_time":5313000000000,"state":"active","ping":73},{"user_id":441,"name":"Waltuh","steam_id":76561198278185182,"connected_time":825000000000,"state":"active","ping":87},{"user_id":438,"name":"Major Johnson","steam_id":76561198320929220,"connected_time":949000000000,"state":"active","ping":75},{"user_id":436,"name":"Steak-Pocketer","steam_id":76561198277651410,"connected_time":998000000000,"state":"active","ping":60},{"user_id":445,"name":"ItsDifficultttt","steam_id":76561199402730529,"connected_time":583000000000,"state":"active","ping":70},{"user_id":385,"name":"C papi","steam_id":76561198027779564,"connected_time":5307000000000,"state":"active","ping":63},{"user_id":417,"name":"Schloog","steam_id":76561198173609873,"connected_time":3106000000000,"state":"active","ping":102},{"user_id":452,"name":"John Dungus (the real one)","steam_id":76561198049191027,"connected_time":235000000000,"state":"active","ping":73},{"user_id":453,"name":"Feleeg","steam_id":76561198452866612,"connected_time":160000000000,"state":"active","ping":88},{"user_id":454,"name":"Deltaco","steam_id":76561198094572694,"connected_time":113000000000,"state":"active","ping":121},{"user_id":455,"name":"J The Jounin","steam_id":76561198034583622,"connected_time":67000000000,"state":"active","ping":95},{"user_id":447,"name":"RUSTY","steam_id":76561198056214875,"connected_time":572000000000,"state":"active","ping":83},{"user_id":449,"name":"GHOULICH","steam_id":76561198080497722,"connected_time":521000000000,"state":"active","ping":89},{"user_id":428,"name":"The Engie","steam_id":76561198049418537,"connected_time":1891000000000,"state":"active","ping":58},{"user_id":456,"name":"YES YES YES","steam_id":76561198969592244,"connected_time":38000000000,"state":"spawning","ping":93}]},{"server_id":108,"name":"Uncletopia | Dallas | 2 | All Maps","name_short":"dal-2","host":"dal-1.us.uncletopia.com","port":27025,"enabled":true,"region":"us-central","cc":"us","latitude":32.779167,"longitude":-96.80889,"reserved":0,"last_update":"0001-01-01T00:00:00Z","name_a2s":"Uncletopia | Dallas | 2 | All Maps","protocol":17,"map":"koth_harvest_final","folder":"tf","game":"Team Fortress","app_id":440,"player_count":2,"max_players":24,"Bots":0,"server_type":"Dedicated","server_os":"Linux","password":true,"vac":true,"version":"7757534","steam_id":85568392924469988,"keywords":["cp","nocrits","nodmgspread","uncletopia"],"game_id":440,"stv_port":27026,"stv_name":"Uncletopia | Dallas | 2 | All Maps | STV","players":[{"user_id":498,"name":"Markz","steam_id":76561197996278159,"connected_time":2681000000000,"state":"active","ping":85},{"user_id":488,"name":"bolainassr0","steam_id":76561199079078845,"connected_time":3578000000000,"state":"active","ping":93}]},{"server_id":5,"name":"Uncletopia | Frankfurt | 1 | All Maps","name_short":"frk-1","host":"frk-1.de.uncletopia.com","port":27015,"enabled":true,"region":"eu","cc":"de","latitude":50.110924,"longitude":8.682127,"reserved":0,"last_update":"0001-01-01T00:00:00Z","name_a2s":"Uncletopia | Frankfurt | 1 | All Maps","protocol":17,"map":"koth_highpass","folder":"tf","game":"Team Fortress","app_id":440,"player_count":0,"max_players":24,"Bots":0,"server_type":"Dedicated","server_os":"Linux","password":true,"vac":true,"version":"7757534","steam_id":85568392924469989,"keywords":["cp","nocrits","nodmgspread","uncletopia"],"game_id":440,"stv_port":27016,"stv_name":"Uncletopia | Frankfurt | 1 | All Maps | STV","players":null},{"server_id":110,"name":"Uncletopia | Frankfurt | 2 | All Maps","name_short":"frk-2","host":"frk-1.de.uncletopia.com","port":27025,"enabled":true,"region":"eu","cc":"de","latitude":50.110924,"longitude":8.682127,"reserved":0,"last_update":"0001-01-01T00:00:00Z","name_a2s":"Uncletopia | Frankfurt | 2 | All Maps","protocol":17,"map":"koth_lakeside_final","folder":"tf","game":"Team Fortress","app_id":440,"player_count":0,"max_players":24,"Bots":0,"server_type":"Dedicated","server_os":"Linux","password":true,"vac":true,"version":"7757534","steam_id":85568392924469990,"keywords":["cp","nocrits","nodmgspread","uncletopia"],"game_id":440,"stv_port":27026,"stv_name":"Uncletopia | Frankfurt | 2 | All Maps | STV","players":null},{"server_id":308,"name":"Uncletopia | Frankfurt | 3 | All Maps","name_short":"frk-3","host":"frk-1.de.uncletopia.com","port":27035,"enabled":true,"region":"eu","cc":"de","latitude":50.110924,"longitude":8.682127,"reserved":0,"last_update":"0001-01-01T00:00:00Z","name_a2s":"Uncletopia | Frankfurt | 3 | All Maps","protocol":17,"map":"koth_viaduct","folder":"tf","game":"Team Fortress","app_id":440,"player_count":0,"max_players":24,"Bots":0,"server_type":"Dedicated","server_os":"Linux","password":true,"vac":true,"version":"7757534","steam_id":85568392924504274,"keywords":["cp","nocrits","nodmgspread","uncletopia"],"game_id":440,"stv_port":27036,"stv_name":"Uncletopia | Frankfurt | 3 | All Maps | STV","players":null},{"server_id":309,"name":"Uncletopia | Frankfurt | 4 | All Maps","name_short":"frk-4","host":"frk-1.de.uncletopia.com","port":27045,"enabled":true,"region":"eu","cc":"de","latitude":50.110924,"longitude":8.682127,"reserved":0,"last_update":"0001-01-01T00:00:00Z","name_a2s":"Uncletopia | Frankfurt | 4 | All Maps","protocol":17,"map":"cp_altitude","folder":"tf","game":"Team Fortress","app_id":440,"player_count":0,"max_players":24,"Bots":0,"server_type":"Dedicated","server_os":"Linux","password":true,"vac":true,"version":"7757534","steam_id":85568392924504275,"keywords":["cp","nocrits","nodmgspread","uncletopia"],"game_id":440,"stv_port":27046,"stv_name":"Uncletopia | Frankfurt | 4 | All Maps | STV","players":null},{"server_id":310,"name":"Uncletopia | Frankfurt | 5 | All Maps","name_short":"frk-5","host":"frk-1.de.uncletopia.com","port":27055,"enabled":true,"region":"eu","cc":"de","latitude":50.110924,"longitude":8.682127,"reserved":0,"last_update":"0001-01-01T00:00:00Z","name_a2s":"Uncletopia | Frankfurt | 5 | All Maps","protocol":17,"map":"cp_altitude","folder":"tf","game":"Team Fortress","app_id":440,"player_count":0,"max_players":24,"Bots":0,"server_type":"Dedicated","server_os":"Linux","password":true,"vac":true,"version":"7757534","steam_id":85568392924504277,"keywords":["cp","nocrits","nodmgspread","uncletopia"],"game_id":440,"stv_port":27056,"stv_name":"Uncletopia | Frankfurt | 5 | All Maps | STV","players":null},{"server_id":311,"name":"Uncletopia | Frankfurt | 6 | All Maps","name_short":"frk-6","host":"frk-1.de.uncletopia.com","port":27065,"enabled":true,"region":"eu","cc":"de","latitude":50.110924,"longitude":8.682127,"reserved":0,"last_update":"0001-01-01T00:00:00Z","name_a2s":"Uncletopia | Frankfurt | 6 | All Maps","protocol":17,"map":"koth_highpass","folder":"tf","game":"Team Fortress","app_id":440,"player_count":0,"max_players":24,"Bots":0,"server_type":"Dedicated","server_os":"Linux","password":true,"vac":true,"version":"7757534","steam_id":85568392924504278,"keywords":["cp","nocrits","nodmgspread","uncletopia"],"game_id":440,"stv_port":27066,"stv_name":"Uncletopia | Frankfurt | 6 | All Maps | STV","players":null},{"server_id":23,"name":"Uncletopia | Frankfurt | 7 | Stopwatch Beta","name_short":"frk-7","host":"frk-1.de.uncletopia.com","port":27075,"enabled":true,"region":"eu","cc":"de","latitude":50.110924,"longitude":8.682127,"reserved":0,"last_update":"0001-01-01T00:00:00Z","name_a2s":"Uncletopia | Frankfurt | 7 | Stopwatch Beta","protocol":17,"map":"pl_frontier_final","folder":"tf","game":"Team Fortress","app_id":440,"player_count":0,"max_players":24,"Bots":0,"server_type":"Dedicated","server_os":"Linux","password":true,"vac":true,"version":"7757534","steam_id":85568392924742827,"keywords":["nocrits","nodmgspread","payload","uncletopia"],"game_id":440,"stv_port":27076,"stv_name":"Uncletopia | Frankfurt | 7 | Stopwatch Beta | STV","players":null},{"server_id":24,"name":"Uncletopia | Frankfurt | 8 | Community","name_short":"frk-8","host":"frk-1.de.uncletopia.com","port":27085,"enabled":true,"region":"eu","cc":"de","latitude":50.110924,"longitude":8.682127,"reserved":0,"last_update":"0001-01-01T00:00:00Z","name_a2s":"Uncletopia | Frankfurt | 8 | Community","protocol":17,"map":"pl_badwater","folder":"tf","game":"Team Fortress","app_id":440,"player_count":0,"max_players":24,"Bots":0,"server_type":"Dedicated","server_os":"Linux","password":true,"vac":true,"version":"7757534","steam_id":85568392924742828,"keywords":["nocrits","nodmgspread","payload","uncletopia"],"game_id":440,"stv_port":27086,"stv_name":"Uncletopia | Frankfurt | 8 | Community | STV","players":null},{"server_id":202,"name":"Uncletopia | Hong Kong | 1 | All Maps","name_short":"hgk-1","host":"hgk-1.hk.uncletopia.com","port":27015,"enabled":true,"region":"asia","cc":"hk","latitude":22.302711,"longitude":114.177216,"reserved":0,"last_update":"0001-01-01T00:00:00Z","name_a2s":"Uncletopia | Hong Kong | 1 | All Maps","protocol":17,"map":"koth_viaduct","folder":"tf","game":"Team Fortress","app_id":440,"player_count":16,"max_players":24,"Bots":0,"server_type":"Dedicated","server_os":"Linux","password":true,"vac":true,"version":"7757534","steam_id":85568392924494504,"keywords":["cp","nocrits","nodmgspread","uncletopia"],"game_id":440,"stv_port":27016,"stv_name":"Uncletopia | Hong Kong | 1 | All Maps | STV","players":[{"user_id":63,"name":"General_Goat","steam_id":76561199085601059,"connected_time":4000000000,"state":"spawning","ping":41},{"user_id":35,"name":"変態の神","steam_id":76561199017344476,"connected_time":1491000000000,"state":"active","ping":93},{"user_id":62,"name":"Momoxhien","steam_id":76561198414997429,"connected_time":50000000000,"state":"active","ping":55},{"user_id":54,"name":"bangerlop","steam_id":76561199349993627,"connected_time":165000000000,"state":"active","ping":96},{"user_id":42,"name":"Telekhine","steam_id":76561198387120618,"connected_time":647000000000,"state":"active","ping":109},{"user_id":40,"name":"Dropoutクマ","steam_id":76561199092455646,"connected_time":1318000000000,"state":"active","ping":91},{"user_id":48,"name":"domjni","steam_id":76561198287931508,"connected_time":304000000000,"state":"active","ping":57},{"user_id":44,"name":"쿠키","steam_id":76561197997220367,"connected_time":588000000000,"state":"active","ping":54},{"user_id":45,"name":"Sex","steam_id":76561198871697359,"connected_time":573000000000,"state":"active","ping":77},{"user_id":60,"name":"Mega 00F","steam_id":76561198962485791,"connected_time":83000000000,"state":"active","ping":116},{"user_id":47,"name":"善良の墨","steam_id":76561199102754539,"connected_time":507000000000,"state":"active","ping":77},{"user_id":52,"name":"Edgy","steam_id":76561199096849508,"connected_time":176000000000,"state":"active","ping":62},{"user_id":53,"name":"akithj","steam_id":76561198388712517,"connected_time":171000000000,"state":"active","ping":175},{"user_id":61,"name":"Speedie","steam_id":76561199094590287,"connected_time":78000000000,"state":"active","ping":130},{"user_id":58,"name":"Asanubi","steam_id":76561198404352831,"connected_time":101000000000,"state":"active","ping":63},{"user_id":59,"name":"sloth of the fragment clan","steam_id":76561198214192048,"connected_time":95000000000,"state":"active","ping":112}]},{"server_id":1,"name":"Uncletopia | Los Angeles | 1 | All Maps","name_short":"lax-1","host":"lax-1.us.uncletopia.com","port":27015,"enabled":true,"region":"us-west","cc":"us","latitude":33.94279,"longitude":-118.41004,"reserved":0,"last_update":"0001-01-01T00:00:00Z","name_a2s":"Uncletopia | Los Angeles | 1 | All Maps","protocol":17,"map":"koth_harvest_final","folder":"tf","game":"Team Fortress","app_id":440,"player_count":0,"max_players":24,"Bots":0,"server_type":"Dedicated","server_os":"Linux","password":true,"vac":true,"version":"7757534","steam_id":85568392924469991,"keywords":["cp","nocrits","nodmgspread","uncletopia"],"game_id":440,"stv_port":27016,"stv_name":"Uncletopia | Los Angeles | 1 | All Maps | STV","players":null},{"server_id":112,"name":"Uncletopia | Los Angeles | 2 | All Maps","name_short":"lax-2","host":"lax-1.us.uncletopia.com","port":27025,"enabled":true,"region":"us-west","cc":"us","latitude":33.94279,"longitude":-118.41004,"reserved":0,"last_update":"0001-01-01T00:00:00Z","name_a2s":"Uncletopia | Los Angeles | 2 | All Maps","protocol":17,"map":"koth_cascade","folder":"tf","game":"Team Fortress","app_id":440,"player_count":0,"max_players":24,"Bots":0,"server_type":"Dedicated","server_os":"Linux","password":true,"vac":true,"version":"7757534","steam_id":85568392924469992,"keywords":["cp","nocrits","nodmgspread","uncletopia"],"game_id":440,"stv_port":27026,"stv_name":"Uncletopia | Los Angeles | 2 | All Maps | STV","players":null},{"server_id":324,"name":"Uncletopia | Los Angeles | 3 | All Maps","name_short":"lax-3","host":"lax-1.us.uncletopia.com","port":27035,"enabled":true,"region":"us-west","cc":"us","latitude":33.94279,"longitude":-118.41004,"reserved":0,"last_update":"0001-01-01T00:00:00Z","name_a2s":"Uncletopia | Los Angeles | 3 | All Maps","protocol":17,"map":"cp_dustbowl","folder":"tf","game":"Team Fortress","app_id":440,"player_count":0,"max_players":24,"Bots":0,"server_type":"Dedicated","server_os":"Linux","password":true,"vac":true,"version":"7757534","steam_id":85568392924510198,"keywords":["cp","nocrits","nodmgspread","uncletopia"],"game_id":440,"stv_port":27036,"stv_name":"Uncletopia | Los Angeles | 3 | All Maps | STV","players":null},{"server_id":25,"name":"Uncletopia | Los Angeles | 4 | Stopwatch Beta","name_short":"lax-4","host":"lax-1.us.uncletopia.com","port":27045,"enabled":true,"region":"us-west","cc":"us","latitude":33.94279,"longitude":-118.41004,"reserved":0,"last_update":"0001-01-01T00:00:00Z","name_a2s":"Uncletopia | Los Angeles | 4 | Stopwatch Beta","protocol":17,"map":"pl_frontier_final","folder":"tf","game":"Team Fortress","app_id":440,"player_count":0,"max_players":24,"Bots":0,"server_type":"Dedicated","server_os":"Linux","password":true,"vac":true,"version":"7757534","steam_id":85568392924510199,"keywords":["nocrits","nodmgspread","payload","uncletopia"],"game_id":440,"stv_port":27046,"stv_name":"Uncletopia | Los Angeles | 4 | Stopwatch Beta | STV","players":null},{"server_id":11,"name":"Uncletopia | London | 1 | All Maps","name_short":"lon-1","host":"lon-1.uk.uncletopia.com","port":27015,"enabled":true,"region":"eu","cc":"gb","latitude":51.509865,"longitude":-0.118092,"reserved":0,"last_update":"0001-01-01T00:00:00Z","name_a2s":"Uncletopia | London | 1 | All Maps","protocol":17,"map":"koth_viaduct","folder":"tf","game":"Team Fortress","app_id":440,"player_count":0,"max_players":24,"Bots":0,"server_type":"Dedicated","server_os":"Linux","password":true,"vac":true,"version":"7757534","steam_id":85568392924367362,"keywords":["cp","nocrits","nodmgspread","uncletopia"],"game_id":440,"stv_port":27016,"stv_name":"Uncletopia | London | 1 | All Maps | STV","players":null},{"server_id":114,"name":"Uncletopia | London | 2 | All Maps","name_short":"lon-2","host":"lon-1.uk.uncletopia.com","port":27025,"enabled":true,"region":"eu","cc":"gb","latitude":51.509865,"longitude":-0.118092,"reserved":0,"last_update":"0001-01-01T00:00:00Z","name_a2s":"Uncletopia | London | 2 | All Maps","protocol":17,"map":"cp_dustbowl","folder":"tf","game":"Team Fortress","app_id":440,"player_count":0,"max_players":24,"Bots":0,"server_type":"Dedicated","server_os":"Linux","password":true,"vac":true,"version":"7757534","steam_id":85568392924470941,"keywords":["cp","nocrits","nodmgspread","uncletopia"],"game_id":440,"stv_port":27026,"stv_name":"Uncletopia | London | 2 | All Maps | STV","players":null},{"server_id":320,"name":"Uncletopia | London | 3 | All Maps","name_short":"lon-3","host":"lon-1.uk.uncletopia.com","port":27035,"enabled":true,"region":"eu","cc":"gb","latitude":51.509865,"longitude":-0.118092,"reserved":0,"last_update":"0001-01-01T00:00:00Z","name_a2s":"Uncletopia | London | 3 | All Maps","protocol":17,"map":"pl_badwater","folder":"tf","game":"Team Fortress","app_id":440,"player_count":0,"max_players":24,"Bots":0,"server_type":"Dedicated","server_os":"Linux","password":true,"vac":true,"version":"7757534","steam_id":85568392924510192,"keywords":["nocrits","nodmgspread","payload","uncletopia"],"game_id":440,"stv_port":27036,"stv_name":"Uncletopia | London | 3 | All Maps | STV","players":null},{"server_id":321,"name":"Uncletopia | London | 4 | All Maps","name_short":"lon-4","host":"lon-1.uk.uncletopia.com","port":27045,"enabled":true,"region":"eu","cc":"gb","latitude":51.509865,"longitude":-0.118092,"reserved":0,"last_update":"0001-01-01T00:00:00Z","name_a2s":"Uncletopia | London | 4 | All Maps","protocol":17,"map":"koth_viaduct","folder":"tf","game":"Team Fortress","app_id":440,"player_count":0,"max_players":24,"Bots":0,"server_type":"Dedicated","server_os":"Linux","password":true,"vac":true,"version":"7757534","steam_id":85568392924510193,"keywords":["cp","nocrits","nodmgspread","uncletopia"],"game_id":440,"stv_port":27046,"stv_name":"Uncletopia | London | 4 | All Maps | STV","players":null},{"server_id":21,"name":"Uncletopia | London | 5 | All Maps","name_short":"lon-5","host":"lon-1.uk.uncletopia.com","port":27055,"enabled":true,"region":"eu","cc":"gb","latitude":51.509865,"longitude":-0.118092,"reserved":0,"last_update":"0001-01-01T00:00:00Z","name_a2s":"Uncletopia | London | 5 | All Maps","protocol":17,"map":"pl_borneo","folder":"tf","game":"Team Fortress","app_id":440,"player_count":23,"max_players":24,"Bots":0,"server_type":"Dedicated","server_os":"Linux","password":true,"vac":true,"version":"7757534","steam_id":85568392924742829,"keywords":["nocrits","nodmgspread","payload","uncletopia"],"game_id":440,"stv_port":27056,"stv_name":"Uncletopia | London | 5 | All Maps | STV","players":[{"user_id":79,"name":"Asuka militante de Bildu","steam_id":76561198274744473,"connected_time":81000000000,"state":"active","ping":116},{"user_id":18,"name":"thekoolest88","steam_id":76561199022415672,"connected_time":2450000000000,"state":"active","ping":134},{"user_id":48,"name":"Wario","steam_id":76561198356089255,"connected_time":1405000000000,"state":"active","ping":68},{"user_id":61,"name":"Mabert","steam_id":76561198436058407,"connected_time":922000000000,"state":"active","ping":67},{"user_id":21,"name":"posht0O  \u003e:)","steam_id":76561198106182078,"connected_time":2430000000000,"state":"active","ping":109},{"user_id":80,"name":"Syd","steam_id":76561198020515027,"connected_time":69000000000,"state":"active","ping":98},{"user_id":10,"name":"getting another lethal injectio","steam_id":76561199414716848,"connected_time":3767000000000,"state":"active","ping":73},{"user_id":12,"name":"sabaka jebanoia","steam_id":76561198147249160,"connected_time":3693000000000,"state":"active","ping":105},{"user_id":64,"name":"homz","steam_id":76561198356626360,"connected_time":697000000000,"state":"active","ping":120},{"user_id":76,"name":"Pico","steam_id":76561198063552545,"connected_time":331000000000,"state":"active","ping":103},{"user_id":57,"name":"rigel_","steam_id":76561198148640847,"connected_time":1040000000000,"state":"active","ping":75},{"user_id":65,"name":"NOOT_NOOT_TOASTER_SUIT","steam_id":76561198319204182,"connected_time":691000000000,"state":"active","ping":54},{"user_id":77,"name":"Piss_boy","steam_id":76561198082406639,"connected_time":116000000000,"state":"active","ping":91},{"user_id":58,"name":"Fox","steam_id":76561198052541711,"connected_time":1034000000000,"state":"active","ping":61},{"user_id":71,"name":"mogan","steam_id":76561198071700821,"connected_time":504000000000,"state":"active","ping":130},{"user_id":50,"name":"Eyy_Cucasi","steam_id":76561198271767632,"connected_time":1299000000000,"state":"active","ping":91},{"user_id":67,"name":"Jakk","steam_id":76561198041537908,"connected_time":647000000000,"state":"active","ping":70},{"user_id":60,"name":"Not Friends","steam_id":76561198043775605,"connected_time":1029000000000,"state":"active","ping":96},{"user_id":69,"name":"ji","steam_id":76561198845550388,"connected_time":555000000000,"state":"active","ping":321},{"user_id":72,"name":"Nerfan20 #SaveTF2","steam_id":76561198227391788,"connected_time":498000000000,"state":"active","ping":85},{"user_id":73,"name":"Daysy","steam_id":76561198038787054,"connected_time":485000000000,"state":"active","ping":39},{"user_id":74,"name":"SugarPlumb","steam_id":76561198258269600,"connected_time":400000000000,"state":"active","ping":52},{"user_id":78,"name":"potatohead","steam_id":76561198282131133,"connected_time":101000000000,"state":"active","ping":52}]},{"server_id":22,"name":"Uncletopia | London | 6 | All Maps","name_short":"lon-6","host":"lon-1.uk.uncletopia.com","port":27065,"enabled":true,"region":"eu","cc":"gb","latitude":51.509865,"longitude":-0.118092,"reserved":0,"last_update":"0001-01-01T00:00:00Z","name_a2s":"Uncletopia | London | 6 | All Maps","protocol":17,"map":"koth_cascade","folder":"tf","game":"Team Fortress","app_id":440,"player_count":0,"max_players":24,"Bots":0,"server_type":"Dedicated","server_os":"Linux","password":true,"vac":true,"version":"7757534","steam_id":85568392924742830,"keywords":["cp","nocrits","nodmgspread","uncletopia"],"game_id":440,"stv_port":27066,"stv_name":"Uncletopia | London | 6 | All Maps | STV","players":null},{"server_id":40,"name":"Uncletopia | London | 7 | No Payload","name_short":"lon-7","host":"lon-1.uk.uncletopia.com","port":27075,"enabled":true,"region":"eu","cc":"gb","latitude":51.509865,"longitude":-0.118092,"reserved":0,"last_update":"0001-01-01T00:00:00Z","name_a2s":"Uncletopia | London | 7 | No Payload","protocol":17,"map":"cp_process_final","folder":"tf","game":"Team Fortress","app_id":440,"player_count":0,"max_players":24,"Bots":0,"server_type":"Dedicated","server_os":"Linux","password":true,"vac":true,"version":"7757534","steam_id":85568392924964314,"keywords":["cp","nocrits","nodmgspread","uncletopia"],"game_id":440,"stv_port":27076,"stv_name":"Uncletopia | London | 7 | No Payload | STV","players":null},{"server_id":41,"name":"Uncletopia | London | 8 | Community","name_short":"lon-8","host":"lon-1.uk.uncletopia.com","port":27085,"enabled":true,"region":"eu","cc":"gb","latitude":51.509865,"longitude":-0.118092,"reserved":0,"last_update":"0001-01-01T00:00:00Z","name_a2s":"Uncletopia | London | 8 | Community","protocol":17,"map":"pl_upward","folder":"tf","game":"Team Fortress","app_id":440,"player_count":0,"max_players":24,"Bots":0,"server_type":"Dedicated","server_os":"Linux","password":true,"vac":true,"version":"7757534","steam_id":85568392924964315,"keywords":["nocrits","nodmgspread","payload","uncletopia"],"game_id":440,"stv_port":27086,"stv_name":"Uncletopia | London | 8 | Community | STV","players":null},{"server_id":300,"name":"Uncletopia | Montréal | 1 | All Maps","name_short":"mtl-1","host":"mtl-1.ca.uncletopia.com","port":27015,"enabled":true,"region":"us-east","cc":"ca","latitude":45.50889,"longitude":-73.56167,"reserved":0,"last_update":"0001-01-01T00:00:00Z","name_a2s":"Uncletopia | Montréal | 1 | All Maps","protocol":17,"map":"koth_cascade","folder":"tf","game":"Team Fortress","app_id":440,"player_count":0,"max_players":24,"Bots":0,"server_type":"Dedicated","server_os":"Linux","password":true,"vac":true,"version":"7757534","steam_id":85568392924500087,"keywords":["cp","nocrits","nodmgspread","uncletopia"],"game_id":440,"stv_port":27016,"stv_name":"Uncletopia | Montréal | 1 | All Maps | STV","players":null},{"server_id":301,"name":"Uncletopia | Montréal | 2 | All Maps","name_short":"mtl-2","host":"mtl-1.ca.uncletopia.com","port":27025,"enabled":true,"region":"us-east","cc":"ca","latitude":45.50889,"longitude":-73.56167,"reserved":0,"last_update":"0001-01-01T00:00:00Z","name_a2s":"Uncletopia | Montréal | 2 | All Maps","protocol":17,"map":"koth_highpass","folder":"tf","game":"Team Fortress","app_id":440,"player_count":0,"max_players":24,"Bots":0,"server_type":"Dedicated","server_os":"Linux","password":true,"vac":true,"version":"7757534","steam_id":85568392924500088,"keywords":["cp","nocrits","nodmgspread","uncletopia"],"game_id":440,"stv_port":27026,"stv_name":"Uncletopia | Montréal | 2 | All Maps | STV","players":null},{"server_id":302,"name":"Uncletopia | Montréal | 3 | All Maps","name_short":"mtl-3","host":"mtl-1.ca.uncletopia.com","port":27035,"enabled":true,"region":"us-east","cc":"ca","latitude":45.50889,"longitude":-73.56167,"reserved":0,"last_update":"0001-01-01T00:00:00Z","name_a2s":"Uncletopia | Montréal | 3 | All Maps","protocol":17,"map":"cp_altitude","folder":"tf","game":"Team Fortress","app_id":440,"player_count":0,"max_players":24,"Bots":0,"server_type":"Dedicated","server_os":"Linux","password":true,"vac":true,"version":"7757534","steam_id":85568392924500089,"keywords":["cp","nocrits","nodmgspread","uncletopia"],"game_id":440,"stv_port":27036,"stv_name":"Uncletopia | Montréal | 3 | All Maps | STV","players":null},{"server_id":303,"name":"Uncletopia | Montréal | 4 | No Payload","name_short":"mtl-4","host":"mtl-1.ca.uncletopia.com","port":27045,"enabled":true,"region":"us-east","cc":"ca","latitude":45.50889,"longitude":-73.56167,"reserved":0,"last_update":"0001-01-01T00:00:00Z","name_a2s":"Uncletopia | Montréal | 4 | No Payload","protocol":17,"map":"koth_lazarus","folder":"tf","game":"Team Fortress","app_id":440,"player_count":0,"max_players":24,"Bots":0,"server_type":"Dedicated","server_os":"Linux","password":true,"vac":true,"version":"7757534","steam_id":85568392924500090,"keywords":["cp","nocrits","nodmgspread","uncletopia"],"game_id":440,"stv_port":27046,"stv_name":"Uncletopia | Montréal | 4 | No Payload | STV","players":null},{"server_id":13,"name":"Uncletopia | New York City | 1 | All Maps","name_short":"nyc-1","host":"nyc-1.us.uncletopia.com","port":27015,"enabled":true,"region":"us-east","cc":"us","latitude":40.73061,"longitude":-73.93524,"reserved":0,"last_update":"0001-01-01T00:00:00Z","name_a2s":"Uncletopia | New York City | 1 | All Maps","protocol":17,"map":"koth_lakeside_final","folder":"tf","game":"Team Fortress","app_id":440,"player_count":0,"max_players":24,"Bots":0,"server_type":"Dedicated","server_os":"Linux","password":true,"vac":true,"version":"7757534","steam_id":85568392924469993,"keywords":["cp","nocrits","nodmgspread","uncletopia"],"game_id":440,"stv_port":27016,"stv_name":"Uncletopia | New York City | 1 | All Maps | STV","players":null},{"server_id":14,"name":"Uncletopia | New York City | 2 | All Maps","name_short":"nyc-2","host":"nyc-1.us.uncletopia.com","port":27025,"enabled":true,"region":"us-east","cc":"us","latitude":40.73061,"longitude":-73.93524,"reserved":0,"last_update":"0001-01-01T00:00:00Z","name_a2s":"Uncletopia | New York City | 2 | All Maps","protocol":17,"map":"pl_barnblitz","folder":"tf","game":"Team Fortress","app_id":440,"player_count":0,"max_players":24,"Bots":0,"server_type":"Dedicated","server_os":"Linux","password":true,"vac":true,"version":"7757534","steam_id":85568392924469994,"keywords":["nocrits","nodmgspread","payload","uncletopia"],"game_id":440,"stv_port":27026,"stv_name":"Uncletopia | New York City | 2 | All Maps | STV","players":null},{"server_id":15,"name":"Uncletopia | New York City | 3 | Stopwatch Beta","name_short":"nyc-3","host":"nyc-1.us.uncletopia.com","port":27035,"enabled":true,"region":"us-east","cc":"us","latitude":40.73061,"longitude":-73.93524,"reserved":0,"last_update":"0001-01-01T00:00:00Z","name_a2s":"Uncletopia | New York City | 3 | Stopwatch Beta","protocol":17,"map":"workshop/pl_vigil_rc9.ugc1266210012","folder":"tf","game":"Team Fortress","app_id":440,"player_count":0,"max_players":24,"Bots":0,"server_type":"Dedicated","server_os":"Linux","password":true,"vac":true,"version":"7757534","steam_id":85568392924742820,"keywords":["nocrits","nodmgspread","payload","uncletopia"],"game_id":440,"stv_port":27036,"stv_name":"Uncletopia | New York City | 3 | Stopwatch Beta | STV","players":null},{"server_id":16,"name":"Uncletopia | New York City | 4 | Community","name_short":"nyc-4","host":"nyc-1.us.uncletopia.com","port":27045,"enabled":true,"region":"us-east","cc":"us","latitude":40.73061,"longitude":-73.93524,"reserved":0,"last_update":"0001-01-01T00:00:00Z","name_a2s":"Uncletopia | New York City | 4 | Community","protocol":17,"map":"workshop/cp_croissant_final.ugc458840209","folder":"tf","game":"Team Fortress","app_id":440,"player_count":0,"max_players":24,"Bots":0,"server_type":"Dedicated","server_os":"Linux","password":true,"vac":true,"version":"7757534","steam_id":85568392924742821,"keywords":["cp","nocrits","nodmgspread","uncletopia"],"game_id":440,"stv_port":27046,"stv_name":"Uncletopia | New York City | 4 | Community | STV","players":null},{"server_id":142,"name":"Uncletopia | São Paulo | 1 | All Maps","name_short":"sao-1","host":"sao-1.br.uncletopia.com","port":27015,"enabled":true,"region":"sa","cc":"br","latitude":-23.533773,"longitude":-46.62529,"reserved":0,"last_update":"0001-01-01T00:00:00Z","name_a2s":"Uncletopia | São Paulo | 1 | All Maps","protocol":17,"map":"koth_cascade","folder":"tf","game":"Team Fortress","app_id":440,"player_count":0,"max_players":24,"Bots":0,"server_type":"Dedicated","server_os":"Linux","password":true,"vac":true,"version":"7757534","steam_id":85568392924469996,"keywords":["cp","nocrits","nodmgspread","uncletopia"],"game_id":440,"stv_port":27016,"stv_name":"Uncletopia | São Paulo | 1 | All Maps | STV","players":null},{"server_id":143,"name":"Uncletopia | São Paulo | 2 | All Maps","name_short":"sao-2","host":"sao-2.br.uncletopia.com","port":27015,"enabled":true,"region":"sa","cc":"br","latitude":-23.533773,"longitude":-46.62529,"reserved":0,"last_update":"0001-01-01T00:00:00Z","name_a2s":"Uncletopia | São Paulo | 2 | All Maps","protocol":17,"map":"pl_barnblitz","folder":"tf","game":"Team Fortress","app_id":440,"player_count":0,"max_players":24,"Bots":0,"server_type":"Dedicated","server_os":"Linux","password":true,"vac":true,"version":"7757534","steam_id":85568392924485349,"keywords":["nocrits","nodmgspread","payload","uncletopia"],"game_id":440,"stv_port":27016,"stv_name":"Uncletopia | São Paulo | 2 | All Maps | STV","players":null},{"server_id":7,"name":"Uncletopia | Seattle | 1 | All Maps","name_short":"sea-1","host":"sea-1.us.uncletopia.com","port":27015,"enabled":true,"region":"us-west","cc":"us","latitude":47.608013,"longitude":-122.33517,"reserved":0,"last_update":"0001-01-01T00:00:00Z","name_a2s":"Uncletopia | Seattle | 1 | All Maps","protocol":17,"map":"pl_borneo","folder":"tf","game":"Team Fortress","app_id":440,"player_count":24,"max_players":24,"Bots":0,"server_type":"Dedicated","server_os":"Linux","password":true,"vac":true,"version":"7757534","steam_id":85568392924469997,"keywords":["nocrits","nodmgspread","payload","uncletopia"],"game_id":440,"stv_port":27016,"stv_name":"Uncletopia | Seattle | 1 | All Maps | STV","players":[{"user_id":955,"name":"OakTree","steam_id":76561198152643118,"connected_time":1433000000000,"state":"active","ping":90},{"user_id":916,"name":"God's worst","steam_id":76561198857237473,"connected_time":6233000000000,"state":"active","ping":51},{"user_id":952,"name":"Arsonist Goose","steam_id":76561198147441830,"connected_time":1554000000000,"state":"active","ping":71},{"user_id":966,"name":"Clean your room","steam_id":76561198011617388,"connected_time":38000000000,"state":"active","ping":60},{"user_id":965,"name":"Nobuunga","steam_id":76561198100614981,"connected_time":466000000000,"state":"active","ping":59},{"user_id":941,"name":"Sniff","steam_id":76561198010270922,"connected_time":3103000000000,"state":"active","ping":43},{"user_id":918,"name":"fwoov","steam_id":76561198129166260,"connected_time":5725000000000,"state":"active","ping":78},{"user_id":910,"name":"mike","steam_id":76561198163265338,"connected_time":6535000000000,"state":"active","ping":57},{"user_id":930,"name":"that warm gooey feeling","steam_id":76561198046073848,"connected_time":4353000000000,"state":"active","ping":50},{"user_id":938,"name":"Archimedes!","steam_id":76561199446023933,"connected_time":3503000000000,"state":"active","ping":78},{"user_id":956,"name":"BBL Sponsor","steam_id":76561199093733603,"connected_time":1331000000000,"state":"active","ping":87},{"user_id":885,"name":"gorlab","steam_id":76561198025089694,"connected_time":8996000000000,"state":"active","ping":62},{"user_id":967,"name":"AAA","steam_id":76561198281612642,"connected_time":13000000000,"state":"active","ping":53},{"user_id":964,"name":"tender mike","steam_id":76561198058821622,"connected_time":475000000000,"state":"active","ping":103},{"user_id":870,"name":"Ayayahuasca","steam_id":76561199002906056,"connected_time":10611000000000,"state":"active","ping":49},{"user_id":954,"name":"non menthol newport","steam_id":76561198041907345,"connected_time":1546000000000,"state":"active","ping":89},{"user_id":951,"name":"Ricelover","steam_id":76561198064631164,"connected_time":1579000000000,"state":"active","ping":77},{"user_id":917,"name":"goldhed","steam_id":76561198051751133,"connected_time":5956000000000,"state":"active","ping":56},{"user_id":963,"name":"Fgtfv567","steam_id":76561198071022525,"connected_time":678000000000,"state":"active","ping":73},{"user_id":947,"name":"elyk37","steam_id":76561198124135253,"connected_time":2570000000000,"state":"active","ping":128},{"user_id":950,"name":"For Whom The Taco Bell Tolls","steam_id":76561198418288939,"connected_time":1872000000000,"state":"active","ping":77},{"user_id":913,"name":"クールエイドマン","steam_id":76561198111645213,"connected_time":6474000000000,"state":"active","ping":79},{"user_id":908,"name":"rat gets the cheese","steam_id":76561198031234032,"connected_time":6812000000000,"state":"active","ping":97},{"user_id":960,"name":"Akkawi","steam_id":76561198203159952,"connected_time":1059000000000,"state":"active","ping":80}]},{"server_id":119,"name":"Uncletopia | Seattle | 2 | All Maps","name_short":"sea-2","host":"sea-1.us.uncletopia.com","port":27025,"enabled":true,"region":"us-west","cc":"us","latitude":47.608013,"longitude":-122.33517,"reserved":0,"last_update":"0001-01-01T00:00:00Z","name_a2s":"Uncletopia | Seattle | 2 | All Maps","protocol":17,"map":"cp_dustbowl","folder":"tf","game":"Team Fortress","app_id":440,"player_count":24,"max_players":24,"Bots":0,"server_type":"Dedicated","server_os":"Linux","password":true,"vac":true,"version":"7757534","steam_id":85568392924469998,"keywords":["cp","nocrits","nodmgspread","uncletopia"],"game_id":440,"stv_port":27026,"stv_name":"Uncletopia | Seattle | 2 | All Maps | STV","players":[{"user_id":619,"name":"Scrombello Portabello","steam_id":76561198193574042,"connected_time":2277000000000,"state":"active","ping":96},{"user_id":633,"name":"HeavenHearst","steam_id":76561198066083947,"connected_time":1021000000000,"state":"active","ping":124},{"user_id":623,"name":"Room","steam_id":76561199174579733,"connected_time":1933000000000,"state":"active","ping":127},{"user_id":639,"name":"noelle deltarune","steam_id":76561198259650356,"connected_time":466000000000,"state":"active","ping":80},{"user_id":592,"name":"Frenchfry_Addict","steam_id":76561199156867989,"connected_time":4707000000000,"state":"active","ping":70},{"user_id":629,"name":"Ivy","steam_id":76561198047758442,"connected_time":1299000000000,"state":"active","ping":110},{"user_id":604,"name":"Sweatpants","steam_id":76561198097188001,"connected_time":4242000000000,"state":"active","ping":55},{"user_id":630,"name":"Morse","steam_id":76561198039944542,"connected_time":1263000000000,"state":"active","ping":45},{"user_id":601,"name":"Algerian Egirl :3c","steam_id":76561198349345477,"connected_time":4515000000000,"state":"active","ping":98},{"user_id":624,"name":"ZahkRee","steam_id":76561197993651016,"connected_time":1744000000000,"state":"active","ping":83},{"user_id":621,"name":"germba","steam_id":76561198421591995,"connected_time":2245000000000,"state":"active","ping":70},{"user_id":579,"name":"kaeru","steam_id":76561198043789098,"connected_time":5397000000000,"state":"active","ping":60},{"user_id":638,"name":"Nolittle","steam_id":76561198239584280,"connected_time":682000000000,"state":"active","ping":86},{"user_id":564,"name":"Leidon","steam_id":76561198078386945,"connected_time":5958000000000,"state":"active","ping":81},{"user_id":613,"name":"Maho","steam_id":76561199076491805,"connected_time":2794000000000,"state":"active","ping":134},{"user_id":614,"name":"The Teufort Misogynist","steam_id":76561198080775161,"connected_time":2667000000000,"state":"active","ping":86},{"user_id":602,"name":"Sinister","steam_id":76561198023493258,"connected_time":4507000000000,"state":"active","ping":92},{"user_id":615,"name":"Rise for the National Spamton","steam_id":76561198138468982,"connected_time":2638000000000,"state":"active","ping":55},{"user_id":640,"name":"Heretic Marlowe","steam_id":76561198022397890,"connected_time":392000000000,"state":"active","ping":87},{"user_id":617,"name":"El Viejo Paulino","steam_id":76561198211944169,"connected_time":2556000000000,"state":"active","ping":101},{"user_id":632,"name":"Magma","steam_id":76561198167279375,"connected_time":1214000000000,"state":"active","ping":63},{"user_id":626,"name":"flishko","steam_id":76561198326489802,"connected_time":1462000000000,"state":"active","ping":54},{"user_id":583,"name":"NoNoWire","steam_id":76561198106308056,"connected_time":5209000000000,"state":"active","ping":76},{"user_id":603,"name":"A B1 Battle Droid","steam_id":76561198050678984,"connected_time":4485000000000,"state":"active","ping":89}]},{"server_id":406,"name":"Uncletopia | Seattle | 3 | Stopwatch Beta","name_short":"sea-3","host":"sea-1.us.uncletopia.com","port":27035,"enabled":true,"region":"us-west","cc":"us","latitude":47.608013,"longitude":-122.33517,"reserved":0,"last_update":"0001-01-01T00:00:00Z","name_a2s":"Uncletopia | Seattle | 3 | Stopwatch Beta","protocol":17,"map":"workshop/koth_bagel_rc5.ugc2514036946","folder":"tf","game":"Team Fortress","app_id":440,"player_count":0,"max_players":24,"Bots":0,"server_type":"Dedicated","server_os":"Linux","password":true,"vac":true,"version":"7757534","steam_id":85568392924515217,"keywords":["cp","nocrits","nodmgspread","uncletopia"],"game_id":440,"stv_port":27036,"stv_name":"Uncletopia | Seattle | 3 | Stopwatch Beta | STV","players":null},{"server_id":17,"name":"Uncletopia | San Francisco | 1 | All Maps","name_short":"sfo-1","host":"sfo-1.us.uncletopia.com","port":27015,"enabled":true,"region":"us-west","cc":"us","latitude":37.77397,"longitude":-122.4313,"reserved":0,"last_update":"0001-01-01T00:00:00Z","name_a2s":"Uncletopia | San Francisco | 1 | All Maps","protocol":17,"map":"pl_barnblitz","folder":"tf","game":"Team Fortress","app_id":440,"player_count":12,"max_players":24,"Bots":0,"server_type":"Dedicated","server_os":"Linux","password":true,"vac":true,"version":"7757534","steam_id":85568392924469999,"keywords":["nocrits","nodmgspread","payload","uncletopia"],"game_id":440,"stv_port":27016,"stv_name":"Uncletopia | San Francisco | 1 | All Maps | STV","players":[{"user_id":879,"name":"gaslight, gate keep, girl boss.","steam_id":76561198271954812,"connected_time":1642000000000,"state":"active","ping":69},{"user_id":880,"name":"Zippy","steam_id":76561198279229422,"connected_time":1241000000000,"state":"active","ping":113},{"user_id":881,"name":"Chaffy2125","steam_id":76561198232839260,"connected_time":1136000000000,"state":"active","ping":199},{"user_id":883,"name":"Berserk","steam_id":76561198000357361,"connected_time":756000000000,"state":"active","ping":57},{"user_id":884,"name":"sacreBleu;","steam_id":76561198081504766,"connected_time":706000000000,"state":"active","ping":90},{"user_id":887,"name":"General_Jack","steam_id":76561198045894433,"connected_time":496000000000,"state":"active","ping":77},{"user_id":885,"name":"Zoroaz (3 Shots and a cocktail)","steam_id":76561199245203720,"connected_time":692000000000,"state":"active","ping":90},{"user_id":862,"name":"Charles","steam_id":76561199062542449,"connected_time":3835000000000,"state":"active","ping":81},{"user_id":886,"name":"Dom Kench","steam_id":76561198118910491,"connected_time":691000000000,"state":"active","ping":65},{"user_id":888,"name":"Robloxdude4443","steam_id":76561198399370940,"connected_time":424000000000,"state":"active","ping":60},{"user_id":889,"name":"Oneiwon","steam_id":76561198084587698,"connected_time":122000000000,"state":"active","ping":60},{"user_id":891,"name":"Pudsla","steam_id":76561198258974036,"connected_time":0,"state":"spawning","ping":0}]},{"server_id":18,"name":"Uncletopia | San Francisco | 2 | All Maps","name_short":"sfo-2","host":"sfo-1.us.uncletopia.com","port":27025,"enabled":true,"region":"us-west","cc":"us","latitude":37.77397,"longitude":-122.4313,"reserved":0,"last_update":"0001-01-01T00:00:00Z","name_a2s":"Uncletopia | San Francisco | 2 | All Maps","protocol":17,"map":"koth_lakeside_final","folder":"tf","game":"Team Fortress","app_id":440,"player_count":0,"max_players":24,"Bots":0,"server_type":"Dedicated","server_os":"Linux","password":true,"vac":true,"version":"7757534","steam_id":85568392924470000,"keywords":["cp","nocrits","nodmgspread","uncletopia"],"game_id":440,"stv_port":27026,"stv_name":"Uncletopia | San Francisco | 2 | All Maps | STV","players":null},{"server_id":19,"name":"Uncletopia | San Francisco | 3 | Stopwatch Beta","name_short":"sfo-3","host":"sfo-1.us.uncletopia.com","port":27035,"enabled":true,"region":"us-west","cc":"us","latitude":37.77397,"longitude":-122.4313,"reserved":0,"last_update":"0001-01-01T00:00:00Z","name_a2s":"Uncletopia | San Francisco | 3 | Stopwatch Beta","protocol":17,"map":"pl_borneo","folder":"tf","game":"Team Fortress","app_id":440,"player_count":0,"max_players":24,"Bots":0,"server_type":"Dedicated","server_os":"Linux","password":true,"vac":true,"version":"7757534","steam_id":85568392924742824,"keywords":["nocrits","nodmgspread","payload","uncletopia"],"game_id":440,"stv_port":27036,"stv_name":"Uncletopia | San Francisco | 3 | Stopwatch Beta | STV","players":null},{"server_id":20,"name":"Uncletopia | San Francisco | 4 | Community","name_short":"sfo-4","host":"sfo-1.us.uncletopia.com","port":27045,"enabled":true,"region":"us-west","cc":"us","latitude":37.77397,"longitude":-122.4313,"reserved":0,"last_update":"0001-01-01T00:00:00Z","name_a2s":"Uncletopia | San Francisco | 4 | Community","protocol":17,"map":"workshop/koth_ashville_final.ugc2130459942","folder":"tf","game":"Team Fortress","app_id":440,"player_count":23,"max_players":24,"Bots":0,"server_type":"Dedicated","server_os":"Linux","password":true,"vac":true,"version":"7757534","steam_id":85568392924742826,"keywords":["cp","nocrits","nodmgspread","uncletopia"],"game_id":440,"stv_port":27046,"stv_name":"Uncletopia | San Francisco | 4 | Community | STV","players":[{"user_id":142,"name":"Snaggletooth","steam_id":76561198043784995,"connected_time":743000000000,"state":"active","ping":74},{"user_id":117,"name":"smeasly","steam_id":76561198028718812,"connected_time":2427000000000,"state":"active","ping":55},{"user_id":134,"name":"Thequirka","steam_id":76561198968058652,"connected_time":1593000000000,"state":"active","ping":70},{"user_id":18,"name":"jorts","steam_id":76561199041179985,"connected_time":10911000000000,"state":"active","ping":80},{"user_id":96,"name":"squash","steam_id":76561198150281353,"connected_time":4784000000000,"state":"active","ping":73},{"user_id":140,"name":"Fredorando","steam_id":76561198242546842,"connected_time":1043000000000,"state":"active","ping":71},{"user_id":144,"name":"Fargo","steam_id":76561198044703931,"connected_time":712000000000,"state":"active","ping":74},{"user_id":99,"name":"p9 delight","steam_id":76561197980280272,"connected_time":4514000000000,"state":"active","ping":60},{"user_id":150,"name":"Minerkid2004","steam_id":76561198044262827,"connected_time":443000000000,"state":"active","ping":49},{"user_id":143,"name":"bean drinker","steam_id":76561198044004639,"connected_time":740000000000,"state":"active","ping":86},{"user_id":124,"name":"Fizzma","steam_id":76561198271999030,"connected_time":1977000000000,"state":"active","ping":74},{"user_id":125,"name":"FROYO TitanicMistake","steam_id":76561198052999475,"connected_time":1972000000000,"state":"active","ping":106},{"user_id":93,"name":"Cinna Mon","steam_id":76561198005840633,"connected_time":5657000000000,"state":"active","ping":69},{"user_id":128,"name":"me","steam_id":76561199468285784,"connected_time":1885000000000,"state":"active","ping":40},{"user_id":115,"name":"SpockterWho","steam_id":76561198146653460,"connected_time":2552000000000,"state":"active","ping":51},{"user_id":112,"name":"SofaKing","steam_id":76561198176691859,"connected_time":3547000000000,"state":"active","ping":78},{"user_id":147,"name":"brk","steam_id":76561198079634017,"connected_time":653000000000,"state":"active","ping":60},{"user_id":149,"name":"Thirty Thirty","steam_id":76561197987242808,"connected_time":491000000000,"state":"active","ping":116},{"user_id":89,"name":"Barn.Jones1992","steam_id":76561198197981309,"connected_time":5841000000000,"state":"active","ping":63},{"user_id":141,"name":"Mothership","steam_id":76561198044029501,"connected_time":1014000000000,"state":"active","ping":102},{"user_id":137,"name":"shadow wizard money gang","steam_id":76561198860325279,"connected_time":1379000000000,"state":"active","ping":78},{"user_id":138,"name":"werolat","steam_id":76561197960544784,"connected_time":1354000000000,"state":"active","ping":86},{"user_id":80,"name":"rorywashere /ᐠ - ˕ -マ Ⳋ","steam_id":76561198065825165,"connected_time":6247000000000,"state":"active","ping":90}]},{"server_id":141,"name":"Uncletopia | Sydney | 1 | All Maps","name_short":"syd-1","host":"syd-1.au.uncletopia.com","port":27015,"enabled":true,"region":"au","cc":"au","latitude":-33.865143,"longitude":151.2099,"reserved":0,"last_update":"0001-01-01T00:00:00Z","name_a2s":"Uncletopia | Sydney | 1 | All Maps","protocol":17,"map":"pl_upward","folder":"tf","game":"Team Fortress","app_id":440,"player_count":23,"max_players":24,"Bots":0,"server_type":"Dedicated","server_os":"Linux","password":true,"vac":true,"version":"7757534","steam_id":85568392924470001,"keywords":["nocrits","nodmgspread","payload","uncletopia"],"game_id":440,"stv_port":27016,"stv_name":"Uncletopia | Sydney | 1 | All Maps | STV","players":[{"user_id":405,"name":"Consolidated Fart","steam_id":76561198924101909,"connected_time":6365000000000,"state":"active","ping":68},{"user_id":513,"name":"Communism Forever","steam_id":76561199082433022,"connected_time":25000000000,"state":"active","ping":166},{"user_id":457,"name":"lem","steam_id":76561199119233603,"connected_time":3993000000000,"state":"active","ping":57},{"user_id":482,"name":"TheSticky_Studio","steam_id":76561198428683022,"connected_time":1749000000000,"state":"active","ping":174},{"user_id":509,"name":"slow","steam_id":76561198163340833,"connected_time":270000000000,"state":"active","ping":73},{"user_id":407,"name":"Raven","steam_id":76561198428025966,"connected_time":6320000000000,"state":"active","ping":59},{"user_id":495,"name":"Zimbobub","steam_id":76561198295916425,"connected_time":1132000000000,"state":"active","ping":64},{"user_id":496,"name":"Xagefu","steam_id":76561197973300016,"connected_time":1022000000000,"state":"active","ping":68},{"user_id":512,"name":"[TÐK] KeRpaL","steam_id":76561197974427061,"connected_time":120000000000,"state":"active","ping":59},{"user_id":490,"name":"FrontlineNinja","steam_id":76561198046731954,"connected_time":1376000000000,"state":"active","ping":48},{"user_id":491,"name":"Hardcase","steam_id":76561198124442611,"connected_time":1224000000000,"state":"active","ping":79},{"user_id":411,"name":"Bobby Bigman","steam_id":76561198044679656,"connected_time":6196000000000,"state":"active","ping":63},{"user_id":503,"name":"chill weed vibes only","steam_id":76561198182862426,"connected_time":617000000000,"state":"active","ping":42},{"user_id":507,"name":"ben from coles","steam_id":76561199170231300,"connected_time":345000000000,"state":"active","ping":38},{"user_id":494,"name":"Jorg","steam_id":76561198003995787,"connected_time":1137000000000,"state":"active","ping":73},{"user_id":471,"name":"Gamma","steam_id":76561198281131757,"connected_time":2816000000000,"state":"active","ping":62},{"user_id":478,"name":"Cup","steam_id":76561198038485845,"connected_time":2027000000000,"state":"active","ping":44},{"user_id":498,"name":"Wake'n'Bake'n'Make'n'Bacon","steam_id":76561198061960926,"connected_time":915000000000,"state":"active","ping":94},{"user_id":508,"name":"snooty123","steam_id":76561199055258276,"connected_time":319000000000,"state":"active","ping":67},{"user_id":486,"name":"DubLtap","steam_id":76561198089544193,"connected_time":1725000000000,"state":"active","ping":62},{"user_id":493,"name":"Piklz","steam_id":76561198043384139,"connected_time":1182000000000,"state":"active","ping":38},{"user_id":505,"name":"J959","steam_id":76561198855585931,"connected_time":526000000000,"state":"active","ping":86},{"user_id":501,"name":"ben","steam_id":76561198223331996,"connected_time":760000000000,"state":"active","ping":59}]},{"server_id":123,"name":"Uncletopia | Sydney | 2 | All Maps","name_short":"syd-2","host":"syd-1.au.uncletopia.com","port":27025,"enabled":true,"region":"au","cc":"au","latitude":-33.865143,"longitude":151.2099,"reserved":0,"last_update":"0001-01-01T00:00:00Z","name_a2s":"Uncletopia | Sydney | 2 | All Maps","protocol":17,"map":"pl_frontier_final","folder":"tf","game":"Team Fortress","app_id":440,"player_count":22,"max_players":24,"Bots":0,"server_type":"Dedicated","server_os":"Linux","password":true,"vac":true,"version":"7757534","steam_id":85568392924470002,"keywords":["nocrits","nodmgspread","payload","uncletopia"],"game_id":440,"stv_port":27026,"stv_name":"Uncletopia | Sydney | 2 | All Maps | STV","players":[{"user_id":214,"name":"neevnope","steam_id":76561198981004996,"connected_time":3447000000000,"state":"active","ping":58},{"user_id":241,"name":"your local femboy","steam_id":76561199085361393,"connected_time":1203000000000,"state":"active","ping":85},{"user_id":189,"name":"Hot Car Resident","steam_id":76561198967034272,"connected_time":5381000000000,"state":"active","ping":69},{"user_id":229,"name":"Detective Guzzler","steam_id":76561198114566532,"connected_time":2602000000000,"state":"active","ping":82},{"user_id":242,"name":"Contekka","steam_id":76561198071656151,"connected_time":966000000000,"state":"active","ping":50},{"user_id":220,"name":"MrMuffin16","steam_id":76561198257303774,"connected_time":3067000000000,"state":"active","ping":57},{"user_id":216,"name":"Rizeo","steam_id":76561198147901488,"connected_time":3398000000000,"state":"active","ping":71},{"user_id":240,"name":"ThirtyTwelve","steam_id":76561199192513554,"connected_time":1255000000000,"state":"active","ping":57},{"user_id":156,"name":"payn.","steam_id":76561199277321828,"connected_time":8013000000000,"state":"active","ping":56},{"user_id":223,"name":"Cris.p bacon","steam_id":76561199230423491,"connected_time":2749000000000,"state":"active","ping":127},{"user_id":154,"name":"CoolJosh3k | YouTube","steam_id":76561197997407342,"connected_time":8099000000000,"state":"active","ping":54},{"user_id":244,"name":"UpsideDown","steam_id":76561199099672129,"connected_time":272000000000,"state":"active","ping":46},{"user_id":245,"name":"juffowup","steam_id":76561198011036628,"connected_time":234000000000,"state":"active","ping":64},{"user_id":236,"name":"SUSHIMAN","steam_id":76561199089989428,"connected_time":1823000000000,"state":"active","ping":88},{"user_id":246,"name":"Your FBI Agent","steam_id":76561198196896728,"connected_time":215000000000,"state":"active","ping":55},{"user_id":247,"name":"Muffin","steam_id":76561198075391119,"connected_time":203000000000,"state":"active","ping":49},{"user_id":231,"name":"electro599","steam_id":76561198058148858,"connected_time":2383000000000,"state":"active","ping":58},{"user_id":230,"name":"Abraham Lincoln","steam_id":76561198095292515,"connected_time":2581000000000,"state":"active","ping":71},{"user_id":249,"name":"yarbinator","steam_id":76561198204678828,"connected_time":115000000000,"state":"active","ping":51},{"user_id":234,"name":"Gasoline","steam_id":76561198879023728,"connected_time":2100000000000,"state":"active","ping":82},{"user_id":160,"name":"Pew pew pew!","steam_id":76561198004120277,"connected_time":7390000000000,"state":"active","ping":44},{"user_id":185,"name":"KnowZero","steam_id":76561198095752015,"connected_time":5673000000000,"state":"active","ping":63}]},{"server_id":395,"name":"Uncletopia | Sydney | 3 | All Maps","name_short":"syd-3","host":"syd-1.au.uncletopia.com","port":27035,"enabled":true,"region":"au","cc":"au","latitude":-33.865143,"longitude":151.2099,"reserved":0,"last_update":"0001-01-01T00:00:00Z","name_a2s":"Uncletopia | Sydney | 3 | All Maps","protocol":17,"map":"pl_frontier_final","folder":"tf","game":"Team Fortress","app_id":440,"player_count":0,"max_players":24,"Bots":0,"server_type":"Dedicated","server_os":"Linux","password":true,"vac":true,"version":"7757534","steam_id":85568392925194467,"keywords":["nocrits","nodmgspread","payload","uncletopia"],"game_id":440,"stv_port":27036,"stv_name":"Uncletopia | Sydney | 3 | All Maps | STV","players":null},{"server_id":396,"name":"Uncletopia | Sydney | 4 | All Maps","name_short":"syd-4","host":"syd-1.au.uncletopia.com","port":27045,"enabled":true,"region":"au","cc":"au","latitude":-33.865143,"longitude":151.2099,"reserved":0,"last_update":"0001-01-01T00:00:00Z","name_a2s":"Uncletopia | Sydney | 4 | All Maps","protocol":17,"map":"koth_lakeside_final","folder":"tf","game":"Team Fortress","app_id":440,"player_count":0,"max_players":24,"Bots":0,"server_type":"Dedicated","server_os":"Linux","password":true,"vac":true,"version":"7757534","steam_id":85568392925397958,"keywords":["cp","nocrits","nodmgspread","uncletopia"],"game_id":440,"stv_port":27046,"stv_name":"Uncletopia | Sydney | 4 | All Maps | STV","players":null},{"server_id":58,"name":"Uncletopia | Sydney | 5 | Stopwatch Beta","name_short":"syd-5","host":"syd-1.au.uncletopia.com","port":27055,"enabled":true,"region":"au","cc":"au","latitude":-33.865143,"longitude":151.2099,"reserved":0,"last_update":"0001-01-01T00:00:00Z","name_a2s":"Uncletopia | Sydney | 5 | Stopwatch Beta","protocol":17,"map":"pl_upward","folder":"tf","game":"Team Fortress","app_id":440,"player_count":0,"max_players":24,"Bots":0,"server_type":"Dedicated","server_os":"Linux","password":true,"vac":true,"version":"7757534","steam_id":85568392925397959,"keywords":["nocrits","nodmgspread","payload","uncletopia"],"game_id":440,"stv_port":27056,"stv_name":"Uncletopia | Sydney | 5 | Stopwatch Beta | STV","players":null},{"server_id":59,"name":"Uncletopia | Sydney | 6 | Community","name_short":"syd-6","host":"syd-1.au.uncletopia.com","port":27065,"enabled":true,"region":"au","cc":"au","latitude":-33.865143,"longitude":151.2099,"reserved":0,"last_update":"0001-01-01T00:00:00Z","name_a2s":"Uncletopia | Sydney | 6 | Community","protocol":17,"map":"workshop/koth_product_final.ugc454272353","folder":"tf","game":"Team Fortress","app_id":440,"player_count":0,"max_players":24,"Bots":0,"server_type":"Dedicated","server_os":"Linux","password":true,"vac":true,"version":"7757534","steam_id":85568392925397960,"keywords":["cp","nocrits","nodmgspread","uncletopia"],"game_id":440,"stv_port":27066,"stv_name":"Uncletopia | Sydney | 6 | Community | STV","players":null},{"server_id":49,"name":"Uncletopia | Warsaw | 1 | All Maps","name_short":"waw-1","host":"waw-1.pl.uncletopia.com","port":27015,"enabled":true,"region":"eu","cc":"pl","latitude":52.2297,"longitude":21.017532,"reserved":0,"last_update":"0001-01-01T00:00:00Z","name_a2s":"","protocol":0,"map":"","folder":"","game":"","app_id":0,"player_count":0,"max_players":0,"Bots":0,"server_type":"","server_os":"","password":false,"vac":false,"version":"","steam_id":0,"keywords":null,"game_id":0,"stv_port":0,"stv_name":"","players":null},{"server_id":50,"name":"Uncletopia | Warsaw | 2 | All Maps","name_short":"waw-2","host":"waw-1.pl.uncletopia.com","port":27025,"enabled":true,"region":"eu","cc":"pl","latitude":52.2297,"longitude":21.017532,"reserved":0,"last_update":"0001-01-01T00:00:00Z","name_a2s":"Uncletopia | Warsaw | 2 | All Maps","protocol":17,"map":"cp_process_final","folder":"tf","game":"Team Fortress","app_id":440,"player_count":0,"max_players":24,"Bots":0,"server_type":"Dedicated","server_os":"Linux","password":true,"vac":true,"version":"7757534","steam_id":85568392925397851,"keywords":["cp","nocrits","nodmgspread","uncletopia"],"game_id":440,"stv_port":27026,"stv_name":"Uncletopia | Warsaw | 2 | All Maps | STV","players":null},{"server_id":51,"name":"Uncletopia | Warsaw | 3 | All Maps","name_short":"waw-3","host":"waw-1.pl.uncletopia.com","port":27035,"enabled":true,"region":"eu","cc":"pl","latitude":52.2297,"longitude":21.017532,"reserved":0,"last_update":"0001-01-01T00:00:00Z","name_a2s":"Uncletopia | Warsaw | 3 | All Maps","protocol":17,"map":"pl_barnblitz","folder":"tf","game":"Team Fortress","app_id":440,"player_count":0,"max_players":24,"Bots":0,"server_type":"Dedicated","server_os":"Linux","password":true,"vac":true,"version":"7757534","steam_id":85568392925397852,"keywords":["nocrits","nodmgspread","payload","uncletopia"],"game_id":440,"stv_port":27036,"stv_name":"Uncletopia | Warsaw | 3 | All Maps | STV","players":null},{"server_id":52,"name":"Uncletopia | Warsaw | 4 | All Maps","name_short":"waw-4","host":"waw-1.pl.uncletopia.com","port":27045,"enabled":true,"region":"eu","cc":"pl","latitude":52.2297,"longitude":21.017532,"reserved":0,"last_update":"0001-01-01T00:00:00Z","name_a2s":"Uncletopia | Warsaw | 4 | All Maps","protocol":17,"map":"koth_cascade","folder":"tf","game":"Team Fortress","app_id":440,"player_count":0,"max_players":24,"Bots":0,"server_type":"Dedicated","server_os":"Linux","password":true,"vac":true,"version":"7757534","steam_id":85568392925397853,"keywords":["cp","nocrits","nodmgspread","uncletopia"],"game_id":440,"stv_port":27046,"stv_name":"Uncletopia | Warsaw | 4 | All Maps | STV","players":null},{"server_id":53,"name":"Uncletopia | Warsaw | 5 | Stopwatch Beta","name_short":"waw-5","host":"waw-1.pl.uncletopia.com","port":27055,"enabled":true,"region":"eu","cc":"pl","latitude":52.2297,"longitude":21.017532,"reserved":0,"last_update":"0001-01-01T00:00:00Z","name_a2s":"Uncletopia | Warsaw | 5 | Stopwatch Beta","protocol":17,"map":"pl_barnblitz","folder":"tf","game":"Team Fortress","app_id":440,"player_count":0,"max_players":24,"Bots":0,"server_type":"Dedicated","server_os":"Linux","password":true,"vac":true,"version":"7757534","steam_id":85568392925397854,"keywords":["nocrits","nodmgspread","payload","uncletopia"],"game_id":440,"stv_port":27056,"stv_name":"Uncletopia | Warsaw | 5 | Stopwatch Beta | STV","players":null},{"server_id":54,"name":"Uncletopia | Warsaw | 6 | Community","name_short":"waw-6","host":"waw-1.pl.uncletopia.com","port":27065,"enabled":true,"region":"eu","cc":"pl","latitude":52.2297,"longitude":21.017532,"reserved":0,"last_update":"0001-01-01T00:00:00Z","name_a2s":"Uncletopia | Warsaw | 6 | Community","protocol":17,"map":"pl_swiftwater_final1","folder":"tf","game":"Team Fortress","app_id":440,"player_count":0,"max_players":24,"Bots":0,"server_type":"Dedicated","server_os":"Linux","password":true,"vac":true,"version":"7757534","steam_id":85568392925397856,"keywords":["nocrits","nodmgspread","payload","uncletopia"],"game_id":440,"stv_port":27066,"stv_name":"Uncletopia | Warsaw | 6 | Community | STV","players":null}]}