{"status":true,"message":"","result":[{"server_id":9,"name":"Uncletopia | Atlanta | 1 | All Maps","name_short":"atl-1","host":"atl-1.us.uncletopia.com","port":27015,"enabled":true,"region":"us-east","cc":"us","latitude":33.753746,"longitude":-84.38633,"reserved":0,"last_update":"0001-01-01T00:00:00Z","name_a2s":"Uncletopia | Atlanta | 1 | All Maps","protocol":17,"map":"pl_upward","folder":"tf","game":"Team Fortress","app_id":440,"player_count":18,"max_players":24,"Bots":0,"server_type":"Dedicated","server_os":"Linux","password":true,"vac":true,"version":"7882260","steam_id":85568392924469982,"keywords":["nocrits","nodmgspread","payload","uncletopia"],"game_id":440,"stv_port":27016,"stv_name":"Uncletopia | Atlanta | 1 | All Maps | STV","players":[{"user_id":779,"name":"Pants Shitter (with rizz)","steam_id":76561198276385778,"connected_time":4182000000000,"state":"active","ping":100},{"user_id":796,"name":"Rolling","steam_id":76561198066449789,"connected_time":1862000000000,"state":"active","ping":118},{"user_id":791,"name":"Kurayami","steam_id":76561198089630547,"connected_time":1955000000000,"state":"active","ping":60},{"user_id":813,"name":"Aethirion","steam_id":76561198100185492,"connected_time":816000000000,"state":"active","ping":97},{"user_id":815,"name":"Naldo","steam_id":76561198121273420,"connected_time":680000000000,"state":"active","ping":71},{"user_id":803,"name":"Monster","steam_id":76561198189429665,"connected_time":1614000000000,"state":"active","ping":59},{"user_id":818,"name":"Mops","steam_id":76561198058213741,"connected_time":422000000000,"state":"active","ping":62},{"user_id":804,"name":"denzy_","steam_id":76561198873788683,"connected_time":1441000000000,"state":"active","ping":52},{"user_id":807,"name":"kiracaroso","steam_id":76561198165859543,"connected_time":1071000000000,"state":"active","ping":57},{"user_id":801,"name":"slurdydurdy","steam_id":76561198101494591,"connected_time":1723000000000,"state":"active","ping":61},{"user_id":794,"name":"jimbo","steam_id":76561198067867292,"connected_time":1945000000000,"state":"active","ping":105},{"user_id":805,"name":"Saldaña","steam_id":76561198214473001,"connected_time":1357000000000,"state":"active","ping":84},{"user_id":788,"name":"Themme Fatale","steam_id":76561198096221632,"connected_time":3174000000000,"state":"active","ping":43},{"user_id":806,"name":"Eins","steam_id":76561199030343810,"connected_time":1316000000000,"state":"active","ping":43},{"user_id":808,"name":"Judy Hopps™ Simp","steam_id":76561198029322539,"connected_time":1070000000000,"state":"active","ping":71},{"user_id":787,"name":"I wear Shirt","steam_id":76561199111367852,"connected_time":3426000000000,"state":"active","ping":82},{"user_id":809,"name":"Poppet","steam_id":76561198012301951,"connected_time":998000000000,"state":"active","ping":67},{"user_id":810,"name":"Manticore","steam_id":76561198044664093,"connected_time":936000000000,"state":"active","ping":58}]},{"server_id":104,"name":"Uncletopia | Atlanta | 2 | All Maps","name_short":"atl-2","host":"atl-1.us.uncletopia.com","port":27025,"enabled":true,"region":"us-east","cc":"us","latitude":33.753746,"longitude":-84.38633,"reserved":0,"last_update":"0001-01-01T00:00:00Z","name_a2s":"Uncletopia | Atlanta | 2 | All Maps","protocol":17,"map":"koth_viaduct","folder":"tf","game":"Team Fortress","app_id":440,"player_count":0,"max_players":24,"Bots":0,"server_type":"Dedicated","server_os":"Linux","password":true,"vac":true,"version":"7882260","steam_id":85568392924469983,"keywords":["cp","nocrits","nodmgspread","uncletopia"],"game_id":440,"stv_port":27026,"stv_name":"Uncletopia | Atlanta | 2 | All Maps | STV","players":null},{"server_id":400,"name":"Uncletopia | Atlanta | 3 | Community","name_short":"atl-3","host":"atl-1.us.uncletopia.com","port":27035,"enabled":true,"region":"us-east","cc":"us","latitude":33.753746,"longitude":-84.38633,"reserved":0,"last_update":"0001-01-01T00:00:00Z","name_a2s":"Uncletopia | Atlanta | 3 | Community","protocol":17,"map":"workshop/cp_indulge.ugc528106646","folder":"tf","game":"Team Fortress","app_id":440,"player_count":0,"max_players":24,"Bots":0,"server_type":"Dedicated","server_os":"Linux","password":true,"vac":true,"version":"7882260","steam_id":85568392924515187,"keywords":["cp","nocrits","nodmgspread","uncletopia"],"game_id":440,"stv_port":27036,"stv_name":"Uncletopia | Atlanta | 3 | Community | STV","players":null},{"server_id":401,"name":"Uncletopia | Atlanta | 4 | No Payload","name_short":"atl-4","host":"atl-1.us.uncletopia.com","port":27045,"enabled":true,"region":"us-east","cc":"us","latitude":33.753746,"longitude":-84.38633,"reserved":0,"last_update":"0001-01-01T00:00:00Z","name_a2s":"","protocol":0,"map":"","folder":"","game":"","app_id":0,"player_count":0,"max_players":0,"Bots":0,"server_type":"","server_os":"","password":false,"vac":false,"version":"","steam_id":0,"keywords":null,"game_id":0,"stv_port":0,"stv_name":"","players":null},{"server_id":2,"name":"Uncletopia | Chicago | 1 | All Maps","name_short":"chi-1","host":"chi-1.us.uncletopia.com","port":27015,"enabled":true,"region":"us-central","cc":"us","latitude":41.881832,"longitude":-87.62318,"reserved":0,"last_update":"0001-01-01T00:00:00Z","name_a2s":"Uncletopia | Chicago | 1 | All Maps","protocol":17,"map":"koth_highpass","folder":"tf","game":"Team Fortress","app_id":440,"player_count":1,"max_players":24,"Bots":0,"server_type":"Dedicated","server_os":"Linux","password":true,"vac":true,"version":"7882260","steam_id":85568392924469984,"keywords":["cp","nocrits","nodmgspread","uncletopia"],"game_id":440,"stv_port":27016,"stv_name":"Uncletopia | Chicago | 1 | All Maps | STV","players":[{"user_id":985,"name":"Pillsbury Dough Boy","steam_id":76561198262846064,"connected_time":359000000000,"state":"active","ping":106}]},{"server_id":106,"name":"Uncletopia | Chicago | 2 | All Maps","name_short":"chi-2","host":"chi-1.us.uncletopia.com","port":27025,"enabled":true,"region":"us-central","cc":"us","latitude":41.881832,"longitude":-87.62318,"reserved":0,"last_update":"0001-01-01T00:00:00Z","name_a2s":"Uncletopia | Chicago | 2 | All Maps","protocol":17,"map":"cp_snakewater_final1","folder":"tf","game":"Team Fortress","app_id":440,"player_count":19,"max_players":24,"Bots":0,"server_type":"Dedicated","server_os":"Linux","password":true,"vac":true,"version":"7882260","steam_id":85568392924469985,"keywords":["cp","nocrits","nodmgspread","uncletopia"],"game_id":440,"stv_port":27026,"stv_name":"Uncletopia | Chicago | 2 | All Maps | STV","players":[{"user_id":925,"name":"cool safe name","steam_id":76561198237827742,"connected_time":6817000000000,"state":"active","ping":60},{"user_id":1001,"name":"Kamin","steam_id":76561198255299559,"connected_time":61000000000,"state":"active","ping":78},{"user_id":999,"name":"Bob the Builder","steam_id":76561199047128938,"connected_time":135000000000,"state":"active","ping":80},{"user_id":1000,"name":"Uncle Sam","steam_id":76561197978674870,"connected_time":111000000000,"state":"active","ping":69},{"user_id":1002,"name":"ko","steam_id":76561199073479785,"connected_time":34000000000,"state":"active","ping":75},{"user_id":827,"name":"X_Sniper7","steam_id":76561198081097640,"connected_time":15947000000000,"state":"active","ping":70},{"user_id":994,"name":"917-258-3609","steam_id":76561198174436329,"connected_time":950000000000,"state":"active","ping":70},{"user_id":1003,"name":"Metallus","steam_id":76561198087440853,"connected_time":23000000000,"state":"spawning","ping":74},{"user_id":997,"name":"The Box Guy","steam_id":76561198176143711,"connected_time":376000000000,"state":"active","ping":61},{"user_id":992,"name":"pocketpc_","steam_id":76561198123199942,"connected_time":1158000000000,"state":"active","ping":58},{"user_id":978,"name":"Bubbles","steam_id":76561197983589254,"connected_time":2039000000000,"state":"active","ping":70},{"user_id":1004,"name":"ursa","steam_id":76561198025394298,"connected_time":19000000000,"state":"spawning","ping":60},{"user_id":977,"name":"SYRUP LADY BAD","steam_id":76561197982908898,"connected_time":2050000000000,"state":"active","ping":62},{"user_id":996,"name":"OGeeWilliker","steam_id":76561199466028149,"connected_time":702000000000,"state":"active","ping":69},{"user_id":923,"name":"Aqua UwU","steam_id":76561198108784167,"connected_time":6865000000000,"state":"active","ping":43},{"user_id":973,"name":"Speeply","steam_id":76561198429538809,"connected_time":2138000000000,"state":"active","ping":102},{"user_id":991,"name":"♥ JUNE ♥","steam_id":76561198975039481,"connected_time":1253000000000,"state":"active","ping":90},{"user_id":935,"name":"TrainerAbu","steam_id":76561197995479203,"connected_time":4962000000000,"state":"active","ping":73},{"user_id":981,"name":"A B1 Battle Droid","steam_id":76561198050678984,"connected_time":1992000000000,"state":"active","ping":145}]},{"server_id":402,"name":"Uncletopia | Chicago | 3 | All Maps","name_short":"chi-3","host":"chi-1.us.uncletopia.com","port":27035,"enabled":true,"region":"us-central","cc":"us","latitude":41.881832,"longitude":-87.62318,"reserved":0,"last_update":"0001-01-01T00:00:00Z","name_a2s":"Uncletopia | Chicago | 3 | All Maps","protocol":17,"map":"koth_cascade","folder":"tf","game":"Team Fortress","app_id":440,"player_count":0,"max_players":24,"Bots":0,"server_type":"Dedicated","server_os":"Linux","password":true,"vac":true,"version":"7882260","steam_id":85568392924515191,"keywords":["cp","nocrits","nodmgspread","uncletopia"],"game_id":440,"stv_port":27036,"stv_name":"Uncletopia | Chicago | 3 | All Maps | STV","players":null},{"server_id":403,"name":"Uncletopia | Chicago | 4 | All Maps","name_short":"chi-4","host":"chi-1.us.uncletopia.com","port":27045,"enabled":true,"region":"us-central","cc":"us","latitude":41.881832,"longitude":-87.62318,"reserved":0,"last_update":"0001-01-01T00:00:00Z","name_a2s":"Uncletopia | Chicago | 4 | All Maps","protocol":17,"map":"koth_highpass","folder":"tf","game":"Team Fortress","app_id":440,"player_count":0,"max_players":24,"Bots":0,"server_type":"Dedicated","server_os":"Linux","password":true,"vac":true,"version":"7882260","steam_id":85568392924515193,"keywords":["cp","nocrits","nodmgspread","uncletopia"],"game_id":440,"stv_port":27046,"stv_name":"Uncletopia | Chicago | 4 | All Maps | STV","players":null},{"server_id":36,"name":"Uncletopia | Chicago | 5 | All Maps","name_short":"chi-5","host":"chi-2.us.uncletopia.com","port":27015,"enabled":true,"region":"us-central","cc":"us","latitude":41.881832,"longitude":-87.62318,"reserved":0,"last_update":"0001-01-01T00:00:00Z","name_a2s":"Uncletopia | Chicago | 5 | All Maps","protocol":17,"map":"koth_cascade","folder":"tf","game":"Team Fortress","app_id":440,"player_count":0,"max_players":24,"Bots":0,"server_type":"Dedicated","server_os":"Linux","password":true,"vac":true,"version":"7882260","steam_id":85568392924866362,"keywords":["cp","nocrits","nodmgspread","uncletopia"],"game_id":440,"stv_port":27016,"stv_name":"Uncletopia | Chicago | 5 | All Maps | STV","players":null},{"server_id":37,"name":"Uncletopia | Chicago | 6 | All Maps","name_short":"chi-6","host":"chi-2.us.uncletopia.com","port":27025,"enabled":true,"region":"us-central","cc":"us","latitude":41.881832,"longitude":-87.62318,"reserved":0,"last_update":"0001-01-01T00:00:00Z","name_a2s":"Uncletopia | Chicago | 6 | All Maps","protocol":17,"map":"pl_badwater","folder":"tf","game":"Team Fortress","app_id":440,"player_count":0,"max_players":24,"Bots":0,"server_type":"Dedicated","server_os":"Linux","password":true,"vac":true,"version":"7882260","steam_id":85568392924866363,"keywords":["nocrits","nodmgspread","payload","uncletopia"],"game_id":440,"stv_port":27026,"stv_name":"Uncletopia | Chicago | 6 | All Maps | STV","players":null},{"server_id":38,"name":"Uncletopia | Chicago | 7 | Stopwatch Beta","name_short":"chi-7","host":"chi-2.us.uncletopia.com","port":27035,"enabled":true,"region":"us-central","cc":"us","latitude":41.881832,"longitude":-87.62318,"reserved":0,"last_update":"0001-01-01T00:00:00Z","name_a2s":"Uncletopia | Chicago | 7 | Stopwatch Beta","protocol":17,"map":"koth_highpass","folder":"tf","game":"Team Fortress","app_id":440,"player_count":0,"max_players":24,"Bots":0,"server_type":"Dedicated","server_os":"Linux","password":true,"vac":true,"version":"7882260","steam_id":85568392924866364,"keywords":["cp","nocrits","nodmgspread","uncletopia"],"game_id":440,"stv_port":27036,"stv_name":"Uncletopia | Chicago | 7 | Stopwatch Beta | STV","players":null},{"server_id":39,"name":"Uncletopia | Chicago | 8 | Community","name_short":"chi-8","host":"chi-2.us.uncletopia.com","port":27045,"enabled":true,"region":"us-central","cc":"us","latitude":41.881832,"longitude":-87.62318,"reserved":0,"last_update":"0001-01-01T00:00:00Z","name_a2s":"Uncletopia | Chicago | 8 | Community","protocol":17,"map":"workshop/koth_slaughter_rc1.ugc1712845210","folder":"tf","game":"Team Fortress","app_id":440,"player_count":0,"max_players":24,"Bots":0,"server_type":"Dedicated","server_os":"Linux","password":true,"vac":true,"version":"7882260","steam_id":85568392924866365,"keywords":["cp","nocrits","nodmgspread","uncletopia"],"game_id":440,"stv_port":27046,"stv_name":"Uncletopia | Chicago | 8 | Community | STV","players":null},{"server_id":8,"name":"Uncletopia | Dallas | 1 | All Maps","name_short":"dal-1","host":"dal-1.us.uncletopia.com","port":27015,"enabled":true,"region":"us-central","cc":"us","latitude":32.779167,"longitude":-96.80889,"reserved":0,"last_update":"0001-01-01T00:00:00Z","name_a2s":"Uncletopia | Dallas | 1 | All Maps","protocol":17,"map":"koth_viaduct","folder":"tf","game":"Team Fortress","app_id":440,"player_count":6,"max_players":24,"Bots":0,"server_type":"Dedicated","server_os":"Linux","password":true,"vac":true,"version":"7882260","steam_id":85568392924469986,"keywords":["cp","nocrits","nodmgspread","uncletopia"],"game_id":440,"stv_port":27016,"stv_name":"Uncletopia | Dallas | 1 | All Maps | STV","players":[{"user_id":993,"name":"Professionally Braindead ツ","steam_id":76561198276714220,"connected_time":5064000000000,"state":"active","ping":39},{"user_id":999,"name":"fruitymario","steam_id":76561198047190430,"connected_time":3126000000000,"state":"active","ping":70},{"user_id":970,"name":"Derpy Hooves???","steam_id":76561198101505695,"connected_time":8076000000000,"state":"active","ping":74},{"user_id":1008,"name":"Thepeasantofflies","steam_id":76561199085320668,"connected_time":521000000000,"state":"active","ping":60},{"user_id":1005,"name":"Your Local Karen Hunter","steam_id":76561199469410668,"connected_time":1702000000000,"state":"active","ping":275},{"user_id":979,"name":"a 1930","steam_id":76561198320639814,"connected_time":6570000000000,"state":"active","ping":107}]},{"server_id":108,"name":"Uncletopia | Dallas | 2 | All Maps","name_short":"dal-2","host":"dal-1.us.uncletopia.com","port":27025,"enabled":true,"region":"us-central","cc":"us","latitude":32.779167,"longitude":-96.80889,"reserved":0,"last_update":"0001-01-01T00:00:00Z","name_a2s":"Uncletopia | Dallas | 2 | All Maps","protocol":17,"map":"pl_barnblitz","folder":"tf","game":"Team Fortress","app_id":440,"player_count":24,"max_players":24,"Bots":0,"server_type":"Dedicated","server_os":"Linux","password":true,"vac":true,"version":"7882260","steam_id":85568392924469988,"keywords":["nocrits","nodmgspread","payload","uncletopia"],"game_id":440,"stv_port":27026,"stv_name":"Uncletopia | Dallas | 2 | All Maps | STV","players":[{"user_id":805,"name":"smoothie","steam_id":76561198340865425,"connected_time":261000000000,"state":"active","ping":70},{"user_id":783,"name":"twitch.tv/wokkyyy","steam_id":76561198265200834,"connected_time":1531000000000,"state":"active","ping":76},{"user_id":728,"name":"Reptile","steam_id":76561198078463246,"connected_time":7950000000000,"state":"active","ping":75},{"user_id":789,"name":"firstlastmcgee","steam_id":76561198170187989,"connected_time":702000000000,"state":"active","ping":48},{"user_id":785,"name":"FroZeN","steam_id":76561198198717506,"connected_time":1247000000000,"state":"active","ping":100},{"user_id":790,"name":"mann","steam_id":76561199406261605,"connected_time":694000000000,"state":"active","ping":46},{"user_id":808,"name":"Buzz_Lite_Beer","steam_id":76561198176511011,"connected_time":30000000000,"state":"spawning","ping":68},{"user_id":786,"name":"Discourse","steam_id":76561198984286678,"connected_time":1140000000000,"state":"active","ping":80},{"user_id":776,"name":"Freckles","steam_id":76561198045671386,"connected_time":2802000000000,"state":"active","ping":45},{"user_id":778,"name":"Melody","steam_id":76561198407789232,"connected_time":2747000000000,"state":"active","ping":115},{"user_id":799,"name":"I DO DRUGS GAMING","steam_id":76561199013414654,"connected_time":381000000000,"state":"active","ping":87},{"user_id":758,"name":"PocketTieAMPLFY","steam_id":76561199080485881,"connected_time":4379000000000,"state":"active","ping":112},{"user_id":803,"name":"Toxic Medic Main (he/they)","steam_id":76561198009314845,"connected_time":297000000000,"state":"active","ping":107},{"user_id":793,"name":"mewmewbingle","steam_id":76561198001195423,"connected_time":617000000000,"state":"active","ping":58},{"user_id":794,"name":"Anthrax","steam_id":76561197998145550,"connected_time":578000000000,"state":"active","ping":84},{"user_id":795,"name":"Conclusion E²","steam_id":76561198100017156,"connected_time":548000000000,"state":"active","ping":83},{"user_id":796,"name":"Tofu","steam_id":76561198083778611,"connected_time":538000000000,"state":"active","ping":66},{"user_id":798,"name":"Slauvy","steam_id":76561198001479663,"connected_time":463000000000,"state":"active","ping":85},{"user_id":800,"name":"baguette","steam_id":76561198041770884,"connected_time":360000000000,"state":"active","ping":75},{"user_id":801,"name":"WP Casual","steam_id":76561198057725316,"connected_time":335000000000,"state":"active","ping":96},{"user_id":772,"name":"PirateJet","steam_id":76561198050858744,"connected_time":3620000000000,"state":"active","ping":88},{"user_id":804,"name":"Michelle Obama (He/Him)","steam_id":76561198842365187,"connected_time":291000000000,"state":"active","ping":80},{"user_id":806,"name":"HTA","steam_id":76561198043879140,"connected_time":191000000000,"state":"active","ping":74},{"user_id":807,"name":"Castro","steam_id":76561198107396359,"connected_time":65000000000,"state":"active","ping":90}]},{"server_id":5,"name":"Uncletopia | Frankfurt | 1 | All Maps","name_short":"frk-1","host":"frk-1.de.uncletopia.com","port":27015,"enabled":true,"region":"eu","cc":"de","latitude":50.110924,"longitude":8.682127,"reserved":0,"last_update":"0001-01-01T00:00:00Z","name_a2s":"Uncletopia | Frankfurt | 1 | All Maps","protocol":17,"map":"koth_viaduct","folder":"tf","game":"Team Fortress","app_id":440,"player_count":0,"max_players":24,"Bots":0,"server_type":"Dedicated","server_os":"Linux","password":true,"vac":true,"version":"7882260","steam_id":85568392924469989,"keywords":["cp","nocrits","nodmgspread","uncletopia"],"game_id":440,"stv_port":27016,"stv_name":"Uncletopia | Frankfurt | 1 | All Maps | STV","players":null},{"server_id":110,"name":"Uncletopia | Frankfurt | 2 | All Maps","name_short":"frk-2","host":"frk-1.de.uncletopia.com","port":27025,"enabled":true,"region":"eu","cc":"de","latitude":50.110924,"longitude":8.682127,"reserved":0,"last_update":"0001-01-01T00:00:00Z","name_a2s":"Uncletopia | Frankfurt | 2 | All Maps","protocol":17,"map":"pl_swiftwater_final1","folder":"tf","game":"Team Fortress","app_id":440,"player_count":0,"max_players":24,"Bots":0,"server_type":"Dedicated","server_os":"Linux","password":true,"vac":true,"version":"7882260","steam_id":85568392924469990,"keywords":["nocrits","nodmgspread","payload","uncletopia"],"game_id":440,"stv_port":27026,"stv_name":"Uncletopia | Frankfurt | 2 | All Maps | STV","players":null},{"server_id":308,"name":"Uncletopia | Frankfurt | 3 | All Maps","name_short":"frk-3","host":"frk-1.de.uncletopia.com","port":27035,"enabled":true,"region":"eu","cc":"de","latitude":50.110924,"longitude":8.682127,"reserved":0,"last_update":"0001-01-01T00:00:00Z","name_a2s":"Uncletopia | Frankfurt | 3 | All Maps","protocol":17,"map":"koth_highpass","folder":"tf","game":"Team Fortress","app_id":440,"player_count":0,"max_players":24,"Bots":0,"server_type":"Dedicated","server_os":"Linux","password":true,"vac":true,"version":"7882260","steam_id":85568392924504274,"keywords":["cp","nocrits","nodmgspread","uncletopia"],"game_id":440,"stv_port":27036,"stv_name":"Uncletopia | Frankfurt | 3 | All Maps | STV","players":null},{"server_id":309,"name":"Uncletopia | Frankfurt | 4 | All Maps","name_short":"frk-4","host":"frk-1.de.uncletopia.com","port":27045,"enabled":true,"region":"eu","cc":"de","latitude":50.110924,"longitude":8.682127,"reserved":0,"last_update":"0001-01-01T00:00:00Z","name_a2s":"Uncletopia | Frankfurt | 4 | All Maps","protocol":17,"map":"koth_lakeside_final","folder":"tf","game":"Team Fortress","app_id":440,"player_count":4,"max_players":24,"Bots":0,"server_type":"Dedicated","server_os":"Linux","password":true,"vac":true,"version":"7882260","steam_id":85568392924504275,"keywords":["cp","nocrits","nodmgspread","uncletopia"],"game_id":440,"stv_port":27046,"stv_name":"Uncletopia | Frankfurt | 4 | All Maps | STV","players":[{"user_id":4,"name":"Perämiehenä","steam_id":76561197968945306,"connected_time":1561000000000,"state":"active","ping":68},{"user_id":5,"name":"ThellanM","steam_id":76561199014222387,"connected_time":1219000000000,"state":"active","ping":69},{"user_id":9,"name":"boje, nu chto za nub","steam_id":76561198172046813,"connected_time":711000000000,"state":"active","ping":69},{"user_id":10,"name":"Dude guy","steam_id":76561199422959034,"connected_time":342000000000,"state":"active","ping":81}]},{"server_id":310,"name":"Uncletopia | Frankfurt | 5 | All Maps","name_short":"frk-5","host":"frk-1.de.uncletopia.com","port":27055,"enabled":true,"region":"eu","cc":"de","latitude":50.110924,"longitude":8.682127,"reserved":0,"last_update":"0001-01-01T00:00:00Z","name_a2s":"Uncletopia | Frankfurt | 5 | All Maps","protocol":17,"map":"cp_mountainlab","folder":"tf","game":"Team Fortress","app_id":440,"player_count":0,"max_players":24,"Bots":0,"server_type":"Dedicated","server_os":"Linux","password":true,"vac":true,"version":"7882260","steam_id":85568392924504277,"keywords":["cp","nocrits","nodmgspread","uncletopia"],"game_id":440,"stv_port":27056,"stv_name":"Uncletopia | Frankfurt | 5 | All Maps | STV","players":null},{"server_id":311,"name":"Uncletopia | Frankfurt | 6 | All Maps","name_short":"frk-6","host":"frk-1.de.uncletopia.com","port":27065,"enabled":true,"region":"eu","cc":"de","latitude":50.110924,"longitude":8.682127,"reserved":0,"last_update":"0001-01-01T00:00:00Z","name_a2s":"Uncletopia | Frankfurt | 6 | All Maps","protocol":17,"map":"pl_snowycoast","folder":"tf","game":"Team Fortress","app_id":440,"player_count":24,"max_players":24,"Bots":0,"server_type":"Dedicated","server_os":"Linux","password":true,"vac":true,"version":"7882260","steam_id":85568392924504278,"keywords":["nocrits","nodmgspread","payload","uncletopia"],"game_id":440,"stv_port":27066,"stv_name":"Uncletopia | Frankfurt | 6 | All Maps | STV","players":[{"user_id":9,"name":"poliakov.noam","steam_id":76561199259322961,"connected_time":3665000000000,"state":"active","ping":106},{"user_id":5,"name":"mero","steam_id":76561198293147412,"connected_time":4880000000000,"state":"active","ping":91},{"user_id":7,"name":"Zerwee","steam_id":76561198181368101,"connected_time":4123000000000,"state":"active","ping":57},{"user_id":57,"name":"Numb3r5421","steam_id":76561199183216118,"connected_time":815000000000,"state":"active","ping":153},{"user_id":54,"name":"lit.","steam_id":76561198164806677,"connected_time":900000000000,"state":"active","ping":79},{"user_id":60,"name":"Jan.","steam_id":76561197974066329,"connected_time":697000000000,"state":"active","ping":74},{"user_id":59,"name":"Hedge Knight","steam_id":76561198989449047,"connected_time":703000000000,"state":"active","ping":119},{"user_id":26,"name":"ASS?!?!?!?!?","steam_id":76561199159262388,"connected_time":3031000000000,"state":"active","ping":87},{"user_id":58,"name":"Wiki","steam_id":76561198148455642,"connected_time":759000000000,"state":"active","ping":50},{"user_id":65,"name":"Ječmen","steam_id":76561198051617968,"connected_time":36000000000,"state":"active","ping":72},{"user_id":20,"name":"Mr.Fix","steam_id":76561199017362445,"connected_time":3161000000000,"state":"active","ping":107},{"user_id":63,"name":"*cough*","steam_id":76561198179908677,"connected_time":448000000000,"state":"active","ping":175},{"user_id":48,"name":"RiX","steam_id":76561197969053733,"connected_time":1269000000000,"state":"active","ping":70},{"user_id":23,"name":"B.batt","steam_id":76561198998684199,"connected_time":3070000000000,"state":"active","ping":118},{"user_id":52,"name":"7-Zip","steam_id":76561198099726966,"connected_time":1101000000000,"state":"active","ping":101},{"user_id":31,"name":"eva.","steam_id":76561198054474684,"connected_time":2780000000000,"state":"active","ping":75},{"user_id":55,"name":"Volmari","steam_id":76561198054253542,"connected_time":853000000000,"state":"active","ping":72},{"user_id":34,"name":"taima","steam_id":76561198281053248,"connected_time":2713000000000,"state":"active","ping":70},{"user_id":35,"name":"Mimic","steam_id":76561199204932956,"connected_time":2687000000000,"state":"active","ping":47},{"user_id":36,"name":"bunglar","steam_id":76561198027374166,"connected_time":2677000000000,"state":"active","ping":55},{"user_id":45,"name":"$nØw","steam_id":76561198238781028,"connected_time":1457000000000,"state":"active","ping":96},{"user_id":43,"name":"Hey, I´m Andy!","steam_id":76561198060337777,"connected_time":2082000000000,"state":"active","ping":79},{"user_id":49,"name":"Leibeigener","steam_id":76561199275478305,"connected_time":1269000000000,"state":"active","ping":38},{"user_id":62,"name":"nicotine","steam_id":76561198169940201,"connected_time":568000000000,"state":"active","ping":49}]},{"server_id":23,"name":"Uncletopia | Frankfurt | 7 | Stopwatch Beta","name_short":"frk-7","host":"frk-1.de.uncletopia.com","port":27075,"enabled":true,"region":"eu","cc":"de","latitude":50.110924,"longitude":8.682127,"reserved":0,"last_update":"0001-01-01T00:00:00Z","name_a2s":"Uncletopia | Frankfurt | 7 | Stopwatch Beta","protocol":17,"map":"cp_dustbowl","folder":"tf","game":"Team Fortress","app_id":440,"player_count":0,"max_players":24,"Bots":0,"server_type":"Dedicated","server_os":"Linux","password":true,"vac":true,"version":"7882260","steam_id":85568392924742827,"keywords":["cp","nocrits","nodmgspread","uncletopia"],"game_id":440,"stv_port":27076,"stv_name":"Uncletopia | Frankfurt | 7 | Stopwatch Beta | STV","players":null},{"server_id":24,"name":"Uncletopia | Frankfurt | 8 | Community","name_short":"frk-8","host":"frk-1.de.uncletopia.com","port":27085,"enabled":true,"region":"eu","cc":"de","latitude":50.110924,"longitude":8.682127,"reserved":0,"last_update":"0001-01-01T00:00:00Z","name_a2s":"Uncletopia | Frankfurt | 8 | Community","protocol":17,"map":"koth_cascade","folder":"tf","game":"Team Fortress","app_id":440,"player_count":0,"max_players":24,"Bots":0,"server_type":"Dedicated","server_os":"Linux","password":true,"vac":true,"version":"7882260","steam_id":85568392924742828,"keywords":["cp","nocrits","nodmgspread","uncletopia"],"game_id":440,"stv_port":27086,"stv_name":"Uncletopia | Frankfurt | 8 | Community | STV","players":null},{"server_id":202,"name":"Uncletopia | Hong Kong | 1 | All Maps","name_short":"hgk-1","host":"hgk-1.hk.uncletopia.com","port":27015,"enabled":true,"region":"asia","cc":"hk","latitude":22.302711,"longitude":114.177216,"reserved":0,"last_update":"0001-01-01T00:00:00Z","name_a2s":"Uncletopia | Hong Kong | 1 | All Maps","protocol":17,"map":"pl_badwater","folder":"tf","game":"Team Fortress","app_id":440,"player_count":17,"max_players":24,"Bots":0,"server_type":"Dedicated","server_os":"Linux","password":true,"vac":true,"version":"7882260","steam_id":85568392924494504,"keywords":["nocrits","nodmgspread","payload","uncletopia"],"game_id":440,"stv_port":27016,"stv_name":"Uncletopia | Hong Kong | 1 | All Maps | STV","players":[{"user_id":32,"name":"Butterfly Balls","steam_id":76561199151801550,"connected_time":2330000000000,"state":"active","ping":119},{"user_id":44,"name":"cstr","steam_id":76561198125946388,"connected_time":1017000000000,"state":"active","ping":90},{"user_id":33,"name":"7853","steam_id":76561199390507975,"connected_time":1936000000000,"state":"active","ping":50},{"user_id":34,"name":"MongGoyo63","steam_id":76561198349540834,"connected_time":1631000000000,"state":"active","ping":92},{"user_id":37,"name":"Corn_Archer","steam_id":76561199185044554,"connected_time":1364000000000,"state":"active","ping":70},{"user_id":36,"name":"Jumanji™","steam_id":76561198431664383,"connected_time":1459000000000,"state":"active","ping":60},{"user_id":38,"name":"water tastes good","steam_id":76561199375947670,"connected_time":1282000000000,"state":"active","ping":59},{"user_id":39,"name":"D O N E","steam_id":76561198988918828,"connected_time":1246000000000,"state":"active","ping":63},{"user_id":58,"name":"silverhouse7","steam_id":76561198349634906,"connected_time":75000000000,"state":"active","ping":90},{"user_id":42,"name":"Noyour","steam_id":76561198323259830,"connected_time":1111000000000,"state":"active","ping":117},{"user_id":43,"name":"Xenophanes","steam_id":76561199388368914,"connected_time":1067000000000,"state":"active","ping":124},{"user_id":45,"name":"⭐A Random Guy ツ","steam_id":76561199076452888,"connected_time":869000000000,"state":"active","ping":66},{"user_id":46,"name":"Samoyed","steam_id":76561198299150410,"connected_time":808000000000,"state":"active","ping":135},{"user_id":48,"name":"Leroy","steam_id":76561199137927625,"connected_time":742000000000,"state":"active","ping":88},{"user_id":56,"name":"TomCat","steam_id":76561198133744053,"connected_time":489000000000,"state":"active","ping":116},{"user_id":51,"name":"쿠키","steam_id":76561197997220367,"connected_time":653000000000,"state":"active","ping":47},{"user_id":55,"name":"michael","steam_id":76561199158853202,"connected_time":541000000000,"state":"active","ping":62}]},{"server_id":1,"name":"Uncletopia | Los Angeles | 1 | All Maps","name_short":"lax-1","host":"lax-1.us.uncletopia.com","port":27015,"enabled":true,"region":"us-west","cc":"us","latitude":33.94279,"longitude":-118.41004,"reserved":0,"last_update":"0001-01-01T00:00:00Z","name_a2s":"Uncletopia | Los Angeles | 1 | All Maps","protocol":17,"map":"pl_frontier_final","folder":"tf","game":"Team Fortress","app_id":440,"player_count":24,"max_players":24,"Bots":0,"server_type":"Dedicated","server_os":"Linux","password":true,"vac":true,"version":"7882260","steam_id":85568392924469991,"keywords":["nocrits","nodmgspread","payload","uncletopia"],"game_id":440,"stv_port":27016,"stv_name":"Uncletopia | Los Angeles | 1 | All Maps | STV","players":[{"user_id":893,"name":"Rabblerouser","steam_id":76561198127930963,"connected_time":1711000000000,"state":"active","ping":85},{"user_id":798,"name":"ProbiusSC","steam_id":76561198379167322,"connected_time":7055000000000,"state":"active","ping":87},{"user_id":772,"name":"Burgie","steam_id":76561198066425198,"connected_time":8376000000000,"state":"active","ping":56},{"user_id":914,"name":"Mathanial","steam_id":76561198133150645,"connected_time":264000000000,"state":"active","ping":90},{"user_id":907,"name":"DeBaby(Plug\"Fraggers\"Ft.YungLuv","steam_id":76561198143209841,"connected_time":774000000000,"state":"active","ping":75},{"user_id":889,"name":"restless","steam_id":76561199201045563,"connected_time":2279000000000,"state":"active","ping":160},{"user_id":912,"name":"oske","steam_id":76561198131526809,"connected_time":672000000000,"state":"active","ping":96},{"user_id":909,"name":"YungLuv","steam_id":76561199200757524,"connected_time":728000000000,"state":"active","ping":48},{"user_id":915,"name":"mr.edderkopper","steam_id":76561198152614478,"connected_time":219000000000,"state":"active","ping":83},{"user_id":903,"name":"Korwin","steam_id":76561198027369126,"connected_time":986000000000,"state":"active","ping":93},{"user_id":908,"name":"FI LO","steam_id":76561198976530881,"connected_time":728000000000,"state":"active","ping":30},{"user_id":902,"name":"Disc0","steam_id":76561198067337267,"connected_time":1049000000000,"state":"active","ping":76},{"user_id":799,"name":"TacticalFluke","steam_id":76561198403291862,"connected_time":6980000000000,"state":"active","ping":85},{"user_id":913,"name":"Mateo The Social Engineer","steam_id":76561199199772083,"connected_time":418000000000,"state":"active","ping":68},{"user_id":904,"name":"Vic4Vendetta.ttv","steam_id":76561198262213525,"connected_time":963000000000,"state":"active","ping":94},{"user_id":910,"name":"Microsoft Word","steam_id":76561198970843549,"connected_time":715000000000,"state":"active","ping":119},{"user_id":863,"name":"Bobby","steam_id":76561198265253992,"connected_time":3884000000000,"state":"active","ping":51},{"user_id":906,"name":"Kindred.EXE","steam_id":76561198800934262,"connected_time":939000000000,"state":"active","ping":130},{"user_id":896,"name":"ScarletDream","steam_id":76561198277797713,"connected_time":1498000000000,"state":"active","ping":66},{"user_id":897,"name":"Sonata","steam_id":76561198088165440,"connected_time":1433000000000,"state":"active","ping":46},{"user_id":905,"name":"Paladin","steam_id":76561198839762958,"connected_time":951000000000,"state":"active","ping":88},{"user_id":871,"name":"Morris The Pet Rock","steam_id":76561199389115268,"connected_time":3521000000000,"state":"active","ping":68},{"user_id":898,"name":"Gavial the Invincible","steam_id":76561198348354629,"connected_time":1396000000000,"state":"active","ping":35},{"user_id":877,"name":"tr","steam_id":76561198046944222,"connected_time":3227000000000,"state":"active","ping":72}]},{"server_id":112,"name":"Uncletopia | Los Angeles | 2 | All Maps","name_short":"lax-2","host":"lax-1.us.uncletopia.com","port":27025,"enabled":true,"region":"us-west","cc":"us","latitude":33.94279,"longitude":-118.41004,"reserved":0,"last_update":"0001-01-01T00:00:00Z","name_a2s":"Uncletopia | Los Angeles | 2 | All Maps","protocol":17,"map":"cp_snakewater_final1","folder":"tf","game":"Team Fortress","app_id":440,"player_count":7,"max_players":24,"Bots":0,"server_type":"Dedicated","server_os":"Linux","password":true,"vac":true,"version":"7882260","steam_id":85568392924469992,"keywords":["cp","nocrits","nodmgspread","uncletopia"],"game_id":440,"stv_port":27026,"stv_name":"Uncletopia | Los Angeles | 2 | All Maps | STV","players":[{"user_id":660,"name":"zaza2k","steam_id":76561198393760567,"connected_time":3485000000000,"state":"active","ping":39},{"user_id":690,"name":"fartstreaks active","steam_id":76561198046073848,"connected_time":674000000000,"state":"active","ping":67},{"user_id":692,"name":"vaznes","steam_id":76561198114603745,"connected_time":465000000000,"state":"active","ping":50},{"user_id":695,"name":"Duane","steam_id":76561198078392272,"connected_time":299000000000,"state":"active","ping":54},{"user_id":694,"name":"Fashion","steam_id":76561198056788026,"connected_time":384000000000,"state":"active","ping":92},{"user_id":671,"name":"F3RRAL","steam_id":76561198172279275,"connected_time":2729000000000,"state":"active","ping":41},{"user_id":664,"name":"Solly Soupcan","steam_id":76561198071833965,"connected_time":3298000000000,"state":"active","ping":100}]},{"server_id":324,"name":"Uncletopia | Los Angeles | 3 | All Maps","name_short":"lax-3","host":"lax-1.us.uncletopia.com","port":27035,"enabled":true,"region":"us-west","cc":"us","latitude":33.94279,"longitude":-118.41004,"reserved":0,"last_update":"0001-01-01T00:00:00Z","name_a2s":"Uncletopia | Los Angeles | 3 | All Maps","protocol":17,"map":"cp_dustbowl","folder":"tf","game":"Team Fortress","app_id":440,"player_count":0,"max_players":24,"Bots":0,"server_type":"Dedicated","server_os":"Linux","password":true,"vac":true,"version":"7882260","steam_id":85568392924510198,"keywords":["cp","nocrits","nodmgspread","uncletopia"],"game_id":440,"stv_port":27036,"stv_name":"Uncletopia | Los Angeles | 3 | All Maps | STV","players":null},{"server_id":25,"name":"Uncletopia | Los Angeles | 4 | Stopwatch Beta","name_short":"lax-4","host":"lax-1.us.uncletopia.com","port":27045,"enabled":true,"region":"us-west","cc":"us","latitude":33.94279,"longitude":-118.41004,"reserved":0,"last_update":"0001-01-01T00:00:00Z","name_a2s":"Uncletopia | Los Angeles | 4 | Stopwatch Beta","protocol":17,"map":"workshop/pl_badwater_pro_v12.ugc2142942074","folder":"tf","game":"Team Fortress","app_id":440,"player_count":0,"max_players":24,"Bots":0,"server_type":"Dedicated","server_os":"Linux","password":true,"vac":true,"version":"7882260","steam_id":85568392924510199,"keywords":["nocrits","nodmgspread","payload","uncletopia"],"game_id":440,"stv_port":27046,"stv_name":"Uncletopia | Los Angeles | 4 | Stopwatch Beta | STV","players":null},{"server_id":11,"name":"Uncletopia | London | 1 | All Maps","name_short":"lon-1","host":"lon-1.uk.uncletopia.com","port":27015,"enabled":true,"region":"eu","cc":"gb","latitude":51.509865,"longitude":-0.118092,"reserved":0,"last_update":"0001-01-01T00:00:00Z","name_a2s":"Uncletopia | London | 1 | All Maps","protocol":17,"map":"pl_frontier_final","folder":"tf","game":"Team Fortress","app_id":440,"player_count":0,"max_players":24,"Bots":0,"server_type":"Dedicated","server_os":"Linux","password":true,"vac":true,"version":"7882260","steam_id":85568392924367362,"keywords":["nocrits","nodmgspread","payload","uncletopia"],"game_id":440,"stv_port":27016,"stv_name":"Uncletopia | London | 1 | All Maps | STV","players":null},{"server_id":114,"name":"Uncletopia | London | 2 | All Maps","name_short":"lon-2","host":"lon-1.uk.uncletopia.com","port":27025,"enabled":true,"region":"eu","cc":"gb","latitude":51.509865,"longitude":-0.118092,"reserved":0,"last_update":"0001-01-01T00:00:00Z","name_a2s":"Uncletopia | London | 2 | All Maps","protocol":17,"map":"koth_viaduct","folder":"tf","game":"Team Fortress","app_id":440,"player_count":0,"max_players":24,"Bots":0,"server_type":"Dedicated","server_os":"Linux","password":true,"vac":true,"version":"7882260","steam_id":85568392924470941,"keywords":["cp","nocrits","nodmgspread","uncletopia"],"game_id":440,"stv_port":27026,"stv_name":"Uncletopia | London | 2 | All Maps | STV","players":null},{"server_id":320,"name":"Uncletopia | London | 3 | All Maps","name_short":"lon-3","host":"lon-1.uk.uncletopia.com","port":27035,"enabled":true,"region":"eu","cc":"gb","latitude":51.509865,"longitude":-0.118092,"reserved":0,"last_update":"0001-01-01T00:00:00Z","name_a2s":"Uncletopia | London | 3 | All Maps","protocol":17,"map":"koth_highpass","folder":"tf","game":"Team Fortress","app_id":440,"player_count":0,"max_players":24,"Bots":0,"server_type":"Dedicated","server_os":"Linux","password":true,"vac":true,"version":"7882260","steam_id":85568392924510192,"keywords":["cp","nocrits","nodmgspread","uncletopia"],"game_id":440,"stv_port":27036,"stv_name":"Uncletopia | London | 3 | All Maps | STV","players":null},{"server_id":321,"name":"Uncletopia | London | 4 | All Maps","name_short":"lon-4","host":"lon-1.uk.uncletopia.com","port":27045,"enabled":true,"region":"eu","cc":"gb","latitude":51.509865,"longitude":-0.118092,"reserved":0,"last_update":"0001-01-01T00:00:00Z","name_a2s":"Uncletopia | London | 4 | All Maps","protocol":17,"map":"cp_mountainlab","folder":"tf","game":"Team Fortress","app_id":440,"player_count":24,"max_players":24,"Bots":0,"server_type":"Dedicated","server_os":"Linux","password":true,"vac":true,"version":"7882260","steam_id":85568392924510193,"keywords":["cp","nocrits","nodmgspread","uncletopia"],"game_id":440,"stv_port":27046,"stv_name":"Uncletopia | London | 4 | All Maps | STV","players":[{"user_id":49,"name":"Nyhde","steam_id":76561198012771416,"connected_time":13535000000000,"state":"active","ping":99},{"user_id":179,"name":"Sir Cauterize","steam_id":76561198047079422,"connected_time":2578000000000,"state":"active","ping":50},{"user_id":180,"name":"SnowShot","steam_id":76561198004766638,"connected_time":2403000000000,"state":"active","ping":77},{"user_id":175,"name":"Lowy","steam_id":76561198031470048,"connected_time":2949000000000,"state":"active","ping":47},{"user_id":174,"name":"Sylvanas","steam_id":76561198154904165,"connected_time":3005000000000,"state":"active","ping":111},{"user_id":200,"name":"1312589","steam_id":76561198079293782,"connected_time":244000000000,"state":"active","ping":52},{"user_id":144,"name":"cool skeleton","steam_id":76561198219901556,"connected_time":5363000000000,"state":"active","ping":105},{"user_id":138,"name":"s a i","steam_id":76561197970379754,"connected_time":5701000000000,"state":"active","ping":61},{"user_id":187,"name":"Qxillum","steam_id":76561198037201297,"connected_time":1369000000000,"state":"active","ping":53},{"user_id":172,"name":"hud_saytext_time 0","steam_id":76561198010327228,"connected_time":3019000000000,"state":"active","ping":74},{"user_id":191,"name":"Tank","steam_id":76561199059174576,"connected_time":620000000000,"state":"active","ping":173},{"user_id":173,"name":"Yuzu","steam_id":76561198121694613,"connected_time":3019000000000,"state":"active","ping":48},{"user_id":192,"name":"Keke","steam_id":76561198042032908,"connected_time":588000000000,"state":"active","ping":53},{"user_id":193,"name":"Tea","steam_id":76561198061580505,"connected_time":571000000000,"state":"active","ping":59},{"user_id":201,"name":"Umbro","steam_id":76561198087930438,"connected_time":36000000000,"state":"spawning","ping":76},{"user_id":195,"name":"Cryspoeth47","steam_id":76561198892776023,"connected_time":466000000000,"state":"active","ping":121},{"user_id":202,"name":"tïger","steam_id":76561198260483157,"connected_time":7000000000,"state":"spawning","ping":245},{"user_id":134,"name":"Dzan50","steam_id":76561198059758591,"connected_time":5790000000000,"state":"active","ping":99},{"user_id":196,"name":"DefaultSimon","steam_id":76561198137613889,"connected_time":439000000000,"state":"active","ping":76},{"user_id":197,"name":"Mr. Shadow | Folfie","steam_id":76561198037028507,"connected_time":370000000000,"state":"active","ping":62},{"user_id":198,"name":"Ratatatatatatouille","steam_id":76561198182267098,"connected_time":363000000000,"state":"active","ping":92},{"user_id":199,"name":"idc","steam_id":76561198322087870,"connected_time":351000000000,"state":"active","ping":105},{"user_id":181,"name":"mild annoyance","steam_id":76561198080956366,"connected_time":2295000000000,"state":"active","ping":85},{"user_id":189,"name":"tiktok vasectomy","steam_id":76561198260363522,"connected_time":705000000000,"state":"active","ping":83}]},{"server_id":21,"name":"Uncletopia | London | 5 | All Maps","name_short":"lon-5","host":"lon-1.uk.uncletopia.com","port":27055,"enabled":true,"region":"eu","cc":"gb","latitude":51.509865,"longitude":-0.118092,"reserved":0,"last_update":"0001-01-01T00:00:00Z","name_a2s":"Uncletopia | London | 5 | All Maps","protocol":17,"map":"koth_lakeside_final","folder":"tf","game":"Team Fortress","app_id":440,"player_count":0,"max_players":24,"Bots":0,"server_type":"Dedicated","server_os":"Linux","password":true,"vac":true,"version":"7882260","steam_id":85568392924742829,"keywords":["cp","nocrits","nodmgspread","uncletopia"],"game_id":440,"stv_port":27056,"stv_name":"Uncletopia | London | 5 | All Maps | STV","players":null},{"server_id":22,"name":"Uncletopia | London | 6 | All Maps","name_short":"lon-6","host":"lon-1.uk.uncletopia.com","port":27065,"enabled":true,"region":"eu","cc":"gb","latitude":51.509865,"longitude":-0.118092,"reserved":0,"last_update":"0001-01-01T00:00:00Z","name_a2s":"Uncletopia | London | 6 | All Maps","protocol":17,"map":"cp_altitude","folder":"tf","game":"Team Fortress","app_id":440,"player_count":0,"max_players":24,"Bots":0,"server_type":"Dedicated","server_os":"Linux","password":true,"vac":true,"version":"7882260","steam_id":85568392924742830,"keywords":["cp","nocrits","nodmgspread","uncletopia"],"game_id":440,"stv_port":27066,"stv_name":"Uncletopia | London | 6 | All Maps | STV","players":null},{"server_id":40,"name":"Uncletopia | London | 7 | No Payload","name_short":"lon-7","host":"lon-1.uk.uncletopia.com","port":27075,"enabled":true,"region":"eu","cc":"gb","latitude":51.509865,"longitude":-0.118092,"reserved":0,"last_update":"0001-01-01T00:00:00Z","name_a2s":"Uncletopia | London | 7 | No Payload","protocol":17,"map":"pl_pier","folder":"tf","game":"Team Fortress","app_id":440,"player_count":0,"max_players":24,"Bots":0,"server_type":"Dedicated","server_os":"Linux","password":true,"vac":true,"version":"7882260","steam_id":85568392924964314,"keywords":["nocrits","nodmgspread","payload","uncletopia"],"game_id":440,"stv_port":27076,"stv_name":"Uncletopia | London | 7 | No Payload | STV","players":null},{"server_id":41,"name":"Uncletopia | London | 8 | Community","name_short":"lon-8","host":"lon-1.uk.uncletopia.com","port":27085,"enabled":true,"region":"eu","cc":"gb","latitude":51.509865,"longitude":-0.118092,"reserved":0,"last_update":"0001-01-01T00:00:00Z","name_a2s":"Uncletopia | London | 8 | Community","protocol":17,"map":"pl_swiftwater_final1","folder":"tf","game":"Team Fortress","app_id":440,"player_count":0,"max_players":24,"Bots":0,"server_type":"Dedicated","server_os":"Linux","password":true,"vac":true,"version":"7882260","steam_id":85568392924964315,"keywords":["nocrits","nodmgspread","payload","uncletopia"],"game_id":440,"stv_port":27086,"stv_name":"Uncletopia | London | 8 | Community | STV","players":null},{"server_id":300,"name":"Uncletopia | Montréal | 1 | All Maps","name_short":"mtl-1","host":"mtl-1.ca.uncletopia.com","port":27015,"enabled":true,"region":"us-east","cc":"ca","latitude":45.50889,"longitude":-73.56167,"reserved":0,"last_update":"0001-01-01T00:00:00Z","name_a2s":"Uncletopia | Montréal | 1 | All Maps","protocol":17,"map":"cp_altitude","folder":"tf","game":"Team Fortress","app_id":440,"player_count":0,"max_players":24,"Bots":0,"server_type":"Dedicated","server_os":"Linux","password":true,"vac":true,"version":"7882260","steam_id":85568392924500087,"keywords":["cp","nocrits","nodmgspread","uncletopia"],"game_id":440,"stv_port":27016,"stv_name":"Uncletopia | Montréal | 1 | All Maps | STV","players":null},{"server_id":301,"name":"Uncletopia | Montréal | 2 | All Maps","name_short":"mtl-2","host":"mtl-1.ca.uncletopia.com","port":27025,"enabled":true,"region":"us-east","cc":"ca","latitude":45.50889,"longitude":-73.56167,"reserved":0,"last_update":"0001-01-01T00:00:00Z","name_a2s":"Uncletopia | Montréal | 2 | All Maps","protocol":17,"map":"koth_cascade","folder":"tf","game":"Team Fortress","app_id":440,"player_count":0,"max_players":24,"Bots":0,"server_type":"Dedicated","server_os":"Linux","password":true,"vac":true,"version":"7882260","steam_id":85568392924500088,"keywords":["cp","nocrits","nodmgspread","uncletopia"],"game_id":440,"stv_port":27026,"stv_name":"Uncletopia | Montréal | 2 | All Maps | STV","players":null},{"server_id":302,"name":"Uncletopia | Montréal | 3 | All Maps","name_short":"mtl-3","host":"mtl-1.ca.uncletopia.com","port":27035,"enabled":true,"region":"us-east","cc":"ca","latitude":45.50889,"longitude":-73.56167,"reserved":0,"last_update":"0001-01-01T00:00:00Z","name_a2s":"Uncletopia | Montréal | 3 | All Maps","protocol":17,"map":"koth_highpass","folder":"tf","game":"Team Fortress","app_id":440,"player_count":0,"max_players":24,"Bots":0,"server_type":"Dedicated","server_os":"Linux","password":true,"vac":true,"version":"7882260","steam_id":85568392924500089,"keywords":["cp","nocrits","nodmgspread","uncletopia"],"game_id":440,"stv_port":27036,"stv_name":"Uncletopia | Montréal | 3 | All Maps | STV","players":null},{"server_id":303,"name":"Uncletopia | Montréal | 4 | No Payload","name_short":"mtl-4","host":"mtl-1.ca.uncletopia.com","port":27045,"enabled":true,"region":"us-east","cc":"ca","latitude":45.50889,"longitude":-73.56167,"reserved":0,"last_update":"0001-01-01T00:00:00Z","name_a2s":"Uncletopia | Montréal | 4 | No Payload","protocol":17,"map":"koth_highpass","folder":"tf","game":"Team Fortress","app_id":440,"player_count":0,"max_players":24,"Bots":0,"server_type":"Dedicated","server_os":"Linux","password":true,"vac":true,"version":"7882260","steam_id":85568392924500090,"keywords":["cp","nocrits","nodmgspread","uncletopia"],"game_id":440,"stv_port":27046,"stv_name":"Uncletopia | Montréal | 4 | No Payload | STV","players":null},{"server_id":13,"name":"Uncletopia | New York City | 1 | All Maps","name_short":"nyc-1","host":"nyc-1.us.uncletopia.com","port":27015,"enabled":true,"region":"us-east","cc":"us","latitude":40.73061,"longitude":-73.93524,"reserved":0,"last_update":"0001-01-01T00:00:00Z","name_a2s":"Uncletopia | New York City | 1 | All Maps","protocol":17,"map":"cp_process_final","folder":"tf","game":"Team Fortress","app_id":440,"player_count":0,"max_players":24,"Bots":0,"server_type":"Dedicated","server_os":"Linux","password":true,"vac":true,"version":"7882260","steam_id":85568392924469993,"keywords":["cp","nocrits","nodmgspread","uncletopia"],"game_id":440,"stv_port":27016,"stv_name":"Uncletopia | New York City | 1 | All Maps | STV","players":null},{"server_id":14,"name":"Uncletopia | New York City | 2 | All Maps","name_short":"nyc-2","host":"nyc-1.us.uncletopia.com","port":27025,"enabled":true,"region":"us-east","cc":"us","latitude":40.73061,"longitude":-73.93524,"reserved":0,"last_update":"0001-01-01T00:00:00Z","name_a2s":"Uncletopia | New York City | 2 | All Maps","protocol":17,"map":"cp_snakewater_final1","folder":"tf","game":"Team Fortress","app_id":440,"player_count":0,"max_players":24,"Bots":0,"server_type":"Dedicated","server_os":"Linux","password":true,"vac":true,"version":"7882260","steam_id":85568392924469994,"keywords":["cp","nocrits","nodmgspread","uncletopia"],"game_id":440,"stv_port":27026,"stv_name":"Uncletopia | New York City | 2 | All Maps | STV","players":null},{"server_id":15,"name":"Uncletopia | New York City | 3 | Stopwatch Beta","name_short":"nyc-3","host":"nyc-1.us.uncletopia.com","port":27035,"enabled":true,"region":"us-east","cc":"us","latitude":40.73061,"longitude":-73.93524,"reserved":0,"last_update":"0001-01-01T00:00:00Z","name_a2s":"Uncletopia | New York City | 3 | Stopwatch Beta","protocol":17,"map":"koth_highpass","folder":"tf","game":"Team Fortress","app_id":440,"player_count":0,"max_players":24,"Bots":0,"server_type":"Dedicated","server_os":"Linux","password":true,"vac":true,"version":"7882260","steam_id":85568392924742820,"keywords":["cp","nocrits","nodmgspread","uncletopia"],"game_id":440,"stv_port":27036,"stv_name":"Uncletopia | New York City | 3 | Stopwatch Beta | STV","players":null},{"server_id":16,"name":"Uncletopia | New York City | 4 | Community","name_short":"nyc-4","host":"nyc-1.us.uncletopia.com","port":27045,"enabled":true,"region":"us-east","cc":"us","latitude":40.73061,"longitude":-73.93524,"reserved":0,"last_update":"0001-01-01T00:00:00Z","name_a2s":"Uncletopia | New York City | 4 | Community","protocol":17,"map":"workshop/cp_sulfur_rc2.ugc619869471","folder":"tf","game":"Team Fortress","app_id":440,"player_count":0,"max_players":24,"Bots":0,"server_type":"Dedicated","server_os":"Linux","password":true,"vac":true,"version":"7882260","steam_id":85568392924742821,"keywords":["cp","nocrits","nodmgspread","uncletopia"],"game_id":440,"stv_port":27046,"stv_name":"Uncletopia | New York City | 4 | Community | STV","players":null},{"server_id":142,"name":"Uncletopia | São Paulo | 1 | All Maps","name_short":"sao-1","host":"sao-1.br.uncletopia.com","port":27015,"enabled":true,"region":"sa","cc":"br","latitude":-23.533773,"longitude":-46.62529,"reserved":0,"last_update":"0001-01-01T00:00:00Z","name_a2s":"Uncletopia | São Paulo | 1 | All Maps","protocol":17,"map":"cp_process_final","folder":"tf","game":"Team Fortress","app_id":440,"player_count":0,"max_players":24,"Bots":0,"server_type":"Dedicated","server_os":"Linux","password":true,"vac":true,"version":"7882260","steam_id":85568392924469996,"keywords":["cp","nocrits","nodmgspread","uncletopia"],"game_id":440,"stv_port":27016,"stv_name":"Uncletopia | São Paulo | 1 | All Maps | STV","players":null},{"server_id":143,"name":"Uncletopia | São Paulo | 2 | All Maps","name_short":"sao-2","host":"sao-2.br.uncletopia.com","port":27015,"enabled":true,"region":"sa","cc":"br","latitude":-23.533773,"longitude":-46.62529,"reserved":0,"last_update":"0001-01-01T00:00:00Z","name_a2s":"Uncletopia | São Paulo | 2 | All Maps","protocol":17,"map":"pl_pier","folder":"tf","game":"Team Fortress","app_id":440,"player_count":0,"max_players":24,"Bots":0,"server_type":"Dedicated","server_os":"Linux","password":true,"vac":true,"version":"7882260","steam_id":85568392924485349,"keywords":["nocrits","nodmgspread","payload","uncletopia"],"game_id":440,"stv_port":27016,"stv_name":"Uncletopia | São Paulo | 2 | All Maps | STV","players":null},{"server_id":7,"name":"Uncletopia | Seattle | 1 | All Maps","name_short":"sea-1","host":"sea-1.us.uncletopia.com","port":27015,"enabled":true,"region":"us-west","cc":"us","latitude":47.608013,"longitude":-122.33517,"reserved":0,"last_update":"0001-01-01T00:00:00Z","name_a2s":"Uncletopia | Seattle | 1 | All Maps","protocol":17,"map":"pl_frontier_final","folder":"tf","game":"Team Fortress","app_id":440,"player_count":24,"max_players":24,"Bots":0,"server_type":"Dedicated","server_os":"Linux","password":true,"vac":true,"version":"7882260","steam_id":85568392924469997,"keywords":["nocrits","nodmgspread","payload","uncletopia"],"game_id":440,"stv_port":27016,"stv_name":"Uncletopia | Seattle | 1 | All Maps | STV","players":[{"user_id":888,"name":"alcohol alchemist","steam_id":76561198134309750,"connected_time":3009000000000,"state":"active","ping":104},{"user_id":909,"name":"mu","steam_id":76561197997530228,"connected_time":636000000000,"state":"active","ping":57},{"user_id":865,"name":"oil","steam_id":76561198099980149,"connected_time":6092000000000,"state":"active","ping":72},{"user_id":910,"name":"exephur","steam_id":76561198135763234,"connected_time":632000000000,"state":"active","ping":66},{"user_id":842,"name":"gorlab","steam_id":76561198025089694,"connected_time":8812000000000,"state":"active","ping":62},{"user_id":839,"name":"rorywashere /ᐠ - ˕ -マ Ⳋ","steam_id":76561198065825165,"connected_time":8861000000000,"state":"active","ping":92},{"user_id":899,"name":"blozet","steam_id":76561199120161035,"connected_time":1797000000000,"state":"active","ping":85},{"user_id":905,"name":"Little Linguine","steam_id":76561198816986370,"connected_time":934000000000,"state":"active","ping":62},{"user_id":912,"name":"..flop","steam_id":76561197989058876,"connected_time":564000000000,"state":"active","ping":87},{"user_id":903,"name":"FD0XY","steam_id":76561198862653083,"connected_time":1081000000000,"state":"active","ping":40},{"user_id":892,"name":"mumbles","steam_id":76561197994528974,"connected_time":2224000000000,"state":"active","ping":87},{"user_id":911,"name":"Goob","steam_id":76561198256918638,"connected_time":630000000000,"state":"active","ping":74},{"user_id":829,"name":"schmegalodon","steam_id":76561198986534519,"connected_time":10146000000000,"state":"active","ping":51},{"user_id":893,"name":"creacher","steam_id":76561198148104308,"connected_time":2131000000000,"state":"active","ping":111},{"user_id":896,"name":"Jacobzeba01","steam_id":76561198131808718,"connected_time":1945000000000,"state":"active","ping":65},{"user_id":908,"name":"toes","steam_id":76561198221151676,"connected_time":808000000000,"state":"active","ping":54},{"user_id":900,"name":"Cam","steam_id":76561198285054047,"connected_time":1625000000000,"state":"active","ping":81},{"user_id":863,"name":"John Calibur","steam_id":76561197999986606,"connected_time":6609000000000,"state":"active","ping":75},{"user_id":864,"name":"jorts","steam_id":76561199041179985,"connected_time":6480000000000,"state":"active","ping":65},{"user_id":847,"name":"booze behemoth","steam_id":76561198043558709,"connected_time":8564000000000,"state":"active","ping":54},{"user_id":913,"name":"CheeseCake488","steam_id":76561199407617942,"connected_time":553000000000,"state":"active","ping":139},{"user_id":914,"name":"korkskrou","steam_id":76561198422156430,"connected_time":483000000000,"state":"active","ping":47},{"user_id":916,"name":"iphone 7 plus","steam_id":76561198335836405,"connected_time":426000000000,"state":"active","ping":75},{"user_id":852,"name":"smeasly","steam_id":76561198028718812,"connected_time":8404000000000,"state":"active","ping":44}]},{"server_id":119,"name":"Uncletopia | Seattle | 2 | All Maps","name_short":"sea-2","host":"sea-1.us.uncletopia.com","port":27025,"enabled":true,"region":"us-west","cc":"us","latitude":47.608013,"longitude":-122.33517,"reserved":0,"last_update":"0001-01-01T00:00:00Z","name_a2s":"Uncletopia | Seattle | 2 | All Maps","protocol":17,"map":"koth_viaduct","folder":"tf","game":"Team Fortress","app_id":440,"player_count":0,"max_players":24,"Bots":0,"server_type":"Dedicated","server_os":"Linux","password":true,"vac":true,"version":"7882260","steam_id":85568392924469998,"keywords":["cp","nocrits","nodmgspread","uncletopia"],"game_id":440,"stv_port":27026,"stv_name":"Uncletopia | Seattle | 2 | All Maps | STV","players":null},{"server_id":406,"name":"Uncletopia | Seattle | 3 | Stopwatch Beta","name_short":"sea-3","host":"sea-1.us.uncletopia.com","port":27035,"enabled":true,"region":"us-west","cc":"us","latitude":47.608013,"longitude":-122.33517,"reserved":0,"last_update":"0001-01-01T00:00:00Z","name_a2s":"Uncletopia | Seattle | 3 | Stopwatch Beta","protocol":17,"map":"workshop/koth_bagel_rc6.ugc2514036946","folder":"tf","game":"Team Fortress","app_id":440,"player_count":0,"max_players":24,"Bots":0,"server_type":"Dedicated","server_os":"Linux","password":true,"vac":true,"version":"7882260","steam_id":85568392924515217,"keywords":["cp","nocrits","nodmgspread","uncletopia"],"game_id":440,"stv_port":27036,"stv_name":"Uncletopia | Seattle | 3 | Stopwatch Beta | STV","players":null},{"server_id":17,"name":"Uncletopia | San Francisco | 1 | All Maps","name_short":"sfo-1","host":"sfo-1.us.uncletopia.com","port":27015,"enabled":true,"region":"us-west","cc":"us","latitude":37.77397,"longitude":-122.4313,"reserved":0,"last_update":"0001-01-01T00:00:00Z","name_a2s":"Uncletopia | San Francisco | 1 | All Maps","protocol":17,"map":"cp_process_final","folder":"tf","game":"Team Fortress","app_id":440,"player_count":0,"max_players":24,"Bots":0,"server_type":"Dedicated","server_os":"Linux","password":true,"vac":true,"version":"7757534","steam_id":85568392924469999,"keywords":["cp","nocrits","nodmgspread","uncletopia"],"game_id":440,"stv_port":27016,"stv_name":"Uncletopia | San Francisco | 1 | All Maps | STV","players":null},{"server_id":18,"name":"Uncletopia | San Francisco | 2 | All Maps","name_short":"sfo-2","host":"sfo-1.us.uncletopia.com","port":27025,"enabled":true,"region":"us-west","cc":"us","latitude":37.77397,"longitude":-122.4313,"reserved":0,"last_update":"0001-01-01T00:00:00Z","name_a2s":"Uncletopia | San Francisco | 2 | All Maps","protocol":17,"map":"koth_highpass","folder":"tf","game":"Team Fortress","app_id":440,"player_count":0,"max_players":24,"Bots":0,"server_type":"Dedicated","server_os":"Linux","password":true,"vac":true,"version":"7757534","steam_id":85568392924470000,"keywords":["cp","nocrits","nodmgspread","uncletopia"],"game_id":440,"stv_port":27026,"stv_name":"Uncletopia | San Francisco | 2 | All Maps | STV","players":null},{"server_id":19,"name":"Uncletopia | San Francisco | 3 | Stopwatch Beta","name_short":"sfo-3","host":"sfo-1.us.uncletopia.com","port":27035,"enabled":true,"region":"us-west","cc":"us","latitude":37.77397,"longitude":-122.4313,"reserved":0,"last_update":"0001-01-01T00:00:00Z","name_a2s":"Uncletopia | San Francisco | 3 | Stopwatch Beta","protocol":17,"map":"koth_lakeside_final","folder":"tf","game":"Team Fortress","app_id":440,"player_count":0,"max_players":24,"Bots":0,"server_type":"Dedicated","server_os":"Linux","password":true,"vac":true,"version":"7757534","steam_id":85568392924742824,"keywords":["cp","nocrits","nodmgspread","uncletopia"],"game_id":440,"stv_port":27036,"stv_name":"Uncletopia | San Francisco | 3 | Stopwatch Beta | STV","players":null},{"server_id":20,"name":"Uncletopia | San Francisco | 4 | Community","name_short":"sfo-4","host":"sfo-1.us.uncletopia.com","port":27045,"enabled":true,"region":"us-west","cc":"us","latitude":37.77397,"longitude":-122.4313,"reserved":0,"last_update":"0001-01-01T00:00:00Z","name_a2s":"Uncletopia | San Francisco | 4 | Community","protocol":17,"map":"cp_altitude","folder":"tf","game":"Team Fortress","app_id":440,"player_count":0,"max_players":24,"Bots":0,"server_type":"Dedicated","server_os":"Linux","password":true,"vac":true,"version":"7757534","steam_id":85568392924742826,"keywords":["cp","nocrits","nodmgspread","uncletopia"],"game_id":440,"stv_port":27046,"stv_name":"Uncletopia | San Francisco | 4 | Community | STV","players":null},{"server_id":141,"name":"Uncletopia | Sydney | 1 | All Maps","name_short":"syd-1","host":"syd-1.au.uncletopia.com","port":27015,"enabled":true,"region":"au","cc":"au","latitude":-33.865143,"longitude":151.2099,"reserved":0,"last_update":"0001-01-01T00:00:00Z","name_a2s":"Uncletopia | Sydney | 1 | All Maps","protocol":17,"map":"pl_upward","folder":"tf","game":"Team Fortress","app_id":440,"player_count":24,"max_players":24,"Bots":0,"server_type":"Dedicated","server_os":"Linux","password":true,"vac":true,"version":"7882260","steam_id":85568392924470001,"keywords":["nocrits","nodmgspread","payload","uncletopia"],"game_id":440,"stv_port":27016,"stv_name":"Uncletopia | Sydney | 1 | All Maps | STV","players":[{"user_id":477,"name":"Muffin","steam_id":76561198075391119,"connected_time":989000000000,"state":"active","ping":48},{"user_id":465,"name":"tœ","steam_id":76561198402054391,"connected_time":1710000000000,"state":"active","ping":49},{"user_id":491,"name":"Lumalee ❤","steam_id":76561198157613299,"connected_time":191000000000,"state":"active","ping":58},{"user_id":470,"name":"hmmmmm","steam_id":76561198797890384,"connected_time":1454000000000,"state":"active","ping":61},{"user_id":480,"name":"CypressFluff (She/Her)","steam_id":76561198174667818,"connected_time":750000000000,"state":"active","ping":55},{"user_id":492,"name":"Sentry Gun (EpicGuy4227)","steam_id":76561198094132328,"connected_time":190000000000,"state":"active","ping":63},{"user_id":438,"name":"calculusfish","steam_id":76561198067205959,"connected_time":3675000000000,"state":"active","ping":64},{"user_id":437,"name":"Bob Ross","steam_id":76561198081686896,"connected_time":3720000000000,"state":"active","ping":65},{"user_id":482,"name":"cubes!","steam_id":76561198071613199,"connected_time":672000000000,"state":"active","ping":67},{"user_id":471,"name":"BeanFlikka420","steam_id":76561198009665987,"connected_time":1383000000000,"state":"active","ping":98},{"user_id":459,"name":"JokerMain","steam_id":76561198144857794,"connected_time":2569000000000,"state":"active","ping":46},{"user_id":484,"name":"[MORB] manglemonster","steam_id":76561198155233607,"connected_time":462000000000,"state":"active","ping":85},{"user_id":474,"name":"SuPerTeD","steam_id":76561197996233289,"connected_time":1112000000000,"state":"active","ping":82},{"user_id":461,"name":"Ratbagus","steam_id":76561197993827486,"connected_time":2539000000000,"state":"active","ping":77},{"user_id":467,"name":"Zort","steam_id":76561198056414289,"connected_time":1597000000000,"state":"active","ping":65},{"user_id":485,"name":"xenolotl","steam_id":76561198045610545,"connected_time":445000000000,"state":"active","ping":55},{"user_id":473,"name":"Corrupt","steam_id":76561198008567328,"connected_time":1261000000000,"state":"active","ping":65},{"user_id":424,"name":"smite","steam_id":76561198845304189,"connected_time":5180000000000,"state":"active","ping":86},{"user_id":488,"name":"neen","steam_id":76561197998963199,"connected_time":434000000000,"state":"active","ping":63},{"user_id":486,"name":"RustyMeat","steam_id":76561198119162442,"connected_time":442000000000,"state":"active","ping":68},{"user_id":472,"name":"Tiggerex","steam_id":76561198049006869,"connected_time":1362000000000,"state":"active","ping":102},{"user_id":487,"name":"Aubrey","steam_id":76561198177748597,"connected_time":441000000000,"state":"active","ping":59},{"user_id":490,"name":"Phibs","steam_id":76561199323730865,"connected_time":245000000000,"state":"active","ping":38},{"user_id":469,"name":"Apteryx","steam_id":76561197976460834,"connected_time":1544000000000,"state":"active","ping":64}]},{"server_id":123,"name":"Uncletopia | Sydney | 2 | All Maps","name_short":"syd-2","host":"syd-1.au.uncletopia.com","port":27025,"enabled":true,"region":"au","cc":"au","latitude":-33.865143,"longitude":151.2099,"reserved":0,"last_update":"0001-01-01T00:00:00Z","name_a2s":"Uncletopia | Sydney | 2 | All Maps","protocol":17,"map":"cp_dustbowl","folder":"tf","game":"Team Fortress","app_id":440,"player_count":15,"max_players":24,"Bots":0,"server_type":"Dedicated","server_os":"Linux","password":true,"vac":true,"version":"7882260","steam_id":85568392924470002,"keywords":["cp","nocrits","nodmgspread","uncletopia"],"game_id":440,"stv_port":27026,"stv_name":"Uncletopia | Sydney | 2 | All Maps | STV","players":[{"user_id":276,"name":"Kremmen","steam_id":76561198051368641,"connected_time":1735000000000,"state":"active","ping":68},{"user_id":296,"name":"ToastmanJack","steam_id":76561198145347722,"connected_time":334000000000,"state":"active","ping":67},{"user_id":299,"name":"DOOMINATOR24","steam_id":76561198362436153,"connected_time":136000000000,"state":"active","ping":64},{"user_id":257,"name":"Vanessa","steam_id":76561198077728992,"connected_time":3243000000000,"state":"active","ping":53},{"user_id":297,"name":"Flakey","steam_id":76561198021618682,"connected_time":234000000000,"state":"active","ping":63},{"user_id":300,"name":"One Punch Littleon Nic #savetf2","steam_id":76561199117769216,"connected_time":128000000000,"state":"active","ping":51},{"user_id":282,"name":"dinxie","steam_id":76561199448765541,"connected_time":1366000000000,"state":"active","ping":70},{"user_id":301,"name":"SilverPenguin","steam_id":76561199025744213,"connected_time":104000000000,"state":"active","ping":106},{"user_id":281,"name":"Morpheus","steam_id":76561198038939198,"connected_time":1420000000000,"state":"active","ping":99},{"user_id":302,"name":"suspicious_steven2011","steam_id":76561198043936328,"connected_time":27000000000,"state":"active","ping":44},{"user_id":295,"name":"little raw meat boy","steam_id":76561199248254676,"connected_time":534000000000,"state":"active","ping":59},{"user_id":289,"name":"eeknoM","steam_id":76561198887692951,"connected_time":932000000000,"state":"active","ping":80},{"user_id":217,"name":"mushroom","steam_id":76561197992336470,"connected_time":6137000000000,"state":"active","ping":92},{"user_id":263,"name":"FreeBeers","steam_id":76561198095448607,"connected_time":2710000000000,"state":"active","ping":71},{"user_id":264,"name":"Jodelkönig Franzl Lang","steam_id":76561198007667830,"connected_time":2610000000000,"state":"active","ping":54}]},{"server_id":395,"name":"Uncletopia | Sydney | 3 | All Maps","name_short":"syd-3","host":"syd-1.au.uncletopia.com","port":27035,"enabled":true,"region":"au","cc":"au","latitude":-33.865143,"longitude":151.2099,"reserved":0,"last_update":"0001-01-01T00:00:00Z","name_a2s":"Uncletopia | Sydney | 3 | All Maps","protocol":17,"map":"koth_viaduct","folder":"tf","game":"Team Fortress","app_id":440,"player_count":0,"max_players":24,"Bots":0,"server_type":"Dedicated","server_os":"Linux","password":true,"vac":true,"version":"7882260","steam_id":85568392925194467,"keywords":["cp","nocrits","nodmgspread","uncletopia"],"game_id":440,"stv_port":27036,"stv_name":"Uncletopia | Sydney | 3 | All Maps | STV","players":null},{"server_id":396,"name":"Uncletopia | Sydney | 4 | All Maps","name_short":"syd-4","host":"syd-1.au.uncletopia.com","port":27045,"enabled":true,"region":"au","cc":"au","latitude":-33.865143,"longitude":151.2099,"reserved":0,"last_update":"0001-01-01T00:00:00Z","name_a2s":"Uncletopia | Sydney | 4 | All Maps","protocol":17,"map":"koth_lakeside_final","folder":"tf","game":"Team Fortress","app_id":440,"player_count":0,"max_players":24,"Bots":0,"server_type":"Dedicated","server_os":"Linux","password":true,"vac":true,"version":"7882260","steam_id":85568392925397958,"keywords":["cp","nocrits","nodmgspread","uncletopia"],"game_id":440,"stv_port":27046,"stv_name":"Uncletopia | Sydney | 4 | All Maps | STV","players":null},{"server_id":58,"name":"Uncletopia | Sydney | 5 | Stopwatch Beta","name_short":"syd-5","host":"syd-1.au.uncletopia.com","port":27055,"enabled":true,"region":"au","cc":"au","latitude":-33.865143,"longitude":151.2099,"reserved":0,"last_update":"0001-01-01T00:00:00Z","name_a2s":"Uncletopia | Sydney | 5 | Stopwatch Beta","protocol":17,"map":"workshop/pl_vigil_rc9.ugc1266210012","folder":"tf","game":"Team Fortress","app_id":440,"player_count":0,"max_players":24,"Bots":0,"server_type":"Dedicated","server_os":"Linux","password":true,"vac":true,"version":"7882260","steam_id":85568392925397959,"keywords":["nocrits","nodmgspread","payload","uncletopia"],"game_id":440,"stv_port":27056,"stv_name":"Uncletopia | Sydney | 5 | Stopwatch Beta | STV","players":null},{"server_id":59,"name":"Uncletopia | Sydney | 6 | Community","name_short":"syd-6","host":"syd-1.au.uncletopia.com","port":27065,"enabled":true,"region":"au","cc":"au","latitude":-33.865143,"longitude":151.2099,"reserved":0,"last_update":"0001-01-01T00:00:00Z","name_a2s":"Uncletopia | Sydney | 6 | Community","protocol":17,"map":"workshop/pl_divulgence_b4b.ugc2884808746","folder":"tf","game":"Team Fortress","app_id":440,"player_count":0,"max_players":24,"Bots":0,"server_type":"Dedicated","server_os":"Linux","password":true,"vac":true,"version":"7882260","steam_id":85568392925397960,"keywords":["nocrits","nodmgspread","payload","uncletopia"],"game_id":440,"stv_port":27066,"stv_name":"Uncletopia | Sydney | 6 | Community | STV","players":null},{"server_id":49,"name":"Uncletopia | Warsaw | 1 | All Maps","name_short":"waw-1","host":"waw-1.pl.uncletopia.com","port":27015,"enabled":true,"region":"eu","cc":"pl","latitude":52.2297,"longitude":21.017532,"reserved":0,"last_update":"0001-01-01T00:00:00Z","name_a2s":"","protocol":0,"map":"","folder":"","game":"","app_id":0,"player_count":0,"max_players":0,"Bots":0,"server_type":"","server_os":"","password":false,"vac":false,"version":"","steam_id":0,"keywords":null,"game_id":0,"stv_port":0,"stv_name":"","players":null},{"server_id":50,"name":"Uncletopia | Warsaw | 2 | All Maps","name_short":"waw-2","host":"waw-1.pl.uncletopia.com","port":27025,"enabled":true,"region":"eu","cc":"pl","latitude":52.2297,"longitude":21.017532,"reserved":0,"last_update":"0001-01-01T00:00:00Z","name_a2s":"Uncletopia | Warsaw | 2 | All Maps","protocol":17,"map":"pl_swiftwater_final1","folder":"tf","game":"Team Fortress","app_id":440,"player_count":0,"max_players":24,"Bots":0,"server_type":"Dedicated","server_os":"Linux","password":true,"vac":true,"version":"7882260","steam_id":85568392925397851,"keywords":["nocrits","nodmgspread","payload","uncletopia"],"game_id":440,"stv_port":27026,"stv_name":"Uncletopia | Warsaw | 2 | All Maps | STV","players":null},{"server_id":51,"name":"Uncletopia | Warsaw | 3 | All Maps","name_short":"waw-3","host":"waw-1.pl.uncletopia.com","port":27035,"enabled":true,"region":"eu","cc":"pl","latitude":52.2297,"longitude":21.017532,"reserved":0,"last_update":"0001-01-01T00:00:00Z","name_a2s":"Uncletopia | Warsaw | 3 | All Maps","protocol":17,"map":"koth_viaduct","folder":"tf","game":"Team Fortress","app_id":440,"player_count":0,"max_players":24,"Bots":0,"server_type":"Dedicated","server_os":"Linux","password":true,"vac":true,"version":"7882260","steam_id":85568392925397852,"keywords":["cp","nocrits","nodmgspread","uncletopia"],"game_id":440,"stv_port":27036,"stv_name":"Uncletopia | Warsaw | 3 | All Maps | STV","players":null},{"server_id":52,"name":"Uncletopia | Warsaw | 4 | All Maps","name_short":"waw-4","host":"waw-1.pl.uncletopia.com","port":27045,"enabled":true,"region":"eu","cc":"pl","latitude":52.2297,"longitude":21.017532,"reserved":0,"last_update":"0001-01-01T00:00:00Z","name_a2s":"Uncletopia | Warsaw | 4 | All Maps","protocol":17,"map":"koth_highpass","folder":"tf","game":"Team Fortress","app_id":440,"player_count":0,"max_players":24,"Bots":0,"server_type":"Dedicated","server_os":"Linux","password":true,"vac":true,"version":"7882260","steam_id":85568392925397853,"keywords":["cp","nocrits","nodmgspread","uncletopia"],"game_id":440,"stv_port":27046,"stv_name":"Uncletopia | Warsaw | 4 | All Maps | STV","players":null},{"server_id":53,"name":"Uncletopia | Warsaw | 5 | Stopwatch Beta","name_short":"waw-5","host":"waw-1.pl.uncletopia.com","port":27055,"enabled":true,"region":"eu","cc":"pl","latitude":52.2297,"longitude":21.017532,"reserved":0,"last_update":"0001-01-01T00:00:00Z","name_a2s":"Uncletopia | Warsaw | 5 | Stopwatch Beta","protocol":17,"map":"cp_mountainlab","folder":"tf","game":"Team Fortress","app_id":440,"player_count":0,"max_players":24,"Bots":0,"server_type":"Dedicated","server_os":"Linux","password":true,"vac":true,"version":"7882260","steam_id":85568392925397854,"keywords":["cp","nocrits","nodmgspread","uncletopia"],"game_id":440,"stv_port":27056,"stv_name":"Uncletopia | Warsaw | 5 | Stopwatch Beta | STV","players":null},{"server_id":54,"name":"Uncletopia | Warsaw | 6 | Community","name_short":"waw-6","host":"waw-1.pl.uncletopia.com","port":27065,"enabled":true,"region":"eu","cc":"pl","latitude":52.2297,"longitude":21.017532,"reserved":0,"last_update":"0001-01-01T00:00:00Z","name_a2s":"Uncletopia | Warsaw | 6 | Community","protocol":17,"map":"koth_viaduct","folder":"tf","game":"Team Fortress","app_id":440,"player_count":0,"max_players":24,"Bots":0,"server_type":"Dedicated","server_os":"Linux","password":true,"vac":true,"version":"7882260","steam_id":85568392925397856,"keywords":["cp","nocrits","nodmgspread","uncletopia"],"game_id":440,"stv_port":27066,"stv_name":"Uncletopia | Warsaw | 6 | Community | STV","players":null}]}