{"status":true,"message":"","result":[{"server_id":9,"name":"Uncletopia | Atlanta | 1 | All Maps","name_short":"atl-1","host":"atl-1.us.uncletopia.com","port":27015,"enabled":true,"region":"us-east","cc":"us","latitude":33.753746,"longitude":-84.38633,"reserved":0,"last_update":"0001-01-01T00:00:00Z","name_a2s":"Uncletopia | Atlanta | 1 | All Maps","protocol":17,"map":"pl_snowycoast","folder":"tf","game":"Team Fortress","app_id":440,"player_count":24,"max_players":24,"Bots":0,"server_type":"Dedicated","server_os":"Linux","password":true,"vac":true,"version":"7961495","steam_id":85568392924469982,"keywords":["nocrits","nodmgspread","payload","uncletopia"],"game_id":440,"stv_port":27016,"stv_name":"Uncletopia | Atlanta | 1 | All Maps | STV","players":null},{"server_id":104,"name":"Uncletopia | Atlanta | 2 | All Maps","name_short":"atl-2","host":"atl-1.us.uncletopia.com","port":27025,"enabled":true,"region":"us-east","cc":"us","latitude":33.753746,"longitude":-84.38633,"reserved":0,"last_update":"0001-01-01T00:00:00Z","name_a2s":"Uncletopia | Atlanta | 2 | All Maps","protocol":17,"map":"pl_barnblitz","folder":"tf","game":"Team Fortress","app_id":440,"player_count":24,"max_players":24,"Bots":0,"server_type":"Dedicated","server_os":"Linux","password":true,"vac":true,"version":"7961495","steam_id":85568392924469983,"keywords":["nocrits","nodmgspread","payload","uncletopia"],"game_id":440,"stv_port":27026,"stv_name":"Uncletopia | Atlanta | 2 | All Maps | STV","players":null},{"server_id":400,"name":"Uncletopia | Atlanta | 3 | Stopwatch","name_short":"atl-3","host":"atl-1.us.uncletopia.com","port":27035,"enabled":true,"region":"us-east","cc":"us","latitude":33.753746,"longitude":-84.38633,"reserved":0,"last_update":"0001-01-01T00:00:00Z","name_a2s":"Uncletopia | Atlanta | 3 | Stopwatch","protocol":17,"map":"cp_metalworks","folder":"tf","game":"Team Fortress","app_id":440,"player_count":0,"max_players":24,"Bots":0,"server_type":"Dedicated","server_os":"Linux","password":true,"vac":true,"version":"7961495","steam_id":85568392924515187,"keywords":["cp","nocrits","nodmgspread","uncletopia"],"game_id":440,"stv_port":27036,"stv_name":"Uncletopia | Atlanta | 3 | Stopwatch | STV","players":null},{"server_id":401,"name":"Uncletopia | Atlanta | 4 | Community","name_short":"atl-4","host":"atl-1.us.uncletopia.com","port":27045,"enabled":true,"region":"us-east","cc":"us","latitude":33.753746,"longitude":-84.38633,"reserved":0,"last_update":"0001-01-01T00:00:00Z","name_a2s":"Uncletopia | Atlanta | 4 | Community","protocol":17,"map":"pl_cactuscanyon_redux_final2","folder":"tf","game":"Team Fortress","app_id":440,"player_count":24,"max_players":24,"Bots":0,"server_type":"Dedicated","server_os":"Linux","password":true,"vac":true,"version":"7961495","steam_id":85568392924515188,"keywords":["nocrits","nodmgspread","payload","uncletopia"],"game_id":440,"stv_port":27046,"stv_name":"Uncletopia | Atlanta | 4 | Community | STV","players":null},{"server_id":2,"name":"Uncletopia | Chicago | 1 | All Maps","name_short":"chi-1","host":"chi-1.us.uncletopia.com","port":27015,"enabled":true,"region":"us-central","cc":"us","latitude":41.881832,"longitude":-87.62318,"reserved":0,"last_update":"0001-01-01T00:00:00Z","name_a2s":"Uncletopia | Chicago | 1 | All Maps","protocol":17,"map":"koth_viaduct","folder":"tf","game":"Team Fortress","app_id":440,"player_count":24,"max_players":24,"Bots":0,"server_type":"Dedicated","server_os":"Linux","password":true,"vac":true,"version":"7961495","steam_id":85568392924469984,"keywords":["cp","nocrits","nodmgspread","uncletopia"],"game_id":440,"stv_port":27016,"stv_name":"Uncletopia | Chicago | 1 | All Maps | STV","players":[{"user_id":634,"name":"Doug-gouD","steam_id":76561198972330147,"connected_time":2528000000000,"state":"active","ping":66},{"user_id":650,"name":"Hippie Patrick","steam_id":76561199119425920,"connected_time":1287000000000,"state":"active","ping":78},{"user_id":657,"name":"Baego Brother","steam_id":76561198260516158,"connected_time":497000000000,"state":"active","ping":59},{"user_id":626,"name":"PINKARCTICFOXYFOX(MYAA)","steam_id":76561199191867474,"connected_time":3193000000000,"state":"active","ping":76},{"user_id":639,"name":"only a spoonful","steam_id":76561198113180616,"connected_time":1413000000000,"state":"active","ping":65},{"user_id":590,"name":"Praise_to_the_Flashlight!","steam_id":76561199001728789,"connected_time":6893000000000,"state":"active","ping":63},{"user_id":640,"name":"MaxWumbo","steam_id":76561198230411616,"connected_time":1406000000000,"state":"active","ping":79},{"user_id":641,"name":"Weirdo","steam_id":76561199150514223,"connected_time":1397000000000,"state":"active","ping":115},{"user_id":637,"name":"Visual Depression","steam_id":76561198825918366,"connected_time":1852000000000,"state":"active","ping":101},{"user_id":601,"name":"Bearegard","steam_id":76561198061926542,"connected_time":6102000000000,"state":"active","ping":61},{"user_id":664,"name":"Cdesmondd","steam_id":76561198072774462,"connected_time":108000000000,"state":"active","ping":54},{"user_id":642,"name":"tiefling lesbian","steam_id":76561198162998471,"connected_time":1390000000000,"state":"active","ping":74},{"user_id":635,"name":"Eminem Guardian","steam_id":76561198064631314,"connected_time":2362000000000,"state":"active","ping":64},{"user_id":552,"name":"Khaicchi ‚ô•","steam_id":76561198104454754,"connected_time":9453000000000,"state":"active","ping":176},{"user_id":646,"name":"Leonardo","steam_id":76561198211357229,"connected_time":1345000000000,"state":"active","ping":71},{"user_id":660,"name":"atomic clarence","steam_id":76561198156538484,"connected_time":224000000000,"state":"active","ping":79},{"user_id":656,"name":"MungJR","steam_id":76561198078316612,"connected_time":851000000000,"state":"active","ping":181},{"user_id":661,"name":"ComputeCore167","steam_id":76561198301250353,"connected_time":217000000000,"state":"active","ping":72},{"user_id":662,"name":"Riandox","steam_id":76561198130577326,"connected_time":203000000000,"state":"active","ping":61},{"user_id":645,"name":"dirty30","steam_id":76561198021226566,"connected_time":1361000000000,"state":"active","ping":92},{"user_id":654,"name":"NE-0N","steam_id":76561199210183889,"connected_time":1240000000000,"state":"active","ping":68},{"user_id":648,"name":"MINUMIZED","steam_id":76561198017539604,"connected_time":1307000000000,"state":"active","ping":69},{"user_id":663,"name":"toastman","steam_id":76561198207073088,"connected_time":187000000000,"state":"active","ping":75},{"user_id":636,"name":"Vox Vulpera","steam_id":76561198796227041,"connected_time":2341000000000,"state":"active","ping":79}]},{"server_id":106,"name":"Uncletopia | Chicago | 2 | All Maps","name_short":"chi-2","host":"chi-1.us.uncletopia.com","port":27025,"enabled":true,"region":"us-central","cc":"us","latitude":41.881832,"longitude":-87.62318,"reserved":0,"last_update":"0001-01-01T00:00:00Z","name_a2s":"Uncletopia | Chicago | 2 | All Maps","protocol":17,"map":"pl_upward","folder":"tf","game":"Team Fortress","app_id":440,"player_count":24,"max_players":24,"Bots":0,"server_type":"Dedicated","server_os":"Linux","password":true,"vac":true,"version":"7961495","steam_id":85568392924469985,"keywords":["nocrits","nodmgspread","payload","uncletopia"],"game_id":440,"stv_port":27026,"stv_name":"Uncletopia | Chicago | 2 | All Maps | STV","players":[{"user_id":566,"name":"SPIRE_FAN","steam_id":76561198001486573,"connected_time":4738000000000,"state":"active","ping":71},{"user_id":581,"name":"KYLE KYLESON","steam_id":76561198021920887,"connected_time":2869000000000,"state":"active","ping":38},{"user_id":587,"name":"Ms Twig","steam_id":76561198144111736,"connected_time":2565000000000,"state":"active","ping":52},{"user_id":602,"name":"cwdox15","steam_id":76561199228948249,"connected_time":661000000000,"state":"active","ping":84},{"user_id":578,"name":"Homvel","steam_id":76561198000848413,"connected_time":2929000000000,"state":"active","ping":49},{"user_id":604,"name":"Jezzus","steam_id":76561199289676387,"connected_time":269000000000,"state":"active","ping":89},{"user_id":586,"name":"Citizen‚Åµ","steam_id":76561198053856640,"connected_time":2747000000000,"state":"active","ping":66},{"user_id":580,"name":"Pandora Nyx","steam_id":76561198093475054,"connected_time":2898000000000,"state":"active","ping":71},{"user_id":494,"name":"Fiendish Frog","steam_id":76561198029478821,"connected_time":9499000000000,"state":"active","ping":72},{"user_id":605,"name":"PAC-MATH","steam_id":76561198327729748,"connected_time":243000000000,"state":"active","ping":65},{"user_id":577,"name":"Strix","steam_id":76561199014560047,"connected_time":3263000000000,"state":"active","ping":93},{"user_id":607,"name":"BlueCrue","steam_id":76561198066698869,"connected_time":241000000000,"state":"active","ping":65},{"user_id":608,"name":"jimmy hat","steam_id":76561198046632405,"connected_time":240000000000,"state":"active","ping":86},{"user_id":594,"name":"WalrusNyetheBonkGuy","steam_id":76561197995626774,"connected_time":1518000000000,"state":"active","ping":110},{"user_id":609,"name":"‚ù§ Ashley ‚ù§","steam_id":76561198056428303,"connected_time":237000000000,"state":"active","ping":105},{"user_id":610,"name":"self sufficient kitten","steam_id":76561197960592612,"connected_time":224000000000,"state":"active","ping":99},{"user_id":582,"name":"üçíbutaüçí","steam_id":76561198135538212,"connected_time":2868000000000,"state":"active","ping":50},{"user_id":599,"name":"The Law","steam_id":76561198202209948,"connected_time":1134000000000,"state":"active","ping":58},{"user_id":603,"name":"ellby","steam_id":76561198304585963,"connected_time":632000000000,"state":"active","ping":57},{"user_id":585,"name":"Wolfking450","steam_id":76561198399975373,"connected_time":2823000000000,"state":"active","ping":84},{"user_id":573,"name":"dasboot","steam_id":76561198027322901,"connected_time":3767000000000,"state":"active","ping":56},{"user_id":385,"name":"stormfoam","steam_id":76561198936871387,"connected_time":15804000000000,"state":"active","ping":78},{"user_id":601,"name":"Sink","steam_id":76561198192420249,"connected_time":929000000000,"state":"active","ping":55},{"user_id":611,"name":"Raccoon Wizard","steam_id":76561198072562591,"connected_time":223000000000,"state":"active","ping":88}]},{"server_id":402,"name":"Uncletopia | Chicago | 3 | All Maps","name_short":"chi-3","host":"chi-1.us.uncletopia.com","port":27035,"enabled":true,"region":"us-central","cc":"us","latitude":41.881832,"longitude":-87.62318,"reserved":0,"last_update":"0001-01-01T00:00:00Z","name_a2s":"Uncletopia | Chicago | 3 | All Maps","protocol":17,"map":"cp_dustbowl","folder":"tf","game":"Team Fortress","app_id":440,"player_count":24,"max_players":24,"Bots":0,"server_type":"Dedicated","server_os":"Linux","password":true,"vac":true,"version":"7961495","steam_id":85568392924515191,"keywords":["cp","nocrits","nodmgspread","uncletopia"],"game_id":440,"stv_port":27036,"stv_name":"Uncletopia | Chicago | 3 | All Maps | STV","players":[{"user_id":674,"name":"chilis baby back ribs","steam_id":76561198813516435,"connected_time":145000000000,"state":"active","ping":94},{"user_id":640,"name":"begolds8","steam_id":76561198841069098,"connected_time":2321000000000,"state":"active","ping":72},{"user_id":639,"name":"weed lesbian","steam_id":76561198042263805,"connected_time":2346000000000,"state":"active","ping":89},{"user_id":663,"name":"Toa of Time","steam_id":76561198086867556,"connected_time":836000000000,"state":"active","ping":98},{"user_id":582,"name":"The strongest ‚ë® ball","steam_id":76561198126760743,"connected_time":6913000000000,"state":"active","ping":75},{"user_id":646,"name":"Dick Grimes","steam_id":76561198157414556,"connected_time":2187000000000,"state":"active","ping":85},{"user_id":528,"name":"Strange Diplomat","steam_id":76561198428191920,"connected_time":10590000000000,"state":"active","ping":65},{"user_id":668,"name":"AlcoholicKitty","steam_id":76561198084763130,"connected_time":723000000000,"state":"active","ping":68},{"user_id":538,"name":"Uwu Micster","steam_id":76561198843890616,"connected_time":9596000000000,"state":"active","ping":87},{"user_id":661,"name":"DeSynthed","steam_id":76561198098768007,"connected_time":1201000000000,"state":"active","ping":83},{"user_id":636,"name":"Saul Goodman","steam_id":76561198157305426,"connected_time":2592000000000,"state":"active","ping":60},{"user_id":669,"name":"Tetra","steam_id":76561198012329955,"connected_time":717000000000,"state":"active","ping":103},{"user_id":673,"name":"selwonk314","steam_id":76561199122152044,"connected_time":355000000000,"state":"active","ping":62},{"user_id":648,"name":"Butters495","steam_id":76561197998689042,"connected_time":2143000000000,"state":"active","ping":75},{"user_id":670,"name":"Pamperchu himself","steam_id":76561198121468734,"connected_time":695000000000,"state":"active","ping":96},{"user_id":634,"name":"urine trouble","steam_id":76561199013266640,"connected_time":3002000000000,"state":"active","ping":68},{"user_id":658,"name":"Coochie Ganker","steam_id":76561198149967340,"connected_time":1814000000000,"state":"active","ping":86},{"user_id":659,"name":"Motreir","steam_id":76561198151717946,"connected_time":1688000000000,"state":"active","ping":75},{"user_id":666,"name":"amnyak","steam_id":76561198165831950,"connected_time":827000000000,"state":"active","ping":72},{"user_id":625,"name":"Kim Wexler","steam_id":76561198964107245,"connected_time":3342000000000,"state":"active","ping":92},{"user_id":652,"name":"Brock Obama","steam_id":76561198094643755,"connected_time":2014000000000,"state":"active","ping":76},{"user_id":660,"name":"think about it","steam_id":76561198241948526,"connected_time":1563000000000,"state":"active","ping":60},{"user_id":667,"name":"AntiCapitalist","steam_id":76561198055447355,"connected_time":808000000000,"state":"active","ping":78},{"user_id":653,"name":"Tom Cr√∫aich","steam_id":76561197999439911,"connected_time":2014000000000,"state":"active","ping":76}]},{"server_id":403,"name":"Uncletopia | Chicago | 4 | All Maps","name_short":"chi-4","host":"chi-1.us.uncletopia.com","port":27045,"enabled":true,"region":"us-central","cc":"us","latitude":41.881832,"longitude":-87.62318,"reserved":0,"last_update":"0001-01-01T00:00:00Z","name_a2s":"Uncletopia | Chicago | 4 | All Maps","protocol":17,"map":"cp_dustbowl","folder":"tf","game":"Team Fortress","app_id":440,"player_count":24,"max_players":24,"Bots":0,"server_type":"Dedicated","server_os":"Linux","password":true,"vac":true,"version":"7961495","steam_id":85568392924515193,"keywords":["cp","nocrits","nodmgspread","uncletopia"],"game_id":440,"stv_port":27046,"stv_name":"Uncletopia | Chicago | 4 | All Maps | STV","players":[{"user_id":770,"name":"Epifiny","steam_id":76561198027958086,"connected_time":1514000000000,"state":"active","ping":69},{"user_id":773,"name":"SpongedSocks","steam_id":76561198374009086,"connected_time":1435000000000,"state":"active","ping":65},{"user_id":702,"name":"Skeleton Hotel","steam_id":76561198041704727,"connected_time":5680000000000,"state":"active","ping":60},{"user_id":711,"name":"Patchy","steam_id":76561198008112883,"connected_time":5115000000000,"state":"active","ping":76},{"user_id":783,"name":"King Lionidus","steam_id":76561199085352588,"connected_time":814000000000,"state":"active","ping":90},{"user_id":761,"name":"shoutyman","steam_id":76561198055456198,"connected_time":1660000000000,"state":"active","ping":69},{"user_id":792,"name":"Hoovy","steam_id":76561198409907417,"connected_time":93000000000,"state":"active","ping":103},{"user_id":793,"name":"DooglYBooG","steam_id":76561198095204405,"connected_time":50000000000,"state":"active","ping":56},{"user_id":780,"name":" ï‚Ä¢·¥•‚Ä¢ î","steam_id":76561198185980055,"connected_time":1126000000000,"state":"active","ping":62},{"user_id":765,"name":"kicks","steam_id":76561199228854923,"connected_time":1635000000000,"state":"active","ping":54},{"user_id":774,"name":"benedro05","steam_id":76561198269369429,"connected_time":1422000000000,"state":"active","ping":55},{"user_id":725,"name":"The Face of Mercy","steam_id":76561198052083066,"connected_time":2986000000000,"state":"active","ping":79},{"user_id":669,"name":"bluebird","steam_id":76561198065219155,"connected_time":7191000000000,"state":"active","ping":45},{"user_id":789,"name":"my name jeff","steam_id":76561198179816898,"connected_time":385000000000,"state":"active","ping":132},{"user_id":762,"name":"Two-Ton Heavy Thing","steam_id":76561198201724274,"connected_time":1658000000000,"state":"active","ping":96},{"user_id":781,"name":"Urbanzpinapple","steam_id":76561198115426938,"connected_time":1092000000000,"state":"active","ping":96},{"user_id":791,"name":"Six Piece Chicken McNobody","steam_id":76561198129848222,"connected_time":207000000000,"state":"active","ping":64},{"user_id":788,"name":"lili of the valley","steam_id":76561198253172399,"connected_time":418000000000,"state":"active","ping":65},{"user_id":722,"name":"Mint Jelly","steam_id":76561197991286751,"connected_time":3441000000000,"state":"active","ping":46},{"user_id":785,"name":"lofile","steam_id":76561198083798918,"connected_time":723000000000,"state":"active","ping":71},{"user_id":703,"name":"Rornir","steam_id":76561198081829615,"connected_time":5632000000000,"state":"active","ping":43},{"user_id":782,"name":"hamilton","steam_id":76561198034096096,"connected_time":1070000000000,"state":"active","ping":83},{"user_id":787,"name":"LFT Roz257","steam_id":76561198842844532,"connected_time":479000000000,"state":"active","ping":58},{"user_id":759,"name":"WastefulTrash","steam_id":76561198119003597,"connected_time":1696000000000,"state":"active","ping":71}]},{"server_id":36,"name":"Uncletopia | Chicago | 5 | All Maps","name_short":"chi-5","host":"chi-2.us.uncletopia.com","port":27015,"enabled":true,"region":"us-central","cc":"us","latitude":41.881832,"longitude":-87.62318,"reserved":0,"last_update":"0001-01-01T00:00:00Z","name_a2s":"Uncletopia | Chicago | 5 | All Maps","protocol":17,"map":"pl_badwater","folder":"tf","game":"Team Fortress","app_id":440,"player_count":24,"max_players":24,"Bots":0,"server_type":"Dedicated","server_os":"Linux","password":true,"vac":true,"version":"7961495","steam_id":85568392924866362,"keywords":["nocrits","nodmgspread","payload","uncletopia"],"game_id":440,"stv_port":27016,"stv_name":"Uncletopia | Chicago | 5 | All Maps | STV","players":[{"user_id":595,"name":"Rat_king","steam_id":76561199465689129,"connected_time":134000000000,"state":"active","ping":75},{"user_id":574,"name":"derdds","steam_id":76561198034339940,"connected_time":2651000000000,"state":"active","ping":60},{"user_id":529,"name":"c","steam_id":76561198881665250,"connected_time":5480000000000,"state":"active","ping":90},{"user_id":594,"name":"SomeScuffedKid","steam_id":76561198086113234,"connected_time":149000000000,"state":"active","ping":71},{"user_id":559,"name":"Lane","steam_id":76561197965828506,"connected_time":3237000000000,"state":"active","ping":45},{"user_id":576,"name":"Diplodocus","steam_id":76561198023323121,"connected_time":2561000000000,"state":"active","ping":103},{"user_id":591,"name":"definitely not cris","steam_id":76561198930426710,"connected_time":698000000000,"state":"active","ping":79},{"user_id":584,"name":"RagunCagun","steam_id":76561198132848008,"connected_time":1404000000000,"state":"active","ping":45},{"user_id":593,"name":"Shorts","steam_id":76561198025009692,"connected_time":425000000000,"state":"active","ping":77},{"user_id":565,"name":"Bag","steam_id":76561198152890989,"connected_time":2782000000000,"state":"active","ping":166},{"user_id":578,"name":"YeshieSirYesSir","steam_id":76561198080214214,"connected_time":2199000000000,"state":"active","ping":45},{"user_id":494,"name":"super clickteam fusion","steam_id":76561198275101482,"connected_time":7434000000000,"state":"active","ping":138},{"user_id":597,"name":"indi","steam_id":76561198045917538,"connected_time":91000000000,"state":"active","ping":55},{"user_id":598,"name":"Coop Da Loop","steam_id":76561198049021475,"connected_time":90000000000,"state":"active","ping":57},{"user_id":596,"name":"‚ö¢","steam_id":76561199117637890,"connected_time":133000000000,"state":"active","ping":60},{"user_id":585,"name":"y0","steam_id":76561198143894333,"connected_time":1398000000000,"state":"active","ping":49},{"user_id":498,"name":"Am I Good At The Video Game?","steam_id":76561198046053281,"connected_time":7402000000000,"state":"active","ping":74},{"user_id":589,"name":"[joker] tainted_smoke5","steam_id":76561197995620232,"connected_time":1225000000000,"state":"active","ping":59},{"user_id":590,"name":"H.","steam_id":76561198074951179,"connected_time":1161000000000,"state":"active","ping":61},{"user_id":583,"name":"chunk","steam_id":76561198134775401,"connected_time":1418000000000,"state":"active","ping":56},{"user_id":586,"name":"Leonardo DiCaprio","steam_id":76561198121886765,"connected_time":1397000000000,"state":"active","ping":58},{"user_id":570,"name":"Belloq","steam_id":76561198060279052,"connected_time":2733000000000,"state":"active","ping":52},{"user_id":573,"name":"Fantastic","steam_id":76561198079088978,"connected_time":2695000000000,"state":"active","ping":46},{"user_id":572,"name":"one in a krillion","steam_id":76561198056186750,"connected_time":2724000000000,"state":"active","ping":55}]},{"server_id":37,"name":"Uncletopia | Chicago | 6 | All Maps","name_short":"chi-6","host":"chi-2.us.uncletopia.com","port":27025,"enabled":true,"region":"us-central","cc":"us","latitude":41.881832,"longitude":-87.62318,"reserved":0,"last_update":"0001-01-01T00:00:00Z","name_a2s":"Uncletopia | Chicago | 6 | All Maps","protocol":17,"map":"pl_pier","folder":"tf","game":"Team Fortress","app_id":440,"player_count":24,"max_players":24,"Bots":0,"server_type":"Dedicated","server_os":"Linux","password":true,"vac":true,"version":"7961495","steam_id":85568392924866363,"keywords":["nocrits","nodmgspread","payload","uncletopia"],"game_id":440,"stv_port":27026,"stv_name":"Uncletopia | Chicago | 6 | All Maps | STV","players":[{"user_id":530,"name":"wise","steam_id":76561198030066204,"connected_time":453000000000,"state":"active","ping":59},{"user_id":506,"name":"Generic_Soda","steam_id":76561197993528721,"connected_time":2530000000000,"state":"active","ping":60},{"user_id":529,"name":"Interrobang","steam_id":76561198385044529,"connected_time":495000000000,"state":"active","ping":142},{"user_id":525,"name":"AHHHHHHHHHHHHHHHHHHHHHHHHHHHHHH","steam_id":76561197992259775,"connected_time":1053000000000,"state":"active","ping":51},{"user_id":533,"name":"Coms","steam_id":76561198204995668,"connected_time":400000000000,"state":"active","ping":79},{"user_id":513,"name":"AkimboAoki","steam_id":76561198158323058,"connected_time":1828000000000,"state":"active","ping":98},{"user_id":531,"name":"A Rope, for big pits","steam_id":76561198068044782,"connected_time":438000000000,"state":"active","ping":71},{"user_id":479,"name":"Lore","steam_id":76561198098407538,"connected_time":4432000000000,"state":"active","ping":59},{"user_id":534,"name":"THIRDPIERCE","steam_id":76561198405366314,"connected_time":399000000000,"state":"active","ping":88},{"user_id":507,"name":"popfulmail","steam_id":76561198865971290,"connected_time":2246000000000,"state":"active","ping":87},{"user_id":535,"name":"PK","steam_id":76561198368722500,"connected_time":358000000000,"state":"active","ping":82},{"user_id":509,"name":"Monty","steam_id":76561197993567253,"connected_time":1983000000000,"state":"active","ping":93},{"user_id":512,"name":"Seskova","steam_id":76561198090207032,"connected_time":1893000000000,"state":"active","ping":114},{"user_id":527,"name":"Amari","steam_id":76561198272446730,"connected_time":874000000000,"state":"active","ping":62},{"user_id":515,"name":"tim","steam_id":76561198075510786,"connected_time":1803000000000,"state":"active","ping":76},{"user_id":516,"name":"Srg-Waffle","steam_id":76561198204555116,"connected_time":1786000000000,"state":"active","ping":76},{"user_id":523,"name":"Salazar9","steam_id":76561198049903973,"connected_time":1531000000000,"state":"active","ping":105},{"user_id":517,"name":"Stolas ‚ô•","steam_id":76561198835430280,"connected_time":1781000000000,"state":"active","ping":62},{"user_id":536,"name":"ImagineExisting","steam_id":76561198860261731,"connected_time":353000000000,"state":"active","ping":86},{"user_id":519,"name":"JACK BRUNO","steam_id":76561198027957690,"connected_time":1753000000000,"state":"active","ping":110},{"user_id":528,"name":"Û†Ä°Û†Ä°","steam_id":76561198348035053,"connected_time":871000000000,"state":"active","ping":125},{"user_id":502,"name":"Ludcmorais","steam_id":76561198359217809,"connected_time":3131000000000,"state":"active","ping":195},{"user_id":532,"name":"dirk's dirty dingleberry dining","steam_id":76561197972601902,"connected_time":434000000000,"state":"active","ping":85},{"user_id":539,"name":"guy","steam_id":76561198079925551,"connected_time":303000000000,"state":"active","ping":75}]},{"server_id":38,"name":"Uncletopia | Chicago | 7 | Stopwatch","name_short":"chi-7","host":"chi-2.us.uncletopia.com","port":27035,"enabled":true,"region":"us-central","cc":"us","latitude":41.881832,"longitude":-87.62318,"reserved":0,"last_update":"0001-01-01T00:00:00Z","name_a2s":"Uncletopia | Chicago | 7 | Stopwatch","protocol":17,"map":"workshop/koth_bagel_rc6.ugc2514036946","folder":"tf","game":"Team Fortress","app_id":440,"player_count":14,"max_players":24,"Bots":0,"server_type":"Dedicated","server_os":"Linux","password":true,"vac":true,"version":"7961495","steam_id":85568392924866364,"keywords":["cp","nocrits","nodmgspread","uncletopia"],"game_id":440,"stv_port":27036,"stv_name":"Uncletopia | Chicago | 7 | Stopwatch | STV","players":[{"user_id":87,"name":"MensRightsActivist","steam_id":76561199482149729,"connected_time":1004000000000,"state":"active","ping":51},{"user_id":106,"name":"LikeASir","steam_id":76561198042209721,"connected_time":279000000000,"state":"active","ping":45},{"user_id":86,"name":"*:ÔΩ•¬∞–∂ junemofu","steam_id":76561198029052153,"connected_time":1010000000000,"state":"active","ping":60},{"user_id":104,"name":"Bibby","steam_id":76561198047237943,"connected_time":425000000000,"state":"active","ping":60},{"user_id":90,"name":"monkey","steam_id":76561198099481645,"connected_time":844000000000,"state":"active","ping":53},{"user_id":60,"name":"Œ£lectrœÉWingPixy","steam_id":76561198118670424,"connected_time":3167000000000,"state":"active","ping":79},{"user_id":91,"name":"Missing Minus","steam_id":76561198120822928,"connected_time":825000000000,"state":"active","ping":60},{"user_id":108,"name":"Penguineat","steam_id":76561198044196715,"connected_time":198000000000,"state":"active","ping":80},{"user_id":47,"name":"uhhh","steam_id":76561198894548454,"connected_time":3654000000000,"state":"active","ping":64},{"user_id":95,"name":"Constipated Barry","steam_id":76561198004482269,"connected_time":680000000000,"state":"active","ping":92},{"user_id":97,"name":"b","steam_id":76561198156336213,"connected_time":589000000000,"state":"active","ping":75},{"user_id":98,"name":"Furioso","steam_id":76561198408747483,"connected_time":570000000000,"state":"active","ping":77},{"user_id":73,"name":"totoro","steam_id":76561198210420871,"connected_time":2635000000000,"state":"active","ping":44},{"user_id":102,"name":"‚òπ","steam_id":76561198804763186,"connected_time":448000000000,"state":"active","ping":61}]},{"server_id":39,"name":"Uncletopia | Chicago | 8 | Community","name_short":"chi-8","host":"chi-2.us.uncletopia.com","port":27045,"enabled":true,"region":"us-central","cc":"us","latitude":41.881832,"longitude":-87.62318,"reserved":0,"last_update":"0001-01-01T00:00:00Z","name_a2s":"Uncletopia | Chicago | 8 | Community","protocol":17,"map":"workshop/koth_ramjam_rc1.ugc459778887","folder":"tf","game":"Team Fortress","app_id":440,"player_count":0,"max_players":24,"Bots":0,"server_type":"Dedicated","server_os":"Linux","password":true,"vac":true,"version":"7961495","steam_id":85568392924866365,"keywords":["cp","nocrits","nodmgspread","uncletopia"],"game_id":440,"stv_port":27046,"stv_name":"Uncletopia | Chicago | 8 | Community | STV","players":null},{"server_id":8,"name":"Uncletopia | Dallas | 1 | All Maps","name_short":"dal-1","host":"dal-1.us.uncletopia.com","port":27015,"enabled":true,"region":"us-central","cc":"us","latitude":32.779167,"longitude":-96.80889,"reserved":0,"last_update":"0001-01-01T00:00:00Z","name_a2s":"Uncletopia | Dallas | 1 | All Maps","protocol":17,"map":"koth_cascade","folder":"tf","game":"Team Fortress","app_id":440,"player_count":24,"max_players":24,"Bots":0,"server_type":"Dedicated","server_os":"Linux","password":true,"vac":true,"version":"7961495","steam_id":85568392924469986,"keywords":["cp","nocrits","nodmgspread","uncletopia"],"game_id":440,"stv_port":27016,"stv_name":"Uncletopia | Dallas | 1 | All Maps | STV","players":[{"user_id":553,"name":"DlTTO","steam_id":76561199427026752,"connected_time":5086000000000,"state":"active","ping":91},{"user_id":605,"name":"corviraptor (bison sweep)","steam_id":76561198058284392,"connected_time":61000000000,"state":"active","ping":54},{"user_id":601,"name":"Gary Busey","steam_id":76561197970096950,"connected_time":226000000000,"state":"active","ping":44},{"user_id":560,"name":"RedCrayons‚Ñ¢","steam_id":76561197986925673,"connected_time":4361000000000,"state":"active","ping":100},{"user_id":603,"name":"NexFrost","steam_id":76561197985774837,"connected_time":96000000000,"state":"active","ping":31},{"user_id":590,"name":"Luffliet.","steam_id":76561198186593707,"connected_time":1893000000000,"state":"active","ping":58},{"user_id":567,"name":"Vaun Leon","steam_id":76561199223266577,"connected_time":3978000000000,"state":"active","ping":75},{"user_id":503,"name":"THRONGLER","steam_id":76561198198563466,"connected_time":11692000000000,"state":"active","ping":39},{"user_id":521,"name":"leesh","steam_id":76561198079603938,"connected_time":9891000000000,"state":"active","ping":60},{"user_id":600,"name":"FI LO","steam_id":76561198976530881,"connected_time":248000000000,"state":"active","ping":70},{"user_id":530,"name":"Sweet Tooth","steam_id":76561198830158092,"connected_time":9073000000000,"state":"active","ping":83},{"user_id":596,"name":"rocketspires","steam_id":76561198800386026,"connected_time":687000000000,"state":"active","ping":110},{"user_id":594,"name":"LampMan","steam_id":76561198079857527,"connected_time":742000000000,"state":"active","ping":59},{"user_id":514,"name":"dumbest girl alive","steam_id":76561198062263639,"connected_time":10820000000000,"state":"active","ping":51},{"user_id":577,"name":"Glaceon","steam_id":76561198177715869,"connected_time":3143000000000,"state":"active","ping":65},{"user_id":597,"name":"soft and wet","steam_id":76561198081974528,"connected_time":279000000000,"state":"active","ping":70},{"user_id":593,"name":"Withered Bonnie (Real)","steam_id":76561198423310113,"connected_time":994000000000,"state":"active","ping":55},{"user_id":602,"name":"BADWOLF42","steam_id":76561198055447523,"connected_time":226000000000,"state":"active","ping":56},{"user_id":566,"name":"Lydia","steam_id":76561198800417942,"connected_time":4184000000000,"state":"active","ping":85},{"user_id":604,"name":"SaaxoM","steam_id":76561198208256603,"connected_time":83000000000,"state":"active","ping":81},{"user_id":578,"name":"mwee machine","steam_id":76561198047126327,"connected_time":2923000000000,"state":"active","ping":106},{"user_id":606,"name":"Mister Mudkip","steam_id":76561198018632103,"connected_time":44000000000,"state":"active","ping":63},{"user_id":572,"name":"Hedless","steam_id":76561197992723400,"connected_time":3211000000000,"state":"active","ping":86},{"user_id":607,"name":"Manic","steam_id":76561198128149670,"connected_time":14000000000,"state":"spawning","ping":45}]},{"server_id":108,"name":"Uncletopia | Dallas | 2 | All Maps","name_short":"dal-2","host":"dal-1.us.uncletopia.com","port":27025,"enabled":true,"region":"us-central","cc":"us","latitude":32.779167,"longitude":-96.80889,"reserved":0,"last_update":"0001-01-01T00:00:00Z","name_a2s":"Uncletopia | Dallas | 2 | All Maps","protocol":17,"map":"koth_harvest_final","folder":"tf","game":"Team Fortress","app_id":440,"player_count":24,"max_players":24,"Bots":0,"server_type":"Dedicated","server_os":"Linux","password":true,"vac":true,"version":"7961495","steam_id":85568392924469988,"keywords":["cp","nocrits","nodmgspread","uncletopia"],"game_id":440,"stv_port":27026,"stv_name":"Uncletopia | Dallas | 2 | All Maps | STV","players":[{"user_id":518,"name":"Phos","steam_id":76561198122339506,"connected_time":2528000000000,"state":"active","ping":61},{"user_id":447,"name":"Mick","steam_id":76561198972619900,"connected_time":9219000000000,"state":"active","ping":47},{"user_id":526,"name":"Boomstick","steam_id":76561198848954160,"connected_time":424000000000,"state":"active","ping":94},{"user_id":527,"name":"TheDieeg","steam_id":76561199443116996,"connected_time":419000000000,"state":"active","ping":82},{"user_id":468,"name":"Spinch","steam_id":76561198296224166,"connected_time":7178000000000,"state":"active","ping":71},{"user_id":524,"name":"drink enjoyer","steam_id":76561199078359629,"connected_time":553000000000,"state":"active","ping":76},{"user_id":507,"name":"El G√ºey","steam_id":76561197970450546,"connected_time":3301000000000,"state":"active","ping":113},{"user_id":525,"name":"Mathottma Ghandi","steam_id":76561198003315964,"connected_time":506000000000,"state":"active","ping":86},{"user_id":532,"name":"MayKaye","steam_id":76561199016092265,"connected_time":136000000000,"state":"active","ping":76},{"user_id":531,"name":"loser","steam_id":76561198259380127,"connected_time":153000000000,"state":"active","ping":80},{"user_id":497,"name":"Winter Turtle","steam_id":76561199013760076,"connected_time":4649000000000,"state":"active","ping":67},{"user_id":504,"name":"Vanillex","steam_id":76561199125632814,"connected_time":4264000000000,"state":"active","ping":45},{"user_id":522,"name":"Ice Teea","steam_id":76561198195673201,"connected_time":1969000000000,"state":"active","ping":77},{"user_id":528,"name":"klopse","steam_id":76561198314981454,"connected_time":412000000000,"state":"active","ping":78},{"user_id":517,"name":"james may","steam_id":76561198043857339,"connected_time":2590000000000,"state":"active","ping":83},{"user_id":470,"name":"CeLeb144","steam_id":76561199089907740,"connected_time":7168000000000,"state":"active","ping":69},{"user_id":416,"name":"Publo","steam_id":76561198161777140,"connected_time":12526000000000,"state":"active","ping":55},{"user_id":508,"name":"Sylvaris","steam_id":76561198156678773,"connected_time":3198000000000,"state":"active","ping":59},{"user_id":489,"name":"sloth (be nice im cringe)","steam_id":76561198047098172,"connected_time":5262000000000,"state":"active","ping":90},{"user_id":515,"name":"havarti gaming","steam_id":76561198069895678,"connected_time":3040000000000,"state":"active","ping":125},{"user_id":516,"name":"type \"bad med\" to kick","steam_id":76561198076402476,"connected_time":3028000000000,"state":"active","ping":94},{"user_id":490,"name":"Miss Rin","steam_id":76561198337607363,"connected_time":5254000000000,"state":"active","ping":101},{"user_id":523,"name":"Kamin","steam_id":76561198255299559,"connected_time":1931000000000,"state":"active","ping":64},{"user_id":529,"name":"OmniMoto","steam_id":76561198091298557,"connected_time":405000000000,"state":"active","ping":68}]},{"server_id":404,"name":"Uncletopia | Dallas | 3 | All Maps","name_short":"dal-3","host":"dal-1.us.uncletopia.com","port":27035,"enabled":true,"region":"us-central","cc":"us","latitude":32.779167,"longitude":-96.80889,"reserved":0,"last_update":"0001-01-01T00:00:00Z","name_a2s":"Uncletopia | Dallas | 3 | All Maps","protocol":17,"map":"pl_borneo","folder":"tf","game":"Team Fortress","app_id":440,"player_count":24,"max_players":24,"Bots":0,"server_type":"Dedicated","server_os":"Linux","password":true,"vac":true,"version":"7961495","steam_id":85568392924515219,"keywords":["nocrits","nodmgspread","payload","uncletopia"],"game_id":440,"stv_port":27036,"stv_name":"Uncletopia | Dallas | 3 | All Maps | STV","players":[{"user_id":57,"name":"Snoopy","steam_id":76561198273735974,"connected_time":29368000000000,"state":"active","ping":74},{"user_id":424,"name":"aflyingmouse","steam_id":76561198058134934,"connected_time":2683000000000,"state":"active","ping":107},{"user_id":433,"name":"Ame","steam_id":76561198063597985,"connected_time":1706000000000,"state":"active","ping":88},{"user_id":417,"name":"ieatboogersAGAGAGAGAGAGA","steam_id":76561198096737300,"connected_time":3435000000000,"state":"active","ping":97},{"user_id":414,"name":"Wilfred Carr","steam_id":76561198039149060,"connected_time":3780000000000,"state":"active","ping":83},{"user_id":416,"name":"chud smoker","steam_id":76561198120973162,"connected_time":3588000000000,"state":"active","ping":92},{"user_id":434,"name":"Meat","steam_id":76561198047911274,"connected_time":1667000000000,"state":"active","ping":72},{"user_id":408,"name":"caspian","steam_id":76561197985724357,"connected_time":4038000000000,"state":"active","ping":123},{"user_id":380,"name":"NIYC Rambo","steam_id":76561198136384326,"connected_time":5545000000000,"state":"active","ping":96},{"user_id":437,"name":"RangerArrows","steam_id":76561198965353821,"connected_time":1256000000000,"state":"active","ping":89},{"user_id":438,"name":"crankshaft","steam_id":76561197992798282,"connected_time":1228000000000,"state":"active","ping":75},{"user_id":403,"name":"gagobears","steam_id":76561198086008437,"connected_time":4397000000000,"state":"active","ping":55},{"user_id":445,"name":"Kingofthem","steam_id":76561198866197308,"connected_time":125000000000,"state":"active","ping":85},{"user_id":410,"name":"Captain_Eldeezee","steam_id":76561198301560834,"connected_time":3992000000000,"state":"active","ping":37},{"user_id":442,"name":"Big Unck","steam_id":76561198024658073,"connected_time":1075000000000,"state":"active","ping":86},{"user_id":366,"name":"Joe Camel","steam_id":76561198205531739,"connected_time":6248000000000,"state":"active","ping":116},{"user_id":425,"name":"UNIT 220","steam_id":76561198042243497,"connected_time":2629000000000,"state":"active","ping":84},{"user_id":422,"name":"kaputon","steam_id":76561198146299782,"connected_time":2824000000000,"state":"active","ping":75},{"user_id":440,"name":"Do It Yua Serufu","steam_id":76561198078574114,"connected_time":1205000000000,"state":"active","ping":77},{"user_id":435,"name":"dogerich404","steam_id":76561199124102546,"connected_time":1577000000000,"state":"active","ping":94},{"user_id":404,"name":"Jack the Dripper","steam_id":76561198043911582,"connected_time":4397000000000,"state":"active","ping":89},{"user_id":429,"name":"happy man!!! :D!!!!","steam_id":76561198128468316,"connected_time":2372000000000,"state":"active","ping":60},{"user_id":431,"name":" è·¥ú·¥ä…™","steam_id":76561198401572620,"connected_time":2047000000000,"state":"active","ping":87},{"user_id":443,"name":"plink","steam_id":76561198057829889,"connected_time":698000000000,"state":"active","ping":60}]},{"server_id":405,"name":"Uncletopia | Dallas | 4 | Community","name_short":"dal-4","host":"dal-1.us.uncletopia.com","port":27045,"enabled":true,"region":"us-central","cc":"us","latitude":32.779167,"longitude":-96.80889,"reserved":0,"last_update":"0001-01-01T00:00:00Z","name_a2s":"Uncletopia | Dallas | 4 | Community","protocol":17,"map":"workshop/pl_shoreleave_rc2.ugc1238849347","folder":"tf","game":"Team Fortress","app_id":440,"player_count":16,"max_players":24,"Bots":0,"server_type":"Dedicated","server_os":"Linux","password":true,"vac":true,"version":"7961495","steam_id":85568392924515220,"keywords":["nocrits","nodmgspread","payload","uncletopia"],"game_id":440,"stv_port":27046,"stv_name":"Uncletopia | Dallas | 4 | Community | STV","players":[{"user_id":280,"name":"jumpingjacks","steam_id":76561197964839440,"connected_time":409000000000,"state":"active","ping":75},{"user_id":275,"name":"WashingMachine","steam_id":76561198318572060,"connected_time":625000000000,"state":"active","ping":60},{"user_id":254,"name":"reko","steam_id":76561198278020887,"connected_time":2269000000000,"state":"active","ping":55},{"user_id":276,"name":"American freedom bird","steam_id":76561198366142388,"connected_time":573000000000,"state":"active","ping":86},{"user_id":279,"name":"gooch_masta","steam_id":76561198151578423,"connected_time":453000000000,"state":"active","ping":85},{"user_id":252,"name":"Veil","steam_id":76561199177642251,"connected_time":2417000000000,"state":"active","ping":55},{"user_id":281,"name":"Krispium","steam_id":76561199385922181,"connected_time":328000000000,"state":"active","ping":105},{"user_id":272,"name":"Captain Chicken","steam_id":76561198047767530,"connected_time":814000000000,"state":"active","ping":111},{"user_id":267,"name":"BehindYou","steam_id":76561198987222560,"connected_time":1310000000000,"state":"active","ping":69},{"user_id":282,"name":"Ozzyrockin","steam_id":76561198094899868,"connected_time":317000000000,"state":"active","ping":57},{"user_id":261,"name":"Wife Enjoyer","steam_id":76561198044109761,"connected_time":1631000000000,"state":"active","ping":45},{"user_id":230,"name":"MoonRiver","steam_id":76561198110263264,"connected_time":4274000000000,"state":"active","ping":71},{"user_id":268,"name":"Mer","steam_id":76561198192171041,"connected_time":1275000000000,"state":"active","ping":114},{"user_id":193,"name":"Coach McFish","steam_id":76561198210456405,"connected_time":7902000000000,"state":"active","ping":91},{"user_id":231,"name":"Rainy Day Roger","steam_id":76561198101783759,"connected_time":4263000000000,"state":"active","ping":100},{"user_id":264,"name":"/\\/Mr. Phoenix/\\/","steam_id":76561198258944941,"connected_time":1557000000000,"state":"active","ping":50}]},{"server_id":5,"name":"Uncletopia | Frankfurt | 1 | All Maps","name_short":"frk-1","host":"frk-1.de.uncletopia.com","port":27015,"enabled":true,"region":"eu","cc":"de","latitude":50.110924,"longitude":8.682127,"reserved":0,"last_update":"0001-01-01T00:00:00Z","name_a2s":"Uncletopia | Frankfurt | 1 | All Maps","protocol":17,"map":"koth_highpass","folder":"tf","game":"Team Fortress","app_id":440,"player_count":0,"max_players":24,"Bots":0,"server_type":"Dedicated","server_os":"Linux","password":true,"vac":true,"version":"7961495","steam_id":85568392924469989,"keywords":["cp","nocrits","nodmgspread","uncletopia"],"game_id":440,"stv_port":27016,"stv_name":"Uncletopia | Frankfurt | 1 | All Maps | STV","players":null},{"server_id":110,"name":"Uncletopia | Frankfurt | 2 | All Maps","name_short":"frk-2","host":"frk-1.de.uncletopia.com","port":27025,"enabled":true,"region":"eu","cc":"de","latitude":50.110924,"longitude":8.682127,"reserved":0,"last_update":"0001-01-01T00:00:00Z","name_a2s":"Uncletopia | Frankfurt | 2 | All Maps","protocol":17,"map":"cp_dustbowl","folder":"tf","game":"Team Fortress","app_id":440,"player_count":0,"max_players":24,"Bots":0,"server_type":"Dedicated","server_os":"Linux","password":true,"vac":true,"version":"7961495","steam_id":85568392924469990,"keywords":["cp","nocrits","nodmgspread","uncletopia"],"game_id":440,"stv_port":27026,"stv_name":"Uncletopia | Frankfurt | 2 | All Maps | STV","players":null},{"server_id":308,"name":"Uncletopia | Frankfurt | 3 | All Maps","name_short":"frk-3","host":"frk-1.de.uncletopia.com","port":27035,"enabled":true,"region":"eu","cc":"de","latitude":50.110924,"longitude":8.682127,"reserved":0,"last_update":"0001-01-01T00:00:00Z","name_a2s":"Uncletopia | Frankfurt | 3 | All Maps","protocol":17,"map":"pl_barnblitz","folder":"tf","game":"Team Fortress","app_id":440,"player_count":0,"max_players":24,"Bots":0,"server_type":"Dedicated","server_os":"Linux","password":true,"vac":true,"version":"7961495","steam_id":85568392924504274,"keywords":["nocrits","nodmgspread","payload","uncletopia"],"game_id":440,"stv_port":27036,"stv_name":"Uncletopia | Frankfurt | 3 | All Maps | STV","players":null},{"server_id":309,"name":"Uncletopia | Frankfurt | 4 | All Maps","name_short":"frk-4","host":"frk-1.de.uncletopia.com","port":27045,"enabled":true,"region":"eu","cc":"de","latitude":50.110924,"longitude":8.682127,"reserved":0,"last_update":"0001-01-01T00:00:00Z","name_a2s":"Uncletopia | Frankfurt | 4 | All Maps","protocol":17,"map":"koth_highpass","folder":"tf","game":"Team Fortress","app_id":440,"player_count":0,"max_players":24,"Bots":0,"server_type":"Dedicated","server_os":"Linux","password":true,"vac":true,"version":"7961495","steam_id":85568392924504275,"keywords":["cp","nocrits","nodmgspread","uncletopia"],"game_id":440,"stv_port":27046,"stv_name":"Uncletopia | Frankfurt | 4 | All Maps | STV","players":null},{"server_id":310,"name":"Uncletopia | Frankfurt | 5 | All Maps","name_short":"frk-5","host":"frk-1.de.uncletopia.com","port":27055,"enabled":true,"region":"eu","cc":"de","latitude":50.110924,"longitude":8.682127,"reserved":0,"last_update":"0001-01-01T00:00:00Z","name_a2s":"Uncletopia | Frankfurt | 5 | All Maps","protocol":17,"map":"pl_badwater","folder":"tf","game":"Team Fortress","app_id":440,"player_count":0,"max_players":24,"Bots":0,"server_type":"Dedicated","server_os":"Linux","password":true,"vac":true,"version":"7961495","steam_id":85568392924504277,"keywords":["nocrits","nodmgspread","payload","uncletopia"],"game_id":440,"stv_port":27056,"stv_name":"Uncletopia | Frankfurt | 5 | All Maps | STV","players":null},{"server_id":311,"name":"Uncletopia | Frankfurt | 6 | All Maps","name_short":"frk-6","host":"frk-1.de.uncletopia.com","port":27065,"enabled":true,"region":"eu","cc":"de","latitude":50.110924,"longitude":8.682127,"reserved":0,"last_update":"0001-01-01T00:00:00Z","name_a2s":"Uncletopia | Frankfurt | 6 | All Maps","protocol":17,"map":"cp_altitude","folder":"tf","game":"Team Fortress","app_id":440,"player_count":0,"max_players":24,"Bots":0,"server_type":"Dedicated","server_os":"Linux","password":true,"vac":true,"version":"7961495","steam_id":85568392924504278,"keywords":["cp","nocrits","nodmgspread","uncletopia"],"game_id":440,"stv_port":27066,"stv_name":"Uncletopia | Frankfurt | 6 | All Maps | STV","players":null},{"server_id":23,"name":"Uncletopia | Frankfurt | 7 | Stopwatch","name_short":"frk-7","host":"frk-1.de.uncletopia.com","port":27075,"enabled":true,"region":"eu","cc":"de","latitude":50.110924,"longitude":8.682127,"reserved":0,"last_update":"0001-01-01T00:00:00Z","name_a2s":"Uncletopia | Frankfurt | 7 | Stopwatch","protocol":17,"map":"pl_frontier_final","folder":"tf","game":"Team Fortress","app_id":440,"player_count":0,"max_players":24,"Bots":0,"server_type":"Dedicated","server_os":"Linux","password":true,"vac":true,"version":"7961495","steam_id":85568392924742827,"keywords":["nocrits","nodmgspread","payload","uncletopia"],"game_id":440,"stv_port":27076,"stv_name":"Uncletopia | Frankfurt | 7 | Stopwatch | STV","players":null},{"server_id":24,"name":"Uncletopia | Frankfurt | 8 | Community","name_short":"frk-8","host":"frk-1.de.uncletopia.com","port":27085,"enabled":true,"region":"eu","cc":"de","latitude":50.110924,"longitude":8.682127,"reserved":0,"last_update":"0001-01-01T00:00:00Z","name_a2s":"Uncletopia | Frankfurt | 8 | Community","protocol":17,"map":"cp_mountainlab","folder":"tf","game":"Team Fortress","app_id":440,"player_count":0,"max_players":24,"Bots":0,"server_type":"Dedicated","server_os":"Linux","password":true,"vac":true,"version":"7961495","steam_id":85568392924742828,"keywords":["cp","nocrits","nodmgspread","uncletopia"],"game_id":440,"stv_port":27086,"stv_name":"Uncletopia | Frankfurt | 8 | Community | STV","players":null},{"server_id":202,"name":"Uncletopia | Hong Kong | 1 | All Maps","name_short":"hgk-1","host":"hgk-1.hk.uncletopia.com","port":27015,"enabled":true,"region":"asia","cc":"hk","latitude":22.302711,"longitude":114.177216,"reserved":0,"last_update":"0001-01-01T00:00:00Z","name_a2s":"Uncletopia | Hong Kong | 1 | All Maps","protocol":17,"map":"pl_swiftwater_final1","folder":"tf","game":"Team Fortress","app_id":440,"player_count":24,"max_players":24,"Bots":0,"server_type":"Dedicated","server_os":"Linux","password":true,"vac":true,"version":"7961495","steam_id":85568392924494504,"keywords":["nocrits","nodmgspread","payload","uncletopia"],"game_id":440,"stv_port":27016,"stv_name":"Uncletopia | Hong Kong | 1 | All Maps | STV","players":[{"user_id":84,"name":"Windmill","steam_id":76561199230997986,"connected_time":2007000000000,"state":"active","ping":67},{"user_id":80,"name":"Shinobimono","steam_id":76561198343322788,"connected_time":2360000000000,"state":"active","ping":122},{"user_id":98,"name":"Mystery cheese üßÄ","steam_id":76561198304002409,"connected_time":715000000000,"state":"active","ping":92},{"user_id":92,"name":"Hay","steam_id":76561199438952901,"connected_time":1156000000000,"state":"active","ping":51},{"user_id":28,"name":"JDSFE","steam_id":76561198975490851,"connected_time":6047000000000,"state":"active","ping":79},{"user_id":99,"name":"GalaxyTome","steam_id":76561198336372723,"connected_time":675000000000,"state":"active","ping":98},{"user_id":58,"name":"Corbezy","steam_id":76561197993398349,"connected_time":4140000000000,"state":"active","ping":93},{"user_id":91,"name":"blobeye","steam_id":76561198420018387,"connected_time":1161000000000,"state":"active","ping":41},{"user_id":93,"name":"SmeechSmeech","steam_id":76561198139374838,"connected_time":1129000000000,"state":"active","ping":55},{"user_id":101,"name":"villy","steam_id":76561198169263597,"connected_time":440000000000,"state":"active","ping":36},{"user_id":85,"name":"Lu","steam_id":76561198320532821,"connected_time":1888000000000,"state":"active","ping":62},{"user_id":81,"name":"screaming sniper","steam_id":76561199085568674,"connected_time":2319000000000,"state":"active","ping":60},{"user_id":102,"name":"Alka","steam_id":76561198268872312,"connected_time":98000000000,"state":"active","ping":68},{"user_id":107,"name":"ÏûâÏó¨ÏÉùÌôú","steam_id":76561198197428167,"connected_time":35000000000,"state":"active","ping":88},{"user_id":104,"name":"123456","steam_id":76561198333809604,"connected_time":59000000000,"state":"active","ping":73},{"user_id":103,"name":"Drutzhfer","steam_id":76561198299948446,"connected_time":77000000000,"state":"active","ping":108},{"user_id":90,"name":"hakos balls","steam_id":76561198074339034,"connected_time":1167000000000,"state":"active","ping":78},{"user_id":94,"name":"Rephex","steam_id":76561198308185574,"connected_time":1126000000000,"state":"active","ping":152},{"user_id":105,"name":"E","steam_id":76561198796342005,"connected_time":57000000000,"state":"active","ping":101},{"user_id":88,"name":"silverhouse7 | A |","steam_id":76561198349634906,"connected_time":1675000000000,"state":"active","ping":124},{"user_id":89,"name":"KID-LIFE","steam_id":76561198037694272,"connected_time":1173000000000,"state":"active","ping":83},{"user_id":97,"name":"\"SKS\"","steam_id":76561198187995386,"connected_time":1003000000000,"state":"active","ping":90},{"user_id":106,"name":"pyro_main69","steam_id":76561199228397589,"connected_time":51000000000,"state":"spawning","ping":109},{"user_id":83,"name":"Sijikcick","steam_id":76561199097679930,"connected_time":2255000000000,"state":"active","ping":102}]},{"server_id":1,"name":"Uncletopia | Los Angeles | 1 | All Maps","name_short":"lax-1","host":"lax-1.us.uncletopia.com","port":27015,"enabled":true,"region":"us-west","cc":"us","latitude":33.94279,"longitude":-118.41004,"reserved":0,"last_update":"0001-01-01T00:00:00Z","name_a2s":"Uncletopia | Los Angeles | 1 | All Maps","protocol":17,"map":"cp_sunshine","folder":"tf","game":"Team Fortress","app_id":440,"player_count":19,"max_players":24,"Bots":0,"server_type":"Dedicated","server_os":"Linux","password":true,"vac":true,"version":"7961495","steam_id":85568392924469991,"keywords":["cp","nocrits","nodmgspread","uncletopia"],"game_id":440,"stv_port":27016,"stv_name":"Uncletopia | Los Angeles | 1 | All Maps | STV","players":[{"user_id":807,"name":"BussinBuford","steam_id":76561199007576351,"connected_time":78000000000,"state":"active","ping":70},{"user_id":808,"name":"MrMiller","steam_id":76561199497141706,"connected_time":75000000000,"state":"active","ping":123},{"user_id":809,"name":"coolgamer8734","steam_id":76561199123258923,"connected_time":74000000000,"state":"active","ping":106},{"user_id":810,"name":"pablo.gonzales.2007","steam_id":76561199209473533,"connected_time":72000000000,"state":"active","ping":119},{"user_id":730,"name":"||:‚ô©‚ô©‚ô©‚ô™:|| Opplydead","steam_id":76561198028630334,"connected_time":6502000000000,"state":"active","ping":50},{"user_id":811,"name":"Kreseph","steam_id":76561199100107085,"connected_time":70000000000,"state":"active","ping":72},{"user_id":768,"name":"OddSlaush","steam_id":76561198043898488,"connected_time":4951000000000,"state":"active","ping":31},{"user_id":784,"name":"The Professor","steam_id":76561198046165617,"connected_time":2820000000000,"state":"active","ping":79},{"user_id":779,"name":"wow! you're goated","steam_id":76561198084708100,"connected_time":3601000000000,"state":"active","ping":48},{"user_id":798,"name":"Nova Academy of Salmon Action","steam_id":76561198021842526,"connected_time":1775000000000,"state":"active","ping":69},{"user_id":796,"name":"sobaka","steam_id":76561198116008934,"connected_time":1832000000000,"state":"spawning","ping":38},{"user_id":812,"name":"oil","steam_id":76561198099980149,"connected_time":55000000000,"state":"active","ping":55},{"user_id":813,"name":"Agent Q","steam_id":76561198830829003,"connected_time":44000000000,"state":"active","ping":74},{"user_id":763,"name":"Mainyx","steam_id":76561198811844438,"connected_time":5469000000000,"state":"active","ping":57},{"user_id":806,"name":"remanedur","steam_id":76561198059459507,"connected_time":120000000000,"state":"active","ping":129},{"user_id":764,"name":"Velgrauder","steam_id":76561198848526938,"connected_time":5440000000000,"state":"active","ping":84},{"user_id":804,"name":"Festive Mr ?","steam_id":76561199225525494,"connected_time":785000000000,"state":"active","ping":113},{"user_id":789,"name":"Freeholes","steam_id":76561198044424614,"connected_time":2633000000000,"state":"active","ping":64},{"user_id":792,"name":"Teh Pug","steam_id":76561198085810161,"connected_time":2182000000000,"state":"active","ping":44}]},{"server_id":112,"name":"Uncletopia | Los Angeles | 2 | All Maps","name_short":"lax-2","host":"lax-1.us.uncletopia.com","port":27025,"enabled":true,"region":"us-west","cc":"us","latitude":33.94279,"longitude":-118.41004,"reserved":0,"last_update":"0001-01-01T00:00:00Z","name_a2s":"Uncletopia | Los Angeles | 2 | All Maps","protocol":17,"map":"pl_barnblitz","folder":"tf","game":"Team Fortress","app_id":440,"player_count":24,"max_players":24,"Bots":0,"server_type":"Dedicated","server_os":"Linux","password":true,"vac":true,"version":"7961495","steam_id":85568392924469992,"keywords":["nocrits","nodmgspread","payload","uncletopia"],"game_id":440,"stv_port":27026,"stv_name":"Uncletopia | Los Angeles | 2 | All Maps | STV","players":[{"user_id":282,"name":"Skribbles","steam_id":76561198373073766,"connected_time":2338000000000,"state":"active","ping":58},{"user_id":193,"name":"shitass (Reaping and Sowing)","steam_id":76561198210572481,"connected_time":8321000000000,"state":"active","ping":44},{"user_id":295,"name":"Sacrificial Lamb","steam_id":76561197988869981,"connected_time":507000000000,"state":"active","ping":78},{"user_id":293,"name":"can you help me with my homewor","steam_id":76561198408159536,"connected_time":1268000000000,"state":"active","ping":103},{"user_id":285,"name":"fertile moist and well drained","steam_id":76561198031409921,"connected_time":2050000000000,"state":"active","ping":51},{"user_id":286,"name":"podge","steam_id":76561198858474714,"connected_time":2046000000000,"state":"active","ping":74},{"user_id":294,"name":"Lock'd","steam_id":76561198170108230,"connected_time":518000000000,"state":"active","ping":44},{"user_id":262,"name":"bean","steam_id":76561198279162581,"connected_time":3859000000000,"state":"active","ping":55},{"user_id":263,"name":"caca sniffer","steam_id":76561199099914725,"connected_time":3849000000000,"state":"active","ping":77},{"user_id":279,"name":"RadioNuts","steam_id":76561198258873472,"connected_time":2761000000000,"state":"active","ping":114},{"user_id":241,"name":"Dreamzapp","steam_id":76561199084936632,"connected_time":5425000000000,"state":"active","ping":66},{"user_id":296,"name":"Flare Dance","steam_id":76561198260443137,"connected_time":481000000000,"state":"active","ping":67},{"user_id":265,"name":"t.tv/baconblitz_","steam_id":76561198079461770,"connected_time":3811000000000,"state":"active","ping":88},{"user_id":301,"name":"Giantbob","steam_id":76561199043760220,"connected_time":278000000000,"state":"active","ping":69},{"user_id":280,"name":"Mr. Noodle","steam_id":76561198025280658,"connected_time":2503000000000,"state":"active","ping":55},{"user_id":283,"name":"Scorpion","steam_id":76561198325651066,"connected_time":2085000000000,"state":"active","ping":84},{"user_id":289,"name":"Á¥ÖÈ¨çÂ≠ê","steam_id":76561198072410042,"connected_time":1852000000000,"state":"active","ping":42},{"user_id":284,"name":"sola venereum","steam_id":76561198368179166,"connected_time":2085000000000,"state":"active","ping":42},{"user_id":274,"name":"NotSharky","steam_id":76561198078910436,"connected_time":3457000000000,"state":"active","ping":56},{"user_id":290,"name":"jpuck","steam_id":76561198025018960,"connected_time":1832000000000,"state":"active","ping":108},{"user_id":299,"name":"franc | montuga;com","steam_id":76561198417807155,"connected_time":376000000000,"state":"active","ping":106},{"user_id":292,"name":"GTO- TheRealWeiner[isn't-real]","steam_id":76561198083975056,"connected_time":1306000000000,"state":"active","ping":132},{"user_id":273,"name":"Jomdac","steam_id":76561198150447896,"connected_time":3510000000000,"state":"active","ping":52},{"user_id":277,"name":"FROYO b4nny","steam_id":76561197970669109,"connected_time":2993000000000,"state":"active","ping":50}]},{"server_id":324,"name":"Uncletopia | Los Angeles | 3 | All Maps","name_short":"lax-3","host":"lax-1.us.uncletopia.com","port":27035,"enabled":true,"region":"us-west","cc":"us","latitude":33.94279,"longitude":-118.41004,"reserved":0,"last_update":"0001-01-01T00:00:00Z","name_a2s":"Uncletopia | Los Angeles | 3 | All Maps","protocol":17,"map":"ctf_doublecross","folder":"tf","game":"Team Fortress","app_id":440,"player_count":24,"max_players":24,"Bots":0,"server_type":"Dedicated","server_os":"Linux","password":true,"vac":true,"version":"7961495","steam_id":85568392924510198,"keywords":["ctf","nocrits","nodmgspread","uncletopia"],"game_id":440,"stv_port":27036,"stv_name":"Uncletopia | Los Angeles | 3 | All Maps | STV","players":[{"user_id":91,"name":"Syrup_Bottle","steam_id":76561198869174481,"connected_time":269000000000,"state":"active","ping":86},{"user_id":99,"name":":)","steam_id":76561198079892116,"connected_time":27000000000,"state":"active","ping":194},{"user_id":62,"name":"hoOmIN","steam_id":76561198334947079,"connected_time":2163000000000,"state":"active","ping":45},{"user_id":18,"name":"Jimmy","steam_id":76561198857959855,"connected_time":5006000000000,"state":"active","ping":48},{"user_id":92,"name":"copper","steam_id":76561198146250533,"connected_time":262000000000,"state":"active","ping":62},{"user_id":75,"name":"BananaFana","steam_id":76561198008891875,"connected_time":1208000000000,"state":"active","ping":42},{"user_id":85,"name":"Person Man","steam_id":76561198293857963,"connected_time":614000000000,"state":"active","ping":56},{"user_id":88,"name":"walrooos","steam_id":76561198024521839,"connected_time":296000000000,"state":"active","ping":45},{"user_id":87,"name":"Calypso","steam_id":76561198082939544,"connected_time":303000000000,"state":"active","ping":101},{"user_id":98,"name":"NaeNaeChungusBozo","steam_id":76561199446407203,"connected_time":54000000000,"state":"active","ping":183},{"user_id":48,"name":"jerss","steam_id":76561199034027802,"connected_time":3404000000000,"state":"active","ping":94},{"user_id":82,"name":"[Industrial] A_HUMBLEBUMBLED","steam_id":76561198064771878,"connected_time":799000000000,"state":"active","ping":76},{"user_id":81,"name":"The Quickster","steam_id":76561199051906724,"connected_time":972000000000,"state":"active","ping":79},{"user_id":84,"name":"Rockin.e","steam_id":76561198404370714,"connected_time":641000000000,"state":"active","ping":59},{"user_id":96,"name":"Jesus Epstein","steam_id":76561198203047891,"connected_time":155000000000,"state":"active","ping":48},{"user_id":93,"name":"Big Blue","steam_id":76561198084930108,"connected_time":248000000000,"state":"active","ping":59},{"user_id":66,"name":"WhatAmIDoing","steam_id":76561199060028126,"connected_time":2092000000000,"state":"active","ping":73},{"user_id":78,"name":"Super Saiyan Bear","steam_id":76561198063118280,"connected_time":1151000000000,"state":"active","ping":55},{"user_id":94,"name":"purpz","steam_id":76561199245858101,"connected_time":237000000000,"state":"active","ping":72},{"user_id":37,"name":"rad killl raccoon","steam_id":76561198980975595,"connected_time":4244000000000,"state":"active","ping":95},{"user_id":72,"name":"Yoyos","steam_id":76561198061035695,"connected_time":1287000000000,"state":"active","ping":48},{"user_id":95,"name":"DragonJimmy","steam_id":76561198272966565,"connected_time":228000000000,"state":"active","ping":80},{"user_id":97,"name":"Rei‚òÖ","steam_id":76561199195639694,"connected_time":145000000000,"state":"active","ping":82},{"user_id":83,"name":"kfroggiedawg","steam_id":76561198371924020,"connected_time":729000000000,"state":"active","ping":68}]},{"server_id":25,"name":"Uncletopia | Los Angeles | 4 | Stopwatch","name_short":"lax-4","host":"lax-1.us.uncletopia.com","port":27045,"enabled":true,"region":"us-west","cc":"us","latitude":33.94279,"longitude":-118.41004,"reserved":0,"last_update":"0001-01-01T00:00:00Z","name_a2s":"Uncletopia | Los Angeles | 4 | Stopwatch","protocol":17,"map":"koth_highpass","folder":"tf","game":"Team Fortress","app_id":440,"player_count":0,"max_players":24,"Bots":0,"server_type":"Dedicated","server_os":"Linux","password":true,"vac":true,"version":"7961495","steam_id":85568392924510199,"keywords":["cp","nocrits","nodmgspread","uncletopia"],"game_id":440,"stv_port":27046,"stv_name":"Uncletopia | Los Angeles | 4 | Stopwatch | STV","players":null},{"server_id":11,"name":"Uncletopia | London | 1 | All Maps","name_short":"lon-1","host":"lon-1.uk.uncletopia.com","port":27015,"enabled":true,"region":"eu","cc":"gb","latitude":51.509865,"longitude":-0.118092,"reserved":0,"last_update":"0001-01-01T00:00:00Z","name_a2s":"Uncletopia | London | 1 | All Maps","protocol":17,"map":"pl_goldrush","folder":"tf","game":"Team Fortress","app_id":440,"player_count":20,"max_players":24,"Bots":0,"server_type":"Dedicated","server_os":"Linux","password":true,"vac":true,"version":"7961495","steam_id":85568392924367362,"keywords":["nocrits","nodmgspread","payload","uncletopia"],"game_id":440,"stv_port":27016,"stv_name":"Uncletopia | London | 1 | All Maps | STV","players":[{"user_id":944,"name":"Penis Contortionist","steam_id":76561198073663784,"connected_time":3948000000000,"state":"active","ping":33},{"user_id":998,"name":"Cosmo","steam_id":76561198042147273,"connected_time":27000000000,"state":"active","ping":179},{"user_id":941,"name":"BreadBox","steam_id":76561198086399953,"connected_time":4031000000000,"state":"active","ping":80},{"user_id":959,"name":"Flohr","steam_id":76561198191948841,"connected_time":2539000000000,"state":"active","ping":49},{"user_id":981,"name":"Dod0","steam_id":76561199180019003,"connected_time":1194000000000,"state":"active","ping":109},{"user_id":992,"name":"Qdarks","steam_id":76561198013391340,"connected_time":675000000000,"state":"active","ping":135},{"user_id":925,"name":"jjkun786","steam_id":76561199438517484,"connected_time":4686000000000,"state":"active","ping":77},{"user_id":972,"name":"Virgil","steam_id":76561198248786778,"connected_time":1731000000000,"state":"active","ping":117},{"user_id":960,"name":"Youssef S Ahmed","steam_id":76561199435139103,"connected_time":2524000000000,"state":"active","ping":355},{"user_id":982,"name":"–µ–±—É—á–∏–π —Å–ª—É—á–∞–π","steam_id":76561199087920612,"connected_time":1179000000000,"state":"active","ping":132},{"user_id":977,"name":"Jack","steam_id":76561198153186685,"connected_time":1402000000000,"state":"active","ping":56},{"user_id":986,"name":"engineer drip","steam_id":76561198991032570,"connected_time":959000000000,"state":"active","ping":88},{"user_id":967,"name":"Glavny Negodyai","steam_id":76561198382690305,"connected_time":2192000000000,"state":"active","ping":135},{"user_id":994,"name":". . .","steam_id":76561198184360615,"connected_time":416000000000,"state":"active","ping":90},{"user_id":970,"name":"Captain Soggy","steam_id":76561198155858008,"connected_time":1918000000000,"state":"active","ping":162},{"user_id":934,"name":"Psyche","steam_id":76561198091662001,"connected_time":4298000000000,"state":"active","ping":63},{"user_id":974,"name":"Nag","steam_id":76561197970488206,"connected_time":1512000000000,"state":"active","ping":68},{"user_id":975,"name":"loko","steam_id":76561198258675383,"connected_time":1458000000000,"state":"active","ping":75},{"user_id":964,"name":"–ê—à–î–≤–∞–≠—Å–û–ß–µ—Ç—ã—Ä–µ","steam_id":76561198846349729,"connected_time":2298000000000,"state":"active","ping":120},{"user_id":996,"name":"noseb","steam_id":76561199480942903,"connected_time":376000000000,"state":"active","ping":77}]},{"server_id":114,"name":"Uncletopia | London | 2 | All Maps","name_short":"lon-2","host":"lon-1.uk.uncletopia.com","port":27025,"enabled":true,"region":"eu","cc":"gb","latitude":51.509865,"longitude":-0.118092,"reserved":0,"last_update":"0001-01-01T00:00:00Z","name_a2s":"Uncletopia | London | 2 | All Maps","protocol":17,"map":"pl_upward","folder":"tf","game":"Team Fortress","app_id":440,"player_count":0,"max_players":24,"Bots":0,"server_type":"Dedicated","server_os":"Linux","password":true,"vac":true,"version":"7961495","steam_id":85568392924470941,"keywords":["nocrits","nodmgspread","payload","uncletopia"],"game_id":440,"stv_port":27026,"stv_name":"Uncletopia | London | 2 | All Maps | STV","players":null},{"server_id":320,"name":"Uncletopia | London | 3 | All Maps","name_short":"lon-3","host":"lon-1.uk.uncletopia.com","port":27035,"enabled":true,"region":"eu","cc":"gb","latitude":51.509865,"longitude":-0.118092,"reserved":0,"last_update":"0001-01-01T00:00:00Z","name_a2s":"Uncletopia | London | 3 | All Maps","protocol":17,"map":"koth_cascade","folder":"tf","game":"Team Fortress","app_id":440,"player_count":0,"max_players":24,"Bots":0,"server_type":"Dedicated","server_os":"Linux","password":true,"vac":true,"version":"7961495","steam_id":85568392924510192,"keywords":["cp","nocrits","nodmgspread","uncletopia"],"game_id":440,"stv_port":27036,"stv_name":"Uncletopia | London | 3 | All Maps | STV","players":null},{"server_id":321,"name":"Uncletopia | London | 4 | All Maps","name_short":"lon-4","host":"lon-1.uk.uncletopia.com","port":27045,"enabled":true,"region":"eu","cc":"gb","latitude":51.509865,"longitude":-0.118092,"reserved":0,"last_update":"0001-01-01T00:00:00Z","name_a2s":"Uncletopia | London | 4 | All Maps","protocol":17,"map":"koth_badlands","folder":"tf","game":"Team Fortress","app_id":440,"player_count":0,"max_players":24,"Bots":0,"server_type":"Dedicated","server_os":"Linux","password":true,"vac":true,"version":"7961495","steam_id":85568392924510193,"keywords":["cp","nocrits","nodmgspread","uncletopia"],"game_id":440,"stv_port":27046,"stv_name":"Uncletopia | London | 4 | All Maps | STV","players":null},{"server_id":21,"name":"Uncletopia | London | 5 | All Maps","name_short":"lon-5","host":"lon-1.uk.uncletopia.com","port":27055,"enabled":true,"region":"eu","cc":"gb","latitude":51.509865,"longitude":-0.118092,"reserved":0,"last_update":"0001-01-01T00:00:00Z","name_a2s":"Uncletopia | London | 5 | All Maps","protocol":17,"map":"koth_lakeside_final","folder":"tf","game":"Team Fortress","app_id":440,"player_count":0,"max_players":24,"Bots":0,"server_type":"Dedicated","server_os":"Linux","password":true,"vac":true,"version":"7961495","steam_id":85568392924742829,"keywords":["cp","nocrits","nodmgspread","uncletopia"],"game_id":440,"stv_port":27056,"stv_name":"Uncletopia | London | 5 | All Maps | STV","players":null},{"server_id":22,"name":"Uncletopia | London | 6 | All Maps","name_short":"lon-6","host":"lon-1.uk.uncletopia.com","port":27065,"enabled":true,"region":"eu","cc":"gb","latitude":51.509865,"longitude":-0.118092,"reserved":0,"last_update":"0001-01-01T00:00:00Z","name_a2s":"Uncletopia | London | 6 | All Maps","protocol":17,"map":"cp_mountainlab","folder":"tf","game":"Team Fortress","app_id":440,"player_count":0,"max_players":24,"Bots":0,"server_type":"Dedicated","server_os":"Linux","password":true,"vac":true,"version":"7961495","steam_id":85568392924742830,"keywords":["cp","nocrits","nodmgspread","uncletopia"],"game_id":440,"stv_port":27066,"stv_name":"Uncletopia | London | 6 | All Maps | STV","players":null},{"server_id":40,"name":"Uncletopia | London | 7 | Stopwatch","name_short":"lon-7","host":"lon-1.uk.uncletopia.com","port":27075,"enabled":true,"region":"eu","cc":"gb","latitude":51.509865,"longitude":-0.118092,"reserved":0,"last_update":"0001-01-01T00:00:00Z","name_a2s":"Uncletopia | London | 7 | Stopwatch","protocol":17,"map":"workshop/pl_barnblitz_pro7.ugc582280235","folder":"tf","game":"Team Fortress","app_id":440,"player_count":0,"max_players":24,"Bots":0,"server_type":"Dedicated","server_os":"Linux","password":true,"vac":true,"version":"7961495","steam_id":85568392924964314,"keywords":["nocrits","nodmgspread","payload","uncletopia"],"game_id":440,"stv_port":27076,"stv_name":"Uncletopia | London | 7 | Stopwatch | STV","players":null},{"server_id":41,"name":"Uncletopia | London | 8 | Community","name_short":"lon-8","host":"lon-1.uk.uncletopia.com","port":27085,"enabled":true,"region":"eu","cc":"gb","latitude":51.509865,"longitude":-0.118092,"reserved":0,"last_update":"0001-01-01T00:00:00Z","name_a2s":"Uncletopia | London | 8 | Community","protocol":17,"map":"workshop/koth_synthetic_rc6a.ugc1549817316","folder":"tf","game":"Team Fortress","app_id":440,"player_count":0,"max_players":24,"Bots":0,"server_type":"Dedicated","server_os":"Linux","password":true,"vac":true,"version":"7961495","steam_id":85568392924964315,"keywords":["cp","nocrits","nodmgspread","uncletopia"],"game_id":440,"stv_port":27086,"stv_name":"Uncletopia | London | 8 | Community | STV","players":null},{"server_id":300,"name":"Uncletopia | Montr√©al | 1 | One Thousand Uncles","name_short":"mtl-1","host":"mtl-1.ca.uncletopia.com","port":27015,"enabled":true,"region":"us-east","cc":"ca","latitude":45.50889,"longitude":-73.56167,"reserved":0,"last_update":"0001-01-01T00:00:00Z","name_a2s":"","protocol":0,"map":"","folder":"","game":"","app_id":0,"player_count":8,"max_players":0,"Bots":0,"server_type":"","server_os":"","password":false,"vac":false,"version":"","steam_id":0,"keywords":null,"game_id":0,"stv_port":0,"stv_name":"","players":[{"user_id":476,"name":"Draco","steam_id":76561198031226933,"connected_time":221000000000,"state":"active","ping":131},{"user_id":448,"name":"ManDrew53","steam_id":76561198860443143,"connected_time":2461000000000,"state":"active","ping":63},{"user_id":477,"name":"Vix The Vulpix","steam_id":76561198292181452,"connected_time":213000000000,"state":"active","ping":89},{"user_id":425,"name":"Cacoona","steam_id":76561198272738226,"connected_time":4151000000000,"state":"active","ping":62},{"user_id":470,"name":"1-800-GHOST-DANCE","steam_id":76561198835430429,"connected_time":1290000000000,"state":"active","ping":89},{"user_id":449,"name":"CerealLover8","steam_id":76561199127196546,"connected_time":2426000000000,"state":"active","ping":120},{"user_id":473,"name":"spyackaso spyu","steam_id":76561198039728594,"connected_time":958000000000,"state":"active","ping":116},{"user_id":451,"name":"Temmie","steam_id":76561199172929269,"connected_time":1935000000000,"state":"active","ping":123}]},{"server_id":301,"name":"Uncletopia | Montr√©al | 2 | One Thousand Uncles","name_short":"mtl-2","host":"mtl-1.ca.uncletopia.com","port":27025,"enabled":true,"region":"us-east","cc":"ca","latitude":45.50889,"longitude":-73.56167,"reserved":0,"last_update":"0001-01-01T00:00:00Z","name_a2s":"","protocol":0,"map":"","folder":"","game":"","app_id":0,"player_count":7,"max_players":0,"Bots":0,"server_type":"","server_os":"","password":false,"vac":false,"version":"","steam_id":0,"keywords":null,"game_id":0,"stv_port":0,"stv_name":"","players":[{"user_id":4,"name":"Yep","steam_id":76561198041437251,"connected_time":25426000000000,"state":"active","ping":60},{"user_id":446,"name":"A Disappointment","steam_id":76561198150306783,"connected_time":1887000000000,"state":"active","ping":84},{"user_id":427,"name":"space paranoids","steam_id":76561198085010959,"connected_time":2114000000000,"state":"active","ping":78},{"user_id":273,"name":"Ask Nicely For Heals","steam_id":76561198138478907,"connected_time":9663000000000,"state":"active","ping":96},{"user_id":238,"name":"minenice","steam_id":76561198300878163,"connected_time":12010000000000,"state":"active","ping":43},{"user_id":351,"name":"Im Groot","steam_id":76561198294943420,"connected_time":6036000000000,"state":"active","ping":78},{"user_id":209,"name":"Ata","steam_id":76561198349085545,"connected_time":13521000000000,"state":"active","ping":111}]},{"server_id":302,"name":"Uncletopia | Montr√©al | 3 | One Thousand Uncles","name_short":"mtl-3","host":"mtl-1.ca.uncletopia.com","port":27035,"enabled":true,"region":"us-east","cc":"ca","latitude":45.50889,"longitude":-73.56167,"reserved":0,"last_update":"0001-01-01T00:00:00Z","name_a2s":"","protocol":0,"map":"","folder":"","game":"","app_id":0,"player_count":3,"max_players":0,"Bots":0,"server_type":"","server_os":"","password":false,"vac":false,"version":"","steam_id":0,"keywords":null,"game_id":0,"stv_port":0,"stv_name":"","players":[{"user_id":446,"name":"Amber","steam_id":76561198031298701,"connected_time":9607000000000,"state":"active","ping":56},{"user_id":480,"name":"sheep","steam_id":76561198172943006,"connected_time":7559000000000,"state":"active","ping":61},{"user_id":481,"name":"Skeptical","steam_id":76561198038261789,"connected_time":7549000000000,"state":"active","ping":119}]},{"server_id":13,"name":"Uncletopia | New York City | 1 | All Maps","name_short":"nyc-1","host":"nyc-1.us.uncletopia.com","port":27015,"enabled":true,"region":"us-east","cc":"us","latitude":40.73061,"longitude":-73.93524,"reserved":0,"last_update":"0001-01-01T00:00:00Z","name_a2s":"Uncletopia | New York City | 1 | All Maps","protocol":17,"map":"cp_mountainlab","folder":"tf","game":"Team Fortress","app_id":440,"player_count":24,"max_players":24,"Bots":0,"server_type":"Dedicated","server_os":"Linux","password":true,"vac":true,"version":"7961495","steam_id":85568392924469993,"keywords":["cp","nocrits","nodmgspread","uncletopia"],"game_id":440,"stv_port":27016,"stv_name":"Uncletopia | New York City | 1 | All Maps | STV","players":[{"user_id":601,"name":"RYAN GARCIA A BITCH","steam_id":76561199001348474,"connected_time":517000000000,"state":"active","ping":53},{"user_id":516,"name":"ndvr","steam_id":76561199379200102,"connected_time":9090000000000,"state":"active","ping":55},{"user_id":608,"name":"JoJoJo","steam_id":76561198067153390,"connected_time":281000000000,"state":"active","ping":72},{"user_id":609,"name":"GamerGuyGary","steam_id":76561198973534310,"connected_time":188000000000,"state":"active","ping":86},{"user_id":610,"name":"Wan Shi Tong","steam_id":76561198076441225,"connected_time":92000000000,"state":"active","ping":46},{"user_id":559,"name":"Terror-Billy #SaveTF2","steam_id":76561198328141870,"connected_time":5397000000000,"state":"active","ping":69},{"user_id":563,"name":"DiscoTraveler","steam_id":76561199240168088,"connected_time":5007000000000,"state":"active","ping":50},{"user_id":602,"name":"SC|Formuoli","steam_id":76561198254354595,"connected_time":501000000000,"state":"active","ping":60},{"user_id":603,"name":"Roken","steam_id":76561198037836282,"connected_time":419000000000,"state":"active","ping":64},{"user_id":600,"name":"nikozi change your name","steam_id":76561198287493973,"connected_time":552000000000,"state":"active","ping":60},{"user_id":586,"name":"Person","steam_id":76561198093244204,"connected_time":2426000000000,"state":"active","ping":60},{"user_id":592,"name":"jebs strognest soljer","steam_id":76561198056622157,"connected_time":1454000000000,"state":"active","ping":48},{"user_id":612,"name":"jandajanda","steam_id":76561198235722476,"connected_time":58000000000,"state":"active","ping":74},{"user_id":554,"name":"wool","steam_id":76561198869689933,"connected_time":6462000000000,"state":"active","ping":56},{"user_id":557,"name":"It's FoolMoon","steam_id":76561198153344375,"connected_time":6118000000000,"state":"active","ping":44},{"user_id":604,"name":"DRUMMY GRAMMY","steam_id":76561198047642540,"connected_time":382000000000,"state":"active","ping":82},{"user_id":605,"name":"NYC APPA YIP YIP","steam_id":76561198112929942,"connected_time":367000000000,"state":"active","ping":56},{"user_id":597,"name":"Maxyyt","steam_id":76561198062309005,"connected_time":1046000000000,"state":"active","ping":58},{"user_id":606,"name":"fucked-up electronic punk.","steam_id":76561198294013916,"connected_time":337000000000,"state":"active","ping":47},{"user_id":518,"name":"Bee_Pirate","steam_id":76561199000599111,"connected_time":9073000000000,"state":"active","ping":60},{"user_id":581,"name":"CosmicKlown","steam_id":76561198158386235,"connected_time":3165000000000,"state":"active","ping":48},{"user_id":607,"name":"SushiYum","steam_id":76561199376772893,"connected_time":330000000000,"state":"active","ping":66},{"user_id":570,"name":"space man","steam_id":76561198066333670,"connected_time":4738000000000,"state":"active","ping":58},{"user_id":574,"name":"y!","steam_id":76561199342162423,"connected_time":4310000000000,"state":"active","ping":74}]},{"server_id":14,"name":"Uncletopia | New York City | 2 | All Maps","name_short":"nyc-2","host":"nyc-1.us.uncletopia.com","port":27025,"enabled":true,"region":"us-east","cc":"us","latitude":40.73061,"longitude":-73.93524,"reserved":0,"last_update":"0001-01-01T00:00:00Z","name_a2s":"Uncletopia | New York City | 2 | All Maps","protocol":17,"map":"pl_badwater","folder":"tf","game":"Team Fortress","app_id":440,"player_count":24,"max_players":24,"Bots":0,"server_type":"Dedicated","server_os":"Linux","password":true,"vac":true,"version":"7961495","steam_id":85568392924469994,"keywords":["nocrits","nodmgspread","payload","uncletopia"],"game_id":440,"stv_port":27026,"stv_name":"Uncletopia | New York City | 2 | All Maps | STV","players":[{"user_id":863,"name":"Shwartzy","steam_id":76561198073927139,"connected_time":1897000000000,"state":"active","ping":60},{"user_id":867,"name":"Chanddy","steam_id":76561198058949058,"connected_time":1671000000000,"state":"active","ping":60},{"user_id":854,"name":"Rachamo","steam_id":76561198935818242,"connected_time":2723000000000,"state":"active","ping":53},{"user_id":913,"name":"A_Malebolgia","steam_id":76561198097722818,"connected_time":325000000000,"state":"active","ping":82},{"user_id":864,"name":"hopdon","steam_id":76561198051616613,"connected_time":1693000000000,"state":"active","ping":94},{"user_id":857,"name":"Thog","steam_id":76561198093699060,"connected_time":2397000000000,"state":"active","ping":38},{"user_id":891,"name":"Dusk","steam_id":76561198119302704,"connected_time":894000000000,"state":"active","ping":43},{"user_id":914,"name":"Slauvy","steam_id":76561198001479663,"connected_time":293000000000,"state":"active","ping":75},{"user_id":915,"name":"lcy13vv","steam_id":76561197995997446,"connected_time":282000000000,"state":"active","ping":47},{"user_id":917,"name":"Renota","steam_id":76561198058224488,"connected_time":272000000000,"state":"active","ping":72},{"user_id":845,"name":"Mufalito","steam_id":76561198951889482,"connected_time":3213000000000,"state":"active","ping":115},{"user_id":866,"name":"chance the gay rapper","steam_id":76561199497833555,"connected_time":1683000000000,"state":"active","ping":36},{"user_id":862,"name":"A damien","steam_id":76561198174767478,"connected_time":2172000000000,"state":"active","ping":87},{"user_id":871,"name":"Zoo Keeper Engie","steam_id":76561198064380111,"connected_time":1636000000000,"state":"active","ping":67},{"user_id":872,"name":"Goobus","steam_id":76561198013808088,"connected_time":1633000000000,"state":"active","ping":45},{"user_id":873,"name":"Shuu","steam_id":76561199199180558,"connected_time":1633000000000,"state":"active","ping":44},{"user_id":876,"name":"aversa","steam_id":76561198840460101,"connected_time":1387000000000,"state":"active","ping":49},{"user_id":846,"name":"Wique","steam_id":76561198071217597,"connected_time":3213000000000,"state":"active","ping":70},{"user_id":836,"name":"ÀóÀèÀãNima¬¥ÀéÀó","steam_id":76561198102045762,"connected_time":4510000000000,"state":"active","ping":70},{"user_id":918,"name":"Bush Inspector","steam_id":76561198287505512,"connected_time":271000000000,"state":"active","ping":130},{"user_id":883,"name":"Luxtton","steam_id":76561198018328346,"connected_time":1150000000000,"state":"active","ping":70},{"user_id":880,"name":"Zerk","steam_id":76561198133060530,"connected_time":1309000000000,"state":"active","ping":54},{"user_id":562,"name":"zpalmtree","steam_id":76561198134307620,"connected_time":19744000000000,"state":"active","ping":70},{"user_id":919,"name":"PageBoiSkull","steam_id":76561198237353578,"connected_time":269000000000,"state":"active","ping":129}]},{"server_id":15,"name":"Uncletopia | New York City | 3 | Stopwatch","name_short":"nyc-3","host":"nyc-1.us.uncletopia.com","port":27035,"enabled":true,"region":"us-east","cc":"us","latitude":40.73061,"longitude":-73.93524,"reserved":0,"last_update":"0001-01-01T00:00:00Z","name_a2s":"Uncletopia | New York City | 3 | Stopwatch","protocol":17,"map":"koth_lakeside_final","folder":"tf","game":"Team Fortress","app_id":440,"player_count":0,"max_players":24,"Bots":0,"server_type":"Dedicated","server_os":"Linux","password":true,"vac":true,"version":"7961495","steam_id":85568392924742820,"keywords":["cp","nocrits","nodmgspread","uncletopia"],"game_id":440,"stv_port":27036,"stv_name":"Uncletopia | New York City | 3 | Stopwatch | STV","players":null},{"server_id":16,"name":"Uncletopia | New York City | 4 | Community","name_short":"nyc-4","host":"nyc-1.us.uncletopia.com","port":27045,"enabled":true,"region":"us-east","cc":"us","latitude":40.73061,"longitude":-73.93524,"reserved":0,"last_update":"0001-01-01T00:00:00Z","name_a2s":"Uncletopia | New York City | 4 | Community","protocol":17,"map":"workshop/koth_trenchfoot_b1a.ugc731436616","folder":"tf","game":"Team Fortress","app_id":440,"player_count":0,"max_players":24,"Bots":0,"server_type":"Dedicated","server_os":"Linux","password":true,"vac":true,"version":"7961495","steam_id":85568392924742821,"keywords":["cp","nocrits","nodmgspread","uncletopia"],"game_id":440,"stv_port":27046,"stv_name":"Uncletopia | New York City | 4 | Community | STV","players":null},{"server_id":142,"name":"Uncletopia | S√£o Paulo | 1 | All Maps","name_short":"sao-1","host":"sao-1.br.uncletopia.com","port":27015,"enabled":true,"region":"sa","cc":"br","latitude":-23.533773,"longitude":-46.62529,"reserved":0,"last_update":"0001-01-01T00:00:00Z","name_a2s":"Uncletopia | S√£o Paulo | 1 | All Maps","protocol":17,"map":"cp_snakewater_final1","folder":"tf","game":"Team Fortress","app_id":440,"player_count":2,"max_players":24,"Bots":0,"server_type":"Dedicated","server_os":"Linux","password":true,"vac":true,"version":"7961495","steam_id":85568392924469996,"keywords":["cp","nocrits","nodmgspread","uncletopia"],"game_id":440,"stv_port":27016,"stv_name":"Uncletopia | S√£o Paulo | 1 | All Maps | STV","players":[{"user_id":88,"name":"El doritos","steam_id":76561199482903203,"connected_time":1401000000000,"state":"active","ping":137},{"user_id":89,"name":"edtiton 11 114","steam_id":76561199226647950,"connected_time":1384000000000,"state":"active","ping":83}]},{"server_id":143,"name":"Uncletopia | S√£o Paulo | 2 | Community","name_short":"sao-2","host":"sao-2.br.uncletopia.com","port":27015,"enabled":true,"region":"sa","cc":"br","latitude":-23.533773,"longitude":-46.62529,"reserved":0,"last_update":"0001-01-01T00:00:00Z","name_a2s":"Uncletopia | S√£o Paulo | 2 | Community","protocol":17,"map":"workshop/koth_product_final.ugc454272353","folder":"tf","game":"Team Fortress","app_id":440,"player_count":0,"max_players":24,"Bots":0,"server_type":"Dedicated","server_os":"Linux","password":true,"vac":true,"version":"7961495","steam_id":85568392924485349,"keywords":["cp","nocrits","nodmgspread","uncletopia"],"game_id":440,"stv_port":27016,"stv_name":"Uncletopia | S√£o Paulo | 2 | Community | STV","players":null},{"server_id":7,"name":"Uncletopia | Seattle | 1 | All Maps","name_short":"sea-1","host":"sea-1.us.uncletopia.com","port":27015,"enabled":true,"region":"us-west","cc":"us","latitude":47.608013,"longitude":-122.33517,"reserved":0,"last_update":"0001-01-01T00:00:00Z","name_a2s":"Uncletopia | Seattle | 1 | All Maps","protocol":17,"map":"pl_upward","folder":"tf","game":"Team Fortress","app_id":440,"player_count":24,"max_players":24,"Bots":0,"server_type":"Dedicated","server_os":"Linux","password":true,"vac":true,"version":"7961495","steam_id":85568392924469997,"keywords":["nocrits","nodmgspread","payload","uncletopia"],"game_id":440,"stv_port":27016,"stv_name":"Uncletopia | Seattle | 1 | All Maps | STV","players":[{"user_id":641,"name":"Neb","steam_id":76561198883473473,"connected_time":3468000000000,"state":"active","ping":42},{"user_id":639,"name":"hazel","steam_id":76561198037292232,"connected_time":3778000000000,"state":"active","ping":120},{"user_id":612,"name":"Spectre","steam_id":76561198037535169,"connected_time":5967000000000,"state":"active","ping":75},{"user_id":583,"name":"nolove","steam_id":76561198274550638,"connected_time":8141000000000,"state":"active","ping":105},{"user_id":669,"name":"Greskrendtregk","steam_id":76561197969553142,"connected_time":929000000000,"state":"active","ping":50},{"user_id":595,"name":"Ayayayayayahuasca","steam_id":76561199002906056,"connected_time":7012000000000,"state":"active","ping":51},{"user_id":670,"name":"‚ô• Osana Najimi ‚ô• (Soupcan)","steam_id":76561198056269538,"connected_time":120000000000,"state":"active","ping":46},{"user_id":652,"name":"Cam","steam_id":76561198285054047,"connected_time":2574000000000,"state":"active","ping":76},{"user_id":596,"name":"Steeb","steam_id":76561198008058593,"connected_time":6971000000000,"state":"active","ping":75},{"user_id":597,"name":"SkobeBeef","steam_id":76561198078638948,"connected_time":6933000000000,"state":"active","ping":56},{"user_id":644,"name":"PopcornBucketGames","steam_id":76561199089562026,"connected_time":2754000000000,"state":"active","ping":37},{"user_id":658,"name":"Grand","steam_id":76561198290143399,"connected_time":1643000000000,"state":"active","ping":76},{"user_id":668,"name":"Luca","steam_id":76561198125087140,"connected_time":939000000000,"state":"active","ping":47},{"user_id":613,"name":"framp down","steam_id":76561198006316527,"connected_time":5890000000000,"state":"active","ping":82},{"user_id":624,"name":"Grunt","steam_id":76561198200758903,"connected_time":5501000000000,"state":"active","ping":75},{"user_id":655,"name":"Truffles","steam_id":76561198095868800,"connected_time":1648000000000,"state":"active","ping":102},{"user_id":649,"name":"Level 3 hotdog enjoyer","steam_id":76561198870649125,"connected_time":2739000000000,"state":"active","ping":88},{"user_id":582,"name":"smeasly","steam_id":76561198028718812,"connected_time":8145000000000,"state":"active","ping":45},{"user_id":607,"name":"DubiousDodo","steam_id":76561198828172686,"connected_time":6034000000000,"state":"active","ping":78},{"user_id":653,"name":"wrench","steam_id":76561198137242573,"connected_time":2552000000000,"state":"active","ping":48},{"user_id":636,"name":"wendigo","steam_id":76561197994528974,"connected_time":4238000000000,"state":"active","ping":84},{"user_id":645,"name":"mike","steam_id":76561198225411004,"connected_time":2752000000000,"state":"active","ping":60},{"user_id":661,"name":"Sweets","steam_id":76561198998446307,"connected_time":1459000000000,"state":"active","ping":70},{"user_id":656,"name":"Shrimps","steam_id":76561198983016709,"connected_time":1648000000000,"state":"active","ping":70}]},{"server_id":119,"name":"Uncletopia | Seattle | 2 | All Maps","name_short":"sea-2","host":"sea-1.us.uncletopia.com","port":27025,"enabled":true,"region":"us-west","cc":"us","latitude":47.608013,"longitude":-122.33517,"reserved":0,"last_update":"0001-01-01T00:00:00Z","name_a2s":"Uncletopia | Seattle | 2 | All Maps","protocol":17,"map":"pl_barnblitz","folder":"tf","game":"Team Fortress","app_id":440,"player_count":24,"max_players":24,"Bots":0,"server_type":"Dedicated","server_os":"Linux","password":true,"vac":true,"version":"7961495","steam_id":85568392924469998,"keywords":["nocrits","nodmgspread","payload","uncletopia"],"game_id":440,"stv_port":27026,"stv_name":"Uncletopia | Seattle | 2 | All Maps | STV","players":[{"user_id":455,"name":"Amateur Glaswegian","steam_id":76561198030851956,"connected_time":3699000000000,"state":"active","ping":46},{"user_id":474,"name":"selvhat","steam_id":76561198114225509,"connected_time":2249000000000,"state":"active","ping":76},{"user_id":456,"name":"totally not a pile of beans","steam_id":76561198119851931,"connected_time":3648000000000,"state":"active","ping":127},{"user_id":492,"name":"Retroliar","steam_id":76561199004899484,"connected_time":1000000000,"state":"spawning","ping":61},{"user_id":488,"name":"Tuna Man","steam_id":76561198039977972,"connected_time":953000000000,"state":"active","ping":46},{"user_id":466,"name":"Copy","steam_id":76561198025031590,"connected_time":2678000000000,"state":"active","ping":50},{"user_id":483,"name":"adam1g","steam_id":76561198025747866,"connected_time":1453000000000,"state":"active","ping":45},{"user_id":484,"name":"Sigma Mentality","steam_id":76561198045753316,"connected_time":1445000000000,"state":"active","ping":48},{"user_id":388,"name":"ilun","steam_id":76561198042913843,"connected_time":10849000000000,"state":"active","ping":58},{"user_id":490,"name":"Drone #0432 (they/it)","steam_id":76561198027321950,"connected_time":386000000000,"state":"active","ping":78},{"user_id":449,"name":"Hindmost","steam_id":76561199081837220,"connected_time":5033000000000,"state":"active","ping":93},{"user_id":489,"name":"aya","steam_id":76561198209880837,"connected_time":536000000000,"state":"active","ping":45},{"user_id":391,"name":"PROFESSIONAL KILLSTREAK SHOTGUN","steam_id":76561199488457138,"connected_time":10496000000000,"state":"active","ping":58},{"user_id":454,"name":"Cursed","steam_id":76561199161458959,"connected_time":3765000000000,"state":"active","ping":137},{"user_id":475,"name":"big bird","steam_id":76561199470354045,"connected_time":2181000000000,"state":"active","ping":131},{"user_id":479,"name":"T√ºCold","steam_id":76561198111278197,"connected_time":1631000000000,"state":"active","ping":58},{"user_id":486,"name":"Dextersbrain","steam_id":76561198011831579,"connected_time":1202000000000,"state":"active","ping":56},{"user_id":482,"name":"keithykeithers","steam_id":76561197995552615,"connected_time":1464000000000,"state":"active","ping":47},{"user_id":491,"name":"narwhal","steam_id":76561198879724555,"connected_time":101000000000,"state":"active","ping":95},{"user_id":485,"name":"blest!","steam_id":76561198966232220,"connected_time":1420000000000,"state":"active","ping":61},{"user_id":418,"name":"O","steam_id":76561198450073779,"connected_time":7864000000000,"state":"active","ping":41},{"user_id":477,"name":"Bheem","steam_id":76561198170453459,"connected_time":2168000000000,"state":"active","ping":37},{"user_id":478,"name":"Charles","steam_id":76561198155322277,"connected_time":2167000000000,"state":"active","ping":76},{"user_id":375,"name":"a cat plushie","steam_id":76561198080046542,"connected_time":11414000000000,"state":"active","ping":46}]},{"server_id":406,"name":"Uncletopia | Seattle | 3 | Stopwatch","name_short":"sea-3","host":"sea-1.us.uncletopia.com","port":27035,"enabled":true,"region":"us-west","cc":"us","latitude":47.608013,"longitude":-122.33517,"reserved":0,"last_update":"0001-01-01T00:00:00Z","name_a2s":"Uncletopia | Seattle | 3 | Stopwatch","protocol":17,"map":"cp_sunshine","folder":"tf","game":"Team Fortress","app_id":440,"player_count":10,"max_players":24,"Bots":0,"server_type":"Dedicated","server_os":"Linux","password":true,"vac":true,"version":"7961495","steam_id":85568392924515217,"keywords":["cp","nocrits","nodmgspread","uncletopia"],"game_id":440,"stv_port":27036,"stv_name":"Uncletopia | Seattle | 3 | Stopwatch | STV","players":[{"user_id":17,"name":"basement","steam_id":76561198936592005,"connected_time":3237000000000,"state":"active","ping":52},{"user_id":18,"name":"jocsanbruh","steam_id":76561198227338548,"connected_time":3173000000000,"state":"active","ping":34},{"user_id":29,"name":"dust | it/she","steam_id":76561198045218909,"connected_time":418000000000,"state":"active","ping":31},{"user_id":24,"name":"Villchip","steam_id":76561198198599982,"connected_time":1800000000000,"state":"active","ping":48},{"user_id":23,"name":"AWildCheeseFish","steam_id":76561198846504974,"connected_time":2102000000000,"state":"active","ping":41},{"user_id":31,"name":"MetalOver","steam_id":76561199045116925,"connected_time":180000000000,"state":"active","ping":89},{"user_id":27,"name":"MancalaMadMan","steam_id":76561198347324053,"connected_time":1087000000000,"state":"active","ping":91},{"user_id":28,"name":"Username","steam_id":76561198198918781,"connected_time":604000000000,"state":"active","ping":74},{"user_id":30,"name":"Mom","steam_id":76561198207936000,"connected_time":305000000000,"state":"active","ping":58},{"user_id":32,"name":"XboxGold14dayfreetrial","steam_id":76561199087480628,"connected_time":143000000000,"state":"active","ping":118}]},{"server_id":17,"name":"Uncletopia | San Francisco | 1 | All Maps","name_short":"sfo-1","host":"sfo-1.us.uncletopia.com","port":27015,"enabled":true,"region":"us-west","cc":"us","latitude":37.77397,"longitude":-122.4313,"reserved":0,"last_update":"0001-01-01T00:00:00Z","name_a2s":"Uncletopia | San Francisco | 1 | All Maps","protocol":17,"map":"pl_borneo","folder":"tf","game":"Team Fortress","app_id":440,"player_count":24,"max_players":24,"Bots":0,"server_type":"Dedicated","server_os":"Linux","password":true,"vac":true,"version":"7961495","steam_id":85568392924469999,"keywords":["nocrits","nodmgspread","payload","uncletopia"],"game_id":440,"stv_port":27016,"stv_name":"Uncletopia | San Francisco | 1 | All Maps | STV","players":[{"user_id":536,"name":"Catfish Jimmy","steam_id":76561198106429468,"connected_time":789000000000,"state":"active","ping":64},{"user_id":459,"name":"SHHHHHkebab","steam_id":76561198001611431,"connected_time":5792000000000,"state":"active","ping":113},{"user_id":500,"name":"aisu","steam_id":76561198043768507,"connected_time":3294000000000,"state":"active","ping":100},{"user_id":471,"name":"Frostyfoods257","steam_id":76561198332197599,"connected_time":4572000000000,"state":"active","ping":55},{"user_id":460,"name":"RandomGuy","steam_id":76561198000897889,"connected_time":5791000000000,"state":"active","ping":58},{"user_id":479,"name":"Ralph Kramden (Slim Charles)","steam_id":76561197981687895,"connected_time":4257000000000,"state":"active","ping":65},{"user_id":449,"name":"Flinkerdoodle","steam_id":76561198052111706,"connected_time":6854000000000,"state":"active","ping":84},{"user_id":541,"name":"bbits689","steam_id":76561199061014287,"connected_time":412000000000,"state":"active","ping":91},{"user_id":526,"name":"an ar-15 forward assist","steam_id":76561198161302887,"connected_time":1646000000000,"state":"active","ping":69},{"user_id":484,"name":"Ash","steam_id":76561199160949493,"connected_time":4186000000000,"state":"active","ping":72},{"user_id":481,"name":"HungryHippo","steam_id":76561198047615363,"connected_time":4240000000000,"state":"active","ping":52},{"user_id":530,"name":"Jack in the Box","steam_id":76561198087571347,"connected_time":1117000000000,"state":"active","ping":70},{"user_id":540,"name":"Orange","steam_id":76561199141033230,"connected_time":454000000000,"state":"active","ping":86},{"user_id":521,"name":"toilet master","steam_id":76561198844273999,"connected_time":2033000000000,"state":"active","ping":60},{"user_id":535,"name":"Jest","steam_id":76561198170173062,"connected_time":813000000000,"state":"active","ping":54},{"user_id":523,"name":"Sunflower339","steam_id":76561198009640604,"connected_time":2007000000000,"state":"active","ping":73},{"user_id":537,"name":"Southern Pacific AC-9","steam_id":76561198126859977,"connected_time":737000000000,"state":"active","ping":110},{"user_id":531,"name":"Karg","steam_id":76561198091387866,"connected_time":957000000000,"state":"active","ping":65},{"user_id":528,"name":"Adolf Rizzler","steam_id":76561199100796292,"connected_time":1586000000000,"state":"active","ping":60},{"user_id":542,"name":"Fargo","steam_id":76561198044703931,"connected_time":249000000000,"state":"active","ping":76},{"user_id":496,"name":"Professional Virgin","steam_id":76561199074327402,"connected_time":3557000000000,"state":"active","ping":104},{"user_id":538,"name":"PainInTheRuss","steam_id":76561197977960543,"connected_time":576000000000,"state":"active","ping":46},{"user_id":532,"name":"Melody","steam_id":76561198407789232,"connected_time":857000000000,"state":"active","ping":73},{"user_id":533,"name":"CatyushaTheGreat","steam_id":76561198295878299,"connected_time":850000000000,"state":"active","ping":73}]},{"server_id":18,"name":"Uncletopia | San Francisco | 2 | All Maps","name_short":"sfo-2","host":"sfo-1.us.uncletopia.com","port":27025,"enabled":true,"region":"us-west","cc":"us","latitude":37.77397,"longitude":-122.4313,"reserved":0,"last_update":"0001-01-01T00:00:00Z","name_a2s":"Uncletopia | San Francisco | 2 | All Maps","protocol":17,"map":"koth_cascade","folder":"tf","game":"Team Fortress","app_id":440,"player_count":0,"max_players":24,"Bots":0,"server_type":"Dedicated","server_os":"Linux","password":true,"vac":true,"version":"7961495","steam_id":85568392924470000,"keywords":["cp","nocrits","nodmgspread","uncletopia"],"game_id":440,"stv_port":27026,"stv_name":"Uncletopia | San Francisco | 2 | All Maps | STV","players":null},{"server_id":19,"name":"Uncletopia | San Francisco | 3 | Stopwatch","name_short":"sfo-3","host":"sfo-1.us.uncletopia.com","port":27035,"enabled":true,"region":"us-west","cc":"us","latitude":37.77397,"longitude":-122.4313,"reserved":0,"last_update":"0001-01-01T00:00:00Z","name_a2s":"Uncletopia | San Francisco | 3 | Stopwatch","protocol":17,"map":"workshop/pl_badwater_pro_v12.ugc2142942074","folder":"tf","game":"Team Fortress","app_id":440,"player_count":0,"max_players":24,"Bots":0,"server_type":"Dedicated","server_os":"Linux","password":true,"vac":true,"version":"7961495","steam_id":85568392924742824,"keywords":["nocrits","nodmgspread","payload","uncletopia"],"game_id":440,"stv_port":27036,"stv_name":"Uncletopia | San Francisco | 3 | Stopwatch | STV","players":null},{"server_id":20,"name":"Uncletopia | San Francisco | 4 | Community","name_short":"sfo-4","host":"sfo-1.us.uncletopia.com","port":27045,"enabled":true,"region":"us-west","cc":"us","latitude":37.77397,"longitude":-122.4313,"reserved":0,"last_update":"0001-01-01T00:00:00Z","name_a2s":"Uncletopia | San Francisco | 4 | Community","protocol":17,"map":"workshop/cp_mannbase_rc2a.ugc1900737467","folder":"tf","game":"Team Fortress","app_id":440,"player_count":0,"max_players":24,"Bots":0,"server_type":"Dedicated","server_os":"Linux","password":true,"vac":true,"version":"7961495","steam_id":85568392924742826,"keywords":["cp","nocrits","nodmgspread","uncletopia"],"game_id":440,"stv_port":27046,"stv_name":"Uncletopia | San Francisco | 4 | Community | STV","players":null},{"server_id":141,"name":"Uncletopia | Sydney | 1 | All Maps","name_short":"syd-1","host":"syd-1.au.uncletopia.com","port":27015,"enabled":true,"region":"au","cc":"au","latitude":-33.865143,"longitude":151.2099,"reserved":0,"last_update":"0001-01-01T00:00:00Z","name_a2s":"Uncletopia | Sydney | 1 | All Maps","protocol":17,"map":"pl_upward","folder":"tf","game":"Team Fortress","app_id":440,"player_count":24,"max_players":24,"Bots":0,"server_type":"Dedicated","server_os":"Linux","password":true,"vac":true,"version":"7961495","steam_id":85568392924470001,"keywords":["nocrits","nodmgspread","payload","uncletopia"],"game_id":440,"stv_port":27016,"stv_name":"Uncletopia | Sydney | 1 | All Maps | STV","players":[{"user_id":226,"name":"Dave","steam_id":76561197994203216,"connected_time":1674000000000,"state":"active","ping":61},{"user_id":240,"name":"Volt","steam_id":76561198096764975,"connected_time":430000000000,"state":"active","ping":30},{"user_id":220,"name":"JP","steam_id":76561198026221737,"connected_time":2102000000000,"state":"active","ping":53},{"user_id":214,"name":"yeni","steam_id":76561198045696353,"connected_time":2327000000000,"state":"active","ping":55},{"user_id":247,"name":"Matt","steam_id":76561198009757360,"connected_time":53000000000,"state":"active","ping":58},{"user_id":232,"name":"Ms. Origami","steam_id":76561198330338645,"connected_time":964000000000,"state":"active","ping":92},{"user_id":209,"name":"Rashid Of The Dank Memes","steam_id":76561198281398078,"connected_time":2970000000000,"state":"active","ping":60},{"user_id":225,"name":"Tiger_Tan","steam_id":76561198221733844,"connected_time":1801000000000,"state":"active","ping":70},{"user_id":163,"name":"tim88435","steam_id":76561198089653987,"connected_time":6037000000000,"state":"active","ping":57},{"user_id":241,"name":"precious.","steam_id":76561198054804209,"connected_time":346000000000,"state":"active","ping":95},{"user_id":238,"name":"Psychohazard","steam_id":76561198128150349,"connected_time":648000000000,"state":"active","ping":70},{"user_id":197,"name":"Golfing with Joel","steam_id":76561199161637215,"connected_time":3573000000000,"state":"active","ping":91},{"user_id":233,"name":"King Stan II","steam_id":76561198890742309,"connected_time":924000000000,"state":"active","ping":73},{"user_id":196,"name":"P. Ness","steam_id":76561198037664265,"connected_time":3583000000000,"state":"active","ping":62},{"user_id":219,"name":"Pompadouraus","steam_id":76561198327530525,"connected_time":2224000000000,"state":"active","ping":75},{"user_id":242,"name":"Ishanu","steam_id":76561198009397092,"connected_time":346000000000,"state":"active","ping":70},{"user_id":243,"name":"‚ô•Kai‚ô•","steam_id":76561198066098072,"connected_time":268000000000,"state":"active","ping":82},{"user_id":207,"name":"las","steam_id":76561198039162155,"connected_time":3058000000000,"state":"active","ping":50},{"user_id":239,"name":"Brody","steam_id":76561199167209717,"connected_time":622000000000,"state":"active","ping":58},{"user_id":230,"name":"AxiumSA4","steam_id":76561198097932350,"connected_time":1333000000000,"state":"active","ping":85},{"user_id":236,"name":"Grantymunk","steam_id":76561198051439179,"connected_time":735000000000,"state":"active","ping":76},{"user_id":235,"name":"Tbnee","steam_id":76561199189016529,"connected_time":860000000000,"state":"active","ping":66},{"user_id":229,"name":"george from young sheldon","steam_id":76561198028764596,"connected_time":1403000000000,"state":"active","ping":61},{"user_id":245,"name":"wheezer","steam_id":76561199439508788,"connected_time":198000000000,"state":"active","ping":64}]},{"server_id":123,"name":"Uncletopia | Sydney | 2 | All Maps","name_short":"syd-2","host":"syd-1.au.uncletopia.com","port":27025,"enabled":true,"region":"au","cc":"au","latitude":-33.865143,"longitude":151.2099,"reserved":0,"last_update":"0001-01-01T00:00:00Z","name_a2s":"Uncletopia | Sydney | 2 | All Maps","protocol":17,"map":"koth_lakeside_final","folder":"tf","game":"Team Fortress","app_id":440,"player_count":0,"max_players":24,"Bots":0,"server_type":"Dedicated","server_os":"Linux","password":true,"vac":true,"version":"7961495","steam_id":85568392924470002,"keywords":["cp","nocrits","nodmgspread","uncletopia"],"game_id":440,"stv_port":27026,"stv_name":"Uncletopia | Sydney | 2 | All Maps | STV","players":null},{"server_id":395,"name":"Uncletopia | Sydney | 3 | All Maps","name_short":"syd-3","host":"syd-1.au.uncletopia.com","port":27035,"enabled":true,"region":"au","cc":"au","latitude":-33.865143,"longitude":151.2099,"reserved":0,"last_update":"0001-01-01T00:00:00Z","name_a2s":"Uncletopia | Sydney | 3 | All Maps","protocol":17,"map":"pl_barnblitz","folder":"tf","game":"Team Fortress","app_id":440,"player_count":0,"max_players":24,"Bots":0,"server_type":"Dedicated","server_os":"Linux","password":true,"vac":true,"version":"7961495","steam_id":85568392925194467,"keywords":["nocrits","nodmgspread","payload","uncletopia"],"game_id":440,"stv_port":27036,"stv_name":"Uncletopia | Sydney | 3 | All Maps | STV","players":null},{"server_id":396,"name":"Uncletopia | Sydney | 4 | All Maps","name_short":"syd-4","host":"syd-1.au.uncletopia.com","port":27045,"enabled":true,"region":"au","cc":"au","latitude":-33.865143,"longitude":151.2099,"reserved":0,"last_update":"0001-01-01T00:00:00Z","name_a2s":"Uncletopia | Sydney | 4 | All Maps","protocol":17,"map":"cp_process_final","folder":"tf","game":"Team Fortress","app_id":440,"player_count":0,"max_players":24,"Bots":0,"server_type":"Dedicated","server_os":"Linux","password":true,"vac":true,"version":"7961495","steam_id":85568392925397958,"keywords":["cp","nocrits","nodmgspread","uncletopia"],"game_id":440,"stv_port":27046,"stv_name":"Uncletopia | Sydney | 4 | All Maps | STV","players":null},{"server_id":58,"name":"Uncletopia | Sydney | 5 | Stopwatch","name_short":"syd-5","host":"syd-1.au.uncletopia.com","port":27055,"enabled":true,"region":"au","cc":"au","latitude":-33.865143,"longitude":151.2099,"reserved":0,"last_update":"0001-01-01T00:00:00Z","name_a2s":"Uncletopia | Sydney | 5 | Stopwatch","protocol":17,"map":"koth_highpass","folder":"tf","game":"Team Fortress","app_id":440,"player_count":0,"max_players":24,"Bots":0,"server_type":"Dedicated","server_os":"Linux","password":true,"vac":true,"version":"7961495","steam_id":85568392925397959,"keywords":["cp","nocrits","nodmgspread","uncletopia"],"game_id":440,"stv_port":27056,"stv_name":"Uncletopia | Sydney | 5 | Stopwatch | STV","players":null},{"server_id":59,"name":"Uncletopia | Sydney | 6 | Community","name_short":"syd-6","host":"syd-1.au.uncletopia.com","port":27065,"enabled":true,"region":"au","cc":"au","latitude":-33.865143,"longitude":151.2099,"reserved":0,"last_update":"0001-01-01T00:00:00Z","name_a2s":"Uncletopia | Sydney | 6 | Community","protocol":17,"map":"cp_sunshine","folder":"tf","game":"Team Fortress","app_id":440,"player_count":0,"max_players":24,"Bots":0,"server_type":"Dedicated","server_os":"Linux","password":true,"vac":true,"version":"7961495","steam_id":85568392925397960,"keywords":["cp","nocrits","nodmgspread","uncletopia"],"game_id":440,"stv_port":27066,"stv_name":"Uncletopia | Sydney | 6 | Community | STV","players":null},{"server_id":49,"name":"Uncletopia | Warsaw | 1 | One Thousand Uncles","name_short":"waw-1","host":"waw-1.pl.uncletopia.com","port":27015,"enabled":true,"region":"eu","cc":"pl","latitude":52.2297,"longitude":21.017532,"reserved":0,"last_update":"0001-01-01T00:00:00Z","name_a2s":"Uncletopia | Warsaw | 1 | One Thousand Uncles","protocol":17,"map":"koth_highpass","folder":"tf","game":"Team Fortress","app_id":440,"player_count":0,"max_players":32,"Bots":0,"server_type":"Dedicated","server_os":"Linux","password":true,"vac":true,"version":"7961495","steam_id":85568392925397850,"keywords":["alltalk","cp","danepve","increased_maxplayers","nocrits","norespawntime","uncletopia"],"game_id":440,"stv_port":0,"stv_name":"","players":null},{"server_id":50,"name":"Uncletopia | Warsaw | 2 | One Thousand Uncles","name_short":"waw-2","host":"waw-1.pl.uncletopia.com","port":27025,"enabled":true,"region":"eu","cc":"pl","latitude":52.2297,"longitude":21.017532,"reserved":0,"last_update":"0001-01-01T00:00:00Z","name_a2s":"Uncletopia | Warsaw | 2 | One Thousand Uncles","protocol":17,"map":"pl_goldrush","folder":"tf","game":"Team Fortress","app_id":440,"player_count":0,"max_players":32,"Bots":0,"server_type":"Dedicated","server_os":"Linux","password":true,"vac":true,"version":"7961495","steam_id":85568392925397851,"keywords":["alltalk","danepve","increased_maxplayers","nocrits","norespawntime","payload","uncletopia"],"game_id":440,"stv_port":0,"stv_name":"","players":null},{"server_id":51,"name":"Uncletopia | Warsaw | 3 | All Maps","name_short":"waw-3","host":"waw-1.pl.uncletopia.com","port":27035,"enabled":true,"region":"eu","cc":"pl","latitude":52.2297,"longitude":21.017532,"reserved":0,"last_update":"0001-01-01T00:00:00Z","name_a2s":"Uncletopia | Warsaw | 3 | All Maps","protocol":17,"map":"plr_pipeline","folder":"tf","game":"Team Fortress","app_id":440,"player_count":0,"max_players":24,"Bots":0,"server_type":"Dedicated","server_os":"Linux","password":true,"vac":true,"version":"7961495","steam_id":85568392925397852,"keywords":["nocrits","nodmgspread","payload","uncletopia"],"game_id":440,"stv_port":27036,"stv_name":"Uncletopia | Warsaw | 3 | All Maps | STV","players":null},{"server_id":52,"name":"Uncletopia | Warsaw | 4 | All Maps","name_short":"waw-4","host":"waw-1.pl.uncletopia.com","port":27045,"enabled":true,"region":"eu","cc":"pl","latitude":52.2297,"longitude":21.017532,"reserved":0,"last_update":"0001-01-01T00:00:00Z","name_a2s":"Uncletopia | Warsaw | 4 | All Maps","protocol":17,"map":"cp_coldfront","folder":"tf","game":"Team Fortress","app_id":440,"player_count":0,"max_players":24,"Bots":0,"server_type":"Dedicated","server_os":"Linux","password":true,"vac":true,"version":"7961495","steam_id":85568392925397853,"keywords":["cp","nocrits","nodmgspread","uncletopia"],"game_id":440,"stv_port":27046,"stv_name":"Uncletopia | Warsaw | 4 | All Maps | STV","players":null},{"server_id":53,"name":"Uncletopia | Warsaw | 5 | Stopwatch","name_short":"waw-5","host":"waw-1.pl.uncletopia.com","port":27055,"enabled":true,"region":"eu","cc":"pl","latitude":52.2297,"longitude":21.017532,"reserved":0,"last_update":"0001-01-01T00:00:00Z","name_a2s":"Uncletopia | Warsaw | 5 | Stopwatch","protocol":17,"map":"workshop/koth_bagel_rc6.ugc2514036946","folder":"tf","game":"Team Fortress","app_id":440,"player_count":0,"max_players":24,"Bots":0,"server_type":"Dedicated","server_os":"Linux","password":true,"vac":true,"version":"7961495","steam_id":85568392925397854,"keywords":["cp","nocrits","nodmgspread","uncletopia"],"game_id":440,"stv_port":27056,"stv_name":"Uncletopia | Warsaw | 5 | Stopwatch | STV","players":null},{"server_id":54,"name":"Uncletopia | Warsaw | 6 | Community","name_short":"waw-6","host":"waw-1.pl.uncletopia.com","port":27065,"enabled":true,"region":"eu","cc":"pl","latitude":52.2297,"longitude":21.017532,"reserved":0,"last_update":"0001-01-01T00:00:00Z","name_a2s":"Uncletopia | Warsaw | 6 | Community","protocol":17,"map":"workshop/pl_badwater_pro_v12.ugc2142942074","folder":"tf","game":"Team Fortress","app_id":440,"player_count":0,"max_players":24,"Bots":0,"server_type":"Dedicated","server_os":"Linux","password":true,"vac":true,"version":"7961495","steam_id":85568392925397856,"keywords":["nocrits","nodmgspread","payload","uncletopia"],"game_id":440,"stv_port":27066,"stv_name":"Uncletopia | Warsaw | 6 | Community | STV","players":null}]}