{"status":true,"message":"","result":[{"server_id":2,"name":"Uncletopia | Chicago | 1 | All Maps","name_short":"chi-1","host":"chi-1.us.uncletopia.com","port":27015,"enabled":true,"region":"us-central","cc":"us","latitude":41.881832,"longitude":-87.62318,"reserved":0,"last_update":"0001-01-01T00:00:00Z","name_a2s":"Uncletopia | Chicago | 1 | All Maps","protocol":17,"map":"koth_cascade","folder":"tf","game":"Team Fortress","app_id":440,"player_count":0,"max_players":24,"Bots":0,"server_type":"Dedicated","server_os":"Linux","password":true,"vac":true,"version":"7932396","steam_id":85568392924469984,"keywords":["cp","nocrits","nodmgspread","uncletopia"],"game_id":440,"stv_port":27016,"stv_name":"Uncletopia | Chicago | 1 | All Maps | STV","players":null},{"server_id":106,"name":"Uncletopia | Chicago | 2 | All Maps","name_short":"chi-2","host":"chi-1.us.uncletopia.com","port":27025,"enabled":true,"region":"us-central","cc":"us","latitude":41.881832,"longitude":-87.62318,"reserved":0,"last_update":"0001-01-01T00:00:00Z","name_a2s":"Uncletopia | Chicago | 2 | All Maps","protocol":17,"map":"pl_badwater","folder":"tf","game":"Team Fortress","app_id":440,"player_count":24,"max_players":24,"Bots":0,"server_type":"Dedicated","server_os":"Linux","password":true,"vac":true,"version":"7932396","steam_id":85568392924469985,"keywords":["nocrits","nodmgspread","payload","uncletopia"],"game_id":440,"stv_port":27026,"stv_name":"Uncletopia | Chicago | 2 | All Maps | STV","players":[{"user_id":976,"name":"Stargazer","steam_id":76561198075490415,"connected_time":142000000000,"state":"active","ping":68},{"user_id":948,"name":"FANN","steam_id":76561199479499033,"connected_time":2346000000000,"state":"active","ping":159},{"user_id":873,"name":"Ruben","steam_id":76561198048508642,"connected_time":9083000000000,"state":"active","ping":103},{"user_id":944,"name":"MithStyck","steam_id":76561198071538489,"connected_time":2440000000000,"state":"active","ping":64},{"user_id":915,"name":"Mox","steam_id":76561198046524916,"connected_time":6051000000000,"state":"active","ping":80},{"user_id":959,"name":"Cliffigriff","steam_id":76561198121924499,"connected_time":2100000000000,"state":"active","ping":84},{"user_id":965,"name":"Nathan","steam_id":76561199132214008,"connected_time":1427000000000,"state":"active","ping":83},{"user_id":977,"name":"Neo Kojiro","steam_id":76561198000967076,"connected_time":33000000000,"state":"active","ping":75},{"user_id":928,"name":"Heat My Justice","steam_id":76561197995252750,"connected_time":4661000000000,"state":"active","ping":87},{"user_id":974,"name":"The Crazed","steam_id":76561198801447354,"connected_time":248000000000,"state":"active","ping":83},{"user_id":970,"name":"Actual Civic Si","steam_id":76561198926416886,"connected_time":728000000000,"state":"active","ping":68},{"user_id":950,"name":"Hope","steam_id":76561199201900779,"connected_time":2338000000000,"state":"active","ping":75},{"user_id":968,"name":"Xatheys","steam_id":76561198082458255,"connected_time":894000000000,"state":"active","ping":44},{"user_id":937,"name":"Miro","steam_id":76561198936412406,"connected_time":3073000000000,"state":"active","ping":86},{"user_id":919,"name":"Free1337","steam_id":76561198034160133,"connected_time":5501000000000,"state":"active","ping":53},{"user_id":876,"name":"An Insanely Sly Sausage","steam_id":76561198271342168,"connected_time":9037000000000,"state":"active","ping":73},{"user_id":971,"name":"Ja","steam_id":76561198396340174,"connected_time":702000000000,"state":"active","ping":75},{"user_id":972,"name":"Scorch_","steam_id":76561197977611078,"connected_time":610000000000,"state":"active","ping":50},{"user_id":973,"name":"tkeati","steam_id":76561198056356574,"connected_time":536000000000,"state":"active","ping":93},{"user_id":920,"name":"honda prelude si","steam_id":76561198353456379,"connected_time":5493000000000,"state":"active","ping":69},{"user_id":963,"name":"CheeseCake488","steam_id":76561199407617942,"connected_time":1594000000000,"state":"active","ping":150},{"user_id":936,"name":"Gasly The Red","steam_id":76561198397898297,"connected_time":3595000000000,"state":"active","ping":103},{"user_id":960,"name":"Sunflower","steam_id":76561198081223793,"connected_time":2085000000000,"state":"active","ping":49},{"user_id":964,"name":"mulch man","steam_id":76561199155775007,"connected_time":1491000000000,"state":"active","ping":76}]},{"server_id":402,"name":"Uncletopia | Chicago | 3 | All Maps","name_short":"chi-3","host":"chi-1.us.uncletopia.com","port":27035,"enabled":true,"region":"us-central","cc":"us","latitude":41.881832,"longitude":-87.62318,"reserved":0,"last_update":"0001-01-01T00:00:00Z","name_a2s":"Uncletopia | Chicago | 3 | All Maps","protocol":17,"map":"cp_altitude","folder":"tf","game":"Team Fortress","app_id":440,"player_count":0,"max_players":24,"Bots":0,"server_type":"Dedicated","server_os":"Linux","password":true,"vac":true,"version":"7932396","steam_id":85568392924515191,"keywords":["cp","nocrits","nodmgspread","uncletopia"],"game_id":440,"stv_port":27036,"stv_name":"Uncletopia | Chicago | 3 | All Maps | STV","players":null},{"server_id":403,"name":"Uncletopia | Chicago | 4 | All Maps","name_short":"chi-4","host":"chi-1.us.uncletopia.com","port":27045,"enabled":true,"region":"us-central","cc":"us","latitude":41.881832,"longitude":-87.62318,"reserved":0,"last_update":"0001-01-01T00:00:00Z","name_a2s":"Uncletopia | Chicago | 4 | All Maps","protocol":17,"map":"cp_snakewater_final1","folder":"tf","game":"Team Fortress","app_id":440,"player_count":0,"max_players":24,"Bots":0,"server_type":"Dedicated","server_os":"Linux","password":true,"vac":true,"version":"7932396","steam_id":85568392924515193,"keywords":["cp","nocrits","nodmgspread","uncletopia"],"game_id":440,"stv_port":27046,"stv_name":"Uncletopia | Chicago | 4 | All Maps | STV","players":null},{"server_id":36,"name":"Uncletopia | Chicago | 5 | All Maps","name_short":"chi-5","host":"chi-2.us.uncletopia.com","port":27015,"enabled":true,"region":"us-central","cc":"us","latitude":41.881832,"longitude":-87.62318,"reserved":0,"last_update":"0001-01-01T00:00:00Z","name_a2s":"Uncletopia | Chicago | 5 | All Maps","protocol":17,"map":"pl_goldrush","folder":"tf","game":"Team Fortress","app_id":440,"player_count":24,"max_players":24,"Bots":0,"server_type":"Dedicated","server_os":"Linux","password":true,"vac":true,"version":"7932396","steam_id":85568392924866362,"keywords":["nocrits","nodmgspread","payload","uncletopia"],"game_id":440,"stv_port":27016,"stv_name":"Uncletopia | Chicago | 5 | All Maps | STV","players":[{"user_id":1023,"name":"Wizard02","steam_id":76561198178293623,"connected_time":1379000000000,"state":"active","ping":73},{"user_id":1013,"name":"CART","steam_id":76561198079476352,"connected_time":2190000000000,"state":"active","ping":100},{"user_id":1014,"name":"daemon","steam_id":76561198001541433,"connected_time":2175000000000,"state":"active","ping":53},{"user_id":1041,"name":"jagyre","steam_id":76561198989869589,"connected_time":534000000000,"state":"active","ping":83},{"user_id":1000,"name":"IMM0RTAL","steam_id":76561198013747901,"connected_time":4126000000000,"state":"active","ping":74},{"user_id":1021,"name":"viedoamges","steam_id":76561198025295263,"connected_time":1824000000000,"state":"active","ping":72},{"user_id":994,"name":"creepycrawler","steam_id":76561198352016831,"connected_time":4364000000000,"state":"active","ping":63},{"user_id":989,"name":"Sychke","steam_id":76561198067144055,"connected_time":4698000000000,"state":"active","ping":45},{"user_id":1017,"name":"One Horned Bitch Destroyer","steam_id":76561198045810191,"connected_time":2042000000000,"state":"active","ping":81},{"user_id":1018,"name":"Gentoo Linux Gaming","steam_id":76561197999657118,"connected_time":2020000000000,"state":"active","ping":82},{"user_id":1034,"name":"Drachma","steam_id":76561198007310514,"connected_time":1097000000000,"state":"active","ping":58},{"user_id":1011,"name":"shakebell","steam_id":76561197970795094,"connected_time":2285000000000,"state":"active","ping":182},{"user_id":1045,"name":"ᵖᵃᵖᵃ Lox","steam_id":76561198069393071,"connected_time":383000000000,"state":"active","ping":74},{"user_id":1009,"name":"TacoMan","steam_id":76561198049405741,"connected_time":2563000000000,"state":"active","ping":94},{"user_id":1022,"name":"Missing Minus","steam_id":76561198120822928,"connected_time":1609000000000,"state":"active","ping":62},{"user_id":1047,"name":"yomommasabitch","steam_id":76561198323217150,"connected_time":75000000000,"state":"active","ping":60},{"user_id":1046,"name":"Ġ1 ♦ Synth","steam_id":76561198058660228,"connected_time":381000000000,"state":"active","ping":60},{"user_id":988,"name":"JimPlatinum","steam_id":76561198950714198,"connected_time":4755000000000,"state":"active","ping":68},{"user_id":1043,"name":"Engineer","steam_id":76561199001261287,"connected_time":501000000000,"state":"active","ping":69},{"user_id":1030,"name":"Orenji","steam_id":76561199229204857,"connected_time":1164000000000,"state":"active","ping":127},{"user_id":1032,"name":"Leobaker202","steam_id":76561198117884710,"connected_time":1152000000000,"state":"active","ping":80},{"user_id":998,"name":"Rusted Cake","steam_id":76561198209755931,"connected_time":4227000000000,"state":"active","ping":103},{"user_id":1005,"name":"sapphoroth","steam_id":76561198062263639,"connected_time":4027000000000,"state":"active","ping":82},{"user_id":1044,"name":"Galactamarx","steam_id":76561198028065755,"connected_time":441000000000,"state":"active","ping":93}]},{"server_id":37,"name":"Uncletopia | Chicago | 6 | All Maps","name_short":"chi-6","host":"chi-2.us.uncletopia.com","port":27025,"enabled":true,"region":"us-central","cc":"us","latitude":41.881832,"longitude":-87.62318,"reserved":0,"last_update":"0001-01-01T00:00:00Z","name_a2s":"Uncletopia | Chicago | 6 | All Maps","protocol":17,"map":"pl_borneo","folder":"tf","game":"Team Fortress","app_id":440,"player_count":0,"max_players":24,"Bots":0,"server_type":"Dedicated","server_os":"Linux","password":true,"vac":true,"version":"7932396","steam_id":85568392924866363,"keywords":["nocrits","nodmgspread","payload","uncletopia"],"game_id":440,"stv_port":27026,"stv_name":"Uncletopia | Chicago | 6 | All Maps | STV","players":null},{"server_id":38,"name":"Uncletopia | Chicago | 7 | Stopwatch Beta","name_short":"chi-7","host":"chi-2.us.uncletopia.com","port":27035,"enabled":true,"region":"us-central","cc":"us","latitude":41.881832,"longitude":-87.62318,"reserved":0,"last_update":"0001-01-01T00:00:00Z","name_a2s":"Uncletopia | Chicago | 7 | Stopwatch Beta","protocol":17,"map":"workshop/koth_clearcut_b15.ugc2107050255","folder":"tf","game":"Team Fortress","app_id":440,"player_count":0,"max_players":24,"Bots":0,"server_type":"Dedicated","server_os":"Linux","password":true,"vac":true,"version":"7932396","steam_id":85568392924866364,"keywords":["cp","nocrits","nodmgspread","uncletopia"],"game_id":440,"stv_port":27036,"stv_name":"Uncletopia | Chicago | 7 | Stopwatch Beta | STV","players":null},{"server_id":39,"name":"Uncletopia | Chicago | 8 | Community","name_short":"chi-8","host":"chi-2.us.uncletopia.com","port":27045,"enabled":true,"region":"us-central","cc":"us","latitude":41.881832,"longitude":-87.62318,"reserved":0,"last_update":"0001-01-01T00:00:00Z","name_a2s":"Uncletopia | Chicago | 8 | Community","protocol":17,"map":"workshop/koth_synthetic_rc6a.ugc1549817316","folder":"tf","game":"Team Fortress","app_id":440,"player_count":0,"max_players":24,"Bots":0,"server_type":"Dedicated","server_os":"Linux","password":true,"vac":true,"version":"7932396","steam_id":85568392924866365,"keywords":["cp","nocrits","nodmgspread","uncletopia"],"game_id":440,"stv_port":27046,"stv_name":"Uncletopia | Chicago | 8 | Community | STV","players":null},{"server_id":8,"name":"Uncletopia | Dallas | 1 | All Maps","name_short":"dal-1","host":"dal-1.us.uncletopia.com","port":27015,"enabled":true,"region":"us-central","cc":"us","latitude":32.779167,"longitude":-96.80889,"reserved":0,"last_update":"0001-01-01T00:00:00Z","name_a2s":"Uncletopia | Dallas | 1 | All Maps","protocol":17,"map":"cp_mountainlab","folder":"tf","game":"Team Fortress","app_id":440,"player_count":0,"max_players":24,"Bots":0,"server_type":"Dedicated","server_os":"Linux","password":true,"vac":true,"version":"7932396","steam_id":85568392924469986,"keywords":["cp","nocrits","nodmgspread","uncletopia"],"game_id":440,"stv_port":27016,"stv_name":"Uncletopia | Dallas | 1 | All Maps | STV","players":null},{"server_id":108,"name":"Uncletopia | Dallas | 2 | All Maps","name_short":"dal-2","host":"dal-1.us.uncletopia.com","port":27025,"enabled":true,"region":"us-central","cc":"us","latitude":32.779167,"longitude":-96.80889,"reserved":0,"last_update":"0001-01-01T00:00:00Z","name_a2s":"Uncletopia | Dallas | 2 | All Maps","protocol":17,"map":"ctf_well","folder":"tf","game":"Team Fortress","app_id":440,"player_count":0,"max_players":24,"Bots":0,"server_type":"Dedicated","server_os":"Linux","password":true,"vac":true,"version":"7932396","steam_id":85568392924469988,"keywords":["ctf","nocrits","nodmgspread","uncletopia"],"game_id":440,"stv_port":27026,"stv_name":"Uncletopia | Dallas | 2 | All Maps | STV","players":null},{"server_id":5,"name":"Uncletopia | Frankfurt | 1 | All Maps","name_short":"frk-1","host":"frk-1.de.uncletopia.com","port":27015,"enabled":true,"region":"eu","cc":"de","latitude":50.110924,"longitude":8.682127,"reserved":0,"last_update":"0001-01-01T00:00:00Z","name_a2s":"Uncletopia | Frankfurt | 1 | All Maps","protocol":17,"map":"pl_badwater","folder":"tf","game":"Team Fortress","app_id":440,"player_count":0,"max_players":24,"Bots":0,"server_type":"Dedicated","server_os":"Linux","password":true,"vac":true,"version":"7932396","steam_id":85568392924469989,"keywords":["nocrits","nodmgspread","payload","uncletopia"],"game_id":440,"stv_port":27016,"stv_name":"Uncletopia | Frankfurt | 1 | All Maps | STV","players":null},{"server_id":110,"name":"Uncletopia | Frankfurt | 2 | All Maps","name_short":"frk-2","host":"frk-1.de.uncletopia.com","port":27025,"enabled":true,"region":"eu","cc":"de","latitude":50.110924,"longitude":8.682127,"reserved":0,"last_update":"0001-01-01T00:00:00Z","name_a2s":"Uncletopia | Frankfurt | 2 | All Maps","protocol":17,"map":"pl_frontier_final","folder":"tf","game":"Team Fortress","app_id":440,"player_count":0,"max_players":24,"Bots":0,"server_type":"Dedicated","server_os":"Linux","password":true,"vac":true,"version":"7932396","steam_id":85568392924469990,"keywords":["nocrits","nodmgspread","payload","uncletopia"],"game_id":440,"stv_port":27026,"stv_name":"Uncletopia | Frankfurt | 2 | All Maps | STV","players":null},{"server_id":308,"name":"Uncletopia | Frankfurt | 3 | All Maps","name_short":"frk-3","host":"frk-1.de.uncletopia.com","port":27035,"enabled":true,"region":"eu","cc":"de","latitude":50.110924,"longitude":8.682127,"reserved":0,"last_update":"0001-01-01T00:00:00Z","name_a2s":"Uncletopia | Frankfurt | 3 | All Maps","protocol":17,"map":"pl_badwater","folder":"tf","game":"Team Fortress","app_id":440,"player_count":0,"max_players":24,"Bots":0,"server_type":"Dedicated","server_os":"Linux","password":true,"vac":true,"version":"7932396","steam_id":85568392924504274,"keywords":["nocrits","nodmgspread","payload","uncletopia"],"game_id":440,"stv_port":27036,"stv_name":"Uncletopia | Frankfurt | 3 | All Maps | STV","players":null},{"server_id":309,"name":"Uncletopia | Frankfurt | 4 | All Maps","name_short":"frk-4","host":"frk-1.de.uncletopia.com","port":27045,"enabled":true,"region":"eu","cc":"de","latitude":50.110924,"longitude":8.682127,"reserved":0,"last_update":"0001-01-01T00:00:00Z","name_a2s":"Uncletopia | Frankfurt | 4 | All Maps","protocol":17,"map":"cp_dustbowl","folder":"tf","game":"Team Fortress","app_id":440,"player_count":24,"max_players":24,"Bots":0,"server_type":"Dedicated","server_os":"Linux","password":true,"vac":true,"version":"7932396","steam_id":85568392924504275,"keywords":["cp","nocrits","nodmgspread","uncletopia"],"game_id":440,"stv_port":27046,"stv_name":"Uncletopia | Frankfurt | 4 | All Maps | STV","players":[{"user_id":117,"name":"RealManiHACK","steam_id":76561198408081068,"connected_time":1324000000000,"state":"active","ping":60},{"user_id":137,"name":"the least schizo med main","steam_id":76561198048530109,"connected_time":82000000000,"state":"active","ping":72},{"user_id":112,"name":"Operunter","steam_id":76561198059937616,"connected_time":1385000000000,"state":"active","ping":69},{"user_id":110,"name":"Jahusi!*","steam_id":76561197992445165,"connected_time":1534000000000,"state":"active","ping":50},{"user_id":129,"name":"JohkupohkuXD","steam_id":76561198391108762,"connected_time":449000000000,"state":"active","ping":77},{"user_id":113,"name":"Aaron","steam_id":76561198388750592,"connected_time":1365000000000,"state":"active","ping":62},{"user_id":136,"name":"Pascal Darras","steam_id":76561198052136478,"connected_time":112000000000,"state":"active","ping":74},{"user_id":78,"name":"Pitpit","steam_id":76561198005342133,"connected_time":4776000000000,"state":"active","ping":56},{"user_id":115,"name":"MargoulGetron","steam_id":76561198020551698,"connected_time":1339000000000,"state":"active","ping":62},{"user_id":122,"name":"Koss","steam_id":76561198033316239,"connected_time":1246000000000,"state":"active","ping":92},{"user_id":116,"name":"please do not the cat","steam_id":76561198089003514,"connected_time":1333000000000,"state":"active","ping":45},{"user_id":98,"name":"sokige","steam_id":76561198167112371,"connected_time":3359000000000,"state":"active","ping":99},{"user_id":121,"name":"Eujekas","steam_id":76561198010527145,"connected_time":1291000000000,"state":"active","ping":80},{"user_id":128,"name":"FLASH","steam_id":76561197996649686,"connected_time":595000000000,"state":"active","ping":79},{"user_id":61,"name":"meow (they/them)","steam_id":76561198416657815,"connected_time":6175000000000,"state":"active","ping":74},{"user_id":130,"name":"The Green Uncle","steam_id":76561198257163156,"connected_time":446000000000,"state":"active","ping":65},{"user_id":109,"name":"Covetousix","steam_id":76561198293936824,"connected_time":1541000000000,"state":"active","ping":74},{"user_id":125,"name":"Pet354","steam_id":76561198867294144,"connected_time":1071000000000,"state":"active","ping":47},{"user_id":131,"name":"Johnny","steam_id":76561198880265246,"connected_time":411000000000,"state":"active","ping":86},{"user_id":107,"name":"Hedge Knight","steam_id":76561198989449047,"connected_time":1818000000000,"state":"active","ping":165},{"user_id":103,"name":"Zenssei","steam_id":76561198209895623,"connected_time":2388000000000,"state":"active","ping":101},{"user_id":132,"name":"PP_master69420","steam_id":76561199019913910,"connected_time":406000000000,"state":"active","ping":91},{"user_id":134,"name":"brique","steam_id":76561199103944229,"connected_time":312000000000,"state":"active","ping":65},{"user_id":127,"name":"njits23","steam_id":76561198031194977,"connected_time":950000000000,"state":"active","ping":63}]},{"server_id":310,"name":"Uncletopia | Frankfurt | 5 | All Maps","name_short":"frk-5","host":"frk-1.de.uncletopia.com","port":27055,"enabled":true,"region":"eu","cc":"de","latitude":50.110924,"longitude":8.682127,"reserved":0,"last_update":"0001-01-01T00:00:00Z","name_a2s":"Uncletopia | Frankfurt | 5 | All Maps","protocol":17,"map":"cp_dustbowl","folder":"tf","game":"Team Fortress","app_id":440,"player_count":0,"max_players":24,"Bots":0,"server_type":"Dedicated","server_os":"Linux","password":true,"vac":true,"version":"7932396","steam_id":85568392924504277,"keywords":["cp","nocrits","nodmgspread","uncletopia"],"game_id":440,"stv_port":27056,"stv_name":"Uncletopia | Frankfurt | 5 | All Maps | STV","players":null},{"server_id":311,"name":"Uncletopia | Frankfurt | 6 | All Maps","name_short":"frk-6","host":"frk-1.de.uncletopia.com","port":27065,"enabled":true,"region":"eu","cc":"de","latitude":50.110924,"longitude":8.682127,"reserved":0,"last_update":"0001-01-01T00:00:00Z","name_a2s":"Uncletopia | Frankfurt | 6 | All Maps","protocol":17,"map":"koth_viaduct","folder":"tf","game":"Team Fortress","app_id":440,"player_count":0,"max_players":24,"Bots":0,"server_type":"Dedicated","server_os":"Linux","password":true,"vac":true,"version":"7932396","steam_id":85568392924504278,"keywords":["cp","nocrits","nodmgspread","uncletopia"],"game_id":440,"stv_port":27066,"stv_name":"Uncletopia | Frankfurt | 6 | All Maps | STV","players":null},{"server_id":23,"name":"Uncletopia | Frankfurt | 7 | Stopwatch Beta","name_short":"frk-7","host":"frk-1.de.uncletopia.com","port":27075,"enabled":true,"region":"eu","cc":"de","latitude":50.110924,"longitude":8.682127,"reserved":0,"last_update":"0001-01-01T00:00:00Z","name_a2s":"Uncletopia | Frankfurt | 7 | Stopwatch Beta","protocol":17,"map":"pl_snowycoast","folder":"tf","game":"Team Fortress","app_id":440,"player_count":0,"max_players":24,"Bots":0,"server_type":"Dedicated","server_os":"Linux","password":true,"vac":true,"version":"7932396","steam_id":85568392924742827,"keywords":["nocrits","nodmgspread","payload","uncletopia"],"game_id":440,"stv_port":27076,"stv_name":"Uncletopia | Frankfurt | 7 | Stopwatch Beta | STV","players":null},{"server_id":24,"name":"Uncletopia | Frankfurt | 8 | Community","name_short":"frk-8","host":"frk-1.de.uncletopia.com","port":27085,"enabled":true,"region":"eu","cc":"de","latitude":50.110924,"longitude":8.682127,"reserved":0,"last_update":"0001-01-01T00:00:00Z","name_a2s":"Uncletopia | Frankfurt | 8 | Community","protocol":17,"map":"pl_barnblitz","folder":"tf","game":"Team Fortress","app_id":440,"player_count":0,"max_players":24,"Bots":0,"server_type":"Dedicated","server_os":"Linux","password":true,"vac":true,"version":"7932396","steam_id":85568392924742828,"keywords":["nocrits","nodmgspread","payload","uncletopia"],"game_id":440,"stv_port":27086,"stv_name":"Uncletopia | Frankfurt | 8 | Community | STV","players":null},{"server_id":202,"name":"Uncletopia | Hong Kong | 1 | All Maps","name_short":"hgk-1","host":"hgk-1.hk.uncletopia.com","port":27015,"enabled":true,"region":"asia","cc":"hk","latitude":22.302711,"longitude":114.177216,"reserved":0,"last_update":"0001-01-01T00:00:00Z","name_a2s":"Uncletopia | Hong Kong | 1 | All Maps","protocol":17,"map":"cp_powerhouse","folder":"tf","game":"Team Fortress","app_id":440,"player_count":12,"max_players":24,"Bots":0,"server_type":"Dedicated","server_os":"Linux","password":true,"vac":true,"version":"7932396","steam_id":85568392924494504,"keywords":["cp","nocrits","nodmgspread","uncletopia"],"game_id":440,"stv_port":27016,"stv_name":"Uncletopia | Hong Kong | 1 | All Maps | STV","players":[{"user_id":160,"name":"Med","steam_id":76561199087727164,"connected_time":1212000000000,"state":"active","ping":88},{"user_id":174,"name":"dogMEISTER","steam_id":76561198385225665,"connected_time":380000000000,"state":"active","ping":74},{"user_id":78,"name":"Sheena","steam_id":76561198412391539,"connected_time":9098000000000,"state":"active","ping":65},{"user_id":150,"name":"MemeManButWorse","steam_id":76561199173914462,"connected_time":2062000000000,"state":"active","ping":77},{"user_id":162,"name":"Tony","steam_id":76561198435239208,"connected_time":1176000000000,"state":"active","ping":75},{"user_id":154,"name":"water tastes good","steam_id":76561199375947670,"connected_time":1604000000000,"state":"active","ping":68},{"user_id":164,"name":"Penginzzz","steam_id":76561199215850274,"connected_time":1155000000000,"state":"active","ping":82},{"user_id":165,"name":"Dead_Memes","steam_id":76561198948570929,"connected_time":1125000000000,"state":"active","ping":83},{"user_id":167,"name":"Jaysong","steam_id":76561198828599078,"connected_time":937000000000,"state":"active","ping":232},{"user_id":169,"name":"ducksaremean","steam_id":76561199093126935,"connected_time":861000000000,"state":"active","ping":82},{"user_id":79,"name":"NotFine","steam_id":76561199242217590,"connected_time":8971000000000,"state":"active","ping":92},{"user_id":124,"name":"badfool","steam_id":76561199093480999,"connected_time":5130000000000,"state":"active","ping":53}]},{"server_id":1,"name":"Uncletopia | Los Angeles | 1 | All Maps","name_short":"lax-1","host":"lax-1.us.uncletopia.com","port":27015,"enabled":true,"region":"us-west","cc":"us","latitude":33.94279,"longitude":-118.41004,"reserved":0,"last_update":"0001-01-01T00:00:00Z","name_a2s":"Uncletopia | Los Angeles | 1 | All Maps","protocol":17,"map":"koth_cascade","folder":"tf","game":"Team Fortress","app_id":440,"player_count":0,"max_players":24,"Bots":0,"server_type":"Dedicated","server_os":"Linux","password":true,"vac":true,"version":"7932396","steam_id":85568392924469991,"keywords":["cp","nocrits","nodmgspread","uncletopia"],"game_id":440,"stv_port":27016,"stv_name":"Uncletopia | Los Angeles | 1 | All Maps | STV","players":null},{"server_id":112,"name":"Uncletopia | Los Angeles | 2 | All Maps","name_short":"lax-2","host":"lax-1.us.uncletopia.com","port":27025,"enabled":true,"region":"us-west","cc":"us","latitude":33.94279,"longitude":-118.41004,"reserved":0,"last_update":"0001-01-01T00:00:00Z","name_a2s":"Uncletopia | Los Angeles | 2 | All Maps","protocol":17,"map":"pl_borneo","folder":"tf","game":"Team Fortress","app_id":440,"player_count":0,"max_players":24,"Bots":0,"server_type":"Dedicated","server_os":"Linux","password":true,"vac":true,"version":"7932396","steam_id":85568392924469992,"keywords":["nocrits","nodmgspread","payload","uncletopia"],"game_id":440,"stv_port":27026,"stv_name":"Uncletopia | Los Angeles | 2 | All Maps | STV","players":null},{"server_id":324,"name":"Uncletopia | Los Angeles | 3 | All Maps","name_short":"lax-3","host":"lax-1.us.uncletopia.com","port":27035,"enabled":true,"region":"us-west","cc":"us","latitude":33.94279,"longitude":-118.41004,"reserved":0,"last_update":"0001-01-01T00:00:00Z","name_a2s":"Uncletopia | Los Angeles | 3 | All Maps","protocol":17,"map":"koth_highpass","folder":"tf","game":"Team Fortress","app_id":440,"player_count":18,"max_players":24,"Bots":0,"server_type":"Dedicated","server_os":"Linux","password":true,"vac":true,"version":"7932396","steam_id":85568392924510198,"keywords":["cp","nocrits","nodmgspread","uncletopia"],"game_id":440,"stv_port":27036,"stv_name":"Uncletopia | Los Angeles | 3 | All Maps | STV","players":[{"user_id":528,"name":"basket","steam_id":76561199486768009,"connected_time":4566000000000,"state":"active","ping":51},{"user_id":609,"name":"sand eater","steam_id":76561198215275267,"connected_time":171000000000,"state":"active","ping":159},{"user_id":557,"name":"Zaiah","steam_id":76561198377588247,"connected_time":2715000000000,"state":"active","ping":63},{"user_id":530,"name":"☆ShinyMew112","steam_id":76561198042820161,"connected_time":4485000000000,"state":"active","ping":92},{"user_id":521,"name":"Freakoid","steam_id":76561198087177094,"connected_time":5259000000000,"state":"active","ping":60},{"user_id":555,"name":"Giorno Giovanna","steam_id":76561198044106874,"connected_time":2728000000000,"state":"active","ping":49},{"user_id":599,"name":"Headmouth","steam_id":76561198019789855,"connected_time":868000000000,"state":"active","ping":163},{"user_id":568,"name":"*‧˚kitsu ʚ♥ɞ","steam_id":76561198091741658,"connected_time":2278000000000,"state":"active","ping":59},{"user_id":531,"name":"Catzs","steam_id":76561197996013572,"connected_time":4462000000000,"state":"active","ping":101},{"user_id":600,"name":"YoZiggy","steam_id":76561198192485274,"connected_time":834000000000,"state":"active","ping":44},{"user_id":601,"name":"yavin IV","steam_id":76561198061135335,"connected_time":820000000000,"state":"active","ping":100},{"user_id":569,"name":"Deluxe_Taco34","steam_id":76561199037653437,"connected_time":2072000000000,"state":"active","ping":146},{"user_id":538,"name":"lol","steam_id":76561198026491738,"connected_time":4167000000000,"state":"active","ping":58},{"user_id":539,"name":"Shadoe","steam_id":76561198218577281,"connected_time":4163000000000,"state":"active","ping":125},{"user_id":544,"name":"yungSoul","steam_id":76561198121831068,"connected_time":4035000000000,"state":"active","ping":71},{"user_id":545,"name":"Mozz","steam_id":76561198132892873,"connected_time":4010000000000,"state":"active","ping":62},{"user_id":587,"name":"Sectus","steam_id":76561198034616577,"connected_time":1418000000000,"state":"active","ping":101},{"user_id":556,"name":"SIGMA [BS]","steam_id":76561197962604879,"connected_time":2721000000000,"state":"active","ping":109}]},{"server_id":25,"name":"Uncletopia | Los Angeles | 4 | Stopwatch Beta","name_short":"lax-4","host":"lax-1.us.uncletopia.com","port":27045,"enabled":true,"region":"us-west","cc":"us","latitude":33.94279,"longitude":-118.41004,"reserved":0,"last_update":"0001-01-01T00:00:00Z","name_a2s":"Uncletopia | Los Angeles | 4 | Stopwatch Beta","protocol":17,"map":"koth_lakeside_final","folder":"tf","game":"Team Fortress","app_id":440,"player_count":0,"max_players":24,"Bots":0,"server_type":"Dedicated","server_os":"Linux","password":true,"vac":true,"version":"7932396","steam_id":85568392924510199,"keywords":["cp","nocrits","nodmgspread","uncletopia"],"game_id":440,"stv_port":27046,"stv_name":"Uncletopia | Los Angeles | 4 | Stopwatch Beta | STV","players":null},{"server_id":11,"name":"Uncletopia | London | 1 | All Maps","name_short":"lon-1","host":"lon-1.uk.uncletopia.com","port":27015,"enabled":true,"region":"eu","cc":"gb","latitude":51.509865,"longitude":-0.118092,"reserved":0,"last_update":"0001-01-01T00:00:00Z","name_a2s":"Uncletopia | London | 1 | All Maps","protocol":17,"map":"pl_snowycoast","folder":"tf","game":"Team Fortress","app_id":440,"player_count":24,"max_players":24,"Bots":0,"server_type":"Dedicated","server_os":"Linux","password":true,"vac":true,"version":"7932396","steam_id":85568392924367362,"keywords":["nocrits","nodmgspread","payload","uncletopia"],"game_id":440,"stv_port":27016,"stv_name":"Uncletopia | London | 1 | All Maps | STV","players":[{"user_id":141,"name":"Pikachu'sRagnarok","steam_id":76561198075055266,"connected_time":1470000000000,"state":"active","ping":65},{"user_id":132,"name":"AnanasGerste","steam_id":76561198133825211,"connected_time":2814000000000,"state":"active","ping":45},{"user_id":109,"name":"Boalition","steam_id":76561198044315302,"connected_time":4691000000000,"state":"active","ping":88},{"user_id":130,"name":"t0ksi","steam_id":76561198107240798,"connected_time":2846000000000,"state":"active","ping":77},{"user_id":158,"name":"eggman","steam_id":76561198233429440,"connected_time":755000000000,"state":"active","ping":58},{"user_id":145,"name":"++Old_M@N++","steam_id":76561197994792094,"connected_time":1416000000000,"state":"active","ping":78},{"user_id":74,"name":"jaime8D","steam_id":76561197980590671,"connected_time":8302000000000,"state":"active","ping":76},{"user_id":56,"name":"SnowShot","steam_id":76561198004766638,"connected_time":9430000000000,"state":"active","ping":72},{"user_id":108,"name":"Saint","steam_id":76561198003296382,"connected_time":4851000000000,"state":"active","ping":69},{"user_id":159,"name":"Dude Time","steam_id":76561198092991160,"connected_time":743000000000,"state":"active","ping":158},{"user_id":160,"name":"Bonduelle#Savetf2","steam_id":76561199041992422,"connected_time":447000000000,"state":"active","ping":156},{"user_id":147,"name":"Charles Darwin","steam_id":76561197973496139,"connected_time":1403000000000,"state":"active","ping":60},{"user_id":133,"name":"on1on (scrambled)","steam_id":76561197995304137,"connected_time":2625000000000,"state":"active","ping":69},{"user_id":153,"name":"player with 0 skill","steam_id":76561198002451113,"connected_time":1311000000000,"state":"active","ping":102},{"user_id":95,"name":"charlotte","steam_id":76561198075129898,"connected_time":5802000000000,"state":"active","ping":39},{"user_id":131,"name":"A3517","steam_id":76561198346434027,"connected_time":2825000000000,"state":"active","ping":123},{"user_id":142,"name":"porngames","steam_id":76561198204620491,"connected_time":1427000000000,"state":"active","ping":34},{"user_id":155,"name":"Zizman","steam_id":76561198446562910,"connected_time":1144000000000,"state":"active","ping":144},{"user_id":148,"name":"cock","steam_id":76561198307522022,"connected_time":1402000000000,"state":"active","ping":54},{"user_id":156,"name":"dunduu","steam_id":76561198875240717,"connected_time":1144000000000,"state":"active","ping":77},{"user_id":140,"name":"JAZZ COMMANDO","steam_id":76561198031766068,"connected_time":1829000000000,"state":"active","ping":50},{"user_id":157,"name":"uwu","steam_id":76561199209906710,"connected_time":757000000000,"state":"active","ping":47},{"user_id":129,"name":"sAmasam","steam_id":76561198114953928,"connected_time":2973000000000,"state":"active","ping":68},{"user_id":151,"name":"pandillero gato","steam_id":76561198314381191,"connected_time":1337000000000,"state":"active","ping":105}]},{"server_id":114,"name":"Uncletopia | London | 2 | All Maps","name_short":"lon-2","host":"lon-1.uk.uncletopia.com","port":27025,"enabled":true,"region":"eu","cc":"gb","latitude":51.509865,"longitude":-0.118092,"reserved":0,"last_update":"0001-01-01T00:00:00Z","name_a2s":"Uncletopia | London | 2 | All Maps","protocol":17,"map":"pl_pier","folder":"tf","game":"Team Fortress","app_id":440,"player_count":0,"max_players":24,"Bots":0,"server_type":"Dedicated","server_os":"Linux","password":true,"vac":true,"version":"7932396","steam_id":85568392924470941,"keywords":["nocrits","nodmgspread","payload","uncletopia"],"game_id":440,"stv_port":27026,"stv_name":"Uncletopia | London | 2 | All Maps | STV","players":null},{"server_id":320,"name":"Uncletopia | London | 3 | All Maps","name_short":"lon-3","host":"lon-1.uk.uncletopia.com","port":27035,"enabled":true,"region":"eu","cc":"gb","latitude":51.509865,"longitude":-0.118092,"reserved":0,"last_update":"0001-01-01T00:00:00Z","name_a2s":"Uncletopia | London | 3 | All Maps","protocol":17,"map":"cp_altitude","folder":"tf","game":"Team Fortress","app_id":440,"player_count":0,"max_players":24,"Bots":0,"server_type":"Dedicated","server_os":"Linux","password":true,"vac":true,"version":"7932396","steam_id":85568392924510192,"keywords":["cp","nocrits","nodmgspread","uncletopia"],"game_id":440,"stv_port":27036,"stv_name":"Uncletopia | London | 3 | All Maps | STV","players":null},{"server_id":321,"name":"Uncletopia | London | 4 | All Maps","name_short":"lon-4","host":"lon-1.uk.uncletopia.com","port":27045,"enabled":true,"region":"eu","cc":"gb","latitude":51.509865,"longitude":-0.118092,"reserved":0,"last_update":"0001-01-01T00:00:00Z","name_a2s":"Uncletopia | London | 4 | All Maps","protocol":17,"map":"cp_mountainlab","folder":"tf","game":"Team Fortress","app_id":440,"player_count":0,"max_players":24,"Bots":0,"server_type":"Dedicated","server_os":"Linux","password":true,"vac":true,"version":"7932396","steam_id":85568392924510193,"keywords":["cp","nocrits","nodmgspread","uncletopia"],"game_id":440,"stv_port":27046,"stv_name":"Uncletopia | London | 4 | All Maps | STV","players":null},{"server_id":21,"name":"Uncletopia | London | 5 | All Maps","name_short":"lon-5","host":"lon-1.uk.uncletopia.com","port":27055,"enabled":true,"region":"eu","cc":"gb","latitude":51.509865,"longitude":-0.118092,"reserved":0,"last_update":"0001-01-01T00:00:00Z","name_a2s":"Uncletopia | London | 5 | All Maps","protocol":17,"map":"pl_borneo","folder":"tf","game":"Team Fortress","app_id":440,"player_count":0,"max_players":24,"Bots":0,"server_type":"Dedicated","server_os":"Linux","password":true,"vac":true,"version":"7932396","steam_id":85568392924742829,"keywords":["nocrits","nodmgspread","payload","uncletopia"],"game_id":440,"stv_port":27056,"stv_name":"Uncletopia | London | 5 | All Maps | STV","players":null},{"server_id":22,"name":"Uncletopia | London | 6 | All Maps","name_short":"lon-6","host":"lon-1.uk.uncletopia.com","port":27065,"enabled":true,"region":"eu","cc":"gb","latitude":51.509865,"longitude":-0.118092,"reserved":0,"last_update":"0001-01-01T00:00:00Z","name_a2s":"Uncletopia | London | 6 | All Maps","protocol":17,"map":"cp_mountainlab","folder":"tf","game":"Team Fortress","app_id":440,"player_count":0,"max_players":24,"Bots":0,"server_type":"Dedicated","server_os":"Linux","password":true,"vac":true,"version":"7932396","steam_id":85568392924742830,"keywords":["cp","nocrits","nodmgspread","uncletopia"],"game_id":440,"stv_port":27066,"stv_name":"Uncletopia | London | 6 | All Maps | STV","players":null},{"server_id":40,"name":"Uncletopia | London | 7 | No Payload","name_short":"lon-7","host":"lon-1.uk.uncletopia.com","port":27075,"enabled":true,"region":"eu","cc":"gb","latitude":51.509865,"longitude":-0.118092,"reserved":0,"last_update":"0001-01-01T00:00:00Z","name_a2s":"Uncletopia | London | 7 | No Payload","protocol":17,"map":"pl_snowycoast","folder":"tf","game":"Team Fortress","app_id":440,"player_count":0,"max_players":24,"Bots":0,"server_type":"Dedicated","server_os":"Linux","password":true,"vac":true,"version":"7932396","steam_id":85568392924964314,"keywords":["nocrits","nodmgspread","payload","uncletopia"],"game_id":440,"stv_port":27076,"stv_name":"Uncletopia | London | 7 | No Payload | STV","players":null},{"server_id":41,"name":"Uncletopia | London | 8 | Community","name_short":"lon-8","host":"lon-1.uk.uncletopia.com","port":27085,"enabled":true,"region":"eu","cc":"gb","latitude":51.509865,"longitude":-0.118092,"reserved":0,"last_update":"0001-01-01T00:00:00Z","name_a2s":"Uncletopia | London | 8 | Community","protocol":17,"map":"pl_barnblitz","folder":"tf","game":"Team Fortress","app_id":440,"player_count":0,"max_players":24,"Bots":0,"server_type":"Dedicated","server_os":"Linux","password":true,"vac":true,"version":"7932396","steam_id":85568392924964315,"keywords":["nocrits","nodmgspread","payload","uncletopia"],"game_id":440,"stv_port":27086,"stv_name":"Uncletopia | London | 8 | Community | STV","players":null},{"server_id":300,"name":"Uncletopia | Montréal | 1 | All Maps","name_short":"mtl-1","host":"mtl-1.ca.uncletopia.com","port":27015,"enabled":true,"region":"us-east","cc":"ca","latitude":45.50889,"longitude":-73.56167,"reserved":0,"last_update":"0001-01-01T00:00:00Z","name_a2s":"Uncletopia | Montréal | 1 | All Maps","protocol":17,"map":"cp_altitude","folder":"tf","game":"Team Fortress","app_id":440,"player_count":0,"max_players":24,"Bots":0,"server_type":"Dedicated","server_os":"Linux","password":true,"vac":true,"version":"7932396","steam_id":85568392924500087,"keywords":["cp","nocrits","nodmgspread","uncletopia"],"game_id":440,"stv_port":27016,"stv_name":"Uncletopia | Montréal | 1 | All Maps | STV","players":null},{"server_id":301,"name":"Uncletopia | Montréal | 2 | All Maps","name_short":"mtl-2","host":"mtl-1.ca.uncletopia.com","port":27025,"enabled":true,"region":"us-east","cc":"ca","latitude":45.50889,"longitude":-73.56167,"reserved":0,"last_update":"0001-01-01T00:00:00Z","name_a2s":"Uncletopia | Montréal | 2 | All Maps","protocol":17,"map":"koth_lakeside_final","folder":"tf","game":"Team Fortress","app_id":440,"player_count":0,"max_players":24,"Bots":0,"server_type":"Dedicated","server_os":"Linux","password":true,"vac":true,"version":"7932396","steam_id":85568392924500088,"keywords":["cp","nocrits","nodmgspread","uncletopia"],"game_id":440,"stv_port":27026,"stv_name":"Uncletopia | Montréal | 2 | All Maps | STV","players":null},{"server_id":302,"name":"Uncletopia | Montréal | 3 | All Maps","name_short":"mtl-3","host":"mtl-1.ca.uncletopia.com","port":27035,"enabled":true,"region":"us-east","cc":"ca","latitude":45.50889,"longitude":-73.56167,"reserved":0,"last_update":"0001-01-01T00:00:00Z","name_a2s":"Uncletopia | Montréal | 3 | All Maps","protocol":17,"map":"cp_process_final","folder":"tf","game":"Team Fortress","app_id":440,"player_count":0,"max_players":24,"Bots":0,"server_type":"Dedicated","server_os":"Linux","password":true,"vac":true,"version":"7932396","steam_id":85568392924500089,"keywords":["cp","nocrits","nodmgspread","uncletopia"],"game_id":440,"stv_port":27036,"stv_name":"Uncletopia | Montréal | 3 | All Maps | STV","players":null},{"server_id":303,"name":"Uncletopia | Montréal | 4 | No Payload","name_short":"mtl-4","host":"mtl-1.ca.uncletopia.com","port":27045,"enabled":true,"region":"us-east","cc":"ca","latitude":45.50889,"longitude":-73.56167,"reserved":0,"last_update":"0001-01-01T00:00:00Z","name_a2s":"Uncletopia | Montréal | 4 | No Payload","protocol":17,"map":"cp_snakewater_final1","folder":"tf","game":"Team Fortress","app_id":440,"player_count":0,"max_players":24,"Bots":0,"server_type":"Dedicated","server_os":"Linux","password":true,"vac":true,"version":"7932396","steam_id":85568392924500090,"keywords":["cp","nocrits","nodmgspread","uncletopia"],"game_id":440,"stv_port":27046,"stv_name":"Uncletopia | Montréal | 4 | No Payload | STV","players":null},{"server_id":13,"name":"Uncletopia | New York City | 1 | All Maps","name_short":"nyc-1","host":"nyc-1.us.uncletopia.com","port":27015,"enabled":true,"region":"us-east","cc":"us","latitude":40.73061,"longitude":-73.93524,"reserved":0,"last_update":"0001-01-01T00:00:00Z","name_a2s":"Uncletopia | New York City | 1 | All Maps","protocol":17,"map":"cp_dustbowl","folder":"tf","game":"Team Fortress","app_id":440,"player_count":0,"max_players":24,"Bots":0,"server_type":"Dedicated","server_os":"Linux","password":true,"vac":true,"version":"7932396","steam_id":85568392924469993,"keywords":["cp","nocrits","nodmgspread","uncletopia"],"game_id":440,"stv_port":27016,"stv_name":"Uncletopia | New York City | 1 | All Maps | STV","players":null},{"server_id":14,"name":"Uncletopia | New York City | 2 | All Maps","name_short":"nyc-2","host":"nyc-1.us.uncletopia.com","port":27025,"enabled":true,"region":"us-east","cc":"us","latitude":40.73061,"longitude":-73.93524,"reserved":0,"last_update":"0001-01-01T00:00:00Z","name_a2s":"Uncletopia | New York City | 2 | All Maps","protocol":17,"map":"koth_lakeside_final","folder":"tf","game":"Team Fortress","app_id":440,"player_count":0,"max_players":24,"Bots":0,"server_type":"Dedicated","server_os":"Linux","password":true,"vac":true,"version":"7932396","steam_id":85568392924469994,"keywords":["cp","nocrits","nodmgspread","uncletopia"],"game_id":440,"stv_port":27026,"stv_name":"Uncletopia | New York City | 2 | All Maps | STV","players":null},{"server_id":15,"name":"Uncletopia | New York City | 3 | Stopwatch Beta","name_short":"nyc-3","host":"nyc-1.us.uncletopia.com","port":27035,"enabled":true,"region":"us-east","cc":"us","latitude":40.73061,"longitude":-73.93524,"reserved":0,"last_update":"0001-01-01T00:00:00Z","name_a2s":"Uncletopia | New York City | 3 | Stopwatch Beta","protocol":17,"map":"cp_sunshine","folder":"tf","game":"Team Fortress","app_id":440,"player_count":0,"max_players":24,"Bots":0,"server_type":"Dedicated","server_os":"Linux","password":true,"vac":true,"version":"7932396","steam_id":85568392924742820,"keywords":["cp","nocrits","nodmgspread","uncletopia"],"game_id":440,"stv_port":27036,"stv_name":"Uncletopia | New York City | 3 | Stopwatch Beta | STV","players":null},{"server_id":16,"name":"Uncletopia | New York City | 4 | Community","name_short":"nyc-4","host":"nyc-1.us.uncletopia.com","port":27045,"enabled":true,"region":"us-east","cc":"us","latitude":40.73061,"longitude":-73.93524,"reserved":0,"last_update":"0001-01-01T00:00:00Z","name_a2s":"Uncletopia | New York City | 4 | Community","protocol":17,"map":"pl_barnblitz","folder":"tf","game":"Team Fortress","app_id":440,"player_count":0,"max_players":24,"Bots":0,"server_type":"Dedicated","server_os":"Linux","password":true,"vac":true,"version":"7932396","steam_id":85568392924742821,"keywords":["nocrits","nodmgspread","payload","uncletopia"],"game_id":440,"stv_port":27046,"stv_name":"Uncletopia | New York City | 4 | Community | STV","players":null},{"server_id":142,"name":"Uncletopia | São Paulo | 1 | All Maps","name_short":"sao-1","host":"sao-1.br.uncletopia.com","port":27015,"enabled":true,"region":"sa","cc":"br","latitude":-23.533773,"longitude":-46.62529,"reserved":0,"last_update":"0001-01-01T00:00:00Z","name_a2s":"Uncletopia | São Paulo | 1 | All Maps","protocol":17,"map":"cp_mountainlab","folder":"tf","game":"Team Fortress","app_id":440,"player_count":0,"max_players":24,"Bots":0,"server_type":"Dedicated","server_os":"Linux","password":true,"vac":true,"version":"7932396","steam_id":85568392924469996,"keywords":["cp","nocrits","nodmgspread","uncletopia"],"game_id":440,"stv_port":27016,"stv_name":"Uncletopia | São Paulo | 1 | All Maps | STV","players":null},{"server_id":143,"name":"Uncletopia | São Paulo | 2 | All Maps","name_short":"sao-2","host":"sao-2.br.uncletopia.com","port":27015,"enabled":true,"region":"sa","cc":"br","latitude":-23.533773,"longitude":-46.62529,"reserved":0,"last_update":"0001-01-01T00:00:00Z","name_a2s":"Uncletopia | São Paulo | 2 | All Maps","protocol":17,"map":"pl_swiftwater_final1","folder":"tf","game":"Team Fortress","app_id":440,"player_count":0,"max_players":24,"Bots":0,"server_type":"Dedicated","server_os":"Linux","password":true,"vac":true,"version":"7932396","steam_id":85568392924485349,"keywords":["nocrits","nodmgspread","payload","uncletopia"],"game_id":440,"stv_port":27016,"stv_name":"Uncletopia | São Paulo | 2 | All Maps | STV","players":null},{"server_id":7,"name":"Uncletopia | Seattle | 1 | All Maps","name_short":"sea-1","host":"sea-1.us.uncletopia.com","port":27015,"enabled":true,"region":"us-west","cc":"us","latitude":47.608013,"longitude":-122.33517,"reserved":0,"last_update":"0001-01-01T00:00:00Z","name_a2s":"Uncletopia | Seattle | 1 | All Maps","protocol":17,"map":"pl_upward","folder":"tf","game":"Team Fortress","app_id":440,"player_count":24,"max_players":24,"Bots":0,"server_type":"Dedicated","server_os":"Linux","password":true,"vac":true,"version":"7932396","steam_id":85568392924469997,"keywords":["nocrits","nodmgspread","payload","uncletopia"],"game_id":440,"stv_port":27016,"stv_name":"Uncletopia | Seattle | 1 | All Maps | STV","players":[{"user_id":1261,"name":"Jacobzeba01","steam_id":76561198131808718,"connected_time":5522000000000,"state":"active","ping":59},{"user_id":1294,"name":"Muralo","steam_id":76561198202160268,"connected_time":1468000000000,"state":"active","ping":54},{"user_id":1301,"name":"teratoma","steam_id":76561198179249054,"connected_time":339000000000,"state":"active","ping":60},{"user_id":1299,"name":"Lé Mon","steam_id":76561198078626283,"connected_time":414000000000,"state":"active","ping":124},{"user_id":1293,"name":"Cyniro","steam_id":76561199018930826,"connected_time":1481000000000,"state":"active","ping":120},{"user_id":1250,"name":"Florist","steam_id":76561198009121060,"connected_time":5802000000000,"state":"active","ping":46},{"user_id":1295,"name":"richarven","steam_id":76561198189429665,"connected_time":1468000000000,"state":"active","ping":112},{"user_id":1277,"name":"Swiifty","steam_id":76561198148262643,"connected_time":3291000000000,"state":"active","ping":75},{"user_id":1287,"name":"bAddpar","steam_id":76561198061381124,"connected_time":2090000000000,"state":"active","ping":100},{"user_id":1263,"name":"Llama","steam_id":76561198075484983,"connected_time":4826000000000,"state":"active","ping":55},{"user_id":1297,"name":"Harley [Ramiel]","steam_id":76561198079510840,"connected_time":756000000000,"state":"active","ping":47},{"user_id":1306,"name":"You","steam_id":76561198048071088,"connected_time":127000000000,"state":"active","ping":74},{"user_id":1278,"name":"Wacks","steam_id":76561198079476100,"connected_time":3133000000000,"state":"active","ping":65},{"user_id":1272,"name":"nicco77rams","steam_id":76561198084758782,"connected_time":4328000000000,"state":"active","ping":83},{"user_id":1296,"name":"Octo","steam_id":76561198024056355,"connected_time":1099000000000,"state":"active","ping":83},{"user_id":1304,"name":"Sir Useless","steam_id":76561198060972233,"connected_time":242000000000,"state":"active","ping":134},{"user_id":1285,"name":"Nolan","steam_id":76561198169648081,"connected_time":2213000000000,"state":"active","ping":73},{"user_id":1266,"name":"Ad3ptus","steam_id":76561198272045750,"connected_time":4758000000000,"state":"active","ping":31},{"user_id":1253,"name":"{907}DarkestFury","steam_id":76561198103662458,"connected_time":5777000000000,"state":"active","ping":74},{"user_id":1298,"name":"RURU","steam_id":76561198039758987,"connected_time":420000000000,"state":"active","ping":56},{"user_id":1305,"name":"five-star viet nam","steam_id":76561198309823950,"connected_time":239000000000,"state":"active","ping":41},{"user_id":1269,"name":"girl let me she/them titties","steam_id":76561198107941274,"connected_time":4684000000000,"state":"active","ping":77},{"user_id":1282,"name":"etymology","steam_id":76561198043558709,"connected_time":2641000000000,"state":"active","ping":45},{"user_id":1283,"name":"rorywashere /ᐠ - ˕ -マ Ⳋ","steam_id":76561198065825165,"connected_time":2626000000000,"state":"active","ping":111}]},{"server_id":119,"name":"Uncletopia | Seattle | 2 | All Maps","name_short":"sea-2","host":"sea-1.us.uncletopia.com","port":27025,"enabled":true,"region":"us-west","cc":"us","latitude":47.608013,"longitude":-122.33517,"reserved":0,"last_update":"0001-01-01T00:00:00Z","name_a2s":"Uncletopia | Seattle | 2 | All Maps","protocol":17,"map":"koth_lakeside_final","folder":"tf","game":"Team Fortress","app_id":440,"player_count":12,"max_players":24,"Bots":0,"server_type":"Dedicated","server_os":"Linux","password":true,"vac":true,"version":"7932396","steam_id":85568392924469998,"keywords":["cp","nocrits","nodmgspread","uncletopia"],"game_id":440,"stv_port":27026,"stv_name":"Uncletopia | Seattle | 2 | All Maps | STV","players":[{"user_id":925,"name":"1986","steam_id":76561198203330566,"connected_time":642000000000,"state":"active","ping":41},{"user_id":918,"name":"maidenHell","steam_id":76561198968958854,"connected_time":1077000000000,"state":"active","ping":48},{"user_id":915,"name":"Bullet magnet (FIN)","steam_id":76561197975715220,"connected_time":1865000000000,"state":"active","ping":210},{"user_id":919,"name":"KELPER","steam_id":76561197997966653,"connected_time":960000000000,"state":"active","ping":118},{"user_id":917,"name":"hunchbackmango","steam_id":76561198855471877,"connected_time":1700000000000,"state":"active","ping":133},{"user_id":920,"name":"explicateorder22","steam_id":76561198119215562,"connected_time":946000000000,"state":"active","ping":116},{"user_id":921,"name":"10 FPS Gaymer","steam_id":76561199200969139,"connected_time":902000000000,"state":"active","ping":148},{"user_id":926,"name":"Heihashit","steam_id":76561198323372946,"connected_time":555000000000,"state":"active","ping":201},{"user_id":923,"name":"EL SLOSHER","steam_id":76561198800491809,"connected_time":846000000000,"state":"active","ping":36},{"user_id":930,"name":"ʕっ•ᴥ•ʔっ","steam_id":76561198010392559,"connected_time":1000000000,"state":"spawning","ping":34},{"user_id":900,"name":"Honey Boo Boo","steam_id":76561198119340886,"connected_time":3500000000000,"state":"active","ping":79},{"user_id":891,"name":"bee5lee","steam_id":76561198077590095,"connected_time":3892000000000,"state":"active","ping":88}]},{"server_id":406,"name":"Uncletopia | Seattle | 3 | Stopwatch Beta","name_short":"sea-3","host":"sea-1.us.uncletopia.com","port":27035,"enabled":true,"region":"us-west","cc":"us","latitude":47.608013,"longitude":-122.33517,"reserved":0,"last_update":"0001-01-01T00:00:00Z","name_a2s":"Uncletopia | Seattle | 3 | Stopwatch Beta","protocol":17,"map":"workshop/koth_clearcut_b15.ugc2107050255","folder":"tf","game":"Team Fortress","app_id":440,"player_count":0,"max_players":24,"Bots":0,"server_type":"Dedicated","server_os":"Linux","password":true,"vac":true,"version":"7932396","steam_id":85568392924515217,"keywords":["cp","nocrits","nodmgspread","uncletopia"],"game_id":440,"stv_port":27036,"stv_name":"Uncletopia | Seattle | 3 | Stopwatch Beta | STV","players":null},{"server_id":17,"name":"Uncletopia | San Francisco | 1 | All Maps","name_short":"sfo-1","host":"sfo-1.us.uncletopia.com","port":27015,"enabled":true,"region":"us-west","cc":"us","latitude":37.77397,"longitude":-122.4313,"reserved":0,"last_update":"0001-01-01T00:00:00Z","name_a2s":"Uncletopia | San Francisco | 1 | All Maps","protocol":17,"map":"koth_lakeside_final","folder":"tf","game":"Team Fortress","app_id":440,"player_count":0,"max_players":24,"Bots":0,"server_type":"Dedicated","server_os":"Linux","password":true,"vac":true,"version":"7932396","steam_id":85568392924469999,"keywords":["cp","nocrits","nodmgspread","uncletopia"],"game_id":440,"stv_port":27016,"stv_name":"Uncletopia | San Francisco | 1 | All Maps | STV","players":null},{"server_id":18,"name":"Uncletopia | San Francisco | 2 | All Maps","name_short":"sfo-2","host":"sfo-1.us.uncletopia.com","port":27025,"enabled":true,"region":"us-west","cc":"us","latitude":37.77397,"longitude":-122.4313,"reserved":0,"last_update":"0001-01-01T00:00:00Z","name_a2s":"Uncletopia | San Francisco | 2 | All Maps","protocol":17,"map":"cp_well","folder":"tf","game":"Team Fortress","app_id":440,"player_count":0,"max_players":24,"Bots":0,"server_type":"Dedicated","server_os":"Linux","password":true,"vac":true,"version":"7932396","steam_id":85568392924470000,"keywords":["cp","nocrits","nodmgspread","uncletopia"],"game_id":440,"stv_port":27026,"stv_name":"Uncletopia | San Francisco | 2 | All Maps | STV","players":null},{"server_id":19,"name":"Uncletopia | San Francisco | 3 | Stopwatch Beta","name_short":"sfo-3","host":"sfo-1.us.uncletopia.com","port":27035,"enabled":true,"region":"us-west","cc":"us","latitude":37.77397,"longitude":-122.4313,"reserved":0,"last_update":"0001-01-01T00:00:00Z","name_a2s":"Uncletopia | San Francisco | 3 | Stopwatch Beta","protocol":17,"map":"workshop/koth_product_final.ugc454272353","folder":"tf","game":"Team Fortress","app_id":440,"player_count":0,"max_players":24,"Bots":0,"server_type":"Dedicated","server_os":"Linux","password":true,"vac":true,"version":"7932396","steam_id":85568392924742824,"keywords":["cp","nocrits","nodmgspread","uncletopia"],"game_id":440,"stv_port":27036,"stv_name":"Uncletopia | San Francisco | 3 | Stopwatch Beta | STV","players":null},{"server_id":20,"name":"Uncletopia | San Francisco | 4 | Community","name_short":"sfo-4","host":"sfo-1.us.uncletopia.com","port":27045,"enabled":true,"region":"us-west","cc":"us","latitude":37.77397,"longitude":-122.4313,"reserved":0,"last_update":"0001-01-01T00:00:00Z","name_a2s":"Uncletopia | San Francisco | 4 | Community","protocol":17,"map":"workshop/cp_mannbase_rc2a.ugc1900737467","folder":"tf","game":"Team Fortress","app_id":440,"player_count":0,"max_players":24,"Bots":0,"server_type":"Dedicated","server_os":"Linux","password":true,"vac":true,"version":"7932396","steam_id":85568392924742826,"keywords":["cp","nocrits","nodmgspread","uncletopia"],"game_id":440,"stv_port":27046,"stv_name":"Uncletopia | San Francisco | 4 | Community | STV","players":null},{"server_id":141,"name":"Uncletopia | Sydney | 1 | All Maps","name_short":"syd-1","host":"syd-1.au.uncletopia.com","port":27015,"enabled":true,"region":"au","cc":"au","latitude":-33.865143,"longitude":151.2099,"reserved":0,"last_update":"0001-01-01T00:00:00Z","name_a2s":"Uncletopia | Sydney | 1 | All Maps","protocol":17,"map":"cp_gullywash_final1","folder":"tf","game":"Team Fortress","app_id":440,"player_count":15,"max_players":24,"Bots":0,"server_type":"Dedicated","server_os":"Linux","password":true,"vac":true,"version":"7932396","steam_id":85568392924470001,"keywords":["cp","nocrits","nodmgspread","uncletopia"],"game_id":440,"stv_port":27016,"stv_name":"Uncletopia | Sydney | 1 | All Maps | STV","players":[{"user_id":250,"name":"Gerbil Fighting Yoghurt","steam_id":76561198036477898,"connected_time":1296000000000,"state":"active","ping":53},{"user_id":269,"name":"Minge_Tickler","steam_id":76561198864412060,"connected_time":158000000000,"state":"active","ping":71},{"user_id":203,"name":"Jacob","steam_id":76561198059341907,"connected_time":4165000000000,"state":"active","ping":39},{"user_id":268,"name":"Chez","steam_id":76561198089925051,"connected_time":190000000000,"state":"active","ping":90},{"user_id":248,"name":"Nycryte","steam_id":76561198105277071,"connected_time":1462000000000,"state":"active","ping":68},{"user_id":262,"name":"Pile of Sneed","steam_id":76561198143537391,"connected_time":574000000000,"state":"active","ping":55},{"user_id":266,"name":"vezuncikv68","steam_id":76561199406228822,"connected_time":216000000000,"state":"active","ping":364},{"user_id":270,"name":"MikkyD","steam_id":76561198043452962,"connected_time":113000000000,"state":"active","ping":60},{"user_id":267,"name":"ravioli","steam_id":76561198001765827,"connected_time":199000000000,"state":"active","ping":48},{"user_id":271,"name":"LilRevert","steam_id":76561199012142270,"connected_time":93000000000,"state":"active","ping":95},{"user_id":272,"name":"SEN","steam_id":76561198044281135,"connected_time":46000000000,"state":"active","ping":68},{"user_id":273,"name":"Flip","steam_id":76561198052518721,"connected_time":35000000000,"state":"active","ping":87},{"user_id":237,"name":"mushroom","steam_id":76561197992336470,"connected_time":2045000000000,"state":"active","ping":90},{"user_id":274,"name":"Technal","steam_id":76561198042591576,"connected_time":13000000000,"state":"active","ping":59},{"user_id":213,"name":"sav","steam_id":76561198058760041,"connected_time":3590000000000,"state":"active","ping":71}]},{"server_id":123,"name":"Uncletopia | Sydney | 2 | All Maps","name_short":"syd-2","host":"syd-1.au.uncletopia.com","port":27025,"enabled":true,"region":"au","cc":"au","latitude":-33.865143,"longitude":151.2099,"reserved":0,"last_update":"0001-01-01T00:00:00Z","name_a2s":"Uncletopia | Sydney | 2 | All Maps","protocol":17,"map":"pl_pier","folder":"tf","game":"Team Fortress","app_id":440,"player_count":24,"max_players":24,"Bots":0,"server_type":"Dedicated","server_os":"Linux","password":true,"vac":true,"version":"7932396","steam_id":85568392924470002,"keywords":["nocrits","nodmgspread","payload","uncletopia"],"game_id":440,"stv_port":27026,"stv_name":"Uncletopia | Sydney | 2 | All Maps | STV","players":[{"user_id":132,"name":"you will be boiled","steam_id":76561198079351541,"connected_time":291000000000,"state":"active","ping":46},{"user_id":83,"name":"Original Glazed (Krispy/Kreme)","steam_id":76561197997362731,"connected_time":3072000000000,"state":"active","ping":44},{"user_id":136,"name":"Fleetfoot","steam_id":76561198072845816,"connected_time":190000000000,"state":"active","ping":55},{"user_id":119,"name":"Benskii","steam_id":76561198070130470,"connected_time":1790000000000,"state":"active","ping":68},{"user_id":137,"name":"quick 1 2 😵😵🥴🥴","steam_id":76561199482732718,"connected_time":187000000000,"state":"active","ping":45},{"user_id":112,"name":"hey jk rowling come to nz :)","steam_id":76561198132937542,"connected_time":1993000000000,"state":"active","ping":58},{"user_id":131,"name":"Batering","steam_id":76561198039849442,"connected_time":341000000000,"state":"active","ping":51},{"user_id":134,"name":"Dupiter","steam_id":76561198108820767,"connected_time":202000000000,"state":"active","ping":55},{"user_id":127,"name":"thrax","steam_id":76561197992385270,"connected_time":1060000000000,"state":"active","ping":51},{"user_id":103,"name":"WHERES MY DRAGONATOR","steam_id":76561198025225448,"connected_time":2205000000000,"state":"active","ping":75},{"user_id":120,"name":"e_o","steam_id":76561198040405520,"connected_time":1766000000000,"state":"active","ping":58},{"user_id":135,"name":"ibus","steam_id":76561199026701614,"connected_time":201000000000,"state":"active","ping":58},{"user_id":133,"name":"horrid webbon ᘛ⁐̤ᕐᐷ","steam_id":76561198061998379,"connected_time":232000000000,"state":"active","ping":45},{"user_id":124,"name":"Player 3.14","steam_id":76561198016766670,"connected_time":1473000000000,"state":"active","ping":48},{"user_id":129,"name":"wom","steam_id":76561199375834537,"connected_time":897000000000,"state":"active","ping":135},{"user_id":139,"name":"thewayofthechuck","steam_id":76561198082454834,"connected_time":30000000000,"state":"active","ping":160},{"user_id":115,"name":"actions speak louder than Merv","steam_id":76561198301282416,"connected_time":1922000000000,"state":"active","ping":57},{"user_id":92,"name":"Pug","steam_id":76561198136794372,"connected_time":2621000000000,"state":"active","ping":76},{"user_id":106,"name":"evil deeds","steam_id":76561198027629227,"connected_time":2187000000000,"state":"active","ping":44},{"user_id":81,"name":"Chry Ceph","steam_id":76561199013595655,"connected_time":3249000000000,"state":"active","ping":95},{"user_id":126,"name":"MacKean","steam_id":76561198018019787,"connected_time":1141000000000,"state":"active","ping":60},{"user_id":113,"name":"using a laptop","steam_id":76561199445302425,"connected_time":1965000000000,"state":"active","ping":155},{"user_id":138,"name":"Griffin","steam_id":76561198024926514,"connected_time":152000000000,"state":"active","ping":90},{"user_id":114,"name":"Premium Acer","steam_id":76561198141737189,"connected_time":1962000000000,"state":"active","ping":67}]},{"server_id":395,"name":"Uncletopia | Sydney | 3 | All Maps","name_short":"syd-3","host":"syd-1.au.uncletopia.com","port":27035,"enabled":true,"region":"au","cc":"au","latitude":-33.865143,"longitude":151.2099,"reserved":0,"last_update":"0001-01-01T00:00:00Z","name_a2s":"Uncletopia | Sydney | 3 | All Maps","protocol":17,"map":"koth_cascade","folder":"tf","game":"Team Fortress","app_id":440,"player_count":0,"max_players":24,"Bots":0,"server_type":"Dedicated","server_os":"Linux","password":true,"vac":true,"version":"7932396","steam_id":85568392925194467,"keywords":["cp","nocrits","nodmgspread","uncletopia"],"game_id":440,"stv_port":27036,"stv_name":"Uncletopia | Sydney | 3 | All Maps | STV","players":null},{"server_id":396,"name":"Uncletopia | Sydney | 4 | All Maps","name_short":"syd-4","host":"syd-1.au.uncletopia.com","port":27045,"enabled":true,"region":"au","cc":"au","latitude":-33.865143,"longitude":151.2099,"reserved":0,"last_update":"0001-01-01T00:00:00Z","name_a2s":"Uncletopia | Sydney | 4 | All Maps","protocol":17,"map":"koth_highpass","folder":"tf","game":"Team Fortress","app_id":440,"player_count":0,"max_players":24,"Bots":0,"server_type":"Dedicated","server_os":"Linux","password":true,"vac":true,"version":"7932396","steam_id":85568392925397958,"keywords":["cp","nocrits","nodmgspread","uncletopia"],"game_id":440,"stv_port":27046,"stv_name":"Uncletopia | Sydney | 4 | All Maps | STV","players":null},{"server_id":58,"name":"Uncletopia | Sydney | 5 | Stopwatch Beta","name_short":"syd-5","host":"syd-1.au.uncletopia.com","port":27055,"enabled":true,"region":"au","cc":"au","latitude":-33.865143,"longitude":151.2099,"reserved":0,"last_update":"0001-01-01T00:00:00Z","name_a2s":"Uncletopia | Sydney | 5 | Stopwatch Beta","protocol":17,"map":"pl_borneo","folder":"tf","game":"Team Fortress","app_id":440,"player_count":0,"max_players":24,"Bots":0,"server_type":"Dedicated","server_os":"Linux","password":true,"vac":true,"version":"7932396","steam_id":85568392925397959,"keywords":["nocrits","nodmgspread","payload","uncletopia"],"game_id":440,"stv_port":27056,"stv_name":"Uncletopia | Sydney | 5 | Stopwatch Beta | STV","players":null},{"server_id":59,"name":"Uncletopia | Sydney | 6 | Community","name_short":"syd-6","host":"syd-1.au.uncletopia.com","port":27065,"enabled":true,"region":"au","cc":"au","latitude":-33.865143,"longitude":151.2099,"reserved":0,"last_update":"0001-01-01T00:00:00Z","name_a2s":"Uncletopia | Sydney | 6 | Community","protocol":17,"map":"workshop/koth_slaughter_rc1.ugc1712845210","folder":"tf","game":"Team Fortress","app_id":440,"player_count":0,"max_players":24,"Bots":0,"server_type":"Dedicated","server_os":"Linux","password":true,"vac":true,"version":"7932396","steam_id":85568392925397960,"keywords":["cp","nocrits","nodmgspread","uncletopia"],"game_id":440,"stv_port":27066,"stv_name":"Uncletopia | Sydney | 6 | Community | STV","players":null},{"server_id":49,"name":"Uncletopia | Warsaw | 1 | All Maps","name_short":"waw-1","host":"waw-1.pl.uncletopia.com","port":27015,"enabled":true,"region":"eu","cc":"pl","latitude":52.2297,"longitude":21.017532,"reserved":0,"last_update":"0001-01-01T00:00:00Z","name_a2s":"","protocol":0,"map":"","folder":"","game":"","app_id":0,"player_count":0,"max_players":0,"Bots":0,"server_type":"","server_os":"","password":false,"vac":false,"version":"","steam_id":0,"keywords":null,"game_id":0,"stv_port":0,"stv_name":"","players":null},{"server_id":50,"name":"Uncletopia | Warsaw | 2 | All Maps","name_short":"waw-2","host":"waw-1.pl.uncletopia.com","port":27025,"enabled":true,"region":"eu","cc":"pl","latitude":52.2297,"longitude":21.017532,"reserved":0,"last_update":"0001-01-01T00:00:00Z","name_a2s":"Uncletopia | Warsaw | 2 | All Maps","protocol":17,"map":"pl_snowycoast","folder":"tf","game":"Team Fortress","app_id":440,"player_count":0,"max_players":24,"Bots":0,"server_type":"Dedicated","server_os":"Linux","password":true,"vac":true,"version":"7932396","steam_id":85568392925397851,"keywords":["nocrits","nodmgspread","payload","uncletopia"],"game_id":440,"stv_port":27026,"stv_name":"Uncletopia | Warsaw | 2 | All Maps | STV","players":null},{"server_id":51,"name":"Uncletopia | Warsaw | 3 | All Maps","name_short":"waw-3","host":"waw-1.pl.uncletopia.com","port":27035,"enabled":true,"region":"eu","cc":"pl","latitude":52.2297,"longitude":21.017532,"reserved":0,"last_update":"0001-01-01T00:00:00Z","name_a2s":"Uncletopia | Warsaw | 3 | All Maps","protocol":17,"map":"koth_lakeside_final","folder":"tf","game":"Team Fortress","app_id":440,"player_count":0,"max_players":24,"Bots":0,"server_type":"Dedicated","server_os":"Linux","password":true,"vac":true,"version":"7932396","steam_id":85568392925397852,"keywords":["cp","nocrits","nodmgspread","uncletopia"],"game_id":440,"stv_port":27036,"stv_name":"Uncletopia | Warsaw | 3 | All Maps | STV","players":null},{"server_id":52,"name":"Uncletopia | Warsaw | 4 | All Maps","name_short":"waw-4","host":"waw-1.pl.uncletopia.com","port":27045,"enabled":true,"region":"eu","cc":"pl","latitude":52.2297,"longitude":21.017532,"reserved":0,"last_update":"0001-01-01T00:00:00Z","name_a2s":"Uncletopia | Warsaw | 4 | All Maps","protocol":17,"map":"pl_snowycoast","folder":"tf","game":"Team Fortress","app_id":440,"player_count":0,"max_players":24,"Bots":0,"server_type":"Dedicated","server_os":"Linux","password":true,"vac":true,"version":"7932396","steam_id":85568392925397853,"keywords":["nocrits","nodmgspread","payload","uncletopia"],"game_id":440,"stv_port":27046,"stv_name":"Uncletopia | Warsaw | 4 | All Maps | STV","players":null},{"server_id":53,"name":"Uncletopia | Warsaw | 5 | Stopwatch Beta","name_short":"waw-5","host":"waw-1.pl.uncletopia.com","port":27055,"enabled":true,"region":"eu","cc":"pl","latitude":52.2297,"longitude":21.017532,"reserved":0,"last_update":"0001-01-01T00:00:00Z","name_a2s":"Uncletopia | Warsaw | 5 | Stopwatch Beta","protocol":17,"map":"koth_highpass","folder":"tf","game":"Team Fortress","app_id":440,"player_count":0,"max_players":24,"Bots":0,"server_type":"Dedicated","server_os":"Linux","password":true,"vac":true,"version":"7932396","steam_id":85568392925397854,"keywords":["cp","nocrits","nodmgspread","uncletopia"],"game_id":440,"stv_port":27056,"stv_name":"Uncletopia | Warsaw | 5 | Stopwatch Beta | STV","players":null},{"server_id":54,"name":"Uncletopia | Warsaw | 6 | Community","name_short":"waw-6","host":"waw-1.pl.uncletopia.com","port":27065,"enabled":true,"region":"eu","cc":"pl","latitude":52.2297,"longitude":21.017532,"reserved":0,"last_update":"0001-01-01T00:00:00Z","name_a2s":"Uncletopia | Warsaw | 6 | Community","protocol":17,"map":"pl_upward","folder":"tf","game":"Team Fortress","app_id":440,"player_count":0,"max_players":24,"Bots":0,"server_type":"Dedicated","server_os":"Linux","password":true,"vac":true,"version":"7932396","steam_id":85568392925397856,"keywords":["nocrits","nodmgspread","payload","uncletopia"],"game_id":440,"stv_port":27066,"stv_name":"Uncletopia | Warsaw | 6 | Community | STV","players":null}]}