{"status":true,"message":"","result":[{"server_id":9,"name":"Uncletopia | Atlanta | 1 | All Maps","name_short":"atl-1","host":"atl-1.us.uncletopia.com","port":27015,"enabled":true,"region":"us-east","cc":"us","latitude":33.753746,"longitude":-84.38633,"reserved":0,"last_update":"0001-01-01T00:00:00Z","name_a2s":"Uncletopia | Atlanta | 1 | All Maps","protocol":17,"map":"pl_swiftwater_final1","folder":"tf","game":"Team Fortress","app_id":440,"player_count":23,"max_players":24,"Bots":0,"server_type":"Dedicated","server_os":"Linux","password":true,"vac":true,"version":"7723704","steam_id":85568392924469982,"keywords":["nocrits","nodmgspread","payload","uncletopia"],"game_id":440,"stv_port":27016,"stv_name":"Uncletopia | Atlanta | 1 | All Maps | STV","players":[{"user_id":312,"name":"Danny","steam_id":76561198984537901,"connected_time":2523000000000,"state":"active","ping":70},{"user_id":222,"name":"ATL1 | Lancer Fan Club","steam_id":76561198355495948,"connected_time":8859000000000,"state":"active","ping":81},{"user_id":326,"name":"kevlarorc","steam_id":76561197996133603,"connected_time":751000000000,"state":"active","ping":72},{"user_id":337,"name":"bananashaken","steam_id":76561199083273215,"connected_time":293000000000,"state":"active","ping":100},{"user_id":327,"name":"lucycil","steam_id":76561199298522507,"connected_time":733000000000,"state":"active","ping":95},{"user_id":313,"name":"ATL1 | merryy","steam_id":76561198968001329,"connected_time":1988000000000,"state":"active","ping":45},{"user_id":336,"name":"mr.edderkopper","steam_id":76561198152614478,"connected_time":333000000000,"state":"active","ping":117},{"user_id":338,"name":"PeopleOrderOurPatties","steam_id":76561198323144922,"connected_time":200000000000,"state":"active","ping":84},{"user_id":330,"name":"Fard","steam_id":76561198088761032,"connected_time":609000000000,"state":"active","ping":119},{"user_id":329,"name":"BEAswacks93 (she/her)","steam_id":76561199222250828,"connected_time":676000000000,"state":"active","ping":91},{"user_id":342,"name":"aversa","steam_id":76561198840460101,"connected_time":8000000000,"state":"active","ping":235},{"user_id":335,"name":"Eins","steam_id":76561199030343810,"connected_time":359000000000,"state":"active","ping":118},{"user_id":334,"name":"Caboom","steam_id":76561198040221007,"connected_time":437000000000,"state":"active","ping":79},{"user_id":332,"name":"Sideways Whoopi Goldberg","steam_id":76561198003736560,"connected_time":520000000000,"state":"active","ping":60},{"user_id":325,"name":"Knoxx","steam_id":76561198260692541,"connected_time":1143000000000,"state":"active","ping":143},{"user_id":320,"name":"Lost","steam_id":76561198025933206,"connected_time":1613000000000,"state":"active","ping":73},{"user_id":321,"name":"John","steam_id":76561199231298835,"connected_time":1593000000000,"state":"active","ping":60},{"user_id":293,"name":"Mage","steam_id":76561198285026879,"connected_time":4087000000000,"state":"active","ping":85},{"user_id":322,"name":"toastman","steam_id":76561198207073088,"connected_time":1583000000000,"state":"active","ping":91},{"user_id":339,"name":"YOU","steam_id":76561198391551932,"connected_time":165000000000,"state":"active","ping":112},{"user_id":340,"name":"Pop Pop","steam_id":76561198211396781,"connected_time":123000000000,"state":"active","ping":93},{"user_id":290,"name":"Spy_Is_Pye","steam_id":76561199439622967,"connected_time":4298000000000,"state":"active","ping":63},{"user_id":341,"name":"Quansen","steam_id":76561198151594550,"connected_time":118000000000,"state":"active","ping":79}]},{"server_id":400,"name":"Uncletopia | Atlanta | 3 | All Maps","name_short":"atl-3","host":"atl-1.us.uncletopia.com","port":27035,"enabled":true,"region":"us-east","cc":"us","latitude":33.753746,"longitude":-84.38633,"reserved":0,"last_update":"0001-01-01T00:00:00Z","name_a2s":"Uncletopia | Atlanta | 3 | All Maps","protocol":17,"map":"koth_lakeside_final","folder":"tf","game":"Team Fortress","app_id":440,"player_count":0,"max_players":24,"Bots":0,"server_type":"Dedicated","server_os":"Linux","password":true,"vac":true,"version":"7723704","steam_id":85568392924515187,"keywords":["cp","nocrits","nodmgspread","uncletopia"],"game_id":440,"stv_port":27036,"stv_name":"Uncletopia | Atlanta | 3 | All Maps | STV","players":null},{"server_id":401,"name":"Uncletopia | Atlanta | 4 | No Payload","name_short":"atl-4","host":"atl-1.us.uncletopia.com","port":27045,"enabled":true,"region":"us-east","cc":"us","latitude":33.753746,"longitude":-84.38633,"reserved":0,"last_update":"0001-01-01T00:00:00Z","name_a2s":"Uncletopia | Atlanta | 4 | No Payload","protocol":17,"map":"cp_freight_final1","folder":"tf","game":"Team Fortress","app_id":440,"player_count":0,"max_players":24,"Bots":0,"server_type":"Dedicated","server_os":"Linux","password":true,"vac":true,"version":"7723704","steam_id":85568392924515188,"keywords":["cp","nocrits","nodmgspread","uncletopia"],"game_id":440,"stv_port":27046,"stv_name":"Uncletopia | Atlanta | 4 | No Payload | STV","players":null},{"server_id":2,"name":"Uncletopia | Chicago | 1 | All Maps","name_short":"chi-1","host":"chi-1.us.uncletopia.com","port":27015,"enabled":true,"region":"us-central","cc":"us","latitude":41.881832,"longitude":-87.62318,"reserved":0,"last_update":"0001-01-01T00:00:00Z","name_a2s":"Uncletopia | Chicago | 1 | All Maps","protocol":17,"map":"pl_barnblitz","folder":"tf","game":"Team Fortress","app_id":440,"player_count":24,"max_players":24,"Bots":0,"server_type":"Dedicated","server_os":"Linux","password":true,"vac":true,"version":"7723704","steam_id":85568392924469984,"keywords":["nocrits","nodmgspread","payload","uncletopia"],"game_id":440,"stv_port":27016,"stv_name":"Uncletopia | Chicago | 1 | All Maps | STV","players":[{"user_id":373,"name":"Tanner Jarring","steam_id":76561198172024365,"connected_time":440000000000,"state":"active","ping":60},{"user_id":347,"name":"4d4","steam_id":76561198402360789,"connected_time":1558000000000,"state":"active","ping":60},{"user_id":348,"name":"carrion goat","steam_id":76561198262064871,"connected_time":1555000000000,"state":"active","ping":69},{"user_id":334,"name":"Hylic","steam_id":76561199051314589,"connected_time":2688000000000,"state":"active","ping":65},{"user_id":364,"name":"dr peppah chug!","steam_id":76561198068835693,"connected_time":1163000000000,"state":"active","ping":82},{"user_id":350,"name":"Le0901","steam_id":76561198372891244,"connected_time":1534000000000,"state":"active","ping":63},{"user_id":317,"name":"Bruised Banana","steam_id":76561198364172677,"connected_time":4212000000000,"state":"active","ping":78},{"user_id":352,"name":"bear","steam_id":76561198083276946,"connected_time":1466000000000,"state":"active","ping":72},{"user_id":345,"name":"bingle","steam_id":76561198359413453,"connected_time":1888000000000,"state":"active","ping":74},{"user_id":351,"name":"TeeTree","steam_id":76561198862307874,"connected_time":1500000000000,"state":"active","ping":60},{"user_id":356,"name":"creamgravy573","steam_id":76561198093308746,"connected_time":1362000000000,"state":"active","ping":78},{"user_id":371,"name":"|AAML| Captain QuacknSnow","steam_id":76561198153568933,"connected_time":539000000000,"state":"active","ping":46},{"user_id":260,"name":"DON QUIXOTE","steam_id":76561198091111592,"connected_time":7705000000000,"state":"active","ping":67},{"user_id":369,"name":"ConPhlux","steam_id":76561198052969252,"connected_time":803000000000,"state":"active","ping":63},{"user_id":354,"name":"quatelhelix","steam_id":76561198066708113,"connected_time":1447000000000,"state":"active","ping":56},{"user_id":374,"name":"Egghead","steam_id":76561199196781450,"connected_time":265000000000,"state":"active","ping":66},{"user_id":322,"name":"Gad","steam_id":76561198020792373,"connected_time":3725000000000,"state":"active","ping":58},{"user_id":343,"name":"MitcheyHD","steam_id":76561198066489645,"connected_time":2165000000000,"state":"active","ping":77},{"user_id":368,"name":"Cogenheimer","steam_id":76561198146321550,"connected_time":883000000000,"state":"active","ping":65},{"user_id":220,"name":"Astori√¶!","steam_id":76561199090168858,"connected_time":10582000000000,"state":"active","ping":61},{"user_id":292,"name":"JFK Gamer","steam_id":76561199229169396,"connected_time":6275000000000,"state":"active","ping":73},{"user_id":358,"name":"AmazingPlasma","steam_id":76561199005527586,"connected_time":1337000000000,"state":"active","ping":85},{"user_id":372,"name":"loco503","steam_id":76561198827495121,"connected_time":457000000000,"state":"active","ping":109},{"user_id":370,"name":"Robert Englund","steam_id":76561198273783149,"connected_time":771000000000,"state":"active","ping":131}]},{"server_id":106,"name":"Uncletopia | Chicago | 2 | All Maps","name_short":"chi-2","host":"chi-1.us.uncletopia.com","port":27025,"enabled":true,"region":"us-central","cc":"us","latitude":41.881832,"longitude":-87.62318,"reserved":0,"last_update":"0001-01-01T00:00:00Z","name_a2s":"Uncletopia | Chicago | 2 | All Maps","protocol":17,"map":"pl_borneo","folder":"tf","game":"Team Fortress","app_id":440,"player_count":25,"max_players":24,"Bots":0,"server_type":"Dedicated","server_os":"Linux","password":true,"vac":true,"version":"7723704","steam_id":85568392924469985,"keywords":["nocrits","nodmgspread","payload","uncletopia"],"game_id":440,"stv_port":27026,"stv_name":"Uncletopia | Chicago | 2 | All Maps | STV","players":[{"user_id":162,"name":"Glove Man","steam_id":76561198186899790,"connected_time":1193000000000,"state":"active","ping":46},{"user_id":146,"name":"Quietsharp","steam_id":76561198277968438,"connected_time":2460000000000,"state":"active","ping":102},{"user_id":144,"name":"megatokertom87","steam_id":76561198420227358,"connected_time":2987000000000,"state":"active","ping":69},{"user_id":161,"name":"Clint is wood","steam_id":76561198078798799,"connected_time":1227000000000,"state":"active","ping":146},{"user_id":143,"name":"Drachma","steam_id":76561198007310514,"connected_time":3054000000000,"state":"active","ping":51},{"user_id":131,"name":"Nefy","steam_id":76561198030017316,"connected_time":3757000000000,"state":"active","ping":81},{"user_id":116,"name":"Samus","steam_id":76561198121933439,"connected_time":4394000000000,"state":"active","ping":85},{"user_id":128,"name":"joethefool","steam_id":76561199015436319,"connected_time":3801000000000,"state":"active","ping":69},{"user_id":196,"name":"kibsta","steam_id":76561198991982630,"connected_time":417000000000,"state":"active","ping":80},{"user_id":127,"name":"steel_v41","steam_id":76561199014781716,"connected_time":3864000000000,"state":"active","ping":176},{"user_id":150,"name":"Jeviled","steam_id":76561198114246519,"connected_time":2345000000000,"state":"active","ping":97},{"user_id":164,"name":"Zelumie","steam_id":76561198147335801,"connected_time":1146000000000,"state":"active","ping":62},{"user_id":159,"name":"Wilhelmktx","steam_id":76561198158102295,"connected_time":1306000000000,"state":"active","ping":60},{"user_id":165,"name":"Dex","steam_id":76561198080533848,"connected_time":1092000000000,"state":"active","ping":52},{"user_id":210,"name":"Arishem","steam_id":76561198183269215,"connected_time":6000000000,"state":"spawning","ping":120},{"user_id":194,"name":"*\u003c]StarLy","steam_id":76561198174428289,"connected_time":636000000000,"state":"active","ping":77},{"user_id":152,"name":"‚òº gamble","steam_id":76561198074180953,"connected_time":1760000000000,"state":"active","ping":72},{"user_id":145,"name":"JustSomeInternetGuy","steam_id":76561199066037843,"connected_time":2678000000000,"state":"active","ping":73},{"user_id":168,"name":"Satori Komeiji","steam_id":76561198158211423,"connected_time":1037000000000,"state":"active","ping":96},{"user_id":61,"name":"roln","steam_id":76561198041066271,"connected_time":9418000000000,"state":"active","ping":75},{"user_id":125,"name":"Merchants of Misery","steam_id":76561199188142396,"connected_time":3909000000000,"state":"active","ping":76},{"user_id":170,"name":"lol","steam_id":76561198071196125,"connected_time":1021000000000,"state":"active","ping":71},{"user_id":151,"name":"liebZ","steam_id":76561198210449121,"connected_time":2305000000000,"state":"active","ping":63},{"user_id":160,"name":"pen","steam_id":76561198283655245,"connected_time":1250000000000,"state":"active","ping":166},{"user_id":180,"name":"Dingoid","steam_id":76561198065665995,"connected_time":927000000000,"state":"active","ping":77}]},{"server_id":402,"name":"Uncletopia | Chicago | 3 | All Maps","name_short":"chi-3","host":"chi-1.us.uncletopia.com","port":27035,"enabled":true,"region":"us-central","cc":"us","latitude":41.881832,"longitude":-87.62318,"reserved":0,"last_update":"0001-01-01T00:00:00Z","name_a2s":"Uncletopia | Chicago | 3 | All Maps","protocol":17,"map":"cp_dustbowl","folder":"tf","game":"Team Fortress","app_id":440,"player_count":0,"max_players":24,"Bots":0,"server_type":"Dedicated","server_os":"Linux","password":true,"vac":true,"version":"7723704","steam_id":85568392924515191,"keywords":["cp","nocrits","nodmgspread","uncletopia"],"game_id":440,"stv_port":27036,"stv_name":"Uncletopia | Chicago | 3 | All Maps | STV","players":null},{"server_id":403,"name":"Uncletopia | Chicago | 4 | All Maps","name_short":"chi-4","host":"chi-1.us.uncletopia.com","port":27045,"enabled":true,"region":"us-central","cc":"us","latitude":41.881832,"longitude":-87.62318,"reserved":0,"last_update":"0001-01-01T00:00:00Z","name_a2s":"Uncletopia | Chicago | 4 | All Maps","protocol":17,"map":"koth_highpass","folder":"tf","game":"Team Fortress","app_id":440,"player_count":0,"max_players":24,"Bots":0,"server_type":"Dedicated","server_os":"Linux","password":true,"vac":true,"version":"7723704","steam_id":85568392924515193,"keywords":["cp","nocrits","nodmgspread","uncletopia"],"game_id":440,"stv_port":27046,"stv_name":"Uncletopia | Chicago | 4 | All Maps | STV","players":null},{"server_id":36,"name":"Uncletopia | Chicago | 5 | All Maps","name_short":"chi-5","host":"chi-2.us.uncletopia.com","port":27015,"enabled":true,"region":"us-central","cc":"us","latitude":41.881832,"longitude":-87.62318,"reserved":0,"last_update":"0001-01-01T00:00:00Z","name_a2s":"Uncletopia | Chicago | 5 | All Maps","protocol":17,"map":"pl_snowycoast","folder":"tf","game":"Team Fortress","app_id":440,"player_count":4,"max_players":24,"Bots":0,"server_type":"Dedicated","server_os":"Linux","password":true,"vac":true,"version":"7723704","steam_id":85568392924866362,"keywords":["nocrits","nodmgspread","payload","uncletopia"],"game_id":440,"stv_port":27016,"stv_name":"Uncletopia | Chicago | 5 | All Maps | STV","players":[{"user_id":10,"name":"Charcoal","steam_id":76561198268638706,"connected_time":1507000000000,"state":"active","ping":90},{"user_id":11,"name":"Ax0L_","steam_id":76561199008960175,"connected_time":4000000000,"state":"spawning","ping":46},{"user_id":7,"name":"Goose Pyro","steam_id":76561198994984332,"connected_time":2351000000000,"state":"active","ping":125},{"user_id":9,"name":"Fresh Lychee","steam_id":76561198045399559,"connected_time":1939000000000,"state":"active","ping":48}]},{"server_id":37,"name":"Uncletopia | Chicago | 6 | All Maps","name_short":"chi-6","host":"chi-2.us.uncletopia.com","port":27025,"enabled":true,"region":"us-central","cc":"us","latitude":41.881832,"longitude":-87.62318,"reserved":0,"last_update":"0001-01-01T00:00:00Z","name_a2s":"Uncletopia | Chicago | 6 | All Maps","protocol":17,"map":"pl_barnblitz","folder":"tf","game":"Team Fortress","app_id":440,"player_count":0,"max_players":24,"Bots":0,"server_type":"Dedicated","server_os":"Linux","password":true,"vac":true,"version":"7723704","steam_id":85568392924866363,"keywords":["nocrits","nodmgspread","payload","uncletopia"],"game_id":440,"stv_port":27026,"stv_name":"Uncletopia | Chicago | 6 | All Maps | STV","players":null},{"server_id":38,"name":"Uncletopia | Chicago | 7 | No Payload","name_short":"chi-7","host":"chi-2.us.uncletopia.com","port":27035,"enabled":true,"region":"us-central","cc":"us","latitude":41.881832,"longitude":-87.62318,"reserved":0,"last_update":"0001-01-01T00:00:00Z","name_a2s":"","protocol":0,"map":"","folder":"","game":"","app_id":0,"player_count":0,"max_players":0,"Bots":0,"server_type":"","server_os":"","password":false,"vac":false,"version":"","steam_id":0,"keywords":null,"game_id":0,"stv_port":0,"stv_name":"","players":null},{"server_id":39,"name":"Uncletopia | Chicago | 8 | Community","name_short":"chi-8","host":"chi-2.us.uncletopia.com","port":27045,"enabled":true,"region":"us-central","cc":"us","latitude":41.881832,"longitude":-87.62318,"reserved":0,"last_update":"0001-01-01T00:00:00Z","name_a2s":"Uncletopia | Chicago | 8 | Community","protocol":17,"map":"workshop/cp_reckoner_rc6.ugc674719999","folder":"tf","game":"Team Fortress","app_id":440,"player_count":0,"max_players":24,"Bots":0,"server_type":"Dedicated","server_os":"Linux","password":true,"vac":true,"version":"7723704","steam_id":85568392924866365,"keywords":["cp","nocrits","nodmgspread","uncletopia"],"game_id":440,"stv_port":27046,"stv_name":"Uncletopia | Chicago | 8 | Community | STV","players":null},{"server_id":8,"name":"Uncletopia | Dallas | 1 | All Maps","name_short":"dal-1","host":"dal-1.us.uncletopia.com","port":27015,"enabled":true,"region":"us-central","cc":"us","latitude":32.779167,"longitude":-96.80889,"reserved":0,"last_update":"0001-01-01T00:00:00Z","name_a2s":"Uncletopia | Dallas | 1 | All Maps","protocol":17,"map":"pl_snowycoast","folder":"tf","game":"Team Fortress","app_id":440,"player_count":24,"max_players":24,"Bots":0,"server_type":"Dedicated","server_os":"Linux","password":true,"vac":true,"version":"7723704","steam_id":85568392924469986,"keywords":["nocrits","nodmgspread","payload","uncletopia"],"game_id":440,"stv_port":27016,"stv_name":"Uncletopia | Dallas | 1 | All Maps | STV","players":[{"user_id":109,"name":"IknikBlackstoneVerrickStan","steam_id":76561199177169563,"connected_time":1275000000000,"state":"active","ping":88},{"user_id":130,"name":"Derply","steam_id":76561198871211642,"connected_time":378000000000,"state":"active","ping":129},{"user_id":77,"name":"Caoticaos","steam_id":76561198114800227,"connected_time":4902000000000,"state":"active","ping":136},{"user_id":110,"name":"Azazel","steam_id":76561198370600754,"connected_time":1258000000000,"state":"active","ping":49},{"user_id":118,"name":"Agent Bowtie","steam_id":76561198175839279,"connected_time":1021000000000,"state":"active","ping":50},{"user_id":111,"name":"Normalux","steam_id":76561198293891426,"connected_time":1241000000000,"state":"active","ping":88},{"user_id":115,"name":"ICBMonkey","steam_id":76561198033351821,"connected_time":1080000000000,"state":"active","ping":46},{"user_id":69,"name":"poey","steam_id":76561198865346767,"connected_time":6911000000000,"state":"active","ping":67},{"user_id":127,"name":"Kzjytsugn","steam_id":76561198130241974,"connected_time":773000000000,"state":"active","ping":90},{"user_id":112,"name":"Power With Flower","steam_id":76561198798123834,"connected_time":1241000000000,"state":"active","ping":81},{"user_id":108,"name":"iluvtoust","steam_id":76561198869269207,"connected_time":1430000000000,"state":"active","ping":46},{"user_id":113,"name":"minihoog","steam_id":76561198102156780,"connected_time":1236000000000,"state":"active","ping":65},{"user_id":114,"name":"Fanstasticbook","steam_id":76561199169365818,"connected_time":1207000000000,"state":"active","ping":71},{"user_id":86,"name":"xXx_The_REAL_Marge_Simpson_xXx","steam_id":76561199116846851,"connected_time":3208000000000,"state":"active","ping":62},{"user_id":34,"name":"non_ai","steam_id":76561198270951938,"connected_time":9000000000000,"state":"active","ping":80},{"user_id":81,"name":"Emma","steam_id":76561198318093783,"connected_time":4045000000000,"state":"active","ping":66},{"user_id":117,"name":"No Credit","steam_id":76561198110245806,"connected_time":1059000000000,"state":"active","ping":89},{"user_id":121,"name":"SpaceBanana","steam_id":76561198077857315,"connected_time":961000000000,"state":"active","ping":115},{"user_id":126,"name":"bongcloud","steam_id":76561198116337540,"connected_time":791000000000,"state":"active","ping":89},{"user_id":80,"name":"Pornelius Hubert","steam_id":76561198186128723,"connected_time":4517000000000,"state":"active","ping":47},{"user_id":122,"name":"swooce","steam_id":76561198156232484,"connected_time":956000000000,"state":"active","ping":85},{"user_id":123,"name":"Dr. Nobotnik","steam_id":76561198357339092,"connected_time":955000000000,"state":"active","ping":88},{"user_id":124,"name":"Papa Horse 22","steam_id":76561198000303502,"connected_time":929000000000,"state":"active","ping":67},{"user_id":129,"name":"Shade","steam_id":76561199216478567,"connected_time":681000000000,"state":"active","ping":79}]},{"server_id":108,"name":"Uncletopia | Dallas | 2 | All Maps","name_short":"dal-2","host":"dal-1.us.uncletopia.com","port":27025,"enabled":true,"region":"us-central","cc":"us","latitude":32.779167,"longitude":-96.80889,"reserved":0,"last_update":"0001-01-01T00:00:00Z","name_a2s":"Uncletopia | Dallas | 2 | All Maps","protocol":17,"map":"pl_frontier_final","folder":"tf","game":"Team Fortress","app_id":440,"player_count":2,"max_players":24,"Bots":0,"server_type":"Dedicated","server_os":"Linux","password":true,"vac":true,"version":"7723704","steam_id":85568392924469988,"keywords":["nocrits","nodmgspread","payload","uncletopia"],"game_id":440,"stv_port":27026,"stv_name":"Uncletopia | Dallas | 2 | All Maps | STV","players":[{"user_id":18,"name":"Bonesala","steam_id":76561199052450127,"connected_time":826000000000,"state":"active","ping":62},{"user_id":19,"name":"BuhByeFalecia","steam_id":76561198364710587,"connected_time":324000000000,"state":"active","ping":45}]},{"server_id":5,"name":"Uncletopia | Frankfurt | 1 | All Maps","name_short":"frk-1","host":"frk-1.de.uncletopia.com","port":27015,"enabled":true,"region":"eu","cc":"de","latitude":50.110924,"longitude":8.682127,"reserved":0,"last_update":"0001-01-01T00:00:00Z","name_a2s":"Uncletopia | Frankfurt | 1 | All Maps","protocol":17,"map":"pl_barnblitz","folder":"tf","game":"Team Fortress","app_id":440,"player_count":24,"max_players":24,"Bots":0,"server_type":"Dedicated","server_os":"Linux","password":true,"vac":true,"version":"7723704","steam_id":85568392924469989,"keywords":["nocrits","nodmgspread","payload","uncletopia"],"game_id":440,"stv_port":27016,"stv_name":"Uncletopia | Frankfurt | 1 | All Maps | STV","players":[{"user_id":417,"name":"MrClyde","steam_id":76561198132627420,"connected_time":3422000000000,"state":"active","ping":168},{"user_id":425,"name":"Optimist 50","steam_id":76561198039631442,"connected_time":2601000000000,"state":"active","ping":74},{"user_id":450,"name":"Krabs","steam_id":76561198161679477,"connected_time":1042000000000,"state":"active","ping":55},{"user_id":423,"name":"Average Sandvich Enjoyer","steam_id":76561198970762992,"connected_time":2917000000000,"state":"active","ping":62},{"user_id":410,"name":"PLUTO","steam_id":76561198312436128,"connected_time":3826000000000,"state":"active","ping":130},{"user_id":411,"name":"Artock","steam_id":76561198808599713,"connected_time":3750000000000,"state":"active","ping":82},{"user_id":424,"name":"The_Masterminder","steam_id":76561199046044993,"connected_time":2772000000000,"state":"active","ping":57},{"user_id":455,"name":"Animatic","steam_id":76561198186421601,"connected_time":878000000000,"state":"active","ping":168},{"user_id":459,"name":"Economic crisis","steam_id":76561198063562843,"connected_time":665000000000,"state":"active","ping":52},{"user_id":458,"name":"Rebility:3","steam_id":76561198177347047,"connected_time":696000000000,"state":"active","ping":135},{"user_id":456,"name":"C0RVU5","steam_id":76561198295594147,"connected_time":789000000000,"state":"active","ping":79},{"user_id":449,"name":"Jet","steam_id":76561198061518477,"connected_time":1077000000000,"state":"active","ping":60},{"user_id":434,"name":"Scientist #1458256","steam_id":76561198319815134,"connected_time":2226000000000,"state":"active","ping":81},{"user_id":431,"name":"ho borvat (official)","steam_id":76561198065774503,"connected_time":2239000000000,"state":"active","ping":77},{"user_id":444,"name":"Realist 40","steam_id":76561198052476979,"connected_time":1679000000000,"state":"active","ping":76},{"user_id":435,"name":".Aq","steam_id":76561198043376092,"connected_time":2166000000000,"state":"active","ping":91},{"user_id":452,"name":"I'm serving a prison sentence","steam_id":76561198998684199,"connected_time":929000000000,"state":"active","ping":127},{"user_id":461,"name":"Fales","steam_id":76561198126124929,"connected_time":601000000000,"state":"active","ping":67},{"user_id":453,"name":"Mor'du","steam_id":76561198274105878,"connected_time":921000000000,"state":"active","ping":75},{"user_id":439,"name":"Granko Polo","steam_id":76561198078252690,"connected_time":2107000000000,"state":"active","ping":51},{"user_id":462,"name":"Dikoffski","steam_id":76561198181995161,"connected_time":1000000000,"state":"spawning","ping":70},{"user_id":441,"name":"ÔΩÑÔΩÖÔΩìÔΩãÔΩíÔΩÅÔΩô","steam_id":76561198805536170,"connected_time":2053000000000,"state":"active","ping":78},{"user_id":442,"name":"fmdi","steam_id":76561199433879329,"connected_time":1982000000000,"state":"active","ping":74},{"user_id":454,"name":"Pingus","steam_id":76561198164880756,"connected_time":918000000000,"state":"active","ping":75}]},{"server_id":110,"name":"Uncletopia | Frankfurt | 2 | All Maps","name_short":"frk-2","host":"frk-1.de.uncletopia.com","port":27025,"enabled":true,"region":"eu","cc":"de","latitude":50.110924,"longitude":8.682127,"reserved":0,"last_update":"0001-01-01T00:00:00Z","name_a2s":"Uncletopia | Frankfurt | 2 | All Maps","protocol":17,"map":"koth_harvest_final","folder":"tf","game":"Team Fortress","app_id":440,"player_count":24,"max_players":24,"Bots":0,"server_type":"Dedicated","server_os":"Linux","password":true,"vac":true,"version":"7723704","steam_id":85568392924469990,"keywords":["cp","nocrits","nodmgspread","uncletopia"],"game_id":440,"stv_port":27026,"stv_name":"Uncletopia | Frankfurt | 2 | All Maps | STV","players":[{"user_id":512,"name":"üëÅ","steam_id":76561199062818404,"connected_time":93000000000,"state":"active","ping":59},{"user_id":494,"name":"Cute Bunny Boi","steam_id":76561198344694780,"connected_time":935000000000,"state":"active","ping":45},{"user_id":503,"name":"Gurp","steam_id":76561199037557314,"connected_time":592000000000,"state":"active","ping":120},{"user_id":490,"name":"F2P gameing","steam_id":76561198834713682,"connected_time":1097000000000,"state":"active","ping":73},{"user_id":467,"name":"–ú—è–∫–∏—à(—Ö–ª–µ–±–Ω—ã–π)","steam_id":76561199223895282,"connected_time":2501000000000,"state":"active","ping":92},{"user_id":482,"name":"Spageti","steam_id":76561198074122906,"connected_time":1678000000000,"state":"active","ping":75},{"user_id":445,"name":"sareena","steam_id":76561198810194062,"connected_time":4062000000000,"state":"active","ping":75},{"user_id":444,"name":"Vershal Smershal","steam_id":76561198116223995,"connected_time":4207000000000,"state":"active","ping":61},{"user_id":488,"name":"Love the Subhuman Self","steam_id":76561198129828715,"connected_time":1323000000000,"state":"active","ping":68},{"user_id":489,"name":"ghost","steam_id":76561198189940229,"connected_time":1108000000000,"state":"active","ping":60},{"user_id":453,"name":"Beaverlog","steam_id":76561198274240168,"connected_time":3587000000000,"state":"active","ping":67},{"user_id":509,"name":"Dr Sex","steam_id":76561198029044617,"connected_time":281000000000,"state":"active","ping":61},{"user_id":476,"name":"L√∂ys√§ Masa","steam_id":76561198343396172,"connected_time":2191000000000,"state":"active","ping":89},{"user_id":513,"name":"Assassin","steam_id":76561198054795481,"connected_time":14000000000,"state":"spawning","ping":156},{"user_id":511,"name":"Mandy","steam_id":76561198083879442,"connected_time":136000000000,"state":"active","ping":49},{"user_id":508,"name":"Megapuncher","steam_id":76561198023536780,"connected_time":300000000000,"state":"active","ping":50},{"user_id":435,"name":"ÍßÅ‡ºíXenon‡ºíÍßÇ","steam_id":76561198120502313,"connected_time":4828000000000,"state":"active","ping":68},{"user_id":470,"name":"RektoDuck","steam_id":76561198031348484,"connected_time":2290000000000,"state":"active","ping":87},{"user_id":510,"name":"Gen","steam_id":76561198021775885,"connected_time":256000000000,"state":"active","ping":54},{"user_id":514,"name":"miev","steam_id":76561198078278737,"connected_time":1000000000,"state":"spawning","ping":68},{"user_id":469,"name":"Dr Ludwig","steam_id":76561198426522902,"connected_time":2413000000000,"state":"active","ping":66},{"user_id":442,"name":"Oceanic | tuesday maybe","steam_id":76561197979741827,"connected_time":4358000000000,"state":"active","ping":54},{"user_id":502,"name":"self care","steam_id":76561199117720299,"connected_time":672000000000,"state":"active","ping":57},{"user_id":501,"name":"OVERLORDMALARKEY","steam_id":76561198098267117,"connected_time":723000000000,"state":"active","ping":79}]},{"server_id":308,"name":"Uncletopia | Frankfurt | 3 | All Maps","name_short":"frk-3","host":"frk-1.de.uncletopia.com","port":27035,"enabled":true,"region":"eu","cc":"de","latitude":50.110924,"longitude":8.682127,"reserved":0,"last_update":"0001-01-01T00:00:00Z","name_a2s":"Uncletopia | Frankfurt | 3 | All Maps","protocol":17,"map":"pl_upward","folder":"tf","game":"Team Fortress","app_id":440,"player_count":16,"max_players":24,"Bots":0,"server_type":"Dedicated","server_os":"Linux","password":true,"vac":true,"version":"7723704","steam_id":85568392924504274,"keywords":["nocrits","nodmgspread","payload","uncletopia"],"game_id":440,"stv_port":27036,"stv_name":"Uncletopia | Frankfurt | 3 | All Maps | STV","players":[{"user_id":650,"name":"XPullaHiiri","steam_id":76561198031652375,"connected_time":251000000000,"state":"active","ping":84},{"user_id":616,"name":"=PB=","steam_id":76561197999146612,"connected_time":2842000000000,"state":"active","ping":41},{"user_id":651,"name":"Gleshnarb","steam_id":76561198106581442,"connected_time":2000000000,"state":"spawning","ping":60},{"user_id":618,"name":"walluu","steam_id":76561198121830870,"connected_time":2615000000000,"state":"active","ping":71},{"user_id":623,"name":"snsmac","steam_id":76561198082821185,"connected_time":2117000000000,"state":"active","ping":41},{"user_id":649,"name":"ratoshin","steam_id":76561198194433657,"connected_time":270000000000,"state":"active","ping":45},{"user_id":608,"name":"NO end to POOTIS","steam_id":76561198144879361,"connected_time":3218000000000,"state":"active","ping":157},{"user_id":621,"name":"I only heal f2p","steam_id":76561198019935109,"connected_time":2377000000000,"state":"active","ping":65},{"user_id":620,"name":"sinapsid","steam_id":76561199130784607,"connected_time":2574000000000,"state":"active","ping":78},{"user_id":619,"name":"Dzan50","steam_id":76561198059758591,"connected_time":2587000000000,"state":"active","ping":64},{"user_id":644,"name":"G6 sherlock","steam_id":76561198802967796,"connected_time":976000000000,"state":"active","ping":115},{"user_id":638,"name":"Alfred Schroom","steam_id":76561198117990411,"connected_time":1496000000000,"state":"active","ping":88},{"user_id":648,"name":"Fezlex","steam_id":76561198042511188,"connected_time":727000000000,"state":"active","ping":67},{"user_id":647,"name":"Thors","steam_id":76561197968739075,"connected_time":745000000000,"state":"active","ping":47},{"user_id":643,"name":"DaviX","steam_id":76561198345406679,"connected_time":1049000000000,"state":"active","ping":87},{"user_id":628,"name":"fallingpencil","steam_id":76561199230233148,"connected_time":1912000000000,"state":"active","ping":64}]},{"server_id":309,"name":"Uncletopia | Frankfurt | 4 | All Maps","name_short":"frk-4","host":"frk-1.de.uncletopia.com","port":27045,"enabled":true,"region":"eu","cc":"de","latitude":50.110924,"longitude":8.682127,"reserved":0,"last_update":"0001-01-01T00:00:00Z","name_a2s":"Uncletopia | Frankfurt | 4 | All Maps","protocol":17,"map":"cp_process_final","folder":"tf","game":"Team Fortress","app_id":440,"player_count":23,"max_players":24,"Bots":0,"server_type":"Dedicated","server_os":"Linux","password":true,"vac":true,"version":"7723704","steam_id":85568392924504275,"keywords":["cp","nocrits","nodmgspread","uncletopia"],"game_id":440,"stv_port":27046,"stv_name":"Uncletopia | Frankfurt | 4 | All Maps | STV","players":[{"user_id":612,"name":"Revenoux JR","steam_id":76561197993962006,"connected_time":22000000000,"state":"active","ping":52},{"user_id":585,"name":"Tedkon","steam_id":76561198034141061,"connected_time":1749000000000,"state":"active","ping":132},{"user_id":600,"name":"Walter Jr","steam_id":76561199111329270,"connected_time":1340000000000,"state":"active","ping":117},{"user_id":613,"name":"muza‚ô•","steam_id":76561198220183377,"connected_time":20000000000,"state":"spawning","ping":98},{"user_id":586,"name":"Alonmire","steam_id":76561198882281665,"connected_time":1643000000000,"state":"active","ping":97},{"user_id":566,"name":"NaN","steam_id":76561198071098413,"connected_time":3431000000000,"state":"active","ping":47},{"user_id":590,"name":"garbage mikuknight","steam_id":76561198361819054,"connected_time":1467000000000,"state":"active","ping":101},{"user_id":611,"name":"Leto","steam_id":76561198419429742,"connected_time":223000000000,"state":"active","ping":52},{"user_id":605,"name":"Empyrean","steam_id":76561198138552502,"connected_time":1162000000000,"state":"active","ping":68},{"user_id":591,"name":"wamw","steam_id":76561199206660048,"connected_time":1448000000000,"state":"active","ping":61},{"user_id":592,"name":"Dumb Monkey‚Ñ¢","steam_id":76561198270165797,"connected_time":1432000000000,"state":"active","ping":70},{"user_id":524,"name":"Jin","steam_id":76561198248878364,"connected_time":5158000000000,"state":"active","ping":44},{"user_id":593,"name":"Flask","steam_id":76561198038028999,"connected_time":1423000000000,"state":"active","ping":55},{"user_id":610,"name":"Miatthew","steam_id":76561198034102895,"connected_time":323000000000,"state":"active","ping":58},{"user_id":596,"name":"jorj3821","steam_id":76561198844794367,"connected_time":1372000000000,"state":"active","ping":66},{"user_id":597,"name":"GOOFY AHH","steam_id":76561199152065544,"connected_time":1362000000000,"state":"active","ping":79},{"user_id":526,"name":"Okacha","steam_id":76561198341166854,"connected_time":5148000000000,"state":"active","ping":97},{"user_id":527,"name":"john fortress","steam_id":76561198202668788,"connected_time":5116000000000,"state":"active","ping":63},{"user_id":598,"name":"ash","steam_id":76561198004728744,"connected_time":1361000000000,"state":"active","ping":47},{"user_id":603,"name":"Elon Dumb","steam_id":76561197983872299,"connected_time":1297000000000,"state":"active","ping":52},{"user_id":607,"name":"Gandalf","steam_id":76561199072668363,"connected_time":1063000000000,"state":"active","ping":79},{"user_id":578,"name":"Pronton","steam_id":76561198082502910,"connected_time":2260000000000,"state":"active","ping":57},{"user_id":604,"name":"SoapySophie","steam_id":76561198902894934,"connected_time":1284000000000,"state":"active","ping":129}]},{"server_id":310,"name":"Uncletopia | Frankfurt | 5 | All Maps","name_short":"frk-5","host":"frk-1.de.uncletopia.com","port":27055,"enabled":true,"region":"eu","cc":"de","latitude":50.110924,"longitude":8.682127,"reserved":0,"last_update":"0001-01-01T00:00:00Z","name_a2s":"Uncletopia | Frankfurt | 5 | All Maps","protocol":17,"map":"pl_upward","folder":"tf","game":"Team Fortress","app_id":440,"player_count":22,"max_players":24,"Bots":0,"server_type":"Dedicated","server_os":"Linux","password":true,"vac":true,"version":"7723704","steam_id":85568392924504277,"keywords":["nocrits","nodmgspread","payload","uncletopia"],"game_id":440,"stv_port":27056,"stv_name":"Uncletopia | Frankfurt | 5 | All Maps | STV","players":[{"user_id":388,"name":"Radegast the Brown","steam_id":76561198075489505,"connected_time":2768000000000,"state":"active","ping":60},{"user_id":384,"name":"Ta–øgen","steam_id":76561198120329367,"connected_time":2818000000000,"state":"active","ping":93},{"user_id":417,"name":"Jasper Brunch","steam_id":76561198132578652,"connected_time":695000000000,"state":"active","ping":61},{"user_id":411,"name":"sillycatlover","steam_id":76561199208283508,"connected_time":1109000000000,"state":"active","ping":103},{"user_id":440,"name":"sv_opor 13123","steam_id":76561198002229612,"connected_time":37000000000,"state":"active","ping":229},{"user_id":387,"name":"Miecio04","steam_id":76561198412639639,"connected_time":2784000000000,"state":"active","ping":62},{"user_id":403,"name":"·¥ò…™·¥èŒõ ∆éÍûç‚ä•","steam_id":76561198276912938,"connected_time":2184000000000,"state":"active","ping":117},{"user_id":416,"name":"K.V. #RemoveRandomCrits","steam_id":76561197994832993,"connected_time":733000000000,"state":"active","ping":76},{"user_id":394,"name":"nynon","steam_id":76561197998432126,"connected_time":2630000000000,"state":"active","ping":101},{"user_id":418,"name":"Aesthetic Alcoholism","steam_id":76561198044418968,"connected_time":670000000000,"state":"active","ping":45},{"user_id":408,"name":"The man of glue sniffing","steam_id":76561199101213951,"connected_time":1518000000000,"state":"active","ping":77},{"user_id":439,"name":"Pszemo \u003c3","steam_id":76561198020851452,"connected_time":307000000000,"state":"active","ping":99},{"user_id":396,"name":"mishka.*","steam_id":76561198040003628,"connected_time":2596000000000,"state":"active","ping":74},{"user_id":369,"name":"Subnet001","steam_id":76561198029163028,"connected_time":3412000000000,"state":"active","ping":65},{"user_id":370,"name":"Wyremingo","steam_id":76561198314337596,"connected_time":3409000000000,"state":"active","ping":92},{"user_id":371,"name":"biofun wood (as seen on onlyfan","steam_id":76561198170609049,"connected_time":3348000000000,"state":"active","ping":74},{"user_id":398,"name":"Jingleboob's 1# Elf","steam_id":76561198067204908,"connected_time":2488000000000,"state":"active","ping":69},{"user_id":373,"name":"jingleboob","steam_id":76561198097507847,"connected_time":3342000000000,"state":"active","ping":76},{"user_id":414,"name":"Teleporter Bread","steam_id":76561198272199749,"connected_time":830000000000,"state":"active","ping":111},{"user_id":375,"name":"Shwal","steam_id":76561198138840448,"connected_time":3236000000000,"state":"active","ping":170},{"user_id":376,"name":"Fruit","steam_id":76561198346687933,"connected_time":3221000000000,"state":"active","ping":64},{"user_id":405,"name":"Anri Okita's Massive Milkers","steam_id":76561199186352720,"connected_time":1900000000000,"state":"active","ping":79}]},{"server_id":311,"name":"Uncletopia | Frankfurt | 6 | All Maps","name_short":"frk-6","host":"frk-1.de.uncletopia.com","port":27065,"enabled":true,"region":"eu","cc":"de","latitude":50.110924,"longitude":8.682127,"reserved":0,"last_update":"0001-01-01T00:00:00Z","name_a2s":"Uncletopia | Frankfurt | 6 | All Maps","protocol":17,"map":"pl_badwater","folder":"tf","game":"Team Fortress","app_id":440,"player_count":20,"max_players":24,"Bots":0,"server_type":"Dedicated","server_os":"Linux","password":true,"vac":true,"version":"7723704","steam_id":85568392924504278,"keywords":["nocrits","nodmgspread","payload","uncletopia"],"game_id":440,"stv_port":27066,"stv_name":"Uncletopia | Frankfurt | 6 | All Maps | STV","players":[{"user_id":256,"name":"Perci","steam_id":76561198097789669,"connected_time":7013000000000,"state":"active","ping":58},{"user_id":325,"name":"mark","steam_id":76561198309246388,"connected_time":1787000000000,"state":"active","ping":48},{"user_id":338,"name":"medick","steam_id":76561199380849468,"connected_time":577000000000,"state":"active","ping":59},{"user_id":327,"name":"ball sniffa","steam_id":76561199022705805,"connected_time":1679000000000,"state":"active","ping":49},{"user_id":340,"name":"Aquatical","steam_id":76561198097333170,"connected_time":219000000000,"state":"active","ping":90},{"user_id":328,"name":".soldier","steam_id":76561198866283468,"connected_time":1678000000000,"state":"active","ping":101},{"user_id":288,"name":"tristan","steam_id":76561198096097448,"connected_time":4296000000000,"state":"active","ping":48},{"user_id":329,"name":"BloodyCrystal","steam_id":76561198174405618,"connected_time":1663000000000,"state":"active","ping":74},{"user_id":280,"name":"Fat Pigeon","steam_id":76561198817940142,"connected_time":4779000000000,"state":"active","ping":52},{"user_id":297,"name":"KFC Enjoyer","steam_id":76561198840259819,"connected_time":3860000000000,"state":"active","ping":44},{"user_id":341,"name":"OrangeBanana","steam_id":76561199230233875,"connected_time":173000000000,"state":"active","ping":61},{"user_id":273,"name":"meriones","steam_id":76561198034234373,"connected_time":5370000000000,"state":"active","ping":54},{"user_id":241,"name":"Ultimo","steam_id":76561198061802565,"connected_time":7685000000000,"state":"active","ping":104},{"user_id":334,"name":"·†å ‚Åß‚Åßlowie","steam_id":76561198444338008,"connected_time":1185000000000,"state":"active","ping":80},{"user_id":316,"name":"Coach","steam_id":76561198090835995,"connected_time":2504000000000,"state":"active","ping":72},{"user_id":190,"name":"Gernhardt Reinlunzen #savetf2","steam_id":76561198147571688,"connected_time":10096000000000,"state":"active","ping":52},{"user_id":317,"name":"ZOGG FearLand","steam_id":76561198352683491,"connected_time":2477000000000,"state":"active","ping":54},{"user_id":333,"name":"Swayer","steam_id":76561198056192460,"connected_time":1202000000000,"state":"active","ping":76},{"user_id":330,"name":"Denialman (Muted)","steam_id":76561198309182092,"connected_time":1659000000000,"state":"active","ping":64},{"user_id":254,"name":"Pyraq","steam_id":76561198163646895,"connected_time":7327000000000,"state":"active","ping":67}]},{"server_id":23,"name":"Uncletopia | Frankfurt | 7 | No Payload","name_short":"frk-7","host":"frk-1.de.uncletopia.com","port":27075,"enabled":true,"region":"eu","cc":"de","latitude":50.110924,"longitude":8.682127,"reserved":0,"last_update":"0001-01-01T00:00:00Z","name_a2s":"Uncletopia | Frankfurt | 7 | No Payload","protocol":17,"map":"cp_altitude","folder":"tf","game":"Team Fortress","app_id":440,"player_count":19,"max_players":24,"Bots":0,"server_type":"Dedicated","server_os":"Linux","password":true,"vac":true,"version":"7723704","steam_id":85568392924742827,"keywords":["cp","nocrits","nodmgspread","uncletopia"],"game_id":440,"stv_port":27076,"stv_name":"Uncletopia | Frankfurt | 7 | No Payload | STV","players":[{"user_id":153,"name":"hitler zozo","steam_id":76561199087703209,"connected_time":1376000000000,"state":"active","ping":152},{"user_id":141,"name":"Spy","steam_id":76561198122074582,"connected_time":2785000000000,"state":"active","ping":87},{"user_id":151,"name":"DSL","steam_id":76561198186770547,"connected_time":1719000000000,"state":"active","ping":89},{"user_id":95,"name":"Him","steam_id":76561198086400484,"connected_time":4706000000000,"state":"active","ping":65},{"user_id":96,"name":"vertigo!","steam_id":76561198914976373,"connected_time":4694000000000,"state":"active","ping":51},{"user_id":97,"name":"mismu","steam_id":76561198854358215,"connected_time":4668000000000,"state":"active","ping":45},{"user_id":154,"name":"I-I","steam_id":76561198267969436,"connected_time":1330000000000,"state":"active","ping":55},{"user_id":163,"name":"Irbynx","steam_id":76561197980421195,"connected_time":673000000000,"state":"active","ping":75},{"user_id":159,"name":"Bob Salami","steam_id":76561198150681340,"connected_time":1061000000000,"state":"active","ping":76},{"user_id":160,"name":"Miedzan","steam_id":76561198405250516,"connected_time":936000000000,"state":"active","ping":74},{"user_id":164,"name":"Babatitiste","steam_id":76561198800212915,"connected_time":651000000000,"state":"active","ping":87},{"user_id":165,"name":"@YoGoldy","steam_id":76561199210692950,"connected_time":605000000000,"state":"active","ping":162},{"user_id":171,"name":"TSx* Osa__PL","steam_id":76561198027016799,"connected_time":281000000000,"state":"active","ping":72},{"user_id":172,"name":"TSx* {Demon-Angel}","steam_id":76561198151486463,"connected_time":195000000000,"state":"active","ping":76},{"user_id":173,"name":"‚Ç™ F4.exe","steam_id":76561197997909480,"connected_time":190000000000,"state":"active","ping":75},{"user_id":77,"name":"gullr","steam_id":76561198283606917,"connected_time":6064000000000,"state":"active","ping":45},{"user_id":174,"name":"TSx* Naxer","steam_id":76561198011986779,"connected_time":183000000000,"state":"active","ping":61},{"user_id":176,"name":"F4.exe","steam_id":76561198278822807,"connected_time":126000000000,"state":"active","ping":60},{"user_id":78,"name":"Fatass","steam_id":76561198143115077,"connected_time":6059000000000,"state":"active","ping":91}]},{"server_id":24,"name":"Uncletopia | Frankfurt | 8 | Community","name_short":"frk-8","host":"frk-1.de.uncletopia.com","port":27085,"enabled":true,"region":"eu","cc":"de","latitude":50.110924,"longitude":8.682127,"reserved":0,"last_update":"0001-01-01T00:00:00Z","name_a2s":"Uncletopia | Frankfurt | 8 | Community","protocol":17,"map":"workshop/koth_ashville_final.ugc2130459942","folder":"tf","game":"Team Fortress","app_id":440,"player_count":0,"max_players":24,"Bots":0,"server_type":"Dedicated","server_os":"Linux","password":true,"vac":true,"version":"7723704","steam_id":85568392924742828,"keywords":["cp","nocrits","nodmgspread","uncletopia"],"game_id":440,"stv_port":27086,"stv_name":"Uncletopia | Frankfurt | 8 | Community | STV","players":null},{"server_id":202,"name":"Uncletopia | Hong Kong | 1 | All Maps","name_short":"hgk-1","host":"hgk-1.hk.uncletopia.com","port":27015,"enabled":true,"region":"asia","cc":"hk","latitude":22.302711,"longitude":114.177216,"reserved":0,"last_update":"0001-01-01T00:00:00Z","name_a2s":"Uncletopia | Hong Kong | 1 | All Maps","protocol":17,"map":"koth_cascade","folder":"tf","game":"Team Fortress","app_id":440,"player_count":0,"max_players":24,"Bots":0,"server_type":"Dedicated","server_os":"Linux","password":true,"vac":true,"version":"7723704","steam_id":85568392924494504,"keywords":["cp","nocrits","nodmgspread","uncletopia"],"game_id":440,"stv_port":27016,"stv_name":"Uncletopia | Hong Kong | 1 | All Maps | STV","players":null},{"server_id":1,"name":"Uncletopia | Los Angeles | 1 | All Maps","name_short":"lax-1","host":"lax-1.us.uncletopia.com","port":27015,"enabled":true,"region":"us-west","cc":"us","latitude":33.94279,"longitude":-118.41004,"reserved":0,"last_update":"0001-01-01T00:00:00Z","name_a2s":"Uncletopia | Los Angeles | 1 | All Maps","protocol":17,"map":"pl_pier","folder":"tf","game":"Team Fortress","app_id":440,"player_count":0,"max_players":24,"Bots":0,"server_type":"Dedicated","server_os":"Linux","password":true,"vac":true,"version":"7723704","steam_id":85568392924469991,"keywords":["nocrits","nodmgspread","payload","uncletopia"],"game_id":440,"stv_port":27016,"stv_name":"Uncletopia | Los Angeles | 1 | All Maps | STV","players":null},{"server_id":112,"name":"Uncletopia | Los Angeles | 2 | All Maps","name_short":"lax-2","host":"lax-1.us.uncletopia.com","port":27025,"enabled":true,"region":"us-west","cc":"us","latitude":33.94279,"longitude":-118.41004,"reserved":0,"last_update":"0001-01-01T00:00:00Z","name_a2s":"Uncletopia | Los Angeles | 2 | All Maps","protocol":17,"map":"cp_sunshine","folder":"tf","game":"Team Fortress","app_id":440,"player_count":0,"max_players":24,"Bots":0,"server_type":"Dedicated","server_os":"Linux","password":true,"vac":true,"version":"7723704","steam_id":85568392924469992,"keywords":["cp","nocrits","nodmgspread","uncletopia"],"game_id":440,"stv_port":27026,"stv_name":"Uncletopia | Los Angeles | 2 | All Maps | STV","players":null},{"server_id":324,"name":"Uncletopia | Los Angeles | 3 | All Maps","name_short":"lax-3","host":"lax-1.us.uncletopia.com","port":27035,"enabled":true,"region":"us-west","cc":"us","latitude":33.94279,"longitude":-118.41004,"reserved":0,"last_update":"0001-01-01T00:00:00Z","name_a2s":"Uncletopia | Los Angeles | 3 | All Maps","protocol":17,"map":"koth_highpass","folder":"tf","game":"Team Fortress","app_id":440,"player_count":0,"max_players":24,"Bots":0,"server_type":"Dedicated","server_os":"Linux","password":true,"vac":true,"version":"7723704","steam_id":85568392924510198,"keywords":["cp","nocrits","nodmgspread","uncletopia"],"game_id":440,"stv_port":27036,"stv_name":"Uncletopia | Los Angeles | 3 | All Maps | STV","players":null},{"server_id":25,"name":"Uncletopia | Los Angeles | 4 | No Payload","name_short":"lax-4","host":"lax-1.us.uncletopia.com","port":27045,"enabled":true,"region":"us-west","cc":"us","latitude":33.94279,"longitude":-118.41004,"reserved":0,"last_update":"0001-01-01T00:00:00Z","name_a2s":"Uncletopia | Los Angeles | 4 | No Payload","protocol":17,"map":"cp_mountainlab","folder":"tf","game":"Team Fortress","app_id":440,"player_count":0,"max_players":24,"Bots":0,"server_type":"Dedicated","server_os":"Linux","password":true,"vac":true,"version":"7723704","steam_id":85568392924510199,"keywords":["cp","nocrits","nodmgspread","uncletopia"],"game_id":440,"stv_port":27046,"stv_name":"Uncletopia | Los Angeles | 4 | No Payload | STV","players":null},{"server_id":11,"name":"Uncletopia | London | 1 | All Maps","name_short":"lon-1","host":"lon-1.uk.uncletopia.com","port":27015,"enabled":true,"region":"eu","cc":"gb","latitude":51.509865,"longitude":-0.118092,"reserved":0,"last_update":"0001-01-01T00:00:00Z","name_a2s":"Uncletopia | London | 1 | All Maps","protocol":17,"map":"pl_borneo","folder":"tf","game":"Team Fortress","app_id":440,"player_count":21,"max_players":24,"Bots":0,"server_type":"Dedicated","server_os":"Linux","password":true,"vac":true,"version":"7723704","steam_id":85568392924367362,"keywords":["nocrits","nodmgspread","payload","uncletopia"],"game_id":440,"stv_port":27016,"stv_name":"Uncletopia | London | 1 | All Maps | STV","players":[{"user_id":390,"name":"nudjura","steam_id":76561198281986139,"connected_time":1209000000000,"state":"active","ping":46},{"user_id":391,"name":"jesus in hell","steam_id":76561199186426296,"connected_time":1027000000000,"state":"active","ping":99},{"user_id":420,"name":"DogukanBilek","steam_id":76561198803851432,"connected_time":169000000000,"state":"active","ping":92},{"user_id":405,"name":"cof","steam_id":76561199128417805,"connected_time":534000000000,"state":"active","ping":66},{"user_id":421,"name":"Insanitybomb","steam_id":76561198048707708,"connected_time":149000000000,"state":"active","ping":58},{"user_id":396,"name":"SynthBox3","steam_id":76561199094075745,"connected_time":713000000000,"state":"active","ping":136},{"user_id":397,"name":"smallpotato","steam_id":76561198408851937,"connected_time":711000000000,"state":"active","ping":41},{"user_id":415,"name":"Sheerluck Holmes","steam_id":76561198051161936,"connected_time":282000000000,"state":"active","ping":49},{"user_id":418,"name":"British Disapproval","steam_id":76561198001375260,"connected_time":196000000000,"state":"active","ping":54},{"user_id":400,"name":"goblinninja110","steam_id":76561198269159354,"connected_time":610000000000,"state":"active","ping":55},{"user_id":414,"name":"trite","steam_id":76561197983765323,"connected_time":387000000000,"state":"active","ping":62},{"user_id":402,"name":"JGV","steam_id":76561198094654971,"connected_time":578000000000,"state":"active","ping":71},{"user_id":406,"name":"sid","steam_id":76561198093613358,"connected_time":513000000000,"state":"active","ping":111},{"user_id":407,"name":"Û†Ä°Û†Ä°","steam_id":76561198388119954,"connected_time":473000000000,"state":"active","ping":108},{"user_id":416,"name":"ylzvedat230","steam_id":76561199194220474,"connected_time":211000000000,"state":"active","ping":104},{"user_id":409,"name":"NoNutZ \u003c3","steam_id":76561198092500604,"connected_time":457000000000,"state":"active","ping":62},{"user_id":410,"name":"Itai","steam_id":76561198804555329,"connected_time":448000000000,"state":"active","ping":105},{"user_id":412,"name":"Luk3","steam_id":76561198340519063,"connected_time":428000000000,"state":"active","ping":48},{"user_id":413,"name":"Newax","steam_id":76561198020758511,"connected_time":423000000000,"state":"active","ping":72},{"user_id":419,"name":"jaMie","steam_id":76561198170148783,"connected_time":186000000000,"state":"active","ping":39},{"user_id":423,"name":"big heavy is heavy heavy","steam_id":76561198300059652,"connected_time":26000000000,"state":"active","ping":59}]},{"server_id":114,"name":"Uncletopia | London | 2 | All Maps","name_short":"lon-2","host":"lon-1.uk.uncletopia.com","port":27025,"enabled":true,"region":"eu","cc":"gb","latitude":51.509865,"longitude":-0.118092,"reserved":0,"last_update":"0001-01-01T00:00:00Z","name_a2s":"Uncletopia | London | 2 | All Maps","protocol":17,"map":"koth_viaduct","folder":"tf","game":"Team Fortress","app_id":440,"player_count":17,"max_players":24,"Bots":0,"server_type":"Dedicated","server_os":"Linux","password":true,"vac":true,"version":"7723704","steam_id":85568392924470941,"keywords":["cp","nocrits","nodmgspread","uncletopia"],"game_id":440,"stv_port":27026,"stv_name":"Uncletopia | London | 2 | All Maps | STV","players":[{"user_id":650,"name":"Smuggs","steam_id":76561197999456003,"connected_time":105000000000,"state":"active","ping":40},{"user_id":646,"name":"Florua","steam_id":76561198182297846,"connected_time":514000000000,"state":"active","ping":61},{"user_id":587,"name":"Jonkheervanflep","steam_id":76561198006853101,"connected_time":4650000000000,"state":"active","ping":97},{"user_id":617,"name":"Frazzles","steam_id":76561199228009586,"connected_time":3074000000000,"state":"active","ping":46},{"user_id":631,"name":"NonProphet","steam_id":76561198280149820,"connected_time":1927000000000,"state":"active","ping":53},{"user_id":602,"name":"TheBeardedM1G","steam_id":76561198040208946,"connected_time":4128000000000,"state":"active","ping":47},{"user_id":586,"name":"Lewylow","steam_id":76561198005425686,"connected_time":4670000000000,"state":"active","ping":58},{"user_id":600,"name":"TheLogicult","steam_id":76561198072324306,"connected_time":4171000000000,"state":"active","ping":27},{"user_id":618,"name":"i am bread","steam_id":76561199180277321,"connected_time":3041000000000,"state":"active","ping":39},{"user_id":644,"name":"avon (they/she)","steam_id":76561198063093802,"connected_time":830000000000,"state":"active","ping":43},{"user_id":610,"name":"Cazulas","steam_id":76561198027460283,"connected_time":3649000000000,"state":"active","ping":64},{"user_id":640,"name":"–ò–Ω—Å–ø–µ–∫—Ç–æ—Ä –ê—Ç–∞—Å","steam_id":76561199175688390,"connected_time":1550000000000,"state":"active","ping":88},{"user_id":642,"name":"golf IS a sport","steam_id":76561198134378108,"connected_time":1132000000000,"state":"active","ping":90},{"user_id":648,"name":"Round King","steam_id":76561198273185290,"connected_time":306000000000,"state":"active","ping":149},{"user_id":612,"name":"DJ –ïBAN","steam_id":76561198027646597,"connected_time":3619000000000,"state":"active","ping":105},{"user_id":636,"name":"RikyBiky","steam_id":76561198261545177,"connected_time":1742000000000,"state":"active","ping":65},{"user_id":637,"name":"Greencoffee","steam_id":76561198842090589,"connected_time":1725000000000,"state":"active","ping":61}]},{"server_id":320,"name":"Uncletopia | London | 3 | All Maps","name_short":"lon-3","host":"lon-1.uk.uncletopia.com","port":27035,"enabled":true,"region":"eu","cc":"gb","latitude":51.509865,"longitude":-0.118092,"reserved":0,"last_update":"0001-01-01T00:00:00Z","name_a2s":"Uncletopia | London | 3 | All Maps","protocol":17,"map":"pl_pier","folder":"tf","game":"Team Fortress","app_id":440,"player_count":24,"max_players":24,"Bots":0,"server_type":"Dedicated","server_os":"Linux","password":true,"vac":true,"version":"7723704","steam_id":85568392924510192,"keywords":["nocrits","nodmgspread","payload","uncletopia"],"game_id":440,"stv_port":27036,"stv_name":"Uncletopia | London | 3 | All Maps | STV","players":[{"user_id":145,"name":"Lepek","steam_id":76561198092532526,"connected_time":942000000000,"state":"active","ping":75},{"user_id":154,"name":"After8","steam_id":76561198090750865,"connected_time":112000000000,"state":"active","ping":75},{"user_id":113,"name":"i heal gay people","steam_id":76561198032167311,"connected_time":3204000000000,"state":"active","ping":93},{"user_id":141,"name":"UltimateSlayer","steam_id":76561198384109309,"connected_time":1721000000000,"state":"active","ping":57},{"user_id":129,"name":"del2o","steam_id":76561199072601822,"connected_time":2193000000000,"state":"active","ping":137},{"user_id":27,"name":"mafutbolero","steam_id":76561199233664005,"connected_time":8247000000000,"state":"active","ping":66},{"user_id":122,"name":"Millero15","steam_id":76561198143105719,"connected_time":2405000000000,"state":"active","ping":80},{"user_id":116,"name":"dustee","steam_id":76561198023486582,"connected_time":2784000000000,"state":"active","ping":59},{"user_id":67,"name":"Svilar","steam_id":76561198828348612,"connected_time":5852000000000,"state":"active","ping":46},{"user_id":104,"name":"Vollys","steam_id":76561198018077773,"connected_time":3684000000000,"state":"active","ping":68},{"user_id":150,"name":"ToniGAM3S","steam_id":76561198128605351,"connected_time":348000000000,"state":"active","ping":64},{"user_id":151,"name":"Savlon","steam_id":76561198011597274,"connected_time":338000000000,"state":"active","ping":42},{"user_id":127,"name":"Knee-eater","steam_id":76561199114057061,"connected_time":2348000000000,"state":"active","ping":61},{"user_id":130,"name":"SaltyCupcakes","steam_id":76561198256386417,"connected_time":2188000000000,"state":"active","ping":45},{"user_id":152,"name":"Maya #transrights","steam_id":76561198290614621,"connected_time":327000000000,"state":"active","ping":69},{"user_id":125,"name":"Shezza","steam_id":76561198903969123,"connected_time":2359000000000,"state":"active","ping":77},{"user_id":147,"name":"One armed fiddle enthusiast","steam_id":76561198045847051,"connected_time":386000000000,"state":"active","ping":59},{"user_id":110,"name":"Moz","steam_id":76561198027171160,"connected_time":3363000000000,"state":"active","ping":131},{"user_id":156,"name":"YourDoom","steam_id":76561198080790857,"connected_time":44000000000,"state":"active","ping":39},{"user_id":143,"name":"Arscin","steam_id":76561198262193529,"connected_time":1661000000000,"state":"active","ping":54},{"user_id":148,"name":"MisterzPvP","steam_id":76561198282994518,"connected_time":377000000000,"state":"active","ping":103},{"user_id":149,"name":"jonas","steam_id":76561198883559477,"connected_time":373000000000,"state":"active","ping":60},{"user_id":155,"name":"PAN","steam_id":76561199375518753,"connected_time":89000000000,"state":"active","ping":51},{"user_id":153,"name":"Carrot","steam_id":76561198119340863,"connected_time":315000000000,"state":"active","ping":45}]},{"server_id":321,"name":"Uncletopia | London | 4 | All Maps","name_short":"lon-4","host":"lon-1.uk.uncletopia.com","port":27045,"enabled":true,"region":"eu","cc":"gb","latitude":51.509865,"longitude":-0.118092,"reserved":0,"last_update":"0001-01-01T00:00:00Z","name_a2s":"Uncletopia | London | 4 | All Maps","protocol":17,"map":"pl_swiftwater_final1","folder":"tf","game":"Team Fortress","app_id":440,"player_count":23,"max_players":24,"Bots":0,"server_type":"Dedicated","server_os":"Linux","password":true,"vac":true,"version":"7723704","steam_id":85568392924510193,"keywords":["nocrits","nodmgspread","payload","uncletopia"],"game_id":440,"stv_port":27046,"stv_name":"Uncletopia | London | 4 | All Maps | STV","players":[{"user_id":459,"name":"OutOfDucks","steam_id":76561198166376227,"connected_time":312000000000,"state":"active","ping":60},{"user_id":452,"name":"Jamie Hyneman","steam_id":76561198364121077,"connected_time":761000000000,"state":"active","ping":95},{"user_id":437,"name":"Loberless","steam_id":76561198277844777,"connected_time":2332000000000,"state":"active","ping":44},{"user_id":449,"name":"WolfmanCZ","steam_id":76561199157141414,"connected_time":798000000000,"state":"active","ping":76},{"user_id":446,"name":"Dragoncristal‚òØ","steam_id":76561198136036701,"connected_time":1483000000000,"state":"active","ping":78},{"user_id":455,"name":"Roman Polanski","steam_id":76561198108321988,"connected_time":579000000000,"state":"active","ping":68},{"user_id":443,"name":"Kahvi","steam_id":76561198723244199,"connected_time":1521000000000,"state":"active","ping":78},{"user_id":461,"name":"loveless","steam_id":76561198142256651,"connected_time":79000000000,"state":"active","ping":89},{"user_id":444,"name":"Joy","steam_id":76561198155314925,"connected_time":1489000000000,"state":"active","ping":59},{"user_id":419,"name":"Weed Obama","steam_id":76561198082407601,"connected_time":3214000000000,"state":"active","ping":69},{"user_id":445,"name":"Krismas","steam_id":76561198021772843,"connected_time":1489000000000,"state":"active","ping":60},{"user_id":417,"name":"heisenburger","steam_id":76561198284589853,"connected_time":3282000000000,"state":"active","ping":92},{"user_id":460,"name":"eggslut","steam_id":76561198010752241,"connected_time":287000000000,"state":"active","ping":67},{"user_id":418,"name":"Octoblue64","steam_id":76561198388997283,"connected_time":3233000000000,"state":"active","ping":51},{"user_id":422,"name":"GamingCarp","steam_id":76561198285235511,"connected_time":3081000000000,"state":"active","ping":45},{"user_id":432,"name":"Diana Ball","steam_id":76561198382533813,"connected_time":2510000000000,"state":"active","ping":47},{"user_id":393,"name":"StefaNN","steam_id":76561198075273499,"connected_time":5751000000000,"state":"active","ping":60},{"user_id":456,"name":"Lolbyte","steam_id":76561199239627724,"connected_time":568000000000,"state":"active","ping":126},{"user_id":457,"name":"NeonNewt","steam_id":76561198066699212,"connected_time":542000000000,"state":"active","ping":53},{"user_id":454,"name":"Kili","steam_id":76561198138456346,"connected_time":658000000000,"state":"active","ping":65},{"user_id":441,"name":"Woody","steam_id":76561198105220750,"connected_time":2062000000000,"state":"active","ping":73},{"user_id":401,"name":"Ixsus\u003c3","steam_id":76561198094756869,"connected_time":4472000000000,"state":"active","ping":66},{"user_id":407,"name":"HeresyMan","steam_id":76561198169154183,"connected_time":3929000000000,"state":"active","ping":75}]},{"server_id":21,"name":"Uncletopia | London | 5 | All Maps","name_short":"lon-5","host":"lon-1.uk.uncletopia.com","port":27055,"enabled":true,"region":"eu","cc":"gb","latitude":51.509865,"longitude":-0.118092,"reserved":0,"last_update":"0001-01-01T00:00:00Z","name_a2s":"Uncletopia | London | 5 | All Maps","protocol":17,"map":"koth_cascade","folder":"tf","game":"Team Fortress","app_id":440,"player_count":0,"max_players":24,"Bots":0,"server_type":"Dedicated","server_os":"Linux","password":true,"vac":true,"version":"7723704","steam_id":85568392924742829,"keywords":["cp","nocrits","nodmgspread","uncletopia"],"game_id":440,"stv_port":27056,"stv_name":"Uncletopia | London | 5 | All Maps | STV","players":null},{"server_id":22,"name":"Uncletopia | London | 6 | All Maps","name_short":"lon-6","host":"lon-1.uk.uncletopia.com","port":27065,"enabled":true,"region":"eu","cc":"gb","latitude":51.509865,"longitude":-0.118092,"reserved":0,"last_update":"0001-01-01T00:00:00Z","name_a2s":"Uncletopia | London | 6 | All Maps","protocol":17,"map":"cp_dustbowl","folder":"tf","game":"Team Fortress","app_id":440,"player_count":24,"max_players":24,"Bots":0,"server_type":"Dedicated","server_os":"Linux","password":true,"vac":true,"version":"7723704","steam_id":85568392924742830,"keywords":["cp","nocrits","nodmgspread","uncletopia"],"game_id":440,"stv_port":27066,"stv_name":"Uncletopia | London | 6 | All Maps | STV","players":[{"user_id":191,"name":"Oak","steam_id":76561198067315672,"connected_time":1119000000000,"state":"active","ping":57},{"user_id":171,"name":"ronnie","steam_id":76561198377533237,"connected_time":2248000000000,"state":"active","ping":86},{"user_id":85,"name":"–∏–≤–∞–Ω","steam_id":76561198072730591,"connected_time":7643000000000,"state":"active","ping":65},{"user_id":172,"name":"cheesecake.","steam_id":76561198426604784,"connected_time":2106000000000,"state":"active","ping":40},{"user_id":173,"name":"Domrix","steam_id":76561199112813880,"connected_time":2082000000000,"state":"active","ping":83},{"user_id":190,"name":"L√∏bbeh","steam_id":76561198071861251,"connected_time":1251000000000,"state":"active","ping":82},{"user_id":144,"name":"Citrus","steam_id":76561198090650837,"connected_time":4449000000000,"state":"active","ping":47},{"user_id":189,"name":"Tomfool","steam_id":76561197993256481,"connected_time":1336000000000,"state":"active","ping":84},{"user_id":151,"name":"Raze (F2P)","steam_id":76561198120226105,"connected_time":3981000000000,"state":"active","ping":105},{"user_id":187,"name":"Per√§miehen√§","steam_id":76561197968945306,"connected_time":1379000000000,"state":"active","ping":66},{"user_id":142,"name":"Aster","steam_id":76561198037920420,"connected_time":4800000000000,"state":"active","ping":188},{"user_id":152,"name":"NoShield","steam_id":76561198831300551,"connected_time":3946000000000,"state":"active","ping":134},{"user_id":169,"name":"whale hunter","steam_id":76561198125002620,"connected_time":2390000000000,"state":"active","ping":62},{"user_id":165,"name":"Yeeeeeeeet","steam_id":76561198291605978,"connected_time":3052000000000,"state":"active","ping":94},{"user_id":195,"name":"SOVIET CAT","steam_id":76561198169342842,"connected_time":576000000000,"state":"active","ping":64},{"user_id":178,"name":"Minecraftien_76","steam_id":76561198443111849,"connected_time":1987000000000,"state":"active","ping":74},{"user_id":179,"name":"Vilhelm","steam_id":76561198157521187,"connected_time":1974000000000,"state":"active","ping":84},{"user_id":180,"name":"MSK","steam_id":76561198273146480,"connected_time":1973000000000,"state":"active","ping":84},{"user_id":194,"name":"Papik","steam_id":76561199024750921,"connected_time":649000000000,"state":"active","ping":95},{"user_id":143,"name":"LegoKatt","steam_id":76561198064536870,"connected_time":4754000000000,"state":"active","ping":89},{"user_id":188,"name":"Alfiine","steam_id":76561198206082887,"connected_time":1351000000000,"state":"active","ping":65},{"user_id":183,"name":"Clitorina","steam_id":76561198077570815,"connected_time":1886000000000,"state":"active","ping":41},{"user_id":196,"name":"Uncle Lame","steam_id":76561198089003514,"connected_time":378000000000,"state":"active","ping":59},{"user_id":185,"name":"Kenny","steam_id":76561198070731150,"connected_time":1610000000000,"state":"active","ping":86}]},{"server_id":40,"name":"Uncletopia | London | 7 | No Payload","name_short":"lon-7","host":"lon-1.uk.uncletopia.com","port":27075,"enabled":true,"region":"eu","cc":"gb","latitude":51.509865,"longitude":-0.118092,"reserved":0,"last_update":"0001-01-01T00:00:00Z","name_a2s":"Uncletopia | London | 7 | No Payload","protocol":17,"map":"ctf_landfall","folder":"tf","game":"Team Fortress","app_id":440,"player_count":0,"max_players":24,"Bots":0,"server_type":"Dedicated","server_os":"Linux","password":true,"vac":true,"version":"7723704","steam_id":85568392924964314,"keywords":["ctf","nocrits","nodmgspread","uncletopia"],"game_id":440,"stv_port":27076,"stv_name":"Uncletopia | London | 7 | No Payload | STV","players":null},{"server_id":41,"name":"Uncletopia | London | 8 | Community","name_short":"lon-8","host":"lon-1.uk.uncletopia.com","port":27085,"enabled":true,"region":"eu","cc":"gb","latitude":51.509865,"longitude":-0.118092,"reserved":0,"last_update":"0001-01-01T00:00:00Z","name_a2s":"Uncletopia | London | 8 | Community","protocol":17,"map":"workshop/koth_bagel_rc5.ugc2514036946","folder":"tf","game":"Team Fortress","app_id":440,"player_count":0,"max_players":24,"Bots":0,"server_type":"Dedicated","server_os":"Linux","password":true,"vac":true,"version":"7723704","steam_id":85568392924964315,"keywords":["cp","nocrits","nodmgspread","uncletopia"],"game_id":440,"stv_port":27086,"stv_name":"Uncletopia | London | 8 | Community | STV","players":null},{"server_id":300,"name":"Uncletopia | Montr√©al | 1 | All Maps","name_short":"mtl-1","host":"mtl-1.ca.uncletopia.com","port":27015,"enabled":true,"region":"us-east","cc":"ca","latitude":45.50889,"longitude":-73.56167,"reserved":0,"last_update":"0001-01-01T00:00:00Z","name_a2s":"","protocol":0,"map":"","folder":"","game":"","app_id":0,"player_count":0,"max_players":0,"Bots":0,"server_type":"","server_os":"","password":false,"vac":false,"version":"","steam_id":0,"keywords":null,"game_id":0,"stv_port":0,"stv_name":"","players":null},{"server_id":301,"name":"Uncletopia | Montr√©al | 2 | All Maps","name_short":"mtl-2","host":"mtl-1.ca.uncletopia.com","port":27025,"enabled":true,"region":"us-east","cc":"ca","latitude":45.50889,"longitude":-73.56167,"reserved":0,"last_update":"0001-01-01T00:00:00Z","name_a2s":"","protocol":0,"map":"","folder":"","game":"","app_id":0,"player_count":0,"max_players":0,"Bots":0,"server_type":"","server_os":"","password":false,"vac":false,"version":"","steam_id":0,"keywords":null,"game_id":0,"stv_port":0,"stv_name":"","players":null},{"server_id":302,"name":"Uncletopia | Montr√©al | 3 | All Maps","name_short":"mtl-3","host":"mtl-1.ca.uncletopia.com","port":27035,"enabled":true,"region":"us-east","cc":"ca","latitude":45.50889,"longitude":-73.56167,"reserved":0,"last_update":"0001-01-01T00:00:00Z","name_a2s":"","protocol":0,"map":"","folder":"","game":"","app_id":0,"player_count":0,"max_players":0,"Bots":0,"server_type":"","server_os":"","password":false,"vac":false,"version":"","steam_id":0,"keywords":null,"game_id":0,"stv_port":0,"stv_name":"","players":null},{"server_id":303,"name":"Uncletopia | Montr√©al | 4 | No Payload","name_short":"mtl-4","host":"mtl-1.ca.uncletopia.com","port":27045,"enabled":true,"region":"us-east","cc":"ca","latitude":45.50889,"longitude":-73.56167,"reserved":0,"last_update":"0001-01-01T00:00:00Z","name_a2s":"","protocol":0,"map":"","folder":"","game":"","app_id":0,"player_count":0,"max_players":0,"Bots":0,"server_type":"","server_os":"","password":false,"vac":false,"version":"","steam_id":0,"keywords":null,"game_id":0,"stv_port":0,"stv_name":"","players":null},{"server_id":13,"name":"Uncletopia | New York City | 1 | All Maps","name_short":"nyc-1","host":"nyc-1.us.uncletopia.com","port":27015,"enabled":true,"region":"us-east","cc":"us","latitude":40.73061,"longitude":-73.93524,"reserved":0,"last_update":"0001-01-01T00:00:00Z","name_a2s":"Uncletopia | New York City | 1 | All Maps","protocol":17,"map":"pl_pier","folder":"tf","game":"Team Fortress","app_id":440,"player_count":24,"max_players":24,"Bots":0,"server_type":"Dedicated","server_os":"Linux","password":true,"vac":true,"version":"7723704","steam_id":85568392924469993,"keywords":["nocrits","nodmgspread","payload","uncletopia"],"game_id":440,"stv_port":27016,"stv_name":"Uncletopia | New York City | 1 | All Maps | STV","players":[{"user_id":162,"name":"wack","steam_id":76561198095697330,"connected_time":3099000000000,"state":"active","ping":78},{"user_id":163,"name":"MrMineHeads","steam_id":76561198129344936,"connected_time":3064000000000,"state":"active","ping":65},{"user_id":178,"name":"NyanHorses","steam_id":76561198161584966,"connected_time":1724000000000,"state":"active","ping":74},{"user_id":176,"name":"Ripley","steam_id":76561198080766916,"connected_time":1749000000000,"state":"active","ping":67},{"user_id":164,"name":"shadysessions","steam_id":76561198032464781,"connected_time":3061000000000,"state":"active","ping":62},{"user_id":183,"name":"*something in russian*","steam_id":76561198964471859,"connected_time":251000000000,"state":"active","ping":52},{"user_id":180,"name":"ck","steam_id":76561198030767266,"connected_time":1689000000000,"state":"active","ping":73},{"user_id":155,"name":"beanman","steam_id":76561198373432485,"connected_time":3432000000000,"state":"active","ping":105},{"user_id":184,"name":"Scum Knight","steam_id":76561198282444763,"connected_time":147000000000,"state":"active","ping":49},{"user_id":182,"name":"Jeffenthropus","steam_id":76561198134204248,"connected_time":527000000000,"state":"active","ping":48},{"user_id":177,"name":"ShinyOrion (She/Her)","steam_id":76561198408378321,"connected_time":1734000000000,"state":"active","ping":54},{"user_id":179,"name":"OurIceCreamMan","steam_id":76561199387400627,"connected_time":1709000000000,"state":"active","ping":83},{"user_id":144,"name":"-=Bits=-Dinkleberg","steam_id":76561198080367616,"connected_time":4206000000000,"state":"active","ping":109},{"user_id":181,"name":"Karrot","steam_id":76561198058970903,"connected_time":1459000000000,"state":"active","ping":54},{"user_id":171,"name":"The Fool","steam_id":76561198081397523,"connected_time":2765000000000,"state":"active","ping":51},{"user_id":133,"name":"I'm probably done trolling","steam_id":76561198046470470,"connected_time":5054000000000,"state":"active","ping":62},{"user_id":81,"name":"Arizona","steam_id":76561198113748347,"connected_time":7907000000000,"state":"active","ping":95},{"user_id":139,"name":"[GUT] RiDiK¬Æ","steam_id":76561197969756446,"connected_time":4819000000000,"state":"active","ping":73},{"user_id":124,"name":"hippo mode","steam_id":76561198073455521,"connected_time":5426000000000,"state":"active","ping":44},{"user_id":167,"name":"Harold","steam_id":76561198057317770,"connected_time":2969000000000,"state":"active","ping":105},{"user_id":185,"name":"World's WORST Gunspy","steam_id":76561199174579733,"connected_time":147000000000,"state":"active","ping":53},{"user_id":169,"name":"Ellen Baker","steam_id":76561198065712435,"connected_time":2958000000000,"state":"active","ping":123},{"user_id":186,"name":"Wan Shi Tong","steam_id":76561198076441225,"connected_time":133000000000,"state":"active","ping":52},{"user_id":187,"name":"the milk man's wife","steam_id":76561198848075481,"connected_time":112000000000,"state":"active","ping":63}]},{"server_id":14,"name":"Uncletopia | New York City | 2 | All Maps","name_short":"nyc-2","host":"nyc-1.us.uncletopia.com","port":27025,"enabled":true,"region":"us-east","cc":"us","latitude":40.73061,"longitude":-73.93524,"reserved":0,"last_update":"0001-01-01T00:00:00Z","name_a2s":"Uncletopia | New York City | 2 | All Maps","protocol":17,"map":"pl_badwater","folder":"tf","game":"Team Fortress","app_id":440,"player_count":23,"max_players":24,"Bots":0,"server_type":"Dedicated","server_os":"Linux","password":true,"vac":true,"version":"7723704","steam_id":85568392924469994,"keywords":["nocrits","nodmgspread","payload","uncletopia"],"game_id":440,"stv_port":27026,"stv_name":"Uncletopia | New York City | 2 | All Maps | STV","players":[{"user_id":210,"name":"rainbow","steam_id":76561198015450273,"connected_time":242000000000,"state":"active","ping":92},{"user_id":171,"name":"Player","steam_id":76561198883062728,"connected_time":2116000000000,"state":"active","ping":49},{"user_id":208,"name":"jayhanse","steam_id":76561198864515958,"connected_time":295000000000,"state":"active","ping":76},{"user_id":198,"name":"rickrolled","steam_id":76561199401509126,"connected_time":845000000000,"state":"active","ping":52},{"user_id":202,"name":"Microreo","steam_id":76561198006966554,"connected_time":699000000000,"state":"active","ping":48},{"user_id":212,"name":"Squiliam","steam_id":76561198025278006,"connected_time":96000000000,"state":"active","ping":82},{"user_id":185,"name":"Solaris","steam_id":76561198073166053,"connected_time":1243000000000,"state":"active","ping":51},{"user_id":175,"name":"Qwegg","steam_id":76561198205510383,"connected_time":1863000000000,"state":"active","ping":61},{"user_id":186,"name":"TSGEvans","steam_id":76561198053427405,"connected_time":1233000000000,"state":"active","ping":50},{"user_id":180,"name":"gametard","steam_id":76561198152581241,"connected_time":1673000000000,"state":"active","ping":44},{"user_id":102,"name":"Tourmaline Lazuli","steam_id":76561198987049358,"connected_time":8785000000000,"state":"active","ping":62},{"user_id":181,"name":"Raincool","steam_id":76561198042953645,"connected_time":1633000000000,"state":"active","ping":52},{"user_id":200,"name":"AstroHusky","steam_id":76561197965970648,"connected_time":733000000000,"state":"active","ping":125},{"user_id":213,"name":"BronxBit","steam_id":76561199145988078,"connected_time":95000000000,"state":"active","ping":107},{"user_id":187,"name":"BoomSpam","steam_id":76561198020934704,"connected_time":1229000000000,"state":"active","ping":80},{"user_id":214,"name":"Sigiferd","steam_id":76561198148788110,"connected_time":42000000000,"state":"spawning","ping":139},{"user_id":215,"name":"heydaddy@aol.com","steam_id":76561198000548666,"connected_time":7000000000,"state":"spawning","ping":61},{"user_id":191,"name":"‡πá","steam_id":76561198039763676,"connected_time":1120000000000,"state":"active","ping":85},{"user_id":209,"name":"MEDIC!","steam_id":76561198149344029,"connected_time":258000000000,"state":"active","ping":44},{"user_id":193,"name":"MeKaso TropStar","steam_id":76561199109895840,"connected_time":1016000000000,"state":"active","ping":45},{"user_id":211,"name":"s t o n e","steam_id":76561197994525046,"connected_time":228000000000,"state":"active","ping":48},{"user_id":197,"name":"wool","steam_id":76561198869689933,"connected_time":918000000000,"state":"active","ping":58},{"user_id":201,"name":"SquirrelAway‚Ñ¢","steam_id":76561197998828619,"connected_time":732000000000,"state":"active","ping":81}]},{"server_id":15,"name":"Uncletopia | New York City | 3 | All Maps","name_short":"nyc-3","host":"nyc-1.us.uncletopia.com","port":27035,"enabled":true,"region":"us-east","cc":"us","latitude":40.73061,"longitude":-73.93524,"reserved":0,"last_update":"0001-01-01T00:00:00Z","name_a2s":"Uncletopia | New York City | 3 | All Maps","protocol":17,"map":"pl_borneo","folder":"tf","game":"Team Fortress","app_id":440,"player_count":22,"max_players":24,"Bots":0,"server_type":"Dedicated","server_os":"Linux","password":true,"vac":true,"version":"7723704","steam_id":85568392924742820,"keywords":["nocrits","nodmgspread","payload","uncletopia"],"game_id":440,"stv_port":27036,"stv_name":"Uncletopia | New York City | 3 | All Maps | STV","players":[{"user_id":134,"name":"Dr. Squid Goggles","steam_id":76561197998804036,"connected_time":483000000000,"state":"active","ping":80},{"user_id":143,"name":"ihateyoual674","steam_id":76561199090787202,"connected_time":15000000000,"state":"active","ping":108},{"user_id":119,"name":"swiffie","steam_id":76561198226286700,"connected_time":2154000000000,"state":"active","ping":155},{"user_id":104,"name":"Brad Delson","steam_id":76561198403209815,"connected_time":3074000000000,"state":"active","ping":77},{"user_id":138,"name":"MILK MAN","steam_id":76561199012860639,"connected_time":253000000000,"state":"active","ping":100},{"user_id":120,"name":"supcupman","steam_id":76561198051513866,"connected_time":1653000000000,"state":"active","ping":142},{"user_id":125,"name":"A Puppy","steam_id":76561198828184456,"connected_time":1333000000000,"state":"active","ping":46},{"user_id":140,"name":"Omega4D2","steam_id":76561198044097128,"connected_time":106000000000,"state":"active","ping":44},{"user_id":97,"name":"Doominic","steam_id":76561198259172209,"connected_time":3648000000000,"state":"active","ping":74},{"user_id":129,"name":"merry trapmas","steam_id":76561198402801140,"connected_time":763000000000,"state":"active","ping":76},{"user_id":115,"name":"static","steam_id":76561199093261935,"connected_time":2375000000000,"state":"active","ping":53},{"user_id":131,"name":"swan","steam_id":76561198012569200,"connected_time":706000000000,"state":"active","ping":45},{"user_id":137,"name":"VampWolfDoll (She/Her)","steam_id":76561198102301491,"connected_time":333000000000,"state":"active","ping":39},{"user_id":83,"name":"spinz","steam_id":76561198353098481,"connected_time":4497000000000,"state":"active","ping":58},{"user_id":121,"name":"Tannenbaum Trotsky","steam_id":76561199101638460,"connected_time":1598000000000,"state":"active","ping":87},{"user_id":130,"name":"ttv.dyragu","steam_id":76561198172046883,"connected_time":722000000000,"state":"active","ping":36},{"user_id":133,"name":"BreadGod","steam_id":76561198050665205,"connected_time":549000000000,"state":"active","ping":37},{"user_id":109,"name":"‚ù§ Ashley ‚ù§","steam_id":76561198056428303,"connected_time":2973000000000,"state":"active","ping":112},{"user_id":118,"name":"piper","steam_id":76561198413930183,"connected_time":2332000000000,"state":"active","ping":45},{"user_id":141,"name":"SeksownyDelfin","steam_id":76561198963432024,"connected_time":79000000000,"state":"active","ping":136},{"user_id":75,"name":"Waffle Wannabe","steam_id":76561198064510650,"connected_time":5847000000000,"state":"active","ping":57},{"user_id":142,"name":"The Collective","steam_id":76561198170423483,"connected_time":78000000000,"state":"active","ping":70}]},{"server_id":16,"name":"Uncletopia | New York City | 4 | Community","name_short":"nyc-4","host":"nyc-1.us.uncletopia.com","port":27045,"enabled":true,"region":"us-east","cc":"us","latitude":40.73061,"longitude":-73.93524,"reserved":0,"last_update":"0001-01-01T00:00:00Z","name_a2s":"Uncletopia | New York City | 4 | Community","protocol":17,"map":"workshop/pl_cactuscanyon_redux_rc4b.ugc2579644293","folder":"tf","game":"Team Fortress","app_id":440,"player_count":0,"max_players":24,"Bots":0,"server_type":"Dedicated","server_os":"Linux","password":true,"vac":true,"version":"7723704","steam_id":85568392924742821,"keywords":["nocrits","nodmgspread","payload","uncletopia"],"game_id":440,"stv_port":27046,"stv_name":"Uncletopia | New York City | 4 | Community | STV","players":null},{"server_id":142,"name":"Uncletopia | S√£o Paulo | 1 | All Maps","name_short":"sao-1","host":"sao-1.br.uncletopia.com","port":27015,"enabled":true,"region":"sa","cc":"br","latitude":-23.533773,"longitude":-46.62529,"reserved":0,"last_update":"0001-01-01T00:00:00Z","name_a2s":"Uncletopia | S√£o Paulo | 1 | All Maps","protocol":17,"map":"cp_mountainlab","folder":"tf","game":"Team Fortress","app_id":440,"player_count":16,"max_players":24,"Bots":0,"server_type":"Dedicated","server_os":"Linux","password":true,"vac":true,"version":"7723704","steam_id":85568392924469996,"keywords":["cp","nocrits","nodmgspread","uncletopia"],"game_id":440,"stv_port":27016,"stv_name":"Uncletopia | S√£o Paulo | 1 | All Maps | STV","players":[{"user_id":115,"name":"zezinhoalimento","steam_id":76561198452073649,"connected_time":288000000000,"state":"active","ping":55},{"user_id":45,"name":"Pendrive is Insane","steam_id":76561199427354854,"connected_time":5755000000000,"state":"active","ping":43},{"user_id":110,"name":"posta","steam_id":76561198302870271,"connected_time":612000000000,"state":"active","ping":67},{"user_id":111,"name":"migay (sim, \"migay\" de \"mickey\"","steam_id":76561199150151109,"connected_time":531000000000,"state":"active","ping":59},{"user_id":112,"name":"1 beer left","steam_id":76561198995575441,"connected_time":507000000000,"state":"active","ping":45},{"user_id":100,"name":"Cabeleira","steam_id":76561198323253534,"connected_time":1644000000000,"state":"active","ping":41},{"user_id":114,"name":"Vermelho","steam_id":76561198832312185,"connected_time":366000000000,"state":"active","ping":46},{"user_id":116,"name":"Team Fortress gun tier list","steam_id":76561198837390202,"connected_time":254000000000,"state":"active","ping":45},{"user_id":104,"name":"Cley the Engie Main","steam_id":76561198142839368,"connected_time":1118000000000,"state":"active","ping":48},{"user_id":117,"name":"papaz","steam_id":76561198098548271,"connected_time":160000000000,"state":"active","ping":58},{"user_id":106,"name":"NenF | Yatosemtato","steam_id":76561199066360306,"connected_time":957000000000,"state":"active","ping":76},{"user_id":92,"name":"‚∏∏ Cruz ‚∏∏","steam_id":76561199000786065,"connected_time":2119000000000,"state":"active","ping":55},{"user_id":94,"name":"Stranger","steam_id":76561198065572546,"connected_time":2098000000000,"state":"active","ping":52},{"user_id":107,"name":"Teynam","steam_id":76561198983190263,"connected_time":950000000000,"state":"active","ping":120},{"user_id":95,"name":"12 Bits","steam_id":76561198126995281,"connected_time":2053000000000,"state":"active","ping":56},{"user_id":118,"name":"Gvgames3937","steam_id":76561199260784035,"connected_time":32000000000,"state":"spawning","ping":46}]},{"server_id":143,"name":"Uncletopia | S√£o Paulo | 2 | All Maps","name_short":"sao-2","host":"sao-2.br.uncletopia.com","port":27015,"enabled":true,"region":"sa","cc":"br","latitude":-23.533773,"longitude":-46.62529,"reserved":0,"last_update":"0001-01-01T00:00:00Z","name_a2s":"Uncletopia | S√£o Paulo | 2 | All Maps","protocol":17,"map":"cp_mountainlab","folder":"tf","game":"Team Fortress","app_id":440,"player_count":0,"max_players":24,"Bots":0,"server_type":"Dedicated","server_os":"Linux","password":true,"vac":true,"version":"7723704","steam_id":85568392924485349,"keywords":["cp","nocrits","nodmgspread","uncletopia"],"game_id":440,"stv_port":27016,"stv_name":"Uncletopia | S√£o Paulo | 2 | All Maps | STV","players":null},{"server_id":7,"name":"Uncletopia | Seattle | 1 | All Maps","name_short":"sea-1","host":"sea-1.us.uncletopia.com","port":27015,"enabled":true,"region":"us-west","cc":"us","latitude":47.608013,"longitude":-122.33517,"reserved":0,"last_update":"0001-01-01T00:00:00Z","name_a2s":"Uncletopia | Seattle | 1 | All Maps","protocol":17,"map":"pl_swiftwater_final1","folder":"tf","game":"Team Fortress","app_id":440,"player_count":23,"max_players":24,"Bots":0,"server_type":"Dedicated","server_os":"Linux","password":true,"vac":true,"version":"7723704","steam_id":85568392924469997,"keywords":["nocrits","nodmgspread","payload","uncletopia"],"game_id":440,"stv_port":27016,"stv_name":"Uncletopia | Seattle | 1 | All Maps | STV","players":[{"user_id":57,"name":"200 THC","steam_id":76561198271939793,"connected_time":963000000000,"state":"active","ping":44},{"user_id":33,"name":"Marlee_Goat","steam_id":76561198828640523,"connected_time":2393000000000,"state":"active","ping":92},{"user_id":13,"name":"Raniel Dicciardo","steam_id":76561198053859538,"connected_time":3649000000000,"state":"active","ping":73},{"user_id":54,"name":"crumblejon","steam_id":76561198111273302,"connected_time":1253000000000,"state":"active","ping":108},{"user_id":15,"name":"General Fisticuffs","steam_id":76561198255721392,"connected_time":3561000000000,"state":"active","ping":109},{"user_id":59,"name":"Mr. Banana Johnson","steam_id":76561198298581176,"connected_time":127000000000,"state":"active","ping":91},{"user_id":17,"name":"Mr.Thirteen","steam_id":76561198047468836,"connected_time":3539000000000,"state":"active","ping":68},{"user_id":24,"name":"Mom","steam_id":76561198207936000,"connected_time":2919000000000,"state":"active","ping":86},{"user_id":60,"name":"bobtheninjaman","steam_id":76561198066424544,"connected_time":114000000000,"state":"active","ping":77},{"user_id":36,"name":"Aardappel","steam_id":76561198030894676,"connected_time":2298000000000,"state":"active","ping":66},{"user_id":22,"name":"squash","steam_id":76561198150281353,"connected_time":3237000000000,"state":"active","ping":55},{"user_id":37,"name":"goob","steam_id":76561198872316133,"connected_time":2270000000000,"state":"active","ping":64},{"user_id":63,"name":"busting on dave","steam_id":76561198072789439,"connected_time":2000000000,"state":"spawning","ping":42},{"user_id":28,"name":"ena - d","steam_id":76561198072329335,"connected_time":2543000000000,"state":"active","ping":133},{"user_id":39,"name":"cRimSoN","steam_id":76561197973959824,"connected_time":2222000000000,"state":"active","ping":113},{"user_id":30,"name":"smushedtomato","steam_id":76561198383837457,"connected_time":2503000000000,"state":"active","ping":79},{"user_id":58,"name":"Honda CR-V","steam_id":76561197981239654,"connected_time":848000000000,"state":"active","ping":89},{"user_id":50,"name":"Quantify45","steam_id":76561198044400135,"connected_time":1747000000000,"state":"active","ping":85},{"user_id":62,"name":"misterjozo","steam_id":76561198012300755,"connected_time":74000000000,"state":"active","ping":56},{"user_id":43,"name":"big game","steam_id":76561199001307670,"connected_time":2086000000000,"state":"active","ping":47},{"user_id":44,"name":"Conseq","steam_id":76561198335652179,"connected_time":2076000000000,"state":"active","ping":60},{"user_id":55,"name":"The Best Healer","steam_id":76561198079452621,"connected_time":1239000000000,"state":"active","ping":56}]},{"server_id":119,"name":"Uncletopia | Seattle | 2 | All Maps","name_short":"sea-2","host":"sea-1.us.uncletopia.com","port":27025,"enabled":true,"region":"us-west","cc":"us","latitude":47.608013,"longitude":-122.33517,"reserved":0,"last_update":"0001-01-01T00:00:00Z","name_a2s":"Uncletopia | Seattle | 2 | All Maps","protocol":17,"map":"pl_borneo","folder":"tf","game":"Team Fortress","app_id":440,"player_count":24,"max_players":24,"Bots":0,"server_type":"Dedicated","server_os":"Linux","password":true,"vac":true,"version":"7723704","steam_id":85568392924469998,"keywords":["nocrits","nodmgspread","payload","uncletopia"],"game_id":440,"stv_port":27026,"stv_name":"Uncletopia | Seattle | 2 | All Maps | STV","players":[{"user_id":126,"name":"Furious George","steam_id":76561198405111646,"connected_time":1507000000000,"state":"active","ping":67},{"user_id":144,"name":"bladees saddest, realest verse","steam_id":76561198098099826,"connected_time":366000000000,"state":"active","ping":83},{"user_id":133,"name":"Ronnie James Dio","steam_id":76561197978515373,"connected_time":1239000000000,"state":"active","ping":126},{"user_id":134,"name":"TastyWheat","steam_id":76561198855061918,"connected_time":1189000000000,"state":"active","ping":50},{"user_id":135,"name":"No Thanks","steam_id":76561198001611837,"connected_time":1135000000000,"state":"active","ping":106},{"user_id":112,"name":"SesataPomang","steam_id":76561198145133059,"connected_time":2851000000000,"state":"active","ping":93},{"user_id":136,"name":"FiddyFoMike","steam_id":76561198057072581,"connected_time":995000000000,"state":"active","ping":61},{"user_id":128,"name":"IncogNeeto","steam_id":76561199091278006,"connected_time":1500000000000,"state":"active","ping":102},{"user_id":114,"name":"The Horny","steam_id":76561198863639459,"connected_time":2831000000000,"state":"active","ping":54},{"user_id":116,"name":"dysesthesia","steam_id":76561198027159018,"connected_time":2699000000000,"state":"active","ping":130},{"user_id":143,"name":"hsjdg0","steam_id":76561199186180034,"connected_time":485000000000,"state":"active","ping":66},{"user_id":137,"name":"MrActionJaxon","steam_id":76561198093549908,"connected_time":873000000000,"state":"active","ping":105},{"user_id":145,"name":"Samurai Sam","steam_id":76561198274223636,"connected_time":241000000000,"state":"active","ping":130},{"user_id":45,"name":"OH JIMMY I'M HOME #SaveTf2","steam_id":76561198396658806,"connected_time":4397000000000,"state":"active","ping":83},{"user_id":129,"name":"FancyedZebra","steam_id":76561198254517938,"connected_time":1437000000000,"state":"active","ping":61},{"user_id":146,"name":"Spearit5464","steam_id":76561199241807676,"connected_time":188000000000,"state":"active","ping":43},{"user_id":132,"name":"Navigatxr","steam_id":76561199185153789,"connected_time":1354000000000,"state":"active","ping":65},{"user_id":38,"name":"jodie.blend","steam_id":76561198140701807,"connected_time":4505000000000,"state":"active","ping":100},{"user_id":39,"name":"xXcLaImEd__ReApErXx [F2P]","steam_id":76561198067232540,"connected_time":4500000000000,"state":"active","ping":122},{"user_id":138,"name":"Saul Goodman","steam_id":76561198847085833,"connected_time":867000000000,"state":"active","ping":78},{"user_id":141,"name":"tiggy","steam_id":76561198197643703,"connected_time":663000000000,"state":"active","ping":56},{"user_id":140,"name":"Elite_Friendly","steam_id":76561198819972127,"connected_time":831000000000,"state":"active","ping":60},{"user_id":62,"name":"Oktayey","steam_id":76561198143213426,"connected_time":3947000000000,"state":"active","ping":65},{"user_id":108,"name":"scuttles","steam_id":76561199250039100,"connected_time":2889000000000,"state":"active","ping":118}]},{"server_id":17,"name":"Uncletopia | San Francisco | 1 | All Maps","name_short":"sfo-1","host":"sfo-1.us.uncletopia.com","port":27015,"enabled":true,"region":"us-west","cc":"us","latitude":37.77397,"longitude":-122.4313,"reserved":0,"last_update":"0001-01-01T00:00:00Z","name_a2s":"Uncletopia | San Francisco | 1 | All Maps","protocol":17,"map":"koth_viaduct","folder":"tf","game":"Team Fortress","app_id":440,"player_count":0,"max_players":24,"Bots":0,"server_type":"Dedicated","server_os":"Linux","password":true,"vac":true,"version":"7723704","steam_id":85568392924469999,"keywords":["cp","nocrits","nodmgspread","uncletopia"],"game_id":440,"stv_port":27016,"stv_name":"Uncletopia | San Francisco | 1 | All Maps | STV","players":null},{"server_id":18,"name":"Uncletopia | San Francisco | 2 | All Maps","name_short":"sfo-2","host":"sfo-1.us.uncletopia.com","port":27025,"enabled":true,"region":"us-west","cc":"us","latitude":37.77397,"longitude":-122.4313,"reserved":0,"last_update":"0001-01-01T00:00:00Z","name_a2s":"Uncletopia | San Francisco | 2 | All Maps","protocol":17,"map":"koth_viaduct","folder":"tf","game":"Team Fortress","app_id":440,"player_count":0,"max_players":24,"Bots":0,"server_type":"Dedicated","server_os":"Linux","password":true,"vac":true,"version":"7723704","steam_id":85568392924470000,"keywords":["cp","nocrits","nodmgspread","uncletopia"],"game_id":440,"stv_port":27026,"stv_name":"Uncletopia | San Francisco | 2 | All Maps | STV","players":null},{"server_id":19,"name":"Uncletopia | San Francisco | 3 | No Payload","name_short":"sfo-3","host":"sfo-1.us.uncletopia.com","port":27035,"enabled":true,"region":"us-west","cc":"us","latitude":37.77397,"longitude":-122.4313,"reserved":0,"last_update":"0001-01-01T00:00:00Z","name_a2s":"Uncletopia | San Francisco | 3 | No Payload","protocol":17,"map":"pl_snowycoast","folder":"tf","game":"Team Fortress","app_id":440,"player_count":0,"max_players":24,"Bots":0,"server_type":"Dedicated","server_os":"Linux","password":true,"vac":true,"version":"7723704","steam_id":85568392924742824,"keywords":["nocrits","nodmgspread","payload","uncletopia"],"game_id":440,"stv_port":27036,"stv_name":"Uncletopia | San Francisco | 3 | No Payload | STV","players":null},{"server_id":20,"name":"Uncletopia | San Francisco | 4 | Community","name_short":"sfo-4","host":"sfo-1.us.uncletopia.com","port":27045,"enabled":true,"region":"us-west","cc":"us","latitude":37.77397,"longitude":-122.4313,"reserved":0,"last_update":"0001-01-01T00:00:00Z","name_a2s":"Uncletopia | San Francisco | 4 | Community","protocol":17,"map":"workshop/pl_barnblitz_pro7.ugc582280235","folder":"tf","game":"Team Fortress","app_id":440,"player_count":0,"max_players":24,"Bots":0,"server_type":"Dedicated","server_os":"Linux","password":true,"vac":true,"version":"7723704","steam_id":85568392924742826,"keywords":["nocrits","nodmgspread","payload","uncletopia"],"game_id":440,"stv_port":27046,"stv_name":"Uncletopia | San Francisco | 4 | Community | STV","players":null},{"server_id":141,"name":"Uncletopia | Sydney | 1 | All Maps","name_short":"syd-1","host":"syd-1.au.uncletopia.com","port":27015,"enabled":true,"region":"au","cc":"au","latitude":-33.865143,"longitude":151.2099,"reserved":0,"last_update":"0001-01-01T00:00:00Z","name_a2s":"Uncletopia | Sydney | 1 | All Maps","protocol":17,"map":"koth_viaduct","folder":"tf","game":"Team Fortress","app_id":440,"player_count":0,"max_players":24,"Bots":0,"server_type":"Dedicated","server_os":"Linux","password":true,"vac":true,"version":"7723704","steam_id":85568392924470001,"keywords":["cp","nocrits","nodmgspread","uncletopia"],"game_id":440,"stv_port":27016,"stv_name":"Uncletopia | Sydney | 1 | All Maps | STV","players":null},{"server_id":123,"name":"Uncletopia | Sydney | 2 | All Maps","name_short":"syd-2","host":"syd-1.au.uncletopia.com","port":27025,"enabled":true,"region":"au","cc":"au","latitude":-33.865143,"longitude":151.2099,"reserved":0,"last_update":"0001-01-01T00:00:00Z","name_a2s":"Uncletopia | Sydney | 2 | All Maps","protocol":17,"map":"cp_snakewater_final1","folder":"tf","game":"Team Fortress","app_id":440,"player_count":0,"max_players":24,"Bots":0,"server_type":"Dedicated","server_os":"Linux","password":true,"vac":true,"version":"7723704","steam_id":85568392924470002,"keywords":["cp","nocrits","nodmgspread","uncletopia"],"game_id":440,"stv_port":27026,"stv_name":"Uncletopia | Sydney | 2 | All Maps | STV","players":null},{"server_id":395,"name":"Uncletopia | Sydney | 3 | All Maps","name_short":"syd-3","host":"syd-1.au.uncletopia.com","port":27035,"enabled":true,"region":"au","cc":"au","latitude":-33.865143,"longitude":151.2099,"reserved":0,"last_update":"0001-01-01T00:00:00Z","name_a2s":"Uncletopia | Sydney | 3 | All Maps","protocol":17,"map":"pl_pier","folder":"tf","game":"Team Fortress","app_id":440,"player_count":0,"max_players":24,"Bots":0,"server_type":"Dedicated","server_os":"Linux","password":true,"vac":true,"version":"7723704","steam_id":85568392925194467,"keywords":["nocrits","nodmgspread","payload","uncletopia"],"game_id":440,"stv_port":27036,"stv_name":"Uncletopia | Sydney | 3 | All Maps | STV","players":null},{"server_id":396,"name":"Uncletopia | Sydney | 4 | All Maps","name_short":"syd-4","host":"syd-1.au.uncletopia.com","port":27045,"enabled":true,"region":"au","cc":"au","latitude":-33.865143,"longitude":151.2099,"reserved":0,"last_update":"0001-01-01T00:00:00Z","name_a2s":"Uncletopia | Sydney | 4 | All Maps","protocol":17,"map":"cp_process_final","folder":"tf","game":"Team Fortress","app_id":440,"player_count":0,"max_players":24,"Bots":0,"server_type":"Dedicated","server_os":"Linux","password":true,"vac":true,"version":"7723704","steam_id":85568392925397958,"keywords":["cp","nocrits","nodmgspread","uncletopia"],"game_id":440,"stv_port":27046,"stv_name":"Uncletopia | Sydney | 4 | All Maps | STV","players":null},{"server_id":58,"name":"Uncletopia | Sydney | 5 | No Payload","name_short":"syd-5","host":"syd-1.au.uncletopia.com","port":27055,"enabled":true,"region":"au","cc":"au","latitude":-33.865143,"longitude":151.2099,"reserved":0,"last_update":"0001-01-01T00:00:00Z","name_a2s":"Uncletopia | Sydney | 5 | No Payload","protocol":17,"map":"koth_cascade","folder":"tf","game":"Team Fortress","app_id":440,"player_count":0,"max_players":24,"Bots":0,"server_type":"Dedicated","server_os":"Linux","password":true,"vac":true,"version":"7723704","steam_id":85568392925397959,"keywords":["cp","nocrits","nodmgspread","uncletopia"],"game_id":440,"stv_port":27056,"stv_name":"Uncletopia | Sydney | 5 | No Payload | STV","players":null},{"server_id":59,"name":"Uncletopia | Sydney | 6 | Community","name_short":"syd-6","host":"syd-1.au.uncletopia.com","port":27065,"enabled":true,"region":"au","cc":"au","latitude":-33.865143,"longitude":151.2099,"reserved":0,"last_update":"0001-01-01T00:00:00Z","name_a2s":"Uncletopia | Sydney | 6 | Community","protocol":17,"map":"koth_lakeside_final","folder":"tf","game":"Team Fortress","app_id":440,"player_count":0,"max_players":24,"Bots":0,"server_type":"Dedicated","server_os":"Linux","password":true,"vac":true,"version":"7723704","steam_id":85568392925397960,"keywords":["cp","nocrits","nodmgspread","uncletopia"],"game_id":440,"stv_port":27066,"stv_name":"Uncletopia | Sydney | 6 | Community | STV","players":null},{"server_id":49,"name":"Uncletopia | Warsaw | 1 | All Maps","name_short":"waw-1","host":"waw-1.pl.uncletopia.com","port":27015,"enabled":true,"region":"eu","cc":"pl","latitude":52.2297,"longitude":21.017532,"reserved":0,"last_update":"0001-01-01T00:00:00Z","name_a2s":"Uncletopia | Warsaw | 1 | All Maps","protocol":17,"map":"cp_dustbowl","folder":"tf","game":"Team Fortress","app_id":440,"player_count":0,"max_players":24,"Bots":0,"server_type":"Dedicated","server_os":"Linux","password":true,"vac":true,"version":"7723704","steam_id":85568392925397850,"keywords":["cp","nocrits","nodmgspread","uncletopia"],"game_id":440,"stv_port":27016,"stv_name":"Uncletopia | Warsaw | 1 | All Maps | STV","players":null},{"server_id":50,"name":"Uncletopia | Warsaw | 2 | All Maps","name_short":"waw-2","host":"waw-1.pl.uncletopia.com","port":27025,"enabled":true,"region":"eu","cc":"pl","latitude":52.2297,"longitude":21.017532,"reserved":0,"last_update":"0001-01-01T00:00:00Z","name_a2s":"Uncletopia | Warsaw | 2 | All Maps","protocol":17,"map":"pl_snowycoast","folder":"tf","game":"Team Fortress","app_id":440,"player_count":0,"max_players":24,"Bots":0,"server_type":"Dedicated","server_os":"Linux","password":true,"vac":true,"version":"7723704","steam_id":85568392925397851,"keywords":["nocrits","nodmgspread","payload","uncletopia"],"game_id":440,"stv_port":27026,"stv_name":"Uncletopia | Warsaw | 2 | All Maps | STV","players":null},{"server_id":51,"name":"Uncletopia | Warsaw | 3 | All Maps","name_short":"waw-3","host":"waw-1.pl.uncletopia.com","port":27035,"enabled":true,"region":"eu","cc":"pl","latitude":52.2297,"longitude":21.017532,"reserved":0,"last_update":"0001-01-01T00:00:00Z","name_a2s":"Uncletopia | Warsaw | 3 | All Maps","protocol":17,"map":"koth_lakeside_final","folder":"tf","game":"Team Fortress","app_id":440,"player_count":3,"max_players":24,"Bots":0,"server_type":"Dedicated","server_os":"Linux","password":true,"vac":true,"version":"7723704","steam_id":85568392925397852,"keywords":["cp","nocrits","nodmgspread","uncletopia"],"game_id":440,"stv_port":27036,"stv_name":"Uncletopia | Warsaw | 3 | All Maps | STV","players":[{"user_id":5,"name":"Œ≤o·µëiŒ¨’áŒ∂","steam_id":76561198232414008,"connected_time":394000000000,"state":"active","ping":56},{"user_id":6,"name":"dm me when gmod is 30 off","steam_id":76561199212653573,"connected_time":57000000000,"state":"spawning","ping":230},{"user_id":7,"name":"maine coon","steam_id":76561199014880342,"connected_time":44000000000,"state":"active","ping":85}]},{"server_id":52,"name":"Uncletopia | Warsaw | 4 | All Maps","name_short":"waw-4","host":"waw-1.pl.uncletopia.com","port":27045,"enabled":true,"region":"eu","cc":"pl","latitude":52.2297,"longitude":21.017532,"reserved":0,"last_update":"0001-01-01T00:00:00Z","name_a2s":"Uncletopia | Warsaw | 4 | All Maps","protocol":17,"map":"cp_snakewater_final1","folder":"tf","game":"Team Fortress","app_id":440,"player_count":0,"max_players":24,"Bots":0,"server_type":"Dedicated","server_os":"Linux","password":true,"vac":true,"version":"7723704","steam_id":85568392925397853,"keywords":["cp","nocrits","nodmgspread","uncletopia"],"game_id":440,"stv_port":27046,"stv_name":"Uncletopia | Warsaw | 4 | All Maps | STV","players":null},{"server_id":53,"name":"Uncletopia | Warsaw | 5 | No Payload","name_short":"waw-5","host":"waw-1.pl.uncletopia.com","port":27055,"enabled":true,"region":"eu","cc":"pl","latitude":52.2297,"longitude":21.017532,"reserved":0,"last_update":"0001-01-01T00:00:00Z","name_a2s":"Uncletopia | Warsaw | 5 | No Payload","protocol":17,"map":"koth_highpass","folder":"tf","game":"Team Fortress","app_id":440,"player_count":3,"max_players":24,"Bots":0,"server_type":"Dedicated","server_os":"Linux","password":true,"vac":true,"version":"7723704","steam_id":85568392925397854,"keywords":["cp","nocrits","nodmgspread","uncletopia"],"game_id":440,"stv_port":27056,"stv_name":"Uncletopia | Warsaw | 5 | No Payload | STV","players":[{"user_id":10,"name":"Miju","steam_id":76561198854485681,"connected_time":1094000000000,"state":"active","ping":68},{"user_id":11,"name":"KubsonekGT","steam_id":76561198798944623,"connected_time":963000000000,"state":"active","ping":117},{"user_id":13,"name":"Frank","steam_id":76561198086672774,"connected_time":180000000000,"state":"active","ping":75}]},{"server_id":54,"name":"Uncletopia | Warsaw | 6 | Community","name_short":"waw-6","host":"waw-1.pl.uncletopia.com","port":27065,"enabled":true,"region":"eu","cc":"pl","latitude":52.2297,"longitude":21.017532,"reserved":0,"last_update":"0001-01-01T00:00:00Z","name_a2s":"Uncletopia | Warsaw | 6 | Community","protocol":17,"map":"workshop/koth_bagel_rc5.ugc2514036946","folder":"tf","game":"Team Fortress","app_id":440,"player_count":0,"max_players":24,"Bots":0,"server_type":"Dedicated","server_os":"Linux","password":true,"vac":true,"version":"7723704","steam_id":85568392925397856,"keywords":["cp","nocrits","nodmgspread","uncletopia"],"game_id":440,"stv_port":27066,"stv_name":"Uncletopia | Warsaw | 6 | Community | STV","players":null}]}