{"status":true,"message":"","result":[{"server_id":9,"name":"Uncletopia | Atlanta | 1 | All Maps","name_short":"atl-1","host":"atl-1.us.uncletopia.com","port":27015,"enabled":true,"region":"us-east","cc":"us","latitude":33.753746,"longitude":-84.38633,"reserved":0,"last_update":"0001-01-01T00:00:00Z","name_a2s":"Uncletopia | Atlanta | 1 | All Maps","protocol":17,"map":"pl_upward","folder":"tf","game":"Team Fortress","app_id":440,"player_count":21,"max_players":24,"Bots":0,"server_type":"Dedicated","server_os":"Linux","password":true,"vac":true,"version":"7708610","steam_id":85568392924469982,"keywords":["nocrits","nodmgspread","payload","uncletopia"],"game_id":440,"stv_port":27016,"stv_name":"Uncletopia | Atlanta | 1 | All Maps | STV","players":[{"user_id":62,"name":"AshSux","steam_id":76561198065697849,"connected_time":1165000000000,"state":"active","ping":67},{"user_id":13,"name":"PootisPowHAHA","steam_id":76561199023536209,"connected_time":5748000000000,"state":"active","ping":67},{"user_id":67,"name":"jambie!","steam_id":76561198296042477,"connected_time":595000000000,"state":"active","ping":59},{"user_id":71,"name":"Dr. Nobotnik","steam_id":76561198357339092,"connected_time":243000000000,"state":"active","ping":80},{"user_id":50,"name":"Lucerne★Flower","steam_id":76561198264105406,"connected_time":1592000000000,"state":"active","ping":160},{"user_id":72,"name":"F Amadon","steam_id":76561198138543341,"connected_time":242000000000,"state":"active","ping":46},{"user_id":75,"name":"Metallic_King","steam_id":76561199002733031,"connected_time":190000000000,"state":"active","ping":90},{"user_id":37,"name":"Chaotic Rushu","steam_id":76561198170054407,"connected_time":2185000000000,"state":"active","ping":142},{"user_id":68,"name":"SENHOR MR M","steam_id":76561199171383361,"connected_time":565000000000,"state":"active","ping":167},{"user_id":76,"name":"er Tripalozki","steam_id":76561199240207613,"connected_time":160000000000,"state":"active","ping":139},{"user_id":35,"name":"toq","steam_id":76561198400316620,"connected_time":2395000000000,"state":"active","ping":56},{"user_id":38,"name":"mafia man","steam_id":76561198057185217,"connected_time":2130000000000,"state":"active","ping":80},{"user_id":39,"name":"William Wallace","steam_id":76561199343316814,"connected_time":2112000000000,"state":"active","ping":50},{"user_id":52,"name":"Greengamer992","steam_id":76561199385970481,"connected_time":1573000000000,"state":"active","ping":158},{"user_id":55,"name":"Riske","steam_id":76561198115840568,"connected_time":1361000000000,"state":"active","ping":82},{"user_id":56,"name":"bdkaine1","steam_id":76561198133545467,"connected_time":1323000000000,"state":"active","ping":46},{"user_id":70,"name":"kametro4","steam_id":76561198835430429,"connected_time":415000000000,"state":"active","ping":90},{"user_id":58,"name":"Sir Jangle","steam_id":76561198038142389,"connected_time":1303000000000,"state":"active","ping":70},{"user_id":77,"name":"Kevor","steam_id":76561198283017790,"connected_time":156000000000,"state":"active","ping":185},{"user_id":63,"name":"Special","steam_id":76561198070380404,"connected_time":1066000000000,"state":"active","ping":61},{"user_id":65,"name":"swat aaa","steam_id":76561199099843307,"connected_time":1034000000000,"state":"active","ping":84}]},{"server_id":400,"name":"Uncletopia | Atlanta | 3 | All Maps","name_short":"atl-3","host":"atl-1.us.uncletopia.com","port":27035,"enabled":true,"region":"us-east","cc":"us","latitude":33.753746,"longitude":-84.38633,"reserved":0,"last_update":"0001-01-01T00:00:00Z","name_a2s":"Uncletopia | Atlanta | 3 | All Maps","protocol":17,"map":"cp_snakewater_final1","folder":"tf","game":"Team Fortress","app_id":440,"player_count":0,"max_players":24,"Bots":0,"server_type":"Dedicated","server_os":"Linux","password":true,"vac":true,"version":"7708610","steam_id":85568392924515187,"keywords":["cp","nocrits","nodmgspread","uncletopia"],"game_id":440,"stv_port":27036,"stv_name":"Uncletopia | Atlanta | 3 | All Maps | STV","players":null},{"server_id":401,"name":"Uncletopia | Atlanta | 4 | No Payload","name_short":"atl-4","host":"atl-1.us.uncletopia.com","port":27045,"enabled":true,"region":"us-east","cc":"us","latitude":33.753746,"longitude":-84.38633,"reserved":0,"last_update":"0001-01-01T00:00:00Z","name_a2s":"Uncletopia | Atlanta | 4 | No Payload","protocol":17,"map":"pl_snowycoast","folder":"tf","game":"Team Fortress","app_id":440,"player_count":0,"max_players":24,"Bots":0,"server_type":"Dedicated","server_os":"Linux","password":true,"vac":true,"version":"7708610","steam_id":85568392924515188,"keywords":["nocrits","nodmgspread","payload","uncletopia"],"game_id":440,"stv_port":27046,"stv_name":"Uncletopia | Atlanta | 4 | No Payload | STV","players":null},{"server_id":2,"name":"Uncletopia | Chicago | 1 | All Maps","name_short":"chi-1","host":"chi-1.us.uncletopia.com","port":27015,"enabled":true,"region":"us-central","cc":"us","latitude":41.881832,"longitude":-87.62318,"reserved":0,"last_update":"0001-01-01T00:00:00Z","name_a2s":"Uncletopia | Chicago | 1 | All Maps","protocol":17,"map":"cp_dustbowl","folder":"tf","game":"Team Fortress","app_id":440,"player_count":0,"max_players":24,"Bots":0,"server_type":"Dedicated","server_os":"Linux","password":true,"vac":true,"version":"7708610","steam_id":85568392924469984,"keywords":["cp","nocrits","nodmgspread","uncletopia"],"game_id":440,"stv_port":27016,"stv_name":"Uncletopia | Chicago | 1 | All Maps | STV","players":null},{"server_id":106,"name":"Uncletopia | Chicago | 2 | All Maps","name_short":"chi-2","host":"chi-1.us.uncletopia.com","port":27025,"enabled":true,"region":"us-central","cc":"us","latitude":41.881832,"longitude":-87.62318,"reserved":0,"last_update":"0001-01-01T00:00:00Z","name_a2s":"Uncletopia | Chicago | 2 | All Maps","protocol":17,"map":"pl_frontier_final","folder":"tf","game":"Team Fortress","app_id":440,"player_count":0,"max_players":24,"Bots":0,"server_type":"Dedicated","server_os":"Linux","password":true,"vac":true,"version":"7708610","steam_id":85568392924469985,"keywords":["nocrits","nodmgspread","payload","uncletopia"],"game_id":440,"stv_port":27026,"stv_name":"Uncletopia | Chicago | 2 | All Maps | STV","players":null},{"server_id":402,"name":"Uncletopia | Chicago | 3 | All Maps","name_short":"chi-3","host":"chi-1.us.uncletopia.com","port":27035,"enabled":true,"region":"us-central","cc":"us","latitude":41.881832,"longitude":-87.62318,"reserved":0,"last_update":"0001-01-01T00:00:00Z","name_a2s":"Uncletopia | Chicago | 3 | All Maps","protocol":17,"map":"pl_barnblitz","folder":"tf","game":"Team Fortress","app_id":440,"player_count":0,"max_players":24,"Bots":0,"server_type":"Dedicated","server_os":"Linux","password":true,"vac":true,"version":"7708610","steam_id":85568392924515191,"keywords":["nocrits","nodmgspread","payload","uncletopia"],"game_id":440,"stv_port":27036,"stv_name":"Uncletopia | Chicago | 3 | All Maps | STV","players":null},{"server_id":403,"name":"Uncletopia | Chicago | 4 | All Maps","name_short":"chi-4","host":"chi-1.us.uncletopia.com","port":27045,"enabled":true,"region":"us-central","cc":"us","latitude":41.881832,"longitude":-87.62318,"reserved":0,"last_update":"0001-01-01T00:00:00Z","name_a2s":"Uncletopia | Chicago | 4 | All Maps","protocol":17,"map":"pl_frontier_final","folder":"tf","game":"Team Fortress","app_id":440,"player_count":0,"max_players":24,"Bots":0,"server_type":"Dedicated","server_os":"Linux","password":true,"vac":true,"version":"7708610","steam_id":85568392924515193,"keywords":["nocrits","nodmgspread","payload","uncletopia"],"game_id":440,"stv_port":27046,"stv_name":"Uncletopia | Chicago | 4 | All Maps | STV","players":null},{"server_id":36,"name":"Uncletopia | Chicago | 5 | All Maps","name_short":"chi-5","host":"chi-2.us.uncletopia.com","port":27015,"enabled":true,"region":"us-central","cc":"us","latitude":41.881832,"longitude":-87.62318,"reserved":0,"last_update":"0001-01-01T00:00:00Z","name_a2s":"Uncletopia | Chicago | 5 | All Maps","protocol":17,"map":"koth_lakeside_final","folder":"tf","game":"Team Fortress","app_id":440,"player_count":0,"max_players":24,"Bots":0,"server_type":"Dedicated","server_os":"Linux","password":true,"vac":true,"version":"7708610","steam_id":85568392924866362,"keywords":["cp","nocrits","nodmgspread","uncletopia"],"game_id":440,"stv_port":27016,"stv_name":"Uncletopia | Chicago | 5 | All Maps | STV","players":null},{"server_id":37,"name":"Uncletopia | Chicago | 6 | All Maps","name_short":"chi-6","host":"chi-2.us.uncletopia.com","port":27025,"enabled":true,"region":"us-central","cc":"us","latitude":41.881832,"longitude":-87.62318,"reserved":0,"last_update":"0001-01-01T00:00:00Z","name_a2s":"Uncletopia | Chicago | 6 | All Maps","protocol":17,"map":"pl_barnblitz","folder":"tf","game":"Team Fortress","app_id":440,"player_count":0,"max_players":24,"Bots":0,"server_type":"Dedicated","server_os":"Linux","password":true,"vac":true,"version":"7708610","steam_id":85568392924866363,"keywords":["nocrits","nodmgspread","payload","uncletopia"],"game_id":440,"stv_port":27026,"stv_name":"Uncletopia | Chicago | 6 | All Maps | STV","players":null},{"server_id":38,"name":"Uncletopia | Chicago | 7 | No Payload","name_short":"chi-7","host":"chi-2.us.uncletopia.com","port":27035,"enabled":true,"region":"us-central","cc":"us","latitude":41.881832,"longitude":-87.62318,"reserved":0,"last_update":"0001-01-01T00:00:00Z","name_a2s":"Uncletopia | Chicago | 7 | No Payload","protocol":17,"map":"cp_dustbowl","folder":"tf","game":"Team Fortress","app_id":440,"player_count":0,"max_players":24,"Bots":0,"server_type":"Dedicated","server_os":"Linux","password":true,"vac":true,"version":"7708610","steam_id":85568392924866364,"keywords":["cp","nocrits","nodmgspread","uncletopia"],"game_id":440,"stv_port":27036,"stv_name":"Uncletopia | Chicago | 7 | No Payload | STV","players":null},{"server_id":39,"name":"Uncletopia | Chicago | 8 | Community","name_short":"chi-8","host":"chi-2.us.uncletopia.com","port":27045,"enabled":true,"region":"us-central","cc":"us","latitude":41.881832,"longitude":-87.62318,"reserved":0,"last_update":"0001-01-01T00:00:00Z","name_a2s":"Uncletopia | Chicago | 8 | Community","protocol":17,"map":"cp_dustbowl","folder":"tf","game":"Team Fortress","app_id":440,"player_count":0,"max_players":24,"Bots":0,"server_type":"Dedicated","server_os":"Linux","password":true,"vac":true,"version":"7708610","steam_id":85568392924866365,"keywords":["cp","nocrits","nodmgspread","uncletopia"],"game_id":440,"stv_port":27046,"stv_name":"Uncletopia | Chicago | 8 | Community | STV","players":null},{"server_id":8,"name":"Uncletopia | Dallas | 1 | All Maps","name_short":"dal-1","host":"dal-1.us.uncletopia.com","port":27015,"enabled":true,"region":"us-central","cc":"us","latitude":32.779167,"longitude":-96.80889,"reserved":0,"last_update":"0001-01-01T00:00:00Z","name_a2s":"Uncletopia | Dallas | 1 | All Maps","protocol":17,"map":"cp_mountainlab","folder":"tf","game":"Team Fortress","app_id":440,"player_count":0,"max_players":24,"Bots":0,"server_type":"Dedicated","server_os":"Linux","password":true,"vac":true,"version":"7708610","steam_id":85568392924469986,"keywords":["cp","nocrits","nodmgspread","uncletopia"],"game_id":440,"stv_port":27016,"stv_name":"Uncletopia | Dallas | 1 | All Maps | STV","players":null},{"server_id":108,"name":"Uncletopia | Dallas | 2 | All Maps","name_short":"dal-2","host":"dal-1.us.uncletopia.com","port":27025,"enabled":true,"region":"us-central","cc":"us","latitude":32.779167,"longitude":-96.80889,"reserved":0,"last_update":"0001-01-01T00:00:00Z","name_a2s":"Uncletopia | Dallas | 2 | All Maps","protocol":17,"map":"koth_highpass","folder":"tf","game":"Team Fortress","app_id":440,"player_count":0,"max_players":24,"Bots":0,"server_type":"Dedicated","server_os":"Linux","password":true,"vac":true,"version":"7708610","steam_id":85568392924469988,"keywords":["cp","nocrits","nodmgspread","uncletopia"],"game_id":440,"stv_port":27026,"stv_name":"Uncletopia | Dallas | 2 | All Maps | STV","players":null},{"server_id":5,"name":"Uncletopia | Frankfurt | 1 | All Maps","name_short":"frk-1","host":"frk-1.de.uncletopia.com","port":27015,"enabled":true,"region":"eu","cc":"de","latitude":50.110924,"longitude":8.682127,"reserved":0,"last_update":"0001-01-01T00:00:00Z","name_a2s":"Uncletopia | Frankfurt | 1 | All Maps","protocol":17,"map":"pl_thundermountain","folder":"tf","game":"Team Fortress","app_id":440,"player_count":24,"max_players":24,"Bots":0,"server_type":"Dedicated","server_os":"Linux","password":true,"vac":true,"version":"7708610","steam_id":85568392924469989,"keywords":["nocrits","nodmgspread","payload","uncletopia"],"game_id":440,"stv_port":27016,"stv_name":"Uncletopia | Frankfurt | 1 | All Maps | STV","players":[{"user_id":352,"name":"Chiefdog","steam_id":76561198085102003,"connected_time":522000000000,"state":"active","ping":75},{"user_id":313,"name":"my ass itches","steam_id":76561199081695697,"connected_time":2864000000000,"state":"active","ping":80},{"user_id":357,"name":"Cranjis McBasketball","steam_id":76561198051290193,"connected_time":391000000000,"state":"active","ping":60},{"user_id":347,"name":"GodOfGobboz","steam_id":76561198154677956,"connected_time":1090000000000,"state":"active","ping":70},{"user_id":350,"name":"Poor Fucking Infantry","steam_id":76561198055978522,"connected_time":659000000000,"state":"active","ping":62},{"user_id":344,"name":"Sink Pisser","steam_id":76561198040950083,"connected_time":1368000000000,"state":"active","ping":61},{"user_id":280,"name":"Luke SpyWalker","steam_id":76561198008643276,"connected_time":5577000000000,"state":"active","ping":62},{"user_id":343,"name":"Aina","steam_id":76561198138731668,"connected_time":1371000000000,"state":"active","ping":60},{"user_id":334,"name":"anairat","steam_id":76561198863788240,"connected_time":2071000000000,"state":"active","ping":79},{"user_id":349,"name":"0x54","steam_id":76561198014199158,"connected_time":680000000000,"state":"active","ping":46},{"user_id":356,"name":"Standingo","steam_id":76561198035642311,"connected_time":395000000000,"state":"active","ping":90},{"user_id":340,"name":"apparently a fox","steam_id":76561198199489167,"connected_time":1701000000000,"state":"active","ping":61},{"user_id":299,"name":"benifis163","steam_id":76561198420973492,"connected_time":4313000000000,"state":"active","ping":109},{"user_id":337,"name":"Dante Alighieri","steam_id":76561198217070968,"connected_time":1834000000000,"state":"active","ping":90},{"user_id":321,"name":"Cheekus Breekus","steam_id":76561198188310329,"connected_time":2693000000000,"state":"active","ping":91},{"user_id":322,"name":"Mor'du","steam_id":76561198274105878,"connected_time":2672000000000,"state":"active","ping":77},{"user_id":351,"name":"Criterion","steam_id":76561198128829201,"connected_time":624000000000,"state":"active","ping":76},{"user_id":355,"name":"KillerQueen (he/they/she)","steam_id":76561199019399725,"connected_time":431000000000,"state":"active","ping":61},{"user_id":326,"name":"ViktorYoshi","steam_id":76561199157555246,"connected_time":2438000000000,"state":"active","ping":67},{"user_id":359,"name":"EpicMonkeGaming","steam_id":76561199191051178,"connected_time":292000000000,"state":"active","ping":129},{"user_id":331,"name":"Dane","steam_id":76561198312362896,"connected_time":2180000000000,"state":"active","ping":67},{"user_id":353,"name":"Ciaguta_rolex","steam_id":76561198046709588,"connected_time":469000000000,"state":"active","ping":71},{"user_id":354,"name":"purplecan","steam_id":76561199208283508,"connected_time":456000000000,"state":"active","ping":70},{"user_id":362,"name":"Billus","steam_id":76561199001397854,"connected_time":33000000000,"state":"spawning","ping":112}]},{"server_id":110,"name":"Uncletopia | Frankfurt | 2 | All Maps","name_short":"frk-2","host":"frk-1.de.uncletopia.com","port":27025,"enabled":true,"region":"eu","cc":"de","latitude":50.110924,"longitude":8.682127,"reserved":0,"last_update":"0001-01-01T00:00:00Z","name_a2s":"Uncletopia | Frankfurt | 2 | All Maps","protocol":17,"map":"cp_sunshine","folder":"tf","game":"Team Fortress","app_id":440,"player_count":24,"max_players":24,"Bots":0,"server_type":"Dedicated","server_os":"Linux","password":true,"vac":true,"version":"7708610","steam_id":85568392924469990,"keywords":["cp","nocrits","nodmgspread","uncletopia"],"game_id":440,"stv_port":27026,"stv_name":"Uncletopia | Frankfurt | 2 | All Maps | STV","players":[{"user_id":194,"name":"pizza pasta (the boxer)","steam_id":76561198106455841,"connected_time":1271000000000,"state":"active","ping":71},{"user_id":203,"name":"hud_saytext_time 0","steam_id":76561198010327228,"connected_time":258000000000,"state":"active","ping":62},{"user_id":108,"name":"torn","steam_id":76561198223003236,"connected_time":7557000000000,"state":"active","ping":46},{"user_id":80,"name":"waffle toaster","steam_id":76561198799089628,"connected_time":9120000000000,"state":"active","ping":60},{"user_id":177,"name":"germanhamburgers96","steam_id":76561198044189114,"connected_time":2511000000000,"state":"active","ping":59},{"user_id":145,"name":"Gorkido","steam_id":76561199101577737,"connected_time":4124000000000,"state":"active","ping":80},{"user_id":195,"name":"Bombad General Ged","steam_id":76561198079288943,"connected_time":1264000000000,"state":"active","ping":123},{"user_id":199,"name":"Vezage","steam_id":76561198064916164,"connected_time":809000000000,"state":"active","ping":82},{"user_id":187,"name":"Bob_Tostas","steam_id":76561198249006560,"connected_time":2178000000000,"state":"active","ping":87},{"user_id":192,"name":"MagicTITIKAKA","steam_id":76561198129509548,"connected_time":1306000000000,"state":"active","ping":102},{"user_id":202,"name":"Dr. WAH","steam_id":76561198297778149,"connected_time":296000000000,"state":"active","ping":80},{"user_id":205,"name":"Ceasar","steam_id":76561198056590853,"connected_time":241000000000,"state":"active","ping":68},{"user_id":210,"name":"Rebel Friend","steam_id":76561198046347156,"connected_time":131000000000,"state":"active","ping":57},{"user_id":196,"name":"Boorekas","steam_id":76561198146221326,"connected_time":1252000000000,"state":"active","ping":108},{"user_id":200,"name":"Chill Spirit","steam_id":76561198845001725,"connected_time":519000000000,"state":"active","ping":47},{"user_id":65,"name":"Nibiru_Agent","steam_id":76561198796404149,"connected_time":10812000000000,"state":"active","ping":105},{"user_id":207,"name":"FackaYou","steam_id":76561198193036090,"connected_time":230000000000,"state":"active","ping":76},{"user_id":182,"name":"Salad","steam_id":76561198879400653,"connected_time":2403000000000,"state":"active","ping":61},{"user_id":163,"name":"drippin jimmy","steam_id":76561198219243969,"connected_time":3227000000000,"state":"active","ping":53},{"user_id":198,"name":"barni","steam_id":76561198170420173,"connected_time":917000000000,"state":"active","ping":78},{"user_id":209,"name":"calum92","steam_id":76561197992188760,"connected_time":210000000000,"state":"active","ping":81},{"user_id":186,"name":"toothpaste vaper","steam_id":76561198078458780,"connected_time":2288000000000,"state":"active","ping":52},{"user_id":184,"name":"Taha","steam_id":76561199259524970,"connected_time":2338000000000,"state":"active","ping":96},{"user_id":175,"name":"invis","steam_id":76561198120668070,"connected_time":2818000000000,"state":"active","ping":62}]},{"server_id":308,"name":"Uncletopia | Frankfurt | 3 | All Maps","name_short":"frk-3","host":"frk-1.de.uncletopia.com","port":27035,"enabled":true,"region":"eu","cc":"de","latitude":50.110924,"longitude":8.682127,"reserved":0,"last_update":"0001-01-01T00:00:00Z","name_a2s":"Uncletopia | Frankfurt | 3 | All Maps","protocol":17,"map":"pl_badwater","folder":"tf","game":"Team Fortress","app_id":440,"player_count":21,"max_players":24,"Bots":0,"server_type":"Dedicated","server_os":"Linux","password":true,"vac":true,"version":"7708610","steam_id":85568392924504274,"keywords":["nocrits","nodmgspread","payload","uncletopia"],"game_id":440,"stv_port":27036,"stv_name":"Uncletopia | Frankfurt | 3 | All Maps | STV","players":[{"user_id":70,"name":"feadras","steam_id":76561199098499873,"connected_time":1194000000000,"state":"active","ping":61},{"user_id":37,"name":"spud Johnson (fake)","steam_id":76561199380974466,"connected_time":3591000000000,"state":"active","ping":83},{"user_id":41,"name":":(","steam_id":76561198044465070,"connected_time":3162000000000,"state":"active","ping":85},{"user_id":74,"name":"Timbs!!","steam_id":76561198156215344,"connected_time":1109000000000,"state":"active","ping":183},{"user_id":12,"name":"Supercle26","steam_id":76561199027147631,"connected_time":5144000000000,"state":"active","ping":48},{"user_id":85,"name":"Veirū Viseris","steam_id":76561197989857176,"connected_time":58000000000,"state":"active","ping":73},{"user_id":86,"name":"mondobongo","steam_id":76561198141046489,"connected_time":9000000000,"state":"spawning","ping":120},{"user_id":84,"name":"Biggie Cheese","steam_id":76561198250088248,"connected_time":109000000000,"state":"active","ping":65},{"user_id":59,"name":"Don Chuma","steam_id":76561198075307716,"connected_time":2253000000000,"state":"active","ping":64},{"user_id":72,"name":"biGGGie","steam_id":76561198148582638,"connected_time":1178000000000,"state":"active","ping":51},{"user_id":65,"name":"PONCHO 90","steam_id":76561198412197820,"connected_time":1424000000000,"state":"active","ping":70},{"user_id":35,"name":"Aprifox","steam_id":76561198022204947,"connected_time":3622000000000,"state":"active","ping":65},{"user_id":73,"name":"Knoxx","steam_id":76561198260692541,"connected_time":1162000000000,"state":"active","ping":64},{"user_id":76,"name":"Venus⚢","steam_id":76561198018602969,"connected_time":1075000000000,"state":"active","ping":67},{"user_id":77,"name":"Cobb Salads","steam_id":76561197971140507,"connected_time":1051000000000,"state":"active","ping":65},{"user_id":61,"name":"Elon Ma cs.deals","steam_id":76561199018053264,"connected_time":2220000000000,"state":"active","ping":56},{"user_id":67,"name":"LOBZIK","steam_id":76561198114830120,"connected_time":1357000000000,"state":"active","ping":80},{"user_id":79,"name":"fmdi","steam_id":76561199433879329,"connected_time":929000000000,"state":"active","ping":62},{"user_id":63,"name":"Hunterino","steam_id":76561198069715745,"connected_time":1878000000000,"state":"active","ping":74},{"user_id":53,"name":"ÃNVS DRÃNVS","steam_id":76561198138733015,"connected_time":2896000000000,"state":"active","ping":107},{"user_id":81,"name":"MAKENTAKEN","steam_id":76561199127359587,"connected_time":292000000000,"state":"active","ping":84}]},{"server_id":309,"name":"Uncletopia | Frankfurt | 4 | All Maps","name_short":"frk-4","host":"frk-1.de.uncletopia.com","port":27045,"enabled":true,"region":"eu","cc":"de","latitude":50.110924,"longitude":8.682127,"reserved":0,"last_update":"0001-01-01T00:00:00Z","name_a2s":"Uncletopia | Frankfurt | 4 | All Maps","protocol":17,"map":"cp_process_final","folder":"tf","game":"Team Fortress","app_id":440,"player_count":0,"max_players":24,"Bots":0,"server_type":"Dedicated","server_os":"Linux","password":true,"vac":true,"version":"7708610","steam_id":85568392924504275,"keywords":["cp","nocrits","nodmgspread","uncletopia"],"game_id":440,"stv_port":27046,"stv_name":"Uncletopia | Frankfurt | 4 | All Maps | STV","players":null},{"server_id":310,"name":"Uncletopia | Frankfurt | 5 | All Maps","name_short":"frk-5","host":"frk-1.de.uncletopia.com","port":27055,"enabled":true,"region":"eu","cc":"de","latitude":50.110924,"longitude":8.682127,"reserved":0,"last_update":"0001-01-01T00:00:00Z","name_a2s":"Uncletopia | Frankfurt | 5 | All Maps","protocol":17,"map":"pl_frontier_final","folder":"tf","game":"Team Fortress","app_id":440,"player_count":22,"max_players":24,"Bots":0,"server_type":"Dedicated","server_os":"Linux","password":true,"vac":true,"version":"7708610","steam_id":85568392924504277,"keywords":["nocrits","nodmgspread","payload","uncletopia"],"game_id":440,"stv_port":27056,"stv_name":"Uncletopia | Frankfurt | 5 | All Maps | STV","players":[{"user_id":107,"name":"Toofy","steam_id":76561197989727907,"connected_time":1599000000000,"state":"active","ping":58},{"user_id":115,"name":"partizan","steam_id":76561198440837262,"connected_time":31000000000,"state":"active","ping":60},{"user_id":99,"name":"pelna","steam_id":76561199166486303,"connected_time":1809000000000,"state":"active","ping":93},{"user_id":85,"name":"grand autismo","steam_id":76561199074305227,"connected_time":2512000000000,"state":"active","ping":77},{"user_id":109,"name":"yuo","steam_id":76561198106624157,"connected_time":1040000000000,"state":"active","ping":73},{"user_id":100,"name":"AdgaroS","steam_id":76561198969373800,"connected_time":1717000000000,"state":"active","ping":66},{"user_id":78,"name":"makarov","steam_id":76561198363892870,"connected_time":2609000000000,"state":"active","ping":62},{"user_id":89,"name":"gatherer","steam_id":76561198378235611,"connected_time":2388000000000,"state":"active","ping":64},{"user_id":65,"name":"advanced polish lifeform","steam_id":76561198062107879,"connected_time":4425000000000,"state":"active","ping":75},{"user_id":110,"name":"Amandus","steam_id":76561198036281079,"connected_time":751000000000,"state":"active","ping":60},{"user_id":102,"name":"fas2roger","steam_id":76561198199226627,"connected_time":1642000000000,"state":"active","ping":91},{"user_id":103,"name":"DeKritteh","steam_id":76561198113945397,"connected_time":1623000000000,"state":"active","ping":71},{"user_id":92,"name":"bayley","steam_id":76561198117472639,"connected_time":2248000000000,"state":"active","ping":84},{"user_id":111,"name":"KaT","steam_id":76561198261879602,"connected_time":645000000000,"state":"active","ping":171},{"user_id":75,"name":"Ёжик Саня","steam_id":76561198376307313,"connected_time":3206000000000,"state":"active","ping":169},{"user_id":90,"name":"CosminSL","steam_id":76561198055827684,"connected_time":2333000000000,"state":"active","ping":82},{"user_id":83,"name":"-GoV- Ti Conviene Chiamare Saul","steam_id":76561197986976735,"connected_time":2537000000000,"state":"active","ping":73},{"user_id":105,"name":"Horiizunn","steam_id":76561198105572423,"connected_time":1612000000000,"state":"active","ping":59},{"user_id":86,"name":"Инспектор Атас","steam_id":76561199175688390,"connected_time":2463000000000,"state":"active","ping":77},{"user_id":106,"name":"KITE MAN!  HELL YEAH!","steam_id":76561198079386295,"connected_time":1612000000000,"state":"active","ping":67},{"user_id":112,"name":"willo","steam_id":76561198034442999,"connected_time":195000000000,"state":"active","ping":72},{"user_id":114,"name":"Hussain_144","steam_id":76561198346029208,"connected_time":170000000000,"state":"active","ping":188}]},{"server_id":311,"name":"Uncletopia | Frankfurt | 6 | All Maps","name_short":"frk-6","host":"frk-1.de.uncletopia.com","port":27065,"enabled":true,"region":"eu","cc":"de","latitude":50.110924,"longitude":8.682127,"reserved":0,"last_update":"0001-01-01T00:00:00Z","name_a2s":"Uncletopia | Frankfurt | 6 | All Maps","protocol":17,"map":"pl_frontier_final","folder":"tf","game":"Team Fortress","app_id":440,"player_count":0,"max_players":24,"Bots":0,"server_type":"Dedicated","server_os":"Linux","password":true,"vac":true,"version":"7708610","steam_id":85568392924504278,"keywords":["nocrits","nodmgspread","payload","uncletopia"],"game_id":440,"stv_port":27066,"stv_name":"Uncletopia | Frankfurt | 6 | All Maps | STV","players":null},{"server_id":23,"name":"Uncletopia | Frankfurt | 7 | No Payload","name_short":"frk-7","host":"frk-1.de.uncletopia.com","port":27075,"enabled":true,"region":"eu","cc":"de","latitude":50.110924,"longitude":8.682127,"reserved":0,"last_update":"0001-01-01T00:00:00Z","name_a2s":"Uncletopia | Frankfurt | 7 | No Payload","protocol":17,"map":"koth_viaduct","folder":"tf","game":"Team Fortress","app_id":440,"player_count":1,"max_players":24,"Bots":0,"server_type":"Dedicated","server_os":"Linux","password":true,"vac":true,"version":"7708610","steam_id":85568392924742827,"keywords":["cp","nocrits","nodmgspread","uncletopia"],"game_id":440,"stv_port":27076,"stv_name":"Uncletopia | Frankfurt | 7 | No Payload | STV","players":[{"user_id":6,"name":"Jaeger","steam_id":76561198260639939,"connected_time":21000000000,"state":"active","ping":78}]},{"server_id":24,"name":"Uncletopia | Frankfurt | 8 | Community","name_short":"frk-8","host":"frk-1.de.uncletopia.com","port":27085,"enabled":true,"region":"eu","cc":"de","latitude":50.110924,"longitude":8.682127,"reserved":0,"last_update":"0001-01-01T00:00:00Z","name_a2s":"Uncletopia | Frankfurt | 8 | Community","protocol":17,"map":"pl_borneo","folder":"tf","game":"Team Fortress","app_id":440,"player_count":23,"max_players":24,"Bots":0,"server_type":"Dedicated","server_os":"Linux","password":true,"vac":true,"version":"7708610","steam_id":85568392924742828,"keywords":["nocrits","nodmgspread","payload","uncletopia"],"game_id":440,"stv_port":27086,"stv_name":"Uncletopia | Frankfurt | 8 | Community | STV","players":[{"user_id":18,"name":"r4ngerr","steam_id":76561198111721072,"connected_time":444000000000,"state":"active","ping":95},{"user_id":5,"name":"ellie","steam_id":76561198986197639,"connected_time":1517000000000,"state":"active","ping":72},{"user_id":6,"name":"ashsbhop","steam_id":76561199155075476,"connected_time":1399000000000,"state":"active","ping":77},{"user_id":7,"name":"Artock","steam_id":76561198808599713,"connected_time":1368000000000,"state":"active","ping":86},{"user_id":13,"name":"Koalified","steam_id":76561198095350290,"connected_time":685000000000,"state":"active","ping":182},{"user_id":27,"name":"Uncle Lame","steam_id":76561198089003514,"connected_time":226000000000,"state":"active","ping":45},{"user_id":12,"name":"gamercatsvr","steam_id":76561199242794862,"connected_time":769000000000,"state":"active","ping":59},{"user_id":19,"name":"professional yellow man","steam_id":76561198060200599,"connected_time":406000000000,"state":"active","ping":92},{"user_id":15,"name":"DeMano","steam_id":76561198147857776,"connected_time":599000000000,"state":"active","ping":86},{"user_id":16,"name":"sr_t4boo","steam_id":76561199012688451,"connected_time":577000000000,"state":"active","ping":113},{"user_id":28,"name":"weed abuser","steam_id":76561199088674327,"connected_time":214000000000,"state":"active","ping":64},{"user_id":21,"name":"ButterPizza","steam_id":76561199154317513,"connected_time":382000000000,"state":"active","ping":155},{"user_id":29,"name":"Dolcelatte","steam_id":76561198038501770,"connected_time":200000000000,"state":"active","ping":46},{"user_id":23,"name":"\\3quruc90\\d","steam_id":76561198314576132,"connected_time":359000000000,"state":"active","ping":79},{"user_id":24,"name":"The Funny Cat 面白い猫","steam_id":76561198439978112,"connected_time":359000000000,"state":"active","ping":105},{"user_id":25,"name":"askulap","steam_id":76561197992018795,"connected_time":338000000000,"state":"active","ping":76},{"user_id":26,"name":"Frutskopuk","steam_id":76561199066821121,"connected_time":303000000000,"state":"active","ping":91},{"user_id":30,"name":"jaMie","steam_id":76561198170148783,"connected_time":166000000000,"state":"active","ping":57},{"user_id":31,"name":"MittenArtz","steam_id":76561198864216556,"connected_time":131000000000,"state":"active","ping":72},{"user_id":32,"name":"Warpzel65","steam_id":76561198799303596,"connected_time":123000000000,"state":"active","ping":106},{"user_id":34,"name":"Flump","steam_id":76561198106352373,"connected_time":111000000000,"state":"active","ping":55},{"user_id":35,"name":"tralalaOuiOui","steam_id":76561197963471507,"connected_time":105000000000,"state":"active","ping":76},{"user_id":36,"name":"Nick","steam_id":76561198036109469,"connected_time":101000000000,"state":"active","ping":93}]},{"server_id":202,"name":"Uncletopia | Hong Kong | 1 | All Maps","name_short":"hgk-1","host":"hgk-1.hk.uncletopia.com","port":27015,"enabled":true,"region":"asia","cc":"hk","latitude":22.302711,"longitude":114.177216,"reserved":0,"last_update":"0001-01-01T00:00:00Z","name_a2s":"Uncletopia | Hong Kong | 1 | All Maps","protocol":17,"map":"pl_barnblitz","folder":"tf","game":"Team Fortress","app_id":440,"player_count":24,"max_players":24,"Bots":0,"server_type":"Dedicated","server_os":"Linux","password":true,"vac":true,"version":"7708610","steam_id":85568392924494504,"keywords":["nocrits","nodmgspread","payload","uncletopia"],"game_id":440,"stv_port":27016,"stv_name":"Uncletopia | Hong Kong | 1 | All Maps | STV","players":[{"user_id":310,"name":"mosqito","steam_id":76561198195487041,"connected_time":5234000000000,"state":"active","ping":109},{"user_id":311,"name":"AmaiToxic","steam_id":76561199122491157,"connected_time":5208000000000,"state":"active","ping":70},{"user_id":316,"name":"Lúd","steam_id":76561198828840546,"connected_time":4565000000000,"state":"active","ping":86},{"user_id":326,"name":"Creeper-Chan","steam_id":76561198172623219,"connected_time":2805000000000,"state":"active","ping":53},{"user_id":320,"name":"piyoko no english","steam_id":76561198088403016,"connected_time":4232000000000,"state":"active","ping":99},{"user_id":290,"name":"Paragon","steam_id":76561197983816430,"connected_time":6356000000000,"state":"active","ping":130},{"user_id":339,"name":"junbi OK","steam_id":76561198116387218,"connected_time":606000000000,"state":"active","ping":90},{"user_id":329,"name":"Buttman","steam_id":76561198044693388,"connected_time":1430000000000,"state":"active","ping":50},{"user_id":340,"name":"real sexer","steam_id":76561199113766992,"connected_time":278000000000,"state":"active","ping":98},{"user_id":308,"name":"blue mountain coffee","steam_id":76561198823374287,"connected_time":5283000000000,"state":"active","ping":103},{"user_id":341,"name":"母の肉団子","steam_id":76561198069561896,"connected_time":234000000000,"state":"active","ping":44},{"user_id":323,"name":"+W+","steam_id":76561197997220367,"connected_time":2902000000000,"state":"active","ping":49},{"user_id":338,"name":"Banana Milk","steam_id":76561198005156257,"connected_time":970000000000,"state":"active","ping":126},{"user_id":334,"name":"SissyFemboy♡","steam_id":76561198841376347,"connected_time":1265000000000,"state":"active","ping":91},{"user_id":255,"name":"instant karma","steam_id":76561198027307933,"connected_time":10927000000000,"state":"active","ping":48},{"user_id":284,"name":"Nimbus","steam_id":76561198877713016,"connected_time":7878000000000,"state":"active","ping":118},{"user_id":327,"name":"IRA car dealership","steam_id":76561199224577498,"connected_time":2304000000000,"state":"active","ping":71},{"user_id":335,"name":"ceo of swag","steam_id":76561199021157734,"connected_time":1251000000000,"state":"active","ping":95},{"user_id":342,"name":"tiden2000","steam_id":76561198092969425,"connected_time":223000000000,"state":"active","ping":106},{"user_id":330,"name":"Talkk More","steam_id":76561198305424433,"connected_time":1300000000000,"state":"active","ping":101},{"user_id":344,"name":"PissDrinker98","steam_id":76561198856157761,"connected_time":83000000000,"state":"active","ping":107},{"user_id":343,"name":"Feelsbad","steam_id":76561198132207861,"connected_time":195000000000,"state":"active","ping":118},{"user_id":176,"name":"Bertengkar","steam_id":76561198213031155,"connected_time":18872000000000,"state":"active","ping":103},{"user_id":305,"name":"IFUDGISTICX","steam_id":76561199105415893,"connected_time":5301000000000,"state":"active","ping":86}]},{"server_id":1,"name":"Uncletopia | Los Angeles | 1 | All Maps","name_short":"lax-1","host":"lax-1.us.uncletopia.com","port":27015,"enabled":true,"region":"us-west","cc":"us","latitude":33.94279,"longitude":-118.41004,"reserved":0,"last_update":"0001-01-01T00:00:00Z","name_a2s":"Uncletopia | Los Angeles | 1 | All Maps","protocol":17,"map":"pl_swiftwater_final1","folder":"tf","game":"Team Fortress","app_id":440,"player_count":0,"max_players":24,"Bots":0,"server_type":"Dedicated","server_os":"Linux","password":true,"vac":true,"version":"7708610","steam_id":85568392924469991,"keywords":["nocrits","nodmgspread","payload","uncletopia"],"game_id":440,"stv_port":27016,"stv_name":"Uncletopia | Los Angeles | 1 | All Maps | STV","players":null},{"server_id":112,"name":"Uncletopia | Los Angeles | 2 | All Maps","name_short":"lax-2","host":"lax-1.us.uncletopia.com","port":27025,"enabled":true,"region":"us-west","cc":"us","latitude":33.94279,"longitude":-118.41004,"reserved":0,"last_update":"0001-01-01T00:00:00Z","name_a2s":"Uncletopia | Los Angeles | 2 | All Maps","protocol":17,"map":"pl_snowycoast","folder":"tf","game":"Team Fortress","app_id":440,"player_count":0,"max_players":24,"Bots":0,"server_type":"Dedicated","server_os":"Linux","password":true,"vac":true,"version":"7708610","steam_id":85568392924469992,"keywords":["nocrits","nodmgspread","payload","uncletopia"],"game_id":440,"stv_port":27026,"stv_name":"Uncletopia | Los Angeles | 2 | All Maps | STV","players":null},{"server_id":324,"name":"Uncletopia | Los Angeles | 3 | All Maps","name_short":"lax-3","host":"lax-1.us.uncletopia.com","port":27035,"enabled":true,"region":"us-west","cc":"us","latitude":33.94279,"longitude":-118.41004,"reserved":0,"last_update":"0001-01-01T00:00:00Z","name_a2s":"Uncletopia | Los Angeles | 3 | All Maps","protocol":17,"map":"koth_viaduct","folder":"tf","game":"Team Fortress","app_id":440,"player_count":0,"max_players":24,"Bots":0,"server_type":"Dedicated","server_os":"Linux","password":true,"vac":true,"version":"7708610","steam_id":85568392924510198,"keywords":["cp","nocrits","nodmgspread","uncletopia"],"game_id":440,"stv_port":27036,"stv_name":"Uncletopia | Los Angeles | 3 | All Maps | STV","players":null},{"server_id":25,"name":"Uncletopia | Los Angeles | 4 | No Payload","name_short":"lax-4","host":"lax-1.us.uncletopia.com","port":27045,"enabled":true,"region":"us-west","cc":"us","latitude":33.94279,"longitude":-118.41004,"reserved":0,"last_update":"0001-01-01T00:00:00Z","name_a2s":"Uncletopia | Los Angeles | 4 | No Payload","protocol":17,"map":"cp_mountainlab","folder":"tf","game":"Team Fortress","app_id":440,"player_count":0,"max_players":24,"Bots":0,"server_type":"Dedicated","server_os":"Linux","password":true,"vac":true,"version":"7708610","steam_id":85568392924510199,"keywords":["cp","nocrits","nodmgspread","uncletopia"],"game_id":440,"stv_port":27046,"stv_name":"Uncletopia | Los Angeles | 4 | No Payload | STV","players":null},{"server_id":11,"name":"Uncletopia | London | 1 | All Maps","name_short":"lon-1","host":"lon-1.uk.uncletopia.com","port":27015,"enabled":true,"region":"eu","cc":"gb","latitude":51.509865,"longitude":-0.118092,"reserved":0,"last_update":"0001-01-01T00:00:00Z","name_a2s":"Uncletopia | London | 1 | All Maps","protocol":17,"map":"pl_barnblitz","folder":"tf","game":"Team Fortress","app_id":440,"player_count":24,"max_players":24,"Bots":0,"server_type":"Dedicated","server_os":"Linux","password":true,"vac":true,"version":"7708610","steam_id":85568392924367362,"keywords":["nocrits","nodmgspread","payload","uncletopia"],"game_id":440,"stv_port":27016,"stv_name":"Uncletopia | London | 1 | All Maps | STV","players":[{"user_id":420,"name":"Alice can't hit pipes","steam_id":76561198052410860,"connected_time":2756000000000,"state":"active","ping":151},{"user_id":473,"name":"jaime8D","steam_id":76561197980590671,"connected_time":140000000000,"state":"active","ping":80},{"user_id":440,"name":"Shimas","steam_id":76561198867546842,"connected_time":1117000000000,"state":"active","ping":60},{"user_id":413,"name":":)","steam_id":76561198103988618,"connected_time":3004000000000,"state":"active","ping":60},{"user_id":407,"name":"xX_GamingGilf_Xx","steam_id":76561199118876157,"connected_time":3434000000000,"state":"active","ping":62},{"user_id":405,"name":"Flare","steam_id":76561198039098320,"connected_time":3730000000000,"state":"active","ping":56},{"user_id":475,"name":"angry soviet","steam_id":76561198190005183,"connected_time":101000000000,"state":"active","ping":64},{"user_id":474,"name":"Raulca25","steam_id":76561199068256964,"connected_time":108000000000,"state":"active","ping":77},{"user_id":457,"name":"Alfred Schroom","steam_id":76561198117990411,"connected_time":517000000000,"state":"active","ping":77},{"user_id":415,"name":"Long Legged Larry","steam_id":76561198023585856,"connected_time":2930000000000,"state":"active","ping":173},{"user_id":436,"name":"pizza time","steam_id":76561199015899793,"connected_time":1444000000000,"state":"active","ping":43},{"user_id":476,"name":"Economic crisis","steam_id":76561198063562843,"connected_time":95000000000,"state":"active","ping":64},{"user_id":441,"name":"NACHO VARGAS","steam_id":76561198061874517,"connected_time":1082000000000,"state":"active","ping":91},{"user_id":459,"name":"NotFionn","steam_id":76561198890525176,"connected_time":463000000000,"state":"active","ping":80},{"user_id":446,"name":"Firevell","steam_id":76561198154813359,"connected_time":883000000000,"state":"active","ping":74},{"user_id":423,"name":"Mango","steam_id":76561198139555709,"connected_time":2260000000000,"state":"active","ping":53},{"user_id":434,"name":"Jamba Sparabo","steam_id":76561198131647600,"connected_time":1543000000000,"state":"active","ping":53},{"user_id":417,"name":"jt7","steam_id":76561198073655162,"connected_time":2853000000000,"state":"active","ping":77},{"user_id":450,"name":"Joomig","steam_id":76561198798066767,"connected_time":736000000000,"state":"active","ping":58},{"user_id":435,"name":"Kahvi","steam_id":76561198723244199,"connected_time":1500000000000,"state":"active","ping":76},{"user_id":421,"name":"combat collin","steam_id":76561198011450253,"connected_time":2615000000000,"state":"active","ping":46},{"user_id":433,"name":"csnipery","steam_id":76561199435280050,"connected_time":1732000000000,"state":"active","ping":75},{"user_id":432,"name":"Lev Bronstejn","steam_id":76561198415391962,"connected_time":1776000000000,"state":"active","ping":79},{"user_id":444,"name":"иван","steam_id":76561198072730591,"connected_time":914000000000,"state":"active","ping":62}]},{"server_id":114,"name":"Uncletopia | London | 2 | All Maps","name_short":"lon-2","host":"lon-1.uk.uncletopia.com","port":27025,"enabled":true,"region":"eu","cc":"gb","latitude":51.509865,"longitude":-0.118092,"reserved":0,"last_update":"0001-01-01T00:00:00Z","name_a2s":"Uncletopia | London | 2 | All Maps","protocol":17,"map":"cp_sunshine","folder":"tf","game":"Team Fortress","app_id":440,"player_count":0,"max_players":24,"Bots":0,"server_type":"Dedicated","server_os":"Linux","password":true,"vac":true,"version":"7708610","steam_id":85568392924470941,"keywords":["cp","nocrits","nodmgspread","uncletopia"],"game_id":440,"stv_port":27026,"stv_name":"Uncletopia | London | 2 | All Maps | STV","players":null},{"server_id":320,"name":"Uncletopia | London | 3 | All Maps","name_short":"lon-3","host":"lon-1.uk.uncletopia.com","port":27035,"enabled":true,"region":"eu","cc":"gb","latitude":51.509865,"longitude":-0.118092,"reserved":0,"last_update":"0001-01-01T00:00:00Z","name_a2s":"Uncletopia | London | 3 | All Maps","protocol":17,"map":"koth_cascade","folder":"tf","game":"Team Fortress","app_id":440,"player_count":0,"max_players":24,"Bots":0,"server_type":"Dedicated","server_os":"Linux","password":true,"vac":true,"version":"7708610","steam_id":85568392924510192,"keywords":["cp","nocrits","nodmgspread","uncletopia"],"game_id":440,"stv_port":27036,"stv_name":"Uncletopia | London | 3 | All Maps | STV","players":null},{"server_id":321,"name":"Uncletopia | London | 4 | All Maps","name_short":"lon-4","host":"lon-1.uk.uncletopia.com","port":27045,"enabled":true,"region":"eu","cc":"gb","latitude":51.509865,"longitude":-0.118092,"reserved":0,"last_update":"0001-01-01T00:00:00Z","name_a2s":"Uncletopia | London | 4 | All Maps","protocol":17,"map":"koth_highpass","folder":"tf","game":"Team Fortress","app_id":440,"player_count":0,"max_players":24,"Bots":0,"server_type":"Dedicated","server_os":"Linux","password":true,"vac":true,"version":"7708610","steam_id":85568392924510193,"keywords":["cp","nocrits","nodmgspread","uncletopia"],"game_id":440,"stv_port":27046,"stv_name":"Uncletopia | London | 4 | All Maps | STV","players":null},{"server_id":21,"name":"Uncletopia | London | 5 | All Maps","name_short":"lon-5","host":"lon-1.uk.uncletopia.com","port":27055,"enabled":true,"region":"eu","cc":"gb","latitude":51.509865,"longitude":-0.118092,"reserved":0,"last_update":"0001-01-01T00:00:00Z","name_a2s":"Uncletopia | London | 5 | All Maps","protocol":17,"map":"pl_badwater","folder":"tf","game":"Team Fortress","app_id":440,"player_count":2,"max_players":24,"Bots":0,"server_type":"Dedicated","server_os":"Linux","password":true,"vac":true,"version":"7708610","steam_id":85568392924742829,"keywords":["nocrits","nodmgspread","payload","uncletopia"],"game_id":440,"stv_port":27056,"stv_name":"Uncletopia | London | 5 | All Maps | STV","players":[{"user_id":8,"name":"YC Lacus","steam_id":76561199107625942,"connected_time":337000000000,"state":"active","ping":52},{"user_id":7,"name":"peacekeeper","steam_id":76561199260462952,"connected_time":850000000000,"state":"active","ping":88}]},{"server_id":22,"name":"Uncletopia | London | 6 | All Maps","name_short":"lon-6","host":"lon-1.uk.uncletopia.com","port":27065,"enabled":true,"region":"eu","cc":"gb","latitude":51.509865,"longitude":-0.118092,"reserved":0,"last_update":"0001-01-01T00:00:00Z","name_a2s":"Uncletopia | London | 6 | All Maps","protocol":17,"map":"pl_frontier_final","folder":"tf","game":"Team Fortress","app_id":440,"player_count":0,"max_players":24,"Bots":0,"server_type":"Dedicated","server_os":"Linux","password":true,"vac":true,"version":"7708610","steam_id":85568392924742830,"keywords":["nocrits","nodmgspread","payload","uncletopia"],"game_id":440,"stv_port":27066,"stv_name":"Uncletopia | London | 6 | All Maps | STV","players":null},{"server_id":40,"name":"Uncletopia | London | 7 | No Payload","name_short":"lon-7","host":"lon-1.uk.uncletopia.com","port":27075,"enabled":true,"region":"eu","cc":"gb","latitude":51.509865,"longitude":-0.118092,"reserved":0,"last_update":"0001-01-01T00:00:00Z","name_a2s":"Uncletopia | London | 7 | No Payload","protocol":17,"map":"pl_barnblitz","folder":"tf","game":"Team Fortress","app_id":440,"player_count":0,"max_players":24,"Bots":0,"server_type":"Dedicated","server_os":"Linux","password":true,"vac":true,"version":"7708610","steam_id":85568392924964314,"keywords":["nocrits","nodmgspread","payload","uncletopia"],"game_id":440,"stv_port":27076,"stv_name":"Uncletopia | London | 7 | No Payload | STV","players":null},{"server_id":41,"name":"Uncletopia | London | 8 | Community","name_short":"lon-8","host":"lon-1.uk.uncletopia.com","port":27085,"enabled":true,"region":"eu","cc":"gb","latitude":51.509865,"longitude":-0.118092,"reserved":0,"last_update":"0001-01-01T00:00:00Z","name_a2s":"Uncletopia | London | 8 | Community","protocol":17,"map":"workshop/cp_overgrown_rc7b.ugc503939302","folder":"tf","game":"Team Fortress","app_id":440,"player_count":0,"max_players":24,"Bots":0,"server_type":"Dedicated","server_os":"Linux","password":true,"vac":true,"version":"7708610","steam_id":85568392924964315,"keywords":["cp","nocrits","nodmgspread","uncletopia"],"game_id":440,"stv_port":27086,"stv_name":"Uncletopia | London | 8 | Community | STV","players":null},{"server_id":300,"name":"Uncletopia | Montréal | 1 | All Maps","name_short":"mtl-1","host":"mtl-1.ca.uncletopia.com","port":27015,"enabled":true,"region":"us-east","cc":"ca","latitude":45.50889,"longitude":-73.56167,"reserved":0,"last_update":"0001-01-01T00:00:00Z","name_a2s":"Uncletopia | Montréal | 1 | All Maps","protocol":17,"map":"pl_borneo","folder":"tf","game":"Team Fortress","app_id":440,"player_count":0,"max_players":24,"Bots":0,"server_type":"Dedicated","server_os":"Linux","password":true,"vac":true,"version":"7708610","steam_id":85568392924500087,"keywords":["nocrits","nodmgspread","payload","uncletopia"],"game_id":440,"stv_port":27016,"stv_name":"Uncletopia | Montréal | 1 | All Maps | STV","players":null},{"server_id":301,"name":"Uncletopia | Montréal | 2 | All Maps","name_short":"mtl-2","host":"mtl-1.ca.uncletopia.com","port":27025,"enabled":true,"region":"us-east","cc":"ca","latitude":45.50889,"longitude":-73.56167,"reserved":0,"last_update":"0001-01-01T00:00:00Z","name_a2s":"Uncletopia | Montréal | 2 | All Maps","protocol":17,"map":"pl_borneo","folder":"tf","game":"Team Fortress","app_id":440,"player_count":0,"max_players":24,"Bots":0,"server_type":"Dedicated","server_os":"Linux","password":true,"vac":true,"version":"7708610","steam_id":85568392924500088,"keywords":["nocrits","nodmgspread","payload","uncletopia"],"game_id":440,"stv_port":27026,"stv_name":"Uncletopia | Montréal | 2 | All Maps | STV","players":null},{"server_id":302,"name":"Uncletopia | Montréal | 3 | All Maps","name_short":"mtl-3","host":"mtl-1.ca.uncletopia.com","port":27035,"enabled":true,"region":"us-east","cc":"ca","latitude":45.50889,"longitude":-73.56167,"reserved":0,"last_update":"0001-01-01T00:00:00Z","name_a2s":"Uncletopia | Montréal | 3 | All Maps","protocol":17,"map":"cp_snakewater_final1","folder":"tf","game":"Team Fortress","app_id":440,"player_count":0,"max_players":24,"Bots":0,"server_type":"Dedicated","server_os":"Linux","password":true,"vac":true,"version":"7708610","steam_id":85568392924500089,"keywords":["cp","nocrits","nodmgspread","uncletopia"],"game_id":440,"stv_port":27036,"stv_name":"Uncletopia | Montréal | 3 | All Maps | STV","players":null},{"server_id":303,"name":"Uncletopia | Montréal | 4 | No Payload","name_short":"mtl-4","host":"mtl-1.ca.uncletopia.com","port":27045,"enabled":true,"region":"us-east","cc":"ca","latitude":45.50889,"longitude":-73.56167,"reserved":0,"last_update":"0001-01-01T00:00:00Z","name_a2s":"Uncletopia | Montréal | 4 | No Payload","protocol":17,"map":"cp_snakewater_final1","folder":"tf","game":"Team Fortress","app_id":440,"player_count":0,"max_players":24,"Bots":0,"server_type":"Dedicated","server_os":"Linux","password":true,"vac":true,"version":"7708610","steam_id":85568392924500090,"keywords":["cp","nocrits","nodmgspread","uncletopia"],"game_id":440,"stv_port":27046,"stv_name":"Uncletopia | Montréal | 4 | No Payload | STV","players":null},{"server_id":13,"name":"Uncletopia | New York City | 1 | All Maps","name_short":"nyc-1","host":"nyc-1.us.uncletopia.com","port":27015,"enabled":true,"region":"us-east","cc":"us","latitude":40.73061,"longitude":-73.93524,"reserved":0,"last_update":"0001-01-01T00:00:00Z","name_a2s":"Uncletopia | New York City | 1 | All Maps","protocol":17,"map":"pl_frontier_final","folder":"tf","game":"Team Fortress","app_id":440,"player_count":0,"max_players":24,"Bots":0,"server_type":"Dedicated","server_os":"Linux","password":true,"vac":true,"version":"7708610","steam_id":85568392924469993,"keywords":["nocrits","nodmgspread","payload","uncletopia"],"game_id":440,"stv_port":27016,"stv_name":"Uncletopia | New York City | 1 | All Maps | STV","players":null},{"server_id":14,"name":"Uncletopia | New York City | 2 | All Maps","name_short":"nyc-2","host":"nyc-1.us.uncletopia.com","port":27025,"enabled":true,"region":"us-east","cc":"us","latitude":40.73061,"longitude":-73.93524,"reserved":0,"last_update":"0001-01-01T00:00:00Z","name_a2s":"Uncletopia | New York City | 2 | All Maps","protocol":17,"map":"cp_altitude","folder":"tf","game":"Team Fortress","app_id":440,"player_count":0,"max_players":24,"Bots":0,"server_type":"Dedicated","server_os":"Linux","password":true,"vac":true,"version":"7708610","steam_id":85568392924469994,"keywords":["cp","nocrits","nodmgspread","uncletopia"],"game_id":440,"stv_port":27026,"stv_name":"Uncletopia | New York City | 2 | All Maps | STV","players":null},{"server_id":15,"name":"Uncletopia | New York City | 3 | All Maps","name_short":"nyc-3","host":"nyc-1.us.uncletopia.com","port":27035,"enabled":true,"region":"us-east","cc":"us","latitude":40.73061,"longitude":-73.93524,"reserved":0,"last_update":"0001-01-01T00:00:00Z","name_a2s":"Uncletopia | New York City | 3 | All Maps","protocol":17,"map":"cp_mountainlab","folder":"tf","game":"Team Fortress","app_id":440,"player_count":0,"max_players":24,"Bots":0,"server_type":"Dedicated","server_os":"Linux","password":true,"vac":true,"version":"7708610","steam_id":85568392924742820,"keywords":["cp","nocrits","nodmgspread","uncletopia"],"game_id":440,"stv_port":27036,"stv_name":"Uncletopia | New York City | 3 | All Maps | STV","players":null},{"server_id":16,"name":"Uncletopia | New York City | 4 | Community","name_short":"nyc-4","host":"nyc-1.us.uncletopia.com","port":27045,"enabled":true,"region":"us-east","cc":"us","latitude":40.73061,"longitude":-73.93524,"reserved":0,"last_update":"0001-01-01T00:00:00Z","name_a2s":"Uncletopia | New York City | 4 | Community","protocol":17,"map":"workshop/rd_asteroid_redux_rc9.ugc2154902912","folder":"tf","game":"Team Fortress","app_id":440,"player_count":0,"max_players":24,"Bots":0,"server_type":"Dedicated","server_os":"Linux","password":true,"vac":true,"version":"7708610","steam_id":85568392924742821,"keywords":["beta","nocrits","nodmgspread","rd","uncletopia"],"game_id":440,"stv_port":27046,"stv_name":"Uncletopia | New York City | 4 | Community | STV","players":null},{"server_id":142,"name":"Uncletopia | São Paulo | 1 | All Maps","name_short":"sao-1","host":"sao-1.br.uncletopia.com","port":27015,"enabled":true,"region":"sa","cc":"br","latitude":-23.533773,"longitude":-46.62529,"reserved":0,"last_update":"0001-01-01T00:00:00Z","name_a2s":"Uncletopia | São Paulo | 1 | All Maps","protocol":17,"map":"cp_snakewater_final1","folder":"tf","game":"Team Fortress","app_id":440,"player_count":0,"max_players":24,"Bots":0,"server_type":"Dedicated","server_os":"Linux","password":true,"vac":true,"version":"7708610","steam_id":85568392924469996,"keywords":["cp","nocrits","nodmgspread","uncletopia"],"game_id":440,"stv_port":27016,"stv_name":"Uncletopia | São Paulo | 1 | All Maps | STV","players":null},{"server_id":143,"name":"Uncletopia | São Paulo | 2 | All Maps","name_short":"sao-2","host":"sao-2.br.uncletopia.com","port":27015,"enabled":true,"region":"sa","cc":"br","latitude":-23.533773,"longitude":-46.62529,"reserved":0,"last_update":"0001-01-01T00:00:00Z","name_a2s":"Uncletopia | São Paulo | 2 | All Maps","protocol":17,"map":"koth_viaduct","folder":"tf","game":"Team Fortress","app_id":440,"player_count":0,"max_players":24,"Bots":0,"server_type":"Dedicated","server_os":"Linux","password":true,"vac":true,"version":"7708610","steam_id":85568392924485349,"keywords":["cp","nocrits","nodmgspread","uncletopia"],"game_id":440,"stv_port":27016,"stv_name":"Uncletopia | São Paulo | 2 | All Maps | STV","players":null},{"server_id":7,"name":"Uncletopia | Seattle | 1 | All Maps","name_short":"sea-1","host":"sea-1.us.uncletopia.com","port":27015,"enabled":true,"region":"us-west","cc":"us","latitude":47.608013,"longitude":-122.33517,"reserved":0,"last_update":"0001-01-01T00:00:00Z","name_a2s":"Uncletopia | Seattle | 1 | All Maps","protocol":17,"map":"cp_sunshine","folder":"tf","game":"Team Fortress","app_id":440,"player_count":13,"max_players":24,"Bots":0,"server_type":"Dedicated","server_os":"Linux","password":true,"vac":true,"version":"7708610","steam_id":85568392924469997,"keywords":["cp","nocrits","nodmgspread","uncletopia"],"game_id":440,"stv_port":27016,"stv_name":"Uncletopia | Seattle | 1 | All Maps | STV","players":[{"user_id":25,"name":"COLOSSAL HOG","steam_id":76561198079923652,"connected_time":838000000000,"state":"active","ping":97},{"user_id":12,"name":"✿ Merry Smismass ✿","steam_id":76561198106938500,"connected_time":1987000000000,"state":"active","ping":85},{"user_id":27,"name":"radio","steam_id":76561198010226481,"connected_time":771000000000,"state":"active","ping":72},{"user_id":6,"name":"ena - d","steam_id":76561198072329335,"connected_time":2022000000000,"state":"active","ping":98},{"user_id":10,"name":"motorized bar of soap","steam_id":76561198882404753,"connected_time":1998000000000,"state":"active","ping":92},{"user_id":11,"name":"Kaui","steam_id":76561198052249003,"connected_time":1997000000000,"state":"active","ping":81},{"user_id":31,"name":"Bobby","steam_id":76561198164004939,"connected_time":122000000000,"state":"active","ping":72},{"user_id":29,"name":"AFuckingNoobAtTF2","steam_id":76561198950340652,"connected_time":497000000000,"state":"active","ping":320},{"user_id":32,"name":"Magnaton with huge titties","steam_id":76561198392249458,"connected_time":90000000000,"state":"active","ping":83},{"user_id":20,"name":"Deck Gaming #BuffTheCaber","steam_id":76561198062383017,"connected_time":1320000000000,"state":"active","ping":120},{"user_id":24,"name":"mommy grinch","steam_id":76561199230929836,"connected_time":856000000000,"state":"active","ping":108},{"user_id":33,"name":"Isopentyl Ethanoate","steam_id":76561198116389072,"connected_time":66000000000,"state":"active","ping":57},{"user_id":28,"name":"Astroa","steam_id":76561199190565830,"connected_time":712000000000,"state":"active","ping":102}]},{"server_id":119,"name":"Uncletopia | Seattle | 2 | All Maps","name_short":"sea-2","host":"sea-1.us.uncletopia.com","port":27025,"enabled":true,"region":"us-west","cc":"us","latitude":47.608013,"longitude":-122.33517,"reserved":0,"last_update":"0001-01-01T00:00:00Z","name_a2s":"Uncletopia | Seattle | 2 | All Maps","protocol":17,"map":"pl_pier","folder":"tf","game":"Team Fortress","app_id":440,"player_count":0,"max_players":24,"Bots":0,"server_type":"Dedicated","server_os":"Linux","password":true,"vac":true,"version":"7708610","steam_id":85568392924469998,"keywords":["nocrits","nodmgspread","payload","uncletopia"],"game_id":440,"stv_port":27026,"stv_name":"Uncletopia | Seattle | 2 | All Maps | STV","players":null},{"server_id":17,"name":"Uncletopia | San Francisco | 1 | All Maps","name_short":"sfo-1","host":"sfo-1.us.uncletopia.com","port":27015,"enabled":true,"region":"us-west","cc":"us","latitude":37.77397,"longitude":-122.4313,"reserved":0,"last_update":"0001-01-01T00:00:00Z","name_a2s":"Uncletopia | San Francisco | 1 | All Maps","protocol":17,"map":"pl_barnblitz","folder":"tf","game":"Team Fortress","app_id":440,"player_count":0,"max_players":24,"Bots":0,"server_type":"Dedicated","server_os":"Linux","password":true,"vac":true,"version":"7708610","steam_id":85568392924469999,"keywords":["nocrits","nodmgspread","payload","uncletopia"],"game_id":440,"stv_port":27016,"stv_name":"Uncletopia | San Francisco | 1 | All Maps | STV","players":null},{"server_id":18,"name":"Uncletopia | San Francisco | 2 | All Maps","name_short":"sfo-2","host":"sfo-1.us.uncletopia.com","port":27025,"enabled":true,"region":"us-west","cc":"us","latitude":37.77397,"longitude":-122.4313,"reserved":0,"last_update":"0001-01-01T00:00:00Z","name_a2s":"Uncletopia | San Francisco | 2 | All Maps","protocol":17,"map":"pl_upward","folder":"tf","game":"Team Fortress","app_id":440,"player_count":0,"max_players":24,"Bots":0,"server_type":"Dedicated","server_os":"Linux","password":true,"vac":true,"version":"7708610","steam_id":85568392924470000,"keywords":["nocrits","nodmgspread","payload","uncletopia"],"game_id":440,"stv_port":27026,"stv_name":"Uncletopia | San Francisco | 2 | All Maps | STV","players":null},{"server_id":19,"name":"Uncletopia | San Francisco | 3 | No Payload","name_short":"sfo-3","host":"sfo-1.us.uncletopia.com","port":27035,"enabled":true,"region":"us-west","cc":"us","latitude":37.77397,"longitude":-122.4313,"reserved":0,"last_update":"0001-01-01T00:00:00Z","name_a2s":"Uncletopia | San Francisco | 3 | No Payload","protocol":17,"map":"pl_borneo","folder":"tf","game":"Team Fortress","app_id":440,"player_count":0,"max_players":24,"Bots":0,"server_type":"Dedicated","server_os":"Linux","password":true,"vac":true,"version":"7708610","steam_id":85568392924742824,"keywords":["nocrits","nodmgspread","payload","uncletopia"],"game_id":440,"stv_port":27036,"stv_name":"Uncletopia | San Francisco | 3 | No Payload | STV","players":null},{"server_id":20,"name":"Uncletopia | San Francisco | 4 | Community","name_short":"sfo-4","host":"sfo-1.us.uncletopia.com","port":27045,"enabled":true,"region":"us-west","cc":"us","latitude":37.77397,"longitude":-122.4313,"reserved":0,"last_update":"0001-01-01T00:00:00Z","name_a2s":"Uncletopia | San Francisco | 4 | Community","protocol":17,"map":"pl_frontier_final","folder":"tf","game":"Team Fortress","app_id":440,"player_count":0,"max_players":24,"Bots":0,"server_type":"Dedicated","server_os":"Linux","password":true,"vac":true,"version":"7708610","steam_id":85568392924742826,"keywords":["nocrits","nodmgspread","payload","uncletopia"],"game_id":440,"stv_port":27046,"stv_name":"Uncletopia | San Francisco | 4 | Community | STV","players":null},{"server_id":141,"name":"Uncletopia | Sydney | 1 | All Maps","name_short":"syd-1","host":"syd-1.au.uncletopia.com","port":27015,"enabled":true,"region":"au","cc":"au","latitude":-33.865143,"longitude":151.2099,"reserved":0,"last_update":"0001-01-01T00:00:00Z","name_a2s":"Uncletopia | Sydney | 1 | All Maps","protocol":17,"map":"koth_lakeside_final","folder":"tf","game":"Team Fortress","app_id":440,"player_count":0,"max_players":24,"Bots":0,"server_type":"Dedicated","server_os":"Linux","password":true,"vac":true,"version":"7708610","steam_id":85568392924470001,"keywords":["cp","nocrits","nodmgspread","uncletopia"],"game_id":440,"stv_port":27016,"stv_name":"Uncletopia | Sydney | 1 | All Maps | STV","players":null},{"server_id":123,"name":"Uncletopia | Sydney | 2 | All Maps","name_short":"syd-2","host":"syd-1.au.uncletopia.com","port":27025,"enabled":true,"region":"au","cc":"au","latitude":-33.865143,"longitude":151.2099,"reserved":0,"last_update":"0001-01-01T00:00:00Z","name_a2s":"Uncletopia | Sydney | 2 | All Maps","protocol":17,"map":"koth_highpass","folder":"tf","game":"Team Fortress","app_id":440,"player_count":0,"max_players":24,"Bots":0,"server_type":"Dedicated","server_os":"Linux","password":true,"vac":true,"version":"7708610","steam_id":85568392924470002,"keywords":["cp","nocrits","nodmgspread","uncletopia"],"game_id":440,"stv_port":27026,"stv_name":"Uncletopia | Sydney | 2 | All Maps | STV","players":null},{"server_id":395,"name":"Uncletopia | Sydney | 3 | All Maps","name_short":"syd-3","host":"syd-1.au.uncletopia.com","port":27035,"enabled":true,"region":"au","cc":"au","latitude":-33.865143,"longitude":151.2099,"reserved":0,"last_update":"0001-01-01T00:00:00Z","name_a2s":"Uncletopia | Sydney | 3 | All Maps","protocol":17,"map":"koth_highpass","folder":"tf","game":"Team Fortress","app_id":440,"player_count":0,"max_players":24,"Bots":0,"server_type":"Dedicated","server_os":"Linux","password":true,"vac":true,"version":"7708610","steam_id":85568392925194467,"keywords":["cp","nocrits","nodmgspread","uncletopia"],"game_id":440,"stv_port":27036,"stv_name":"Uncletopia | Sydney | 3 | All Maps | STV","players":null},{"server_id":396,"name":"Uncletopia | Sydney | 4 | All Maps","name_short":"syd-4","host":"syd-1.au.uncletopia.com","port":27045,"enabled":true,"region":"au","cc":"au","latitude":-33.865143,"longitude":151.2099,"reserved":0,"last_update":"0001-01-01T00:00:00Z","name_a2s":"Uncletopia | Sydney | 4 | All Maps","protocol":17,"map":"pl_badwater","folder":"tf","game":"Team Fortress","app_id":440,"player_count":0,"max_players":24,"Bots":0,"server_type":"Dedicated","server_os":"Linux","password":true,"vac":true,"version":"7708610","steam_id":85568392925397958,"keywords":["nocrits","nodmgspread","payload","uncletopia"],"game_id":440,"stv_port":27046,"stv_name":"Uncletopia | Sydney | 4 | All Maps | STV","players":null},{"server_id":58,"name":"Uncletopia | Sydney | 5 | No Payload","name_short":"syd-5","host":"syd-1.au.uncletopia.com","port":27055,"enabled":true,"region":"au","cc":"au","latitude":-33.865143,"longitude":151.2099,"reserved":0,"last_update":"0001-01-01T00:00:00Z","name_a2s":"Uncletopia | Sydney | 5 | No Payload","protocol":17,"map":"cp_snakewater_final1","folder":"tf","game":"Team Fortress","app_id":440,"player_count":0,"max_players":24,"Bots":0,"server_type":"Dedicated","server_os":"Linux","password":true,"vac":true,"version":"7708610","steam_id":85568392925397959,"keywords":["cp","nocrits","nodmgspread","uncletopia"],"game_id":440,"stv_port":27056,"stv_name":"Uncletopia | Sydney | 5 | No Payload | STV","players":null},{"server_id":59,"name":"Uncletopia | Sydney | 6 | Community","name_short":"syd-6","host":"syd-1.au.uncletopia.com","port":27065,"enabled":true,"region":"au","cc":"au","latitude":-33.865143,"longitude":151.2099,"reserved":0,"last_update":"0001-01-01T00:00:00Z","name_a2s":"Uncletopia | Sydney | 6 | Community","protocol":17,"map":"workshop/koth_ramjam_v2_b2.ugc2865676487","folder":"tf","game":"Team Fortress","app_id":440,"player_count":0,"max_players":24,"Bots":0,"server_type":"Dedicated","server_os":"Linux","password":true,"vac":true,"version":"7708610","steam_id":85568392925397960,"keywords":["cp","nocrits","nodmgspread","uncletopia"],"game_id":440,"stv_port":27066,"stv_name":"Uncletopia | Sydney | 6 | Community | STV","players":null},{"server_id":49,"name":"Uncletopia | Warsaw | 1 | All Maps","name_short":"waw-1","host":"waw-1.pl.uncletopia.com","port":27015,"enabled":true,"region":"eu","cc":"pl","latitude":52.2297,"longitude":21.017532,"reserved":0,"last_update":"0001-01-01T00:00:00Z","name_a2s":"Uncletopia | Warsaw | 1 | All Maps","protocol":17,"map":"koth_cascade","folder":"tf","game":"Team Fortress","app_id":440,"player_count":0,"max_players":24,"Bots":0,"server_type":"Dedicated","server_os":"Linux","password":true,"vac":true,"version":"7708610","steam_id":85568392925397850,"keywords":["cp","nocrits","nodmgspread","uncletopia"],"game_id":440,"stv_port":27016,"stv_name":"Uncletopia | Warsaw | 1 | All Maps | STV","players":null},{"server_id":50,"name":"Uncletopia | Warsaw | 2 | All Maps","name_short":"waw-2","host":"waw-1.pl.uncletopia.com","port":27025,"enabled":true,"region":"eu","cc":"pl","latitude":52.2297,"longitude":21.017532,"reserved":0,"last_update":"0001-01-01T00:00:00Z","name_a2s":"Uncletopia | Warsaw | 2 | All Maps","protocol":17,"map":"pl_barnblitz","folder":"tf","game":"Team Fortress","app_id":440,"player_count":0,"max_players":24,"Bots":0,"server_type":"Dedicated","server_os":"Linux","password":true,"vac":true,"version":"7708610","steam_id":85568392925397851,"keywords":["nocrits","nodmgspread","payload","uncletopia"],"game_id":440,"stv_port":27026,"stv_name":"Uncletopia | Warsaw | 2 | All Maps | STV","players":null},{"server_id":51,"name":"Uncletopia | Warsaw | 3 | All Maps","name_short":"waw-3","host":"waw-1.pl.uncletopia.com","port":27035,"enabled":true,"region":"eu","cc":"pl","latitude":52.2297,"longitude":21.017532,"reserved":0,"last_update":"0001-01-01T00:00:00Z","name_a2s":"Uncletopia | Warsaw | 3 | All Maps","protocol":17,"map":"pl_badwater","folder":"tf","game":"Team Fortress","app_id":440,"player_count":0,"max_players":24,"Bots":0,"server_type":"Dedicated","server_os":"Linux","password":true,"vac":true,"version":"7708610","steam_id":85568392925397852,"keywords":["nocrits","nodmgspread","payload","uncletopia"],"game_id":440,"stv_port":27036,"stv_name":"Uncletopia | Warsaw | 3 | All Maps | STV","players":null},{"server_id":52,"name":"Uncletopia | Warsaw | 4 | All Maps","name_short":"waw-4","host":"waw-1.pl.uncletopia.com","port":27045,"enabled":true,"region":"eu","cc":"pl","latitude":52.2297,"longitude":21.017532,"reserved":0,"last_update":"0001-01-01T00:00:00Z","name_a2s":"Uncletopia | Warsaw | 4 | All Maps","protocol":17,"map":"pl_pier","folder":"tf","game":"Team Fortress","app_id":440,"player_count":0,"max_players":24,"Bots":0,"server_type":"Dedicated","server_os":"Linux","password":true,"vac":true,"version":"7708610","steam_id":85568392925397853,"keywords":["nocrits","nodmgspread","payload","uncletopia"],"game_id":440,"stv_port":27046,"stv_name":"Uncletopia | Warsaw | 4 | All Maps | STV","players":null},{"server_id":53,"name":"Uncletopia | Warsaw | 5 | No Payload","name_short":"waw-5","host":"waw-1.pl.uncletopia.com","port":27055,"enabled":true,"region":"eu","cc":"pl","latitude":52.2297,"longitude":21.017532,"reserved":0,"last_update":"0001-01-01T00:00:00Z","name_a2s":"Uncletopia | Warsaw | 5 | No Payload","protocol":17,"map":"pl_borneo","folder":"tf","game":"Team Fortress","app_id":440,"player_count":0,"max_players":24,"Bots":0,"server_type":"Dedicated","server_os":"Linux","password":true,"vac":true,"version":"7708610","steam_id":85568392925397854,"keywords":["nocrits","nodmgspread","payload","uncletopia"],"game_id":440,"stv_port":27056,"stv_name":"Uncletopia | Warsaw | 5 | No Payload | STV","players":null},{"server_id":54,"name":"Uncletopia | Warsaw | 6 | Community","name_short":"waw-6","host":"waw-1.pl.uncletopia.com","port":27065,"enabled":true,"region":"eu","cc":"pl","latitude":52.2297,"longitude":21.017532,"reserved":0,"last_update":"0001-01-01T00:00:00Z","name_a2s":"Uncletopia | Warsaw | 6 | Community","protocol":17,"map":"pl_swiftwater_final1","folder":"tf","game":"Team Fortress","app_id":440,"player_count":0,"max_players":24,"Bots":0,"server_type":"Dedicated","server_os":"Linux","password":true,"vac":true,"version":"7708610","steam_id":85568392925397856,"keywords":["nocrits","nodmgspread","payload","uncletopia"],"game_id":440,"stv_port":27066,"stv_name":"Uncletopia | Warsaw | 6 | Community | STV","players":null}]}