{"status":true,"message":"","result":[{"server_id":9,"name":"Uncletopia | Atlanta | 1 | All Maps","name_short":"atl-1","host":"atl-1.us.uncletopia.com","port":27015,"enabled":true,"region":"us-east","cc":"us","latitude":33.753746,"longitude":-84.38633,"reserved":0,"last_update":"0001-01-01T00:00:00Z","name_a2s":"Uncletopia | Atlanta | 1 | All Maps","protocol":17,"map":"pl_barnblitz","folder":"tf","game":"Team Fortress","app_id":440,"player_count":24,"max_players":24,"Bots":0,"server_type":"Dedicated","server_os":"Linux","password":true,"vac":true,"version":"7742253","steam_id":85568392924469982,"keywords":["nocrits","nodmgspread","payload","uncletopia"],"game_id":440,"stv_port":27016,"stv_name":"Uncletopia | Atlanta | 1 | All Maps | STV","players":[{"user_id":239,"name":"Jacck916","steam_id":76561198176874157,"connected_time":209000000000,"state":"active","ping":122},{"user_id":212,"name":"extension cord","steam_id":76561198248148760,"connected_time":2116000000000,"state":"active","ping":87},{"user_id":240,"name":"Mellon","steam_id":76561198092509893,"connected_time":199000000000,"state":"active","ping":60},{"user_id":182,"name":"Tonie","steam_id":76561198022261119,"connected_time":4737000000000,"state":"active","ping":123},{"user_id":238,"name":"Sluggzma","steam_id":76561198062956313,"connected_time":256000000000,"state":"active","ping":52},{"user_id":243,"name":"Michael Scarn","steam_id":76561198035740143,"connected_time":131000000000,"state":"active","ping":63},{"user_id":242,"name":"BIG CHEEMUS","steam_id":76561198898366789,"connected_time":138000000000,"state":"active","ping":86},{"user_id":219,"name":"twitch.tv/fembotomy","steam_id":76561198102681457,"connected_time":1229000000000,"state":"active","ping":73},{"user_id":236,"name":"Royal_tm","steam_id":76561198319509387,"connected_time":365000000000,"state":"active","ping":74},{"user_id":220,"name":"Daniel","steam_id":76561199086060699,"connected_time":1116000000000,"state":"active","ping":47},{"user_id":232,"name":"Mr.Mug","steam_id":76561199282207802,"connected_time":554000000000,"state":"active","ping":67},{"user_id":203,"name":"Bunt","steam_id":76561198124477567,"connected_time":2830000000000,"state":"active","ping":41},{"user_id":215,"name":"lost in the sauce","steam_id":76561199043827112,"connected_time":1726000000000,"state":"active","ping":79},{"user_id":199,"name":"Rockhead","steam_id":76561197995196535,"connected_time":2872000000000,"state":"active","ping":69},{"user_id":235,"name":"Amrocto","steam_id":76561198349337097,"connected_time":465000000000,"state":"active","ping":178},{"user_id":222,"name":"SomeRandomPerson (f2p)","steam_id":76561198977045933,"connected_time":975000000000,"state":"active","ping":76},{"user_id":125,"name":"--_Cook_--","steam_id":76561198080855748,"connected_time":10067000000000,"state":"active","ping":63},{"user_id":217,"name":"ATL1 | Kramer","steam_id":76561198083595936,"connected_time":1552000000000,"state":"active","ping":80},{"user_id":196,"name":"G_Bob","steam_id":76561198098133233,"connected_time":3234000000000,"state":"active","ping":70},{"user_id":223,"name":"meghan trainor's bass","steam_id":76561198075858067,"connected_time":924000000000,"state":"active","ping":66},{"user_id":233,"name":"cold","steam_id":76561199017901552,"connected_time":549000000000,"state":"active","ping":73},{"user_id":224,"name":"I_Ate_John_F_Kennedy","steam_id":76561199386157451,"connected_time":916000000000,"state":"active","ping":75},{"user_id":159,"name":"knotsofunny","steam_id":76561198071336304,"connected_time":7299000000000,"state":"active","ping":74},{"user_id":245,"name":"MakutaArty1987","steam_id":76561199048865492,"connected_time":25000000000,"state":"spawning","ping":59}]},{"server_id":400,"name":"Uncletopia | Atlanta | 3 | Stopwatch Beta","name_short":"atl-3","host":"atl-1.us.uncletopia.com","port":27035,"enabled":true,"region":"us-east","cc":"us","latitude":33.753746,"longitude":-84.38633,"reserved":0,"last_update":"0001-01-01T00:00:00Z","name_a2s":"Uncletopia | Atlanta | 3 | Stopwatch Beta","protocol":17,"map":"pl_pier","folder":"tf","game":"Team Fortress","app_id":440,"player_count":0,"max_players":24,"Bots":0,"server_type":"Dedicated","server_os":"Linux","password":true,"vac":true,"version":"7742253","steam_id":85568392924515187,"keywords":["nocrits","nodmgspread","payload","uncletopia"],"game_id":440,"stv_port":27036,"stv_name":"Uncletopia | Atlanta | 3 | Stopwatch Beta | STV","players":null},{"server_id":401,"name":"Uncletopia | Atlanta | 4 | No Payload","name_short":"atl-4","host":"atl-1.us.uncletopia.com","port":27045,"enabled":true,"region":"us-east","cc":"us","latitude":33.753746,"longitude":-84.38633,"reserved":0,"last_update":"0001-01-01T00:00:00Z","name_a2s":"Uncletopia | Atlanta | 4 | No Payload","protocol":17,"map":"pl_pier","folder":"tf","game":"Team Fortress","app_id":440,"player_count":0,"max_players":24,"Bots":0,"server_type":"Dedicated","server_os":"Linux","password":true,"vac":true,"version":"7723704","steam_id":85568392924515188,"keywords":["nocrits","nodmgspread","payload","uncletopia"],"game_id":440,"stv_port":27046,"stv_name":"Uncletopia | Atlanta | 4 | No Payload | STV","players":null},{"server_id":2,"name":"Uncletopia | Chicago | 1 | All Maps","name_short":"chi-1","host":"chi-1.us.uncletopia.com","port":27015,"enabled":true,"region":"us-central","cc":"us","latitude":41.881832,"longitude":-87.62318,"reserved":0,"last_update":"0001-01-01T00:00:00Z","name_a2s":"Uncletopia | Chicago | 1 | All Maps","protocol":17,"map":"pl_upward","folder":"tf","game":"Team Fortress","app_id":440,"player_count":24,"max_players":24,"Bots":0,"server_type":"Dedicated","server_os":"Linux","password":true,"vac":true,"version":"7742253","steam_id":85568392924469984,"keywords":["nocrits","nodmgspread","payload","uncletopia"],"game_id":440,"stv_port":27016,"stv_name":"Uncletopia | Chicago | 1 | All Maps | STV","players":[{"user_id":135,"name":"Pine Tree","steam_id":76561198112323877,"connected_time":633000000000,"state":"active","ping":87},{"user_id":103,"name":"Average Gibus Enjoyer","steam_id":76561198300953867,"connected_time":3439000000000,"state":"active","ping":87},{"user_id":108,"name":"¬°ayudame!","steam_id":76561198071421094,"connected_time":3327000000000,"state":"active","ping":98},{"user_id":129,"name":"Astori√¶!","steam_id":76561199090168858,"connected_time":1069000000000,"state":"active","ping":66},{"user_id":78,"name":"Cyclops_672","steam_id":76561198080169497,"connected_time":5062000000000,"state":"active","ping":52},{"user_id":125,"name":"ctap2lean","steam_id":76561198068538473,"connected_time":1443000000000,"state":"active","ping":77},{"user_id":128,"name":"Nuen","steam_id":76561198936096111,"connected_time":1166000000000,"state":"active","ping":49},{"user_id":82,"name":"walmart","steam_id":76561198068190834,"connected_time":4990000000000,"state":"active","ping":102},{"user_id":101,"name":"cia","steam_id":76561198287124402,"connected_time":3464000000000,"state":"active","ping":78},{"user_id":97,"name":"debin","steam_id":76561198070711217,"connected_time":4084000000000,"state":"active","ping":57},{"user_id":134,"name":"TH-1","steam_id":76561197993467034,"connected_time":682000000000,"state":"active","ping":51},{"user_id":120,"name":"sansa musa","steam_id":76561198163723555,"connected_time":1581000000000,"state":"active","ping":71},{"user_id":58,"name":"‡πáYou got Killed by --\u003e","steam_id":76561198039763676,"connected_time":7013000000000,"state":"active","ping":82},{"user_id":133,"name":"SINNER","steam_id":76561198072179483,"connected_time":848000000000,"state":"active","ping":89},{"user_id":114,"name":"derz","steam_id":76561198010742216,"connected_time":2408000000000,"state":"active","ping":52},{"user_id":116,"name":"QueeQuey","steam_id":76561198117204064,"connected_time":2397000000000,"state":"active","ping":60},{"user_id":115,"name":"TeeTree","steam_id":76561198862307874,"connected_time":2399000000000,"state":"active","ping":65},{"user_id":86,"name":"ccat","steam_id":76561198281773224,"connected_time":4905000000000,"state":"active","ping":76},{"user_id":136,"name":"stop","steam_id":76561198268686419,"connected_time":571000000000,"state":"active","ping":60},{"user_id":124,"name":"no","steam_id":76561198248853140,"connected_time":1543000000000,"state":"active","ping":50},{"user_id":137,"name":"cornealvase9152","steam_id":76561198851958868,"connected_time":551000000000,"state":"active","ping":97},{"user_id":138,"name":"Stretched Dawg","steam_id":76561198986285600,"connected_time":269000000000,"state":"active","ping":85},{"user_id":64,"name":"James","steam_id":76561198081313916,"connected_time":6084000000000,"state":"active","ping":74},{"user_id":127,"name":"Fluffeline","steam_id":76561198352909489,"connected_time":1232000000000,"state":"active","ping":142}]},{"server_id":106,"name":"Uncletopia | Chicago | 2 | All Maps","name_short":"chi-2","host":"chi-1.us.uncletopia.com","port":27025,"enabled":true,"region":"us-central","cc":"us","latitude":41.881832,"longitude":-87.62318,"reserved":0,"last_update":"0001-01-01T00:00:00Z","name_a2s":"Uncletopia | Chicago | 2 | All Maps","protocol":17,"map":"pl_borneo","folder":"tf","game":"Team Fortress","app_id":440,"player_count":24,"max_players":24,"Bots":0,"server_type":"Dedicated","server_os":"Linux","password":true,"vac":true,"version":"7742253","steam_id":85568392924469985,"keywords":["nocrits","nodmgspread","payload","uncletopia"],"game_id":440,"stv_port":27026,"stv_name":"Uncletopia | Chicago | 2 | All Maps | STV","players":[{"user_id":270,"name":"Got Hat?","steam_id":76561197998486431,"connected_time":73000000000,"state":"active","ping":63},{"user_id":258,"name":"quality_ch3ck","steam_id":76561198361132101,"connected_time":634000000000,"state":"active","ping":89},{"user_id":89,"name":"LunarrD","steam_id":76561198811220107,"connected_time":13646000000000,"state":"active","ping":68},{"user_id":254,"name":"Blorgus_J_Blart","steam_id":76561198430926135,"connected_time":717000000000,"state":"active","ping":70},{"user_id":241,"name":"robbob","steam_id":76561198137375391,"connected_time":1819000000000,"state":"active","ping":168},{"user_id":259,"name":"Kataklysm","steam_id":76561199025168404,"connected_time":628000000000,"state":"active","ping":69},{"user_id":243,"name":"McNamJam","steam_id":76561198028128686,"connected_time":1795000000000,"state":"active","ping":92},{"user_id":271,"name":"TheConchinator","steam_id":76561199388149092,"connected_time":48000000000,"state":"active","ping":51},{"user_id":250,"name":"spiders","steam_id":76561198097583088,"connected_time":1135000000000,"state":"active","ping":65},{"user_id":244,"name":"Doky","steam_id":76561199038455164,"connected_time":1790000000000,"state":"active","ping":54},{"user_id":234,"name":"DuckKey","steam_id":76561198904477889,"connected_time":2042000000000,"state":"active","ping":54},{"user_id":227,"name":"Aeris","steam_id":76561198287271028,"connected_time":2376000000000,"state":"active","ping":56},{"user_id":251,"name":"Kronk","steam_id":76561198063092125,"connected_time":1084000000000,"state":"active","ping":73},{"user_id":238,"name":"Walmart Employee","steam_id":76561198840373909,"connected_time":1863000000000,"state":"active","ping":95},{"user_id":267,"name":"lapi","steam_id":76561198302976864,"connected_time":161000000000,"state":"active","ping":75},{"user_id":261,"name":"aigis","steam_id":76561198332079323,"connected_time":527000000000,"state":"active","ping":62},{"user_id":239,"name":"msands","steam_id":76561198968244574,"connected_time":1861000000000,"state":"active","ping":72},{"user_id":272,"name":"Female Gamer","steam_id":76561199366482682,"connected_time":4000000000,"state":"spawning","ping":90},{"user_id":249,"name":"Shrymp","steam_id":76561198130165656,"connected_time":1196000000000,"state":"active","ping":47},{"user_id":269,"name":"Windmills","steam_id":76561198035299715,"connected_time":123000000000,"state":"active","ping":61},{"user_id":262,"name":"cIw","steam_id":76561198078798799,"connected_time":508000000000,"state":"active","ping":152},{"user_id":266,"name":"◊°‚Ç™‚Ç™¬ß|ŒûŒûŒûŒûŒûŒûŒûŒû\u003e","steam_id":76561198328109873,"connected_time":271000000000,"state":"active","ping":98},{"user_id":265,"name":"shake","steam_id":76561199064204750,"connected_time":467000000000,"state":"active","ping":74},{"user_id":225,"name":"Ahsoka :)","steam_id":76561198982584470,"connected_time":2552000000000,"state":"active","ping":101}]},{"server_id":402,"name":"Uncletopia | Chicago | 3 | All Maps","name_short":"chi-3","host":"chi-1.us.uncletopia.com","port":27035,"enabled":true,"region":"us-central","cc":"us","latitude":41.881832,"longitude":-87.62318,"reserved":0,"last_update":"0001-01-01T00:00:00Z","name_a2s":"Uncletopia | Chicago | 3 | All Maps","protocol":17,"map":"koth_viaduct","folder":"tf","game":"Team Fortress","app_id":440,"player_count":1,"max_players":24,"Bots":0,"server_type":"Dedicated","server_os":"Linux","password":true,"vac":true,"version":"7742253","steam_id":85568392924515191,"keywords":["cp","nocrits","nodmgspread","uncletopia"],"game_id":440,"stv_port":27036,"stv_name":"Uncletopia | Chicago | 3 | All Maps | STV","players":[{"user_id":33,"name":"Bird watcher","steam_id":76561199201098634,"connected_time":132000000000,"state":"active","ping":51}]},{"server_id":403,"name":"Uncletopia | Chicago | 4 | All Maps","name_short":"chi-4","host":"chi-1.us.uncletopia.com","port":27045,"enabled":true,"region":"us-central","cc":"us","latitude":41.881832,"longitude":-87.62318,"reserved":0,"last_update":"0001-01-01T00:00:00Z","name_a2s":"Uncletopia | Chicago | 4 | All Maps","protocol":17,"map":"cp_egypt_final","folder":"tf","game":"Team Fortress","app_id":440,"player_count":24,"max_players":24,"Bots":0,"server_type":"Dedicated","server_os":"Linux","password":true,"vac":true,"version":"7742253","steam_id":85568392924515193,"keywords":["cp","nocrits","nodmgspread","uncletopia"],"game_id":440,"stv_port":27046,"stv_name":"Uncletopia | Chicago | 4 | All Maps | STV","players":[{"user_id":198,"name":"Post nut clarity","steam_id":76561198060246831,"connected_time":1025000000000,"state":"active","ping":83},{"user_id":162,"name":"fishi","steam_id":76561198353672875,"connected_time":3564000000000,"state":"active","ping":68},{"user_id":207,"name":"Dramatic","steam_id":76561199012990268,"connected_time":437000000000,"state":"active","ping":60},{"user_id":175,"name":"footoftheday","steam_id":76561198052712449,"connected_time":2327000000000,"state":"active","ping":65},{"user_id":208,"name":"Rhutebeer","steam_id":76561198018302761,"connected_time":401000000000,"state":"active","ping":90},{"user_id":177,"name":"Razz","steam_id":76561198158027533,"connected_time":2280000000000,"state":"active","ping":53},{"user_id":205,"name":"Bo Stunkulus","steam_id":76561198829326796,"connected_time":619000000000,"state":"active","ping":93},{"user_id":179,"name":"Coronel Crunch","steam_id":76561198238862182,"connected_time":2201000000000,"state":"active","ping":153},{"user_id":197,"name":"jackthesipper","steam_id":76561198119679320,"connected_time":1328000000000,"state":"active","ping":60},{"user_id":190,"name":"Zopfir","steam_id":76561199072831538,"connected_time":1798000000000,"state":"active","ping":77},{"user_id":170,"name":"AlbinoRhino","steam_id":76561199192140783,"connected_time":2999000000000,"state":"active","ping":73},{"user_id":181,"name":"Shoe‚Ñ¢","steam_id":76561199114397881,"connected_time":2174000000000,"state":"active","ping":52},{"user_id":216,"name":"Moonshine Man","steam_id":76561198088010073,"connected_time":58000000000,"state":"active","ping":82},{"user_id":159,"name":"Wilhelmktx","steam_id":76561198158102295,"connected_time":3836000000000,"state":"active","ping":57},{"user_id":183,"name":"Duncan Idaho","steam_id":76561197988963861,"connected_time":2143000000000,"state":"active","ping":73},{"user_id":203,"name":"noot noot","steam_id":76561198318446417,"connected_time":714000000000,"state":"active","ping":79},{"user_id":185,"name":"Wild_Rumpus","steam_id":76561198066393719,"connected_time":2067000000000,"state":"active","ping":45},{"user_id":206,"name":"Mortimer Khan","steam_id":76561197968829990,"connected_time":618000000000,"state":"active","ping":80},{"user_id":191,"name":"James_LeFraud23","steam_id":76561198053967778,"connected_time":1791000000000,"state":"active","ping":53},{"user_id":188,"name":"ManWithEducation","steam_id":76561198976250219,"connected_time":2007000000000,"state":"active","ping":59},{"user_id":210,"name":"PrinceGrotle","steam_id":76561198206131603,"connected_time":365000000000,"state":"active","ping":73},{"user_id":213,"name":"the12xu","steam_id":76561198197086561,"connected_time":213000000000,"state":"active","ping":69},{"user_id":187,"name":"bane","steam_id":76561198196769297,"connected_time":2057000000000,"state":"active","ping":58}]},{"server_id":36,"name":"Uncletopia | Chicago | 5 | All Maps","name_short":"chi-5","host":"chi-2.us.uncletopia.com","port":27015,"enabled":true,"region":"us-central","cc":"us","latitude":41.881832,"longitude":-87.62318,"reserved":0,"last_update":"0001-01-01T00:00:00Z","name_a2s":"Uncletopia | Chicago | 5 | All Maps","protocol":17,"map":"cp_sunshine","folder":"tf","game":"Team Fortress","app_id":440,"player_count":24,"max_players":24,"Bots":0,"server_type":"Dedicated","server_os":"Linux","password":true,"vac":true,"version":"7742253","steam_id":85568392924866362,"keywords":["cp","nocrits","nodmgspread","uncletopia"],"game_id":440,"stv_port":27016,"stv_name":"Uncletopia | Chicago | 5 | All Maps | STV","players":[{"user_id":418,"name":"CyborgHexapus4","steam_id":76561198160335724,"connected_time":2793000000000,"state":"active","ping":105},{"user_id":451,"name":"CURB YOUR ENTHUSIASM","steam_id":76561198177893343,"connected_time":1140000000000,"state":"active","ping":74},{"user_id":385,"name":"Dunwich ruler","steam_id":76561199221822667,"connected_time":4231000000000,"state":"active","ping":73},{"user_id":442,"name":"paper","steam_id":76561199075241499,"connected_time":1351000000000,"state":"active","ping":82},{"user_id":433,"name":"Discount","steam_id":76561198228825336,"connected_time":2239000000000,"state":"active","ping":90},{"user_id":443,"name":"Notorious_Pat","steam_id":76561198092348214,"connected_time":1330000000000,"state":"active","ping":53},{"user_id":419,"name":"Fly Man","steam_id":76561198201036790,"connected_time":2686000000000,"state":"active","ping":75},{"user_id":420,"name":"vandeer","steam_id":76561198120124007,"connected_time":2600000000000,"state":"active","ping":75},{"user_id":386,"name":"lost in spaaaaace","steam_id":76561199085974120,"connected_time":4231000000000,"state":"active","ping":73},{"user_id":454,"name":"Tingus Pingus","steam_id":76561198155412348,"connected_time":534000000000,"state":"active","ping":51},{"user_id":422,"name":"Do not [REDACTED] the Fox","steam_id":76561198081971317,"connected_time":2583000000000,"state":"active","ping":51},{"user_id":397,"name":"BARLEY","steam_id":76561198897980736,"connected_time":4014000000000,"state":"active","ping":66},{"user_id":440,"name":"A Random Guy","steam_id":76561198282519457,"connected_time":1445000000000,"state":"active","ping":84},{"user_id":425,"name":"Cledus","steam_id":76561198037071818,"connected_time":2487000000000,"state":"active","ping":72},{"user_id":456,"name":"phx74golden","steam_id":76561199036201022,"connected_time":391000000000,"state":"active","ping":50},{"user_id":452,"name":"Marcy2231","steam_id":76561198202323656,"connected_time":906000000000,"state":"active","ping":78},{"user_id":445,"name":"apple2noob","steam_id":76561199048944120,"connected_time":1299000000000,"state":"active","ping":76},{"user_id":208,"name":"The Caretaker","steam_id":76561198125241411,"connected_time":13454000000000,"state":"active","ping":114},{"user_id":439,"name":"jrdoran","steam_id":76561197984753094,"connected_time":1460000000000,"state":"active","ping":54},{"user_id":446,"name":"Robyn Goodfellowe","steam_id":76561198074719241,"connected_time":1282000000000,"state":"active","ping":62},{"user_id":428,"name":"The cringefest ‚ô•","steam_id":76561198840872782,"connected_time":2476000000000,"state":"active","ping":66},{"user_id":448,"name":"freya!","steam_id":76561198966232220,"connected_time":1243000000000,"state":"active","ping":133},{"user_id":453,"name":"All Tomorrow's Parties","steam_id":76561197995936212,"connected_time":770000000000,"state":"active","ping":46},{"user_id":450,"name":"OrangeShoes","steam_id":76561197971249940,"connected_time":1224000000000,"state":"active","ping":54}]},{"server_id":37,"name":"Uncletopia | Chicago | 6 | All Maps","name_short":"chi-6","host":"chi-2.us.uncletopia.com","port":27025,"enabled":true,"region":"us-central","cc":"us","latitude":41.881832,"longitude":-87.62318,"reserved":0,"last_update":"0001-01-01T00:00:00Z","name_a2s":"Uncletopia | Chicago | 6 | All Maps","protocol":17,"map":"cp_mountainlab","folder":"tf","game":"Team Fortress","app_id":440,"player_count":0,"max_players":24,"Bots":0,"server_type":"Dedicated","server_os":"Linux","password":true,"vac":true,"version":"7742253","steam_id":85568392924866363,"keywords":["cp","nocrits","nodmgspread","uncletopia"],"game_id":440,"stv_port":27026,"stv_name":"Uncletopia | Chicago | 6 | All Maps | STV","players":null},{"server_id":38,"name":"Uncletopia | Chicago | 7 | Stopwatch Beta","name_short":"chi-7","host":"chi-2.us.uncletopia.com","port":27035,"enabled":true,"region":"us-central","cc":"us","latitude":41.881832,"longitude":-87.62318,"reserved":0,"last_update":"0001-01-01T00:00:00Z","name_a2s":"Uncletopia | Chicago | 7 | Stopwatch Beta","protocol":17,"map":"koth_lakeside_final","folder":"tf","game":"Team Fortress","app_id":440,"player_count":0,"max_players":24,"Bots":0,"server_type":"Dedicated","server_os":"Linux","password":true,"vac":true,"version":"7742253","steam_id":85568392924866364,"keywords":["cp","nocrits","nodmgspread","uncletopia"],"game_id":440,"stv_port":27036,"stv_name":"Uncletopia | Chicago | 7 | Stopwatch Beta | STV","players":null},{"server_id":39,"name":"Uncletopia | Chicago | 8 | Community","name_short":"chi-8","host":"chi-2.us.uncletopia.com","port":27045,"enabled":true,"region":"us-central","cc":"us","latitude":41.881832,"longitude":-87.62318,"reserved":0,"last_update":"0001-01-01T00:00:00Z","name_a2s":"Uncletopia | Chicago | 8 | Community","protocol":17,"map":"koth_lakeside_final","folder":"tf","game":"Team Fortress","app_id":440,"player_count":0,"max_players":24,"Bots":0,"server_type":"Dedicated","server_os":"Linux","password":true,"vac":true,"version":"7742253","steam_id":85568392924866365,"keywords":["cp","nocrits","nodmgspread","uncletopia"],"game_id":440,"stv_port":27046,"stv_name":"Uncletopia | Chicago | 8 | Community | STV","players":null},{"server_id":8,"name":"Uncletopia | Dallas | 1 | All Maps","name_short":"dal-1","host":"dal-1.us.uncletopia.com","port":27015,"enabled":true,"region":"us-central","cc":"us","latitude":32.779167,"longitude":-96.80889,"reserved":0,"last_update":"0001-01-01T00:00:00Z","name_a2s":"Uncletopia | Dallas | 1 | All Maps","protocol":17,"map":"cp_mossrock","folder":"tf","game":"Team Fortress","app_id":440,"player_count":24,"max_players":24,"Bots":0,"server_type":"Dedicated","server_os":"Linux","password":true,"vac":true,"version":"7742253","steam_id":85568392924469986,"keywords":["cp","nocrits","nodmgspread","uncletopia"],"game_id":440,"stv_port":27016,"stv_name":"Uncletopia | Dallas | 1 | All Maps | STV","players":[{"user_id":147,"name":"‚ô•Mossbuckets‚ô•","steam_id":76561198365188929,"connected_time":1268000000000,"state":"active","ping":64},{"user_id":159,"name":"‚ô• StrawBerry ‚ô•","steam_id":76561198253469869,"connected_time":591000000000,"state":"active","ping":161},{"user_id":156,"name":"TrashVortex","steam_id":76561199229200288,"connected_time":765000000000,"state":"active","ping":61},{"user_id":149,"name":"Quill","steam_id":76561198256457993,"connected_time":1247000000000,"state":"active","ping":77},{"user_id":126,"name":"Meh but good","steam_id":76561199005772246,"connected_time":2734000000000,"state":"active","ping":70},{"user_id":158,"name":"Jess","steam_id":76561199135927968,"connected_time":732000000000,"state":"active","ping":72},{"user_id":98,"name":"Galv3z","steam_id":76561198141493550,"connected_time":5154000000000,"state":"active","ping":102},{"user_id":150,"name":"THE CUM WIZARD","steam_id":76561198131532406,"connected_time":1177000000000,"state":"active","ping":83},{"user_id":51,"name":"Echo Gaming","steam_id":76561198242890502,"connected_time":8243000000000,"state":"active","ping":60},{"user_id":139,"name":"Riff","steam_id":76561198066921423,"connected_time":1629000000000,"state":"active","ping":63},{"user_id":79,"name":"Moonflower ‚ú¶","steam_id":76561198191782483,"connected_time":6247000000000,"state":"active","ping":55},{"user_id":157,"name":"Drowse","steam_id":76561198029794548,"connected_time":735000000000,"state":"active","ping":80},{"user_id":108,"name":"sunlust","steam_id":76561198265633146,"connected_time":4502000000000,"state":"active","ping":71},{"user_id":151,"name":"The Blind Burger","steam_id":76561199086396707,"connected_time":1112000000000,"state":"active","ping":91},{"user_id":132,"name":"McDumDum","steam_id":76561198040738807,"connected_time":2263000000000,"state":"active","ping":50},{"user_id":160,"name":"TTV.uzzler","steam_id":76561198174286965,"connected_time":189000000000,"state":"active","ping":62},{"user_id":152,"name":"Wise Guy","steam_id":76561198134657114,"connected_time":1105000000000,"state":"active","ping":74},{"user_id":133,"name":"DUCKS DUCKS DUCKS DUCKS","steam_id":76561198107486812,"connected_time":2244000000000,"state":"active","ping":72},{"user_id":153,"name":"Krilldyn","steam_id":76561198384298361,"connected_time":1102000000000,"state":"active","ping":60},{"user_id":135,"name":"Red","steam_id":76561198031865869,"connected_time":1974000000000,"state":"active","ping":62},{"user_id":154,"name":"Phat_nibba29","steam_id":76561198165661855,"connected_time":1021000000000,"state":"active","ping":68},{"user_id":155,"name":"Null","steam_id":76561198410988985,"connected_time":916000000000,"state":"active","ping":184},{"user_id":127,"name":"Faust main","steam_id":76561198971799149,"connected_time":2596000000000,"state":"active","ping":64},{"user_id":47,"name":"NovaMonkey","steam_id":76561198157828317,"connected_time":8591000000000,"state":"active","ping":80}]},{"server_id":108,"name":"Uncletopia | Dallas | 2 | All Maps","name_short":"dal-2","host":"dal-1.us.uncletopia.com","port":27025,"enabled":true,"region":"us-central","cc":"us","latitude":32.779167,"longitude":-96.80889,"reserved":0,"last_update":"0001-01-01T00:00:00Z","name_a2s":"Uncletopia | Dallas | 2 | All Maps","protocol":17,"map":"pl_pier","folder":"tf","game":"Team Fortress","app_id":440,"player_count":24,"max_players":24,"Bots":0,"server_type":"Dedicated","server_os":"Linux","password":true,"vac":true,"version":"7742253","steam_id":85568392924469988,"keywords":["nocrits","nodmgspread","payload","uncletopia"],"game_id":440,"stv_port":27026,"stv_name":"Uncletopia | Dallas | 2 | All Maps | STV","players":[{"user_id":198,"name":"ChillaryClinton","steam_id":76561198119243964,"connected_time":2993000000000,"state":"active","ping":74},{"user_id":222,"name":"Sanic_Bum","steam_id":76561198094179822,"connected_time":446000000000,"state":"active","ping":75},{"user_id":207,"name":"DiamondCrossesDiamondCross ‚ô∞","steam_id":76561199430457546,"connected_time":1938000000000,"state":"active","ping":108},{"user_id":221,"name":"FreshlyBrewed","steam_id":76561198181099881,"connected_time":501000000000,"state":"active","ping":66},{"user_id":124,"name":"Yiff Police","steam_id":76561198103938356,"connected_time":7987000000000,"state":"active","ping":63},{"user_id":212,"name":"Fredfredfood","steam_id":76561198072824802,"connected_time":1550000000000,"state":"active","ping":74},{"user_id":216,"name":"Beastdocter #SaveTF2","steam_id":76561198272351816,"connected_time":892000000000,"state":"active","ping":88},{"user_id":193,"name":"GlazingDonut","steam_id":76561198847420641,"connected_time":3201000000000,"state":"active","ping":60},{"user_id":217,"name":"Commissar","steam_id":76561198137223253,"connected_time":835000000000,"state":"active","ping":47},{"user_id":223,"name":"Shmish","steam_id":76561197966078491,"connected_time":263000000000,"state":"active","ping":101},{"user_id":213,"name":"Obamacare","steam_id":76561198018894553,"connected_time":1509000000000,"state":"active","ping":72},{"user_id":170,"name":"Whoa","steam_id":76561197970353496,"connected_time":3973000000000,"state":"active","ping":80},{"user_id":220,"name":"sly1","steam_id":76561198049014977,"connected_time":697000000000,"state":"active","ping":91},{"user_id":200,"name":"okeycold","steam_id":76561199063896616,"connected_time":2943000000000,"state":"active","ping":69},{"user_id":196,"name":"eBay","steam_id":76561198061214569,"connected_time":3120000000000,"state":"active","ping":85},{"user_id":181,"name":"Wengatang","steam_id":76561198021747059,"connected_time":3650000000000,"state":"active","ping":68},{"user_id":205,"name":"Gamebun üêá","steam_id":76561197998855425,"connected_time":2375000000000,"state":"active","ping":36},{"user_id":208,"name":"Johnny Lawrence #JohnnyMaxxing","steam_id":76561199367141671,"connected_time":1908000000000,"state":"active","ping":89},{"user_id":202,"name":"EGGOG","steam_id":76561198061430457,"connected_time":2720000000000,"state":"active","ping":45},{"user_id":146,"name":"Lolxdloldx","steam_id":76561198136887125,"connected_time":6062000000000,"state":"active","ping":73},{"user_id":215,"name":"xZackAttack27x","steam_id":76561198035446639,"connected_time":1322000000000,"state":"active","ping":45},{"user_id":219,"name":"IloveBacon","steam_id":76561198860703450,"connected_time":813000000000,"state":"active","ping":59},{"user_id":178,"name":"SirTaxEvasion","steam_id":76561199117781098,"connected_time":3891000000000,"state":"active","ping":96},{"user_id":214,"name":"LuciD","steam_id":76561198242842394,"connected_time":1473000000000,"state":"active","ping":73}]},{"server_id":5,"name":"Uncletopia | Frankfurt | 1 | All Maps","name_short":"frk-1","host":"frk-1.de.uncletopia.com","port":27015,"enabled":true,"region":"eu","cc":"de","latitude":50.110924,"longitude":8.682127,"reserved":0,"last_update":"0001-01-01T00:00:00Z","name_a2s":"Uncletopia | Frankfurt | 1 | All Maps","protocol":17,"map":"pl_snowycoast","folder":"tf","game":"Team Fortress","app_id":440,"player_count":24,"max_players":24,"Bots":0,"server_type":"Dedicated","server_os":"Linux","password":true,"vac":true,"version":"7742253","steam_id":85568392924469989,"keywords":["nocrits","nodmgspread","payload","uncletopia"],"game_id":440,"stv_port":27016,"stv_name":"Uncletopia | Frankfurt | 1 | All Maps | STV","players":[{"user_id":793,"name":"AWJ ÀÜ-ÀÜ","steam_id":76561198053628243,"connected_time":273000000000,"state":"active","ping":60},{"user_id":782,"name":"where is my egg?","steam_id":76561198172542535,"connected_time":1370000000000,"state":"active","ping":76},{"user_id":789,"name":"MrBanana","steam_id":76561198116021623,"connected_time":397000000000,"state":"active","ping":46},{"user_id":766,"name":"eeeeee","steam_id":76561198017786875,"connected_time":2633000000000,"state":"active","ping":48},{"user_id":778,"name":"flappi","steam_id":76561198072892783,"connected_time":1419000000000,"state":"active","ping":60},{"user_id":720,"name":"CRWND","steam_id":76561198329810027,"connected_time":5476000000000,"state":"active","ping":55},{"user_id":779,"name":"stuntz","steam_id":76561197974814348,"connected_time":1401000000000,"state":"active","ping":77},{"user_id":736,"name":"straight gaymer","steam_id":76561198889951551,"connected_time":4459000000000,"state":"active","ping":69},{"user_id":762,"name":"MGA","steam_id":76561198006762849,"connected_time":2982000000000,"state":"active","ping":51},{"user_id":756,"name":"NiNY√É","steam_id":76561197995685294,"connected_time":3131000000000,"state":"active","ping":66},{"user_id":775,"name":"‚ôø","steam_id":76561198078808300,"connected_time":1545000000000,"state":"active","ping":58},{"user_id":767,"name":"Carrotcracker","steam_id":76561198034862396,"connected_time":2578000000000,"state":"active","ping":55},{"user_id":774,"name":"tshirt","steam_id":76561198040757844,"connected_time":1681000000000,"state":"active","ping":75},{"user_id":698,"name":"Cippo95","steam_id":76561198255311582,"connected_time":6707000000000,"state":"active","ping":75},{"user_id":735,"name":"Dooble donk man look at me donk","steam_id":76561198225523596,"connected_time":4600000000000,"state":"active","ping":64},{"user_id":787,"name":"Sneakykindaham","steam_id":76561198158743287,"connected_time":690000000000,"state":"active","ping":60},{"user_id":792,"name":"D14F","steam_id":76561198838246851,"connected_time":294000000000,"state":"active","ping":56},{"user_id":739,"name":"glyph","steam_id":76561197980736364,"connected_time":4406000000000,"state":"active","ping":76},{"user_id":752,"name":"Mr.Bread","steam_id":76561199228345718,"connected_time":3230000000000,"state":"active","ping":107},{"user_id":784,"name":"BeS","steam_id":76561198045752247,"connected_time":1200000000000,"state":"active","ping":58},{"user_id":794,"name":"denji741games","steam_id":76561198067499762,"connected_time":90000000000,"state":"active","ping":85},{"user_id":771,"name":"„ÑöÂçÇ‰πÉ„Ññ‰∏®ÂçÉÂçÇ‰πÉ„Ñ©","steam_id":76561198174160738,"connected_time":2514000000000,"state":"active","ping":60},{"user_id":795,"name":"Daddy Donovan","steam_id":76561198140938904,"connected_time":47000000000,"state":"active","ping":68},{"user_id":772,"name":"„ÉÜ„Ç§„É´„Çπ","steam_id":76561198022403271,"connected_time":2142000000000,"state":"active","ping":45}]},{"server_id":110,"name":"Uncletopia | Frankfurt | 2 | All Maps","name_short":"frk-2","host":"frk-1.de.uncletopia.com","port":27025,"enabled":true,"region":"eu","cc":"de","latitude":50.110924,"longitude":8.682127,"reserved":0,"last_update":"0001-01-01T00:00:00Z","name_a2s":"Uncletopia | Frankfurt | 2 | All Maps","protocol":17,"map":"pl_frontier_final","folder":"tf","game":"Team Fortress","app_id":440,"player_count":0,"max_players":24,"Bots":0,"server_type":"Dedicated","server_os":"Linux","password":true,"vac":true,"version":"7742253","steam_id":85568392924469990,"keywords":["nocrits","nodmgspread","payload","uncletopia"],"game_id":440,"stv_port":27026,"stv_name":"Uncletopia | Frankfurt | 2 | All Maps | STV","players":null},{"server_id":308,"name":"Uncletopia | Frankfurt | 3 | All Maps","name_short":"frk-3","host":"frk-1.de.uncletopia.com","port":27035,"enabled":true,"region":"eu","cc":"de","latitude":50.110924,"longitude":8.682127,"reserved":0,"last_update":"0001-01-01T00:00:00Z","name_a2s":"Uncletopia | Frankfurt | 3 | All Maps","protocol":17,"map":"pl_badwater","folder":"tf","game":"Team Fortress","app_id":440,"player_count":24,"max_players":24,"Bots":0,"server_type":"Dedicated","server_os":"Linux","password":true,"vac":true,"version":"7742253","steam_id":85568392924504274,"keywords":["nocrits","nodmgspread","payload","uncletopia"],"game_id":440,"stv_port":27036,"stv_name":"Uncletopia | Frankfurt | 3 | All Maps | STV","players":[{"user_id":185,"name":"Boyarishnik","steam_id":76561198986324207,"connected_time":1182000000000,"state":"active","ping":74},{"user_id":148,"name":"reshiram","steam_id":76561198059782462,"connected_time":5447000000000,"state":"active","ping":46},{"user_id":154,"name":"Kaero","steam_id":76561197998641279,"connected_time":4792000000000,"state":"active","ping":55},{"user_id":159,"name":"trite","steam_id":76561197983765323,"connected_time":4257000000000,"state":"active","ping":59},{"user_id":192,"name":"AforeKingDwarf","steam_id":76561198043562926,"connected_time":482000000000,"state":"active","ping":57},{"user_id":194,"name":"Iru","steam_id":76561198077602040,"connected_time":158000000000,"state":"active","ping":60},{"user_id":112,"name":"Gravity‚Ñ¢","steam_id":76561197992193212,"connected_time":7930000000000,"state":"active","ping":59},{"user_id":182,"name":"Goobie","steam_id":76561198047375383,"connected_time":1945000000000,"state":"active","ping":60},{"user_id":161,"name":"Mr. Sam","steam_id":76561198071082937,"connected_time":4129000000000,"state":"active","ping":58},{"user_id":149,"name":"the joy of recycling","steam_id":76561198415564349,"connected_time":5426000000000,"state":"active","ping":74},{"user_id":181,"name":"zero","steam_id":76561198055365234,"connected_time":2064000000000,"state":"active","ping":79},{"user_id":153,"name":"Miton","steam_id":76561197970323209,"connected_time":5014000000000,"state":"active","ping":88},{"user_id":169,"name":"MAKENTAKEN","steam_id":76561199127359587,"connected_time":3708000000000,"state":"active","ping":95},{"user_id":70,"name":"X-tis","steam_id":76561198043837480,"connected_time":10518000000000,"state":"active","ping":79},{"user_id":71,"name":"Fat Pigeon","steam_id":76561198817940142,"connected_time":10497000000000,"state":"active","ping":52},{"user_id":163,"name":"SleyGD","steam_id":76561198215723856,"connected_time":4116000000000,"state":"active","ping":50},{"user_id":186,"name":"swiffie","steam_id":76561198226286700,"connected_time":1172000000000,"state":"active","ping":75},{"user_id":187,"name":"SIGMA BALLS","steam_id":76561198302623594,"connected_time":1136000000000,"state":"active","ping":94},{"user_id":189,"name":"chinglao","steam_id":76561198126595103,"connected_time":634000000000,"state":"active","ping":56},{"user_id":165,"name":"Pain in a Box","steam_id":76561197990777173,"connected_time":4020000000000,"state":"active","ping":66},{"user_id":190,"name":"Robert","steam_id":76561198116074078,"connected_time":506000000000,"state":"active","ping":40},{"user_id":193,"name":"‚ô¨ ·¥õ·¥á·¥ã…™·¥õ ‚ô¨","steam_id":76561198111704722,"connected_time":339000000000,"state":"active","ping":81},{"user_id":184,"name":"Luca Nervi","steam_id":76561198015871883,"connected_time":1216000000000,"state":"active","ping":66},{"user_id":168,"name":"DeCypher","steam_id":76561198171992619,"connected_time":3961000000000,"state":"active","ping":67}]},{"server_id":309,"name":"Uncletopia | Frankfurt | 4 | All Maps","name_short":"frk-4","host":"frk-1.de.uncletopia.com","port":27045,"enabled":true,"region":"eu","cc":"de","latitude":50.110924,"longitude":8.682127,"reserved":0,"last_update":"0001-01-01T00:00:00Z","name_a2s":"Uncletopia | Frankfurt | 4 | All Maps","protocol":17,"map":"pl_pier","folder":"tf","game":"Team Fortress","app_id":440,"player_count":24,"max_players":24,"Bots":0,"server_type":"Dedicated","server_os":"Linux","password":true,"vac":true,"version":"7742253","steam_id":85568392924504275,"keywords":["nocrits","nodmgspread","payload","uncletopia"],"game_id":440,"stv_port":27046,"stv_name":"Uncletopia | Frankfurt | 4 | All Maps | STV","players":[{"user_id":173,"name":"Yony","steam_id":76561199070569941,"connected_time":789000000000,"state":"active","ping":59},{"user_id":153,"name":"Proofmean","steam_id":76561198878552103,"connected_time":1675000000000,"state":"active","ping":54},{"user_id":154,"name":"Volcyy","steam_id":76561198063979124,"connected_time":1667000000000,"state":"active","ping":44},{"user_id":170,"name":"trexwithlasereyes ü•ö","steam_id":76561198417276908,"connected_time":881000000000,"state":"active","ping":67},{"user_id":180,"name":"Wyvern786","steam_id":76561199137770636,"connected_time":497000000000,"state":"active","ping":61},{"user_id":172,"name":"saarfaarsik","steam_id":76561198043684537,"connected_time":823000000000,"state":"active","ping":50},{"user_id":182,"name":"Bepperman","steam_id":76561198397517828,"connected_time":234000000000,"state":"active","ping":72},{"user_id":157,"name":"Naty","steam_id":76561198083488307,"connected_time":1507000000000,"state":"active","ping":75},{"user_id":89,"name":"·óúÀ∞·óú","steam_id":76561198148074472,"connected_time":6142000000000,"state":"active","ping":40},{"user_id":184,"name":"ivanmixo","steam_id":76561198160213989,"connected_time":179000000000,"state":"active","ping":65},{"user_id":175,"name":"dan.","steam_id":76561198098572024,"connected_time":765000000000,"state":"active","ping":62},{"user_id":176,"name":"smell_my_cheese","steam_id":76561198008517427,"connected_time":758000000000,"state":"active","ping":61},{"user_id":126,"name":"ZENISHIRA","steam_id":76561198148357250,"connected_time":3760000000000,"state":"active","ping":84},{"user_id":177,"name":"cheesepunkey","steam_id":76561198023211417,"connected_time":750000000000,"state":"active","ping":61},{"user_id":186,"name":"Abeiku","steam_id":76561198170616786,"connected_time":67000000000,"state":"spawning","ping":89},{"user_id":171,"name":"Yengozi","steam_id":76561198448764748,"connected_time":864000000000,"state":"active","ping":168},{"user_id":166,"name":"ra","steam_id":76561198147277460,"connected_time":1105000000000,"state":"active","ping":57},{"user_id":137,"name":"night.s","steam_id":76561198326287823,"connected_time":3079000000000,"state":"active","ping":74},{"user_id":132,"name":"Gryoss","steam_id":76561197999837111,"connected_time":3526000000000,"state":"active","ping":96},{"user_id":183,"name":"Mr.4kb","steam_id":76561198027916127,"connected_time":212000000000,"state":"active","ping":52},{"user_id":98,"name":"tm","steam_id":76561198256619964,"connected_time":5456000000000,"state":"active","ping":75},{"user_id":179,"name":"VWave","steam_id":76561198123841262,"connected_time":690000000000,"state":"active","ping":75},{"user_id":187,"name":"Dr. Mario","steam_id":76561199125182282,"connected_time":64000000000,"state":"active","ping":49},{"user_id":181,"name":":\u003e","steam_id":76561198237588932,"connected_time":324000000000,"state":"active","ping":60}]},{"server_id":310,"name":"Uncletopia | Frankfurt | 5 | All Maps","name_short":"frk-5","host":"frk-1.de.uncletopia.com","port":27055,"enabled":true,"region":"eu","cc":"de","latitude":50.110924,"longitude":8.682127,"reserved":0,"last_update":"0001-01-01T00:00:00Z","name_a2s":"Uncletopia | Frankfurt | 5 | All Maps","protocol":17,"map":"pl_barnblitz","folder":"tf","game":"Team Fortress","app_id":440,"player_count":24,"max_players":24,"Bots":0,"server_type":"Dedicated","server_os":"Linux","password":true,"vac":true,"version":"7742253","steam_id":85568392924504277,"keywords":["nocrits","nodmgspread","payload","uncletopia"],"game_id":440,"stv_port":27056,"stv_name":"Uncletopia | Frankfurt | 5 | All Maps | STV","players":[{"user_id":382,"name":"gEyfrogsE","steam_id":76561199385772902,"connected_time":2864000000000,"state":"active","ping":75},{"user_id":383,"name":"Mankor","steam_id":76561198020439322,"connected_time":2708000000000,"state":"active","ping":45},{"user_id":415,"name":"Bonca","steam_id":76561198137503531,"connected_time":333000000000,"state":"active","ping":78},{"user_id":420,"name":"gfjhsdf","steam_id":76561198136736426,"connected_time":79000000000,"state":"active","ping":51},{"user_id":409,"name":"hamozzled","steam_id":76561198399455531,"connected_time":575000000000,"state":"active","ping":75},{"user_id":422,"name":"Dill Killem","steam_id":76561199071571354,"connected_time":57000000000,"state":"active","ping":58},{"user_id":346,"name":"BitterStep","steam_id":76561199103959197,"connected_time":5300000000000,"state":"active","ping":91},{"user_id":390,"name":"yuh","steam_id":76561199005555839,"connected_time":1786000000000,"state":"active","ping":64},{"user_id":392,"name":"Raxor","steam_id":76561198239927434,"connected_time":1681000000000,"state":"active","ping":90},{"user_id":421,"name":"Antonio Gilipollas Caraculo","steam_id":76561198412197820,"connected_time":66000000000,"state":"active","ping":84},{"user_id":393,"name":"Miiukade","steam_id":76561198089157860,"connected_time":1628000000000,"state":"active","ping":138},{"user_id":417,"name":"ScarredPixel123","steam_id":76561199165112703,"connected_time":128000000000,"state":"active","ping":260},{"user_id":389,"name":"Old Man Winter","steam_id":76561198007653168,"connected_time":1839000000000,"state":"active","ping":70},{"user_id":412,"name":"AlexJetex","steam_id":76561198065403963,"connected_time":560000000000,"state":"active","ping":86},{"user_id":410,"name":"Baklava Enjoyer","steam_id":76561198990679631,"connected_time":572000000000,"state":"active","ping":77},{"user_id":416,"name":"nyanezt","steam_id":76561198253734265,"connected_time":310000000000,"state":"active","ping":100},{"user_id":413,"name":"Burpman","steam_id":76561198022897937,"connected_time":491000000000,"state":"active","ping":62},{"user_id":402,"name":"Butt Hurling","steam_id":76561198093229786,"connected_time":1148000000000,"state":"active","ping":67},{"user_id":411,"name":"w3doee","steam_id":76561198046982508,"connected_time":571000000000,"state":"active","ping":75},{"user_id":347,"name":"Smashy_3","steam_id":76561198946398831,"connected_time":5222000000000,"state":"active","ping":52},{"user_id":418,"name":"sleep","steam_id":76561198049652518,"connected_time":126000000000,"state":"active","ping":67},{"user_id":371,"name":"Cypher","steam_id":76561199015470141,"connected_time":3906000000000,"state":"active","ping":60},{"user_id":403,"name":"simn","steam_id":76561198159182269,"connected_time":989000000000,"state":"active","ping":57},{"user_id":401,"name":"Chainfire","steam_id":76561198120774329,"connected_time":1389000000000,"state":"active","ping":113}]},{"server_id":311,"name":"Uncletopia | Frankfurt | 6 | All Maps","name_short":"frk-6","host":"frk-1.de.uncletopia.com","port":27065,"enabled":true,"region":"eu","cc":"de","latitude":50.110924,"longitude":8.682127,"reserved":0,"last_update":"0001-01-01T00:00:00Z","name_a2s":"Uncletopia | Frankfurt | 6 | All Maps","protocol":17,"map":"pl_pier","folder":"tf","game":"Team Fortress","app_id":440,"player_count":22,"max_players":24,"Bots":0,"server_type":"Dedicated","server_os":"Linux","password":true,"vac":true,"version":"7742253","steam_id":85568392924504278,"keywords":["nocrits","nodmgspread","payload","uncletopia"],"game_id":440,"stv_port":27066,"stv_name":"Uncletopia | Frankfurt | 6 | All Maps | STV","players":[{"user_id":439,"name":"Poodle","steam_id":76561198015483504,"connected_time":1581000000000,"state":"active","ping":66},{"user_id":402,"name":"jumanji","steam_id":76561199061441036,"connected_time":4369000000000,"state":"active","ping":52},{"user_id":411,"name":"Mi Manchi","steam_id":76561198171573129,"connected_time":3368000000000,"state":"active","ping":59},{"user_id":461,"name":"Coach","steam_id":76561198090835995,"connected_time":318000000000,"state":"active","ping":71},{"user_id":455,"name":"zinzyk","steam_id":76561198128011822,"connected_time":698000000000,"state":"active","ping":59},{"user_id":433,"name":"nogavec","steam_id":76561199095329565,"connected_time":1958000000000,"state":"active","ping":58},{"user_id":448,"name":"Hasamnas","steam_id":76561199125038537,"connected_time":1092000000000,"state":"active","ping":54},{"user_id":350,"name":"agent youppii","steam_id":76561198055264447,"connected_time":7961000000000,"state":"active","ping":68},{"user_id":397,"name":"Koli","steam_id":76561197992428783,"connected_time":5019000000000,"state":"active","ping":56},{"user_id":427,"name":"big gus","steam_id":76561198041660675,"connected_time":2747000000000,"state":"active","ping":84},{"user_id":457,"name":"Edshot Machine","steam_id":76561198319969180,"connected_time":662000000000,"state":"active","ping":62},{"user_id":354,"name":"Vershal Smershal","steam_id":76561198116223995,"connected_time":7443000000000,"state":"active","ping":60},{"user_id":445,"name":"Unemployedcamel","steam_id":76561198103908668,"connected_time":1175000000000,"state":"active","ping":75},{"user_id":460,"name":"ZeeRoll","steam_id":76561198131129970,"connected_time":477000000000,"state":"active","ping":80},{"user_id":458,"name":"Maximus","steam_id":76561198032472655,"connected_time":623000000000,"state":"active","ping":52},{"user_id":434,"name":"dddd","steam_id":76561198120894372,"connected_time":1946000000000,"state":"active","ping":103},{"user_id":454,"name":"tealoverr.190","steam_id":76561199028497703,"connected_time":887000000000,"state":"active","ping":101},{"user_id":459,"name":"sergiazo","steam_id":76561199081954697,"connected_time":569000000000,"state":"active","ping":71},{"user_id":408,"name":"Dr.Vladibummbias Ali","steam_id":76561198311299320,"connected_time":4136000000000,"state":"active","ping":58},{"user_id":444,"name":"Use The Finger","steam_id":76561198050203563,"connected_time":1299000000000,"state":"active","ping":74},{"user_id":425,"name":"nobody","steam_id":76561198180637374,"connected_time":2872000000000,"state":"active","ping":81}]},{"server_id":23,"name":"Uncletopia | Frankfurt | 7 | Stopwatch Beta","name_short":"frk-7","host":"frk-1.de.uncletopia.com","port":27075,"enabled":true,"region":"eu","cc":"de","latitude":50.110924,"longitude":8.682127,"reserved":0,"last_update":"0001-01-01T00:00:00Z","name_a2s":"Uncletopia | Frankfurt | 7 | Stopwatch Beta","protocol":17,"map":"pl_badwater","folder":"tf","game":"Team Fortress","app_id":440,"player_count":0,"max_players":24,"Bots":0,"server_type":"Dedicated","server_os":"Linux","password":true,"vac":true,"version":"7742253","steam_id":85568392924742827,"keywords":["nocrits","nodmgspread","payload","uncletopia"],"game_id":440,"stv_port":27076,"stv_name":"Uncletopia | Frankfurt | 7 | Stopwatch Beta | STV","players":null},{"server_id":24,"name":"Uncletopia | Frankfurt | 8 | Community","name_short":"frk-8","host":"frk-1.de.uncletopia.com","port":27085,"enabled":true,"region":"eu","cc":"de","latitude":50.110924,"longitude":8.682127,"reserved":0,"last_update":"0001-01-01T00:00:00Z","name_a2s":"Uncletopia | Frankfurt | 8 | Community","protocol":17,"map":"workshop/koth_slaughter_rc1.ugc1712845210","folder":"tf","game":"Team Fortress","app_id":440,"player_count":15,"max_players":24,"Bots":0,"server_type":"Dedicated","server_os":"Linux","password":true,"vac":true,"version":"7742253","steam_id":85568392924742828,"keywords":["cp","nocrits","nodmgspread","uncletopia"],"game_id":440,"stv_port":27086,"stv_name":"Uncletopia | Frankfurt | 8 | Community | STV","players":[{"user_id":99,"name":"Blutato","steam_id":76561198877387759,"connected_time":1382000000000,"state":"active","ping":235},{"user_id":105,"name":"submackeen","steam_id":76561198799855913,"connected_time":620000000000,"state":"active","ping":170},{"user_id":112,"name":"big man","steam_id":76561198349062110,"connected_time":29000000000,"state":"spawning","ping":265},{"user_id":96,"name":"Stragnov‚òÜ","steam_id":76561198074702465,"connected_time":1670000000000,"state":"active","ping":51},{"user_id":98,"name":"Fortezza","steam_id":76561198972539903,"connected_time":1490000000000,"state":"active","ping":46},{"user_id":97,"name":"le big mac","steam_id":76561199026378253,"connected_time":1664000000000,"state":"active","ping":49},{"user_id":68,"name":"lisivi","steam_id":76561198365503306,"connected_time":3318000000000,"state":"active","ping":59},{"user_id":75,"name":"KatTheCookiCat","steam_id":76561199054643392,"connected_time":3077000000000,"state":"active","ping":55},{"user_id":102,"name":"Wyro","steam_id":76561199176835169,"connected_time":803000000000,"state":"active","ping":65},{"user_id":106,"name":"FROYO domando","steam_id":76561199150367705,"connected_time":552000000000,"state":"active","ping":163},{"user_id":107,"name":"Equinox","steam_id":76561199055592635,"connected_time":516000000000,"state":"active","ping":68},{"user_id":104,"name":"Sentry Gun (mun)","steam_id":76561199042470246,"connected_time":657000000000,"state":"active","ping":59},{"user_id":109,"name":"Ewegoggo","steam_id":76561198009890407,"connected_time":275000000000,"state":"active","ping":83},{"user_id":110,"name":"Nagerrack","steam_id":76561198086601214,"connected_time":192000000000,"state":"active","ping":77},{"user_id":111,"name":"tomgru2009","steam_id":76561199466136608,"connected_time":103000000000,"state":"active","ping":62}]},{"server_id":202,"name":"Uncletopia | Hong Kong | 1 | All Maps","name_short":"hgk-1","host":"hgk-1.hk.uncletopia.com","port":27015,"enabled":true,"region":"asia","cc":"hk","latitude":22.302711,"longitude":114.177216,"reserved":0,"last_update":"0001-01-01T00:00:00Z","name_a2s":"Uncletopia | Hong Kong | 1 | All Maps","protocol":17,"map":"cp_mountainlab","folder":"tf","game":"Team Fortress","app_id":440,"player_count":0,"max_players":24,"Bots":0,"server_type":"Dedicated","server_os":"Linux","password":true,"vac":true,"version":"7742253","steam_id":85568392924494504,"keywords":["cp","nocrits","nodmgspread","uncletopia"],"game_id":440,"stv_port":27016,"stv_name":"Uncletopia | Hong Kong | 1 | All Maps | STV","players":null},{"server_id":1,"name":"Uncletopia | Los Angeles | 1 | All Maps","name_short":"lax-1","host":"lax-1.us.uncletopia.com","port":27015,"enabled":true,"region":"us-west","cc":"us","latitude":33.94279,"longitude":-118.41004,"reserved":0,"last_update":"0001-01-01T00:00:00Z","name_a2s":"Uncletopia | Los Angeles | 1 | All Maps","protocol":17,"map":"cp_sunshine","folder":"tf","game":"Team Fortress","app_id":440,"player_count":22,"max_players":24,"Bots":0,"server_type":"Dedicated","server_os":"Linux","password":true,"vac":true,"version":"7742253","steam_id":85568392924469991,"keywords":["cp","nocrits","nodmgspread","uncletopia"],"game_id":440,"stv_port":27016,"stv_name":"Uncletopia | Los Angeles | 1 | All Maps | STV","players":[{"user_id":126,"name":"t.tv/FamilyGuyFunnyMoments277","steam_id":76561198416047580,"connected_time":74000000000,"state":"active","ping":124},{"user_id":123,"name":"dominosgangster","steam_id":76561199095680478,"connected_time":140000000000,"state":"active","ping":65},{"user_id":118,"name":"antivirus.exe","steam_id":76561198152067633,"connected_time":442000000000,"state":"active","ping":103},{"user_id":124,"name":"woul","steam_id":76561199134296565,"connected_time":139000000000,"state":"active","ping":123},{"user_id":119,"name":"Whomsticot","steam_id":76561198406721885,"connected_time":410000000000,"state":"active","ping":94},{"user_id":102,"name":"Psychosis","steam_id":76561198078659070,"connected_time":1644000000000,"state":"active","ping":113},{"user_id":78,"name":"Hindmost","steam_id":76561199081837220,"connected_time":3030000000000,"state":"active","ping":91},{"user_id":125,"name":"TV","steam_id":76561198177326926,"connected_time":111000000000,"state":"active","ping":114},{"user_id":127,"name":"[S]Mr. X [No Monitor]","steam_id":76561197963746035,"connected_time":72000000000,"state":"active","ping":95},{"user_id":128,"name":"Cosmiccz","steam_id":76561198073232442,"connected_time":58000000000,"state":"active","ping":95},{"user_id":131,"name":"lana_del_rey.com","steam_id":76561198172447621,"connected_time":12000000000,"state":"spawning","ping":63},{"user_id":129,"name":"Bigpootis","steam_id":76561198796534384,"connected_time":47000000000,"state":"spawning","ping":123},{"user_id":85,"name":"chess chap","steam_id":76561198955979403,"connected_time":2567000000000,"state":"active","ping":133},{"user_id":86,"name":"Zenith","steam_id":76561198314522836,"connected_time":2537000000000,"state":"active","ping":136},{"user_id":130,"name":"thorn","steam_id":76561198089287999,"connected_time":36000000000,"state":"active","ping":174},{"user_id":88,"name":"hoOmIN","steam_id":76561198334947079,"connected_time":2505000000000,"state":"active","ping":42},{"user_id":120,"name":"Wolf King Productions","steam_id":76561198295269000,"connected_time":397000000000,"state":"active","ping":112},{"user_id":65,"name":"Dentivent","steam_id":76561197971953043,"connected_time":4160000000000,"state":"active","ping":58},{"user_id":106,"name":"Lucy Got Fired","steam_id":76561198149063013,"connected_time":1567000000000,"state":"active","ping":80},{"user_id":121,"name":"Im Dead, You Idiots","steam_id":76561199014681829,"connected_time":393000000000,"state":"active","ping":55},{"user_id":122,"name":"lol emoji","steam_id":76561198072796208,"connected_time":333000000000,"state":"active","ping":101}]},{"server_id":112,"name":"Uncletopia | Los Angeles | 2 | All Maps","name_short":"lax-2","host":"lax-1.us.uncletopia.com","port":27025,"enabled":true,"region":"us-west","cc":"us","latitude":33.94279,"longitude":-118.41004,"reserved":0,"last_update":"0001-01-01T00:00:00Z","name_a2s":"Uncletopia | Los Angeles | 2 | All Maps","protocol":17,"map":"koth_highpass","folder":"tf","game":"Team Fortress","app_id":440,"player_count":0,"max_players":24,"Bots":0,"server_type":"Dedicated","server_os":"Linux","password":true,"vac":true,"version":"7742253","steam_id":85568392924469992,"keywords":["cp","nocrits","nodmgspread","uncletopia"],"game_id":440,"stv_port":27026,"stv_name":"Uncletopia | Los Angeles | 2 | All Maps | STV","players":null},{"server_id":324,"name":"Uncletopia | Los Angeles | 3 | All Maps","name_short":"lax-3","host":"lax-1.us.uncletopia.com","port":27035,"enabled":true,"region":"us-west","cc":"us","latitude":33.94279,"longitude":-118.41004,"reserved":0,"last_update":"0001-01-01T00:00:00Z","name_a2s":"Uncletopia | Los Angeles | 3 | All Maps","protocol":17,"map":"koth_viaduct","folder":"tf","game":"Team Fortress","app_id":440,"player_count":0,"max_players":24,"Bots":0,"server_type":"Dedicated","server_os":"Linux","password":true,"vac":true,"version":"7742253","steam_id":85568392924510198,"keywords":["cp","nocrits","nodmgspread","uncletopia"],"game_id":440,"stv_port":27036,"stv_name":"Uncletopia | Los Angeles | 3 | All Maps | STV","players":null},{"server_id":25,"name":"Uncletopia | Los Angeles | 4 | Stopwatch Beta","name_short":"lax-4","host":"lax-1.us.uncletopia.com","port":27045,"enabled":true,"region":"us-west","cc":"us","latitude":33.94279,"longitude":-118.41004,"reserved":0,"last_update":"0001-01-01T00:00:00Z","name_a2s":"Uncletopia | Los Angeles | 4 | Stopwatch Beta","protocol":17,"map":"cp_snakewater_final1","folder":"tf","game":"Team Fortress","app_id":440,"player_count":0,"max_players":24,"Bots":0,"server_type":"Dedicated","server_os":"Linux","password":true,"vac":true,"version":"7742253","steam_id":85568392924510199,"keywords":["cp","nocrits","nodmgspread","uncletopia"],"game_id":440,"stv_port":27046,"stv_name":"Uncletopia | Los Angeles | 4 | Stopwatch Beta | STV","players":null},{"server_id":11,"name":"Uncletopia | London | 1 | All Maps","name_short":"lon-1","host":"lon-1.uk.uncletopia.com","port":27015,"enabled":true,"region":"eu","cc":"gb","latitude":51.509865,"longitude":-0.118092,"reserved":0,"last_update":"0001-01-01T00:00:00Z","name_a2s":"Uncletopia | London | 1 | All Maps","protocol":17,"map":"pl_borneo","folder":"tf","game":"Team Fortress","app_id":440,"player_count":24,"max_players":24,"Bots":0,"server_type":"Dedicated","server_os":"Linux","password":true,"vac":true,"version":"7742253","steam_id":85568392924367362,"keywords":["nocrits","nodmgspread","payload","uncletopia"],"game_id":440,"stv_port":27016,"stv_name":"Uncletopia | London | 1 | All Maps | STV","players":[{"user_id":427,"name":"Bones","steam_id":76561198065081225,"connected_time":1021000000000,"state":"active","ping":43},{"user_id":390,"name":"big loser","steam_id":76561198059282465,"connected_time":4504000000000,"state":"active","ping":74},{"user_id":435,"name":"ReDsinat0r","steam_id":76561198365973345,"connected_time":511000000000,"state":"active","ping":73},{"user_id":424,"name":"Marssie","steam_id":76561198071368131,"connected_time":1339000000000,"state":"active","ping":65},{"user_id":383,"name":"TxrraFINN","steam_id":76561199006591691,"connected_time":5226000000000,"state":"active","ping":53},{"user_id":436,"name":"Dominus.","steam_id":76561199065917088,"connected_time":499000000000,"state":"active","ping":66},{"user_id":441,"name":"Joguzz","steam_id":76561198046983676,"connected_time":121000000000,"state":"active","ping":70},{"user_id":442,"name":"GunGuy","steam_id":76561198124510978,"connected_time":114000000000,"state":"active","ping":37},{"user_id":423,"name":"Founder","steam_id":76561198193763778,"connected_time":1427000000000,"state":"active","ping":55},{"user_id":392,"name":"dairy","steam_id":76561198117033273,"connected_time":4276000000000,"state":"active","ping":61},{"user_id":413,"name":"Real (Real)","steam_id":76561198323425034,"connected_time":2341000000000,"state":"active","ping":78},{"user_id":438,"name":"brokenphilip","steam_id":76561198080960604,"connected_time":492000000000,"state":"active","ping":81},{"user_id":374,"name":"Posho","steam_id":76561198062396436,"connected_time":5498000000000,"state":"active","ping":43},{"user_id":434,"name":"Nutty Granny168","steam_id":76561198087048070,"connected_time":695000000000,"state":"active","ping":57},{"user_id":422,"name":"Scrap","steam_id":76561199159785850,"connected_time":1794000000000,"state":"active","ping":45},{"user_id":410,"name":"dec","steam_id":76561198009660168,"connected_time":2779000000000,"state":"active","ping":58},{"user_id":343,"name":"CarBombEnthusiast","steam_id":76561199448185434,"connected_time":9106000000000,"state":"active","ping":65},{"user_id":425,"name":"Bgm_","steam_id":76561198056452044,"connected_time":1337000000000,"state":"active","ping":74},{"user_id":430,"name":"chrissy","steam_id":76561198096547662,"connected_time":740000000000,"state":"active","ping":49},{"user_id":418,"name":"üß±Big Murstenüß±","steam_id":76561199073257952,"connected_time":2121000000000,"state":"active","ping":74},{"user_id":431,"name":"ghost","steam_id":76561198189940229,"connected_time":739000000000,"state":"active","ping":60},{"user_id":405,"name":".quickfast.","steam_id":76561199438900919,"connected_time":3551000000000,"state":"active","ping":54},{"user_id":440,"name":"SOPHIIEE","steam_id":76561198443798981,"connected_time":378000000000,"state":"active","ping":58}]},{"server_id":114,"name":"Uncletopia | London | 2 | All Maps","name_short":"lon-2","host":"lon-1.uk.uncletopia.com","port":27025,"enabled":true,"region":"eu","cc":"gb","latitude":51.509865,"longitude":-0.118092,"reserved":0,"last_update":"0001-01-01T00:00:00Z","name_a2s":"Uncletopia | London | 2 | All Maps","protocol":17,"map":"pl_swiftwater_final1","folder":"tf","game":"Team Fortress","app_id":440,"player_count":24,"max_players":24,"Bots":0,"server_type":"Dedicated","server_os":"Linux","password":true,"vac":true,"version":"7742253","steam_id":85568392924470941,"keywords":["nocrits","nodmgspread","payload","uncletopia"],"game_id":440,"stv_port":27026,"stv_name":"Uncletopia | London | 2 | All Maps | STV","players":[{"user_id":645,"name":"frigidhyacinth","steam_id":76561198181234621,"connected_time":46000000000,"state":"active","ping":68},{"user_id":639,"name":"Zero-Five","steam_id":76561198046468600,"connected_time":315000000000,"state":"active","ping":128},{"user_id":609,"name":"Insanitybomb","steam_id":76561198048707708,"connected_time":2595000000000,"state":"active","ping":56},{"user_id":611,"name":"Refre35","steam_id":76561198971840738,"connected_time":2495000000000,"state":"active","ping":81},{"user_id":582,"name":"WinterBozu","steam_id":76561198439793949,"connected_time":4486000000000,"state":"active","ping":49},{"user_id":549,"name":"Mike Ehrmantraut","steam_id":76561197998338481,"connected_time":5995000000000,"state":"active","ping":62},{"user_id":541,"name":"Dr. Funkenstein","steam_id":76561197977816210,"connected_time":6341000000000,"state":"active","ping":74},{"user_id":627,"name":"Dispenser(Dispenser)","steam_id":76561199211831658,"connected_time":1843000000000,"state":"active","ping":50},{"user_id":612,"name":"TF2 Oil Sheik","steam_id":76561199014076021,"connected_time":2458000000000,"state":"active","ping":56},{"user_id":623,"name":"‚òÖ sat1ra","steam_id":76561198011382701,"connected_time":2283000000000,"state":"active","ping":81},{"user_id":638,"name":"Antiparticle #SaveTF2","steam_id":76561197990545681,"connected_time":689000000000,"state":"active","ping":49},{"user_id":613,"name":"unkel dan","steam_id":76561199188332023,"connected_time":2451000000000,"state":"active","ping":44},{"user_id":630,"name":"Aster","steam_id":76561198037920420,"connected_time":1620000000000,"state":"active","ping":184},{"user_id":631,"name":"LegoKatt","steam_id":76561198064536870,"connected_time":1615000000000,"state":"active","ping":118},{"user_id":543,"name":"Lightbulb Monkey","steam_id":76561198045033173,"connected_time":6312000000000,"state":"active","ping":52},{"user_id":633,"name":"sigma female","steam_id":76561198298576765,"connected_time":1560000000000,"state":"active","ping":59},{"user_id":571,"name":"Heretican","steam_id":76561198018202228,"connected_time":5065000000000,"state":"active","ping":78},{"user_id":642,"name":"Getrkod","steam_id":76561198986560793,"connected_time":271000000000,"state":"active","ping":52},{"user_id":637,"name":"ytidrutehr","steam_id":76561199001455271,"connected_time":699000000000,"state":"active","ping":95},{"user_id":626,"name":"rein","steam_id":76561198067856323,"connected_time":1930000000000,"state":"active","ping":90},{"user_id":635,"name":"UltimateSlayer","steam_id":76561198384109309,"connected_time":1534000000000,"state":"active","ping":61},{"user_id":644,"name":"Dellroy","steam_id":76561198161222252,"connected_time":155000000000,"state":"active","ping":62},{"user_id":625,"name":"all snipers are edgy cowards","steam_id":76561198060200599,"connected_time":2233000000000,"state":"active","ping":97},{"user_id":640,"name":"Change profile name to","steam_id":76561198351227560,"connected_time":315000000000,"state":"active","ping":51}]},{"server_id":320,"name":"Uncletopia | London | 3 | All Maps","name_short":"lon-3","host":"lon-1.uk.uncletopia.com","port":27035,"enabled":true,"region":"eu","cc":"gb","latitude":51.509865,"longitude":-0.118092,"reserved":0,"last_update":"0001-01-01T00:00:00Z","name_a2s":"Uncletopia | London | 3 | All Maps","protocol":17,"map":"pl_frontier_final","folder":"tf","game":"Team Fortress","app_id":440,"player_count":24,"max_players":24,"Bots":0,"server_type":"Dedicated","server_os":"Linux","password":true,"vac":true,"version":"7742253","steam_id":85568392924510192,"keywords":["nocrits","nodmgspread","payload","uncletopia"],"game_id":440,"stv_port":27036,"stv_name":"Uncletopia | London | 3 | All Maps | STV","players":[{"user_id":369,"name":"etc","steam_id":76561197998394797,"connected_time":1493000000000,"state":"active","ping":55},{"user_id":354,"name":"Frazzles","steam_id":76561199228009586,"connected_time":3697000000000,"state":"active","ping":43},{"user_id":329,"name":"Windows Vista Cruiser","steam_id":76561198064102233,"connected_time":5477000000000,"state":"active","ping":64},{"user_id":261,"name":"ShoobyDooby","steam_id":76561198118473910,"connected_time":10856000000000,"state":"active","ping":50},{"user_id":366,"name":"gagalak","steam_id":76561198089979108,"connected_time":2466000000000,"state":"active","ping":102},{"user_id":258,"name":"IX","steam_id":76561198039589783,"connected_time":11117000000000,"state":"active","ping":61},{"user_id":378,"name":"Son Goku","steam_id":76561199383437138,"connected_time":742000000000,"state":"active","ping":116},{"user_id":379,"name":"plaiddd","steam_id":76561198353053169,"connected_time":717000000000,"state":"active","ping":121},{"user_id":376,"name":"After8","steam_id":76561198090750865,"connected_time":1190000000000,"state":"active","ping":87},{"user_id":373,"name":"Tidez_","steam_id":76561198374956415,"connected_time":1403000000000,"state":"active","ping":79},{"user_id":299,"name":"sv_MrGibbs","steam_id":76561198114071972,"connected_time":8055000000000,"state":"active","ping":48},{"user_id":362,"name":",zem","steam_id":76561198864329072,"connected_time":2583000000000,"state":"active","ping":91},{"user_id":368,"name":"G6 sherlock","steam_id":76561198802967796,"connected_time":1855000000000,"state":"active","ping":118},{"user_id":382,"name":"Rocadinis","steam_id":76561198095910616,"connected_time":684000000000,"state":"active","ping":102},{"user_id":381,"name":"Rogue","steam_id":76561199143593182,"connected_time":695000000000,"state":"active","ping":45},{"user_id":357,"name":"stun","steam_id":76561198276681691,"connected_time":3213000000000,"state":"active","ping":46},{"user_id":332,"name":"nidhalmbarkihere","steam_id":76561199252399754,"connected_time":5430000000000,"state":"active","ping":105},{"user_id":336,"name":"Kahvi","steam_id":76561198723244199,"connected_time":4789000000000,"state":"active","ping":77},{"user_id":375,"name":"Green Eggs And Jam","steam_id":76561198819412473,"connected_time":1397000000000,"state":"active","ping":52},{"user_id":377,"name":"thepoltroon294","steam_id":76561198236015392,"connected_time":956000000000,"state":"active","ping":117},{"user_id":301,"name":"Man O' Steel","steam_id":76561198108612758,"connected_time":7866000000000,"state":"active","ping":59},{"user_id":340,"name":"Mor'du","steam_id":76561198274105878,"connected_time":4615000000000,"state":"active","ping":80},{"user_id":358,"name":"AwterSix","steam_id":76561198042561678,"connected_time":3156000000000,"state":"active","ping":56},{"user_id":364,"name":"Lyell","steam_id":76561198350329389,"connected_time":2556000000000,"state":"active","ping":82}]},{"server_id":321,"name":"Uncletopia | London | 4 | All Maps","name_short":"lon-4","host":"lon-1.uk.uncletopia.com","port":27045,"enabled":true,"region":"eu","cc":"gb","latitude":51.509865,"longitude":-0.118092,"reserved":0,"last_update":"0001-01-01T00:00:00Z","name_a2s":"Uncletopia | London | 4 | All Maps","protocol":17,"map":"pl_badwater","folder":"tf","game":"Team Fortress","app_id":440,"player_count":20,"max_players":24,"Bots":0,"server_type":"Dedicated","server_os":"Linux","password":true,"vac":true,"version":"7742253","steam_id":85568392924510193,"keywords":["nocrits","nodmgspread","payload","uncletopia"],"game_id":440,"stv_port":27046,"stv_name":"Uncletopia | London | 4 | All Maps | STV","players":[{"user_id":608,"name":"F1-M","steam_id":76561198198409875,"connected_time":1232000000000,"state":"active","ping":115},{"user_id":585,"name":"GOOFY AHH","steam_id":76561199152065544,"connected_time":2839000000000,"state":"active","ping":46},{"user_id":616,"name":"Dolcelatte","steam_id":76561198038501770,"connected_time":1038000000000,"state":"active","ping":68},{"user_id":612,"name":"rolmos","steam_id":76561198024121853,"connected_time":1118000000000,"state":"active","ping":81},{"user_id":602,"name":"Cloudtrotter","steam_id":76561198141975528,"connected_time":1985000000000,"state":"active","ping":154},{"user_id":627,"name":"minchengchen","steam_id":76561198217611603,"connected_time":24000000000,"state":"active","ping":116},{"user_id":584,"name":"Dumb Monkey‚Ñ¢","steam_id":76561198270165797,"connected_time":2872000000000,"state":"active","ping":52},{"user_id":605,"name":"I Don't Know","steam_id":76561198841011430,"connected_time":1439000000000,"state":"active","ping":65},{"user_id":624,"name":"xiiski","steam_id":76561198152387747,"connected_time":194000000000,"state":"active","ping":96},{"user_id":586,"name":"f√©nix","steam_id":76561198083199151,"connected_time":2804000000000,"state":"active","ping":54},{"user_id":629,"name":"pepy","steam_id":76561198140477044,"connected_time":12000000000,"state":"active","ping":52},{"user_id":621,"name":"Raven","steam_id":76561198036076305,"connected_time":465000000000,"state":"active","ping":59},{"user_id":618,"name":"Roasted Toast","steam_id":76561198045051290,"connected_time":733000000000,"state":"active","ping":51},{"user_id":595,"name":"Mads Mikkelsen","steam_id":76561198083482001,"connected_time":2438000000000,"state":"active","ping":60},{"user_id":626,"name":"majora's boostio","steam_id":76561198392628642,"connected_time":58000000000,"state":"active","ping":37},{"user_id":601,"name":"R8N - Obismal","steam_id":76561198007482714,"connected_time":2038000000000,"state":"active","ping":70},{"user_id":590,"name":"Slowbro","steam_id":76561198010779146,"connected_time":2744000000000,"state":"active","ping":80},{"user_id":611,"name":"Fwebbie","steam_id":76561199006875621,"connected_time":1135000000000,"state":"active","ping":47},{"user_id":592,"name":"Abigor","steam_id":76561197969316578,"connected_time":2652000000000,"state":"active","ping":60},{"user_id":615,"name":"Shezza","steam_id":76561198903969123,"connected_time":1089000000000,"state":"active","ping":77}]},{"server_id":21,"name":"Uncletopia | London | 5 | All Maps","name_short":"lon-5","host":"lon-1.uk.uncletopia.com","port":27055,"enabled":true,"region":"eu","cc":"gb","latitude":51.509865,"longitude":-0.118092,"reserved":0,"last_update":"0001-01-01T00:00:00Z","name_a2s":"Uncletopia | London | 5 | All Maps","protocol":17,"map":"pl_badwater","folder":"tf","game":"Team Fortress","app_id":440,"player_count":24,"max_players":24,"Bots":0,"server_type":"Dedicated","server_os":"Linux","password":true,"vac":true,"version":"7742253","steam_id":85568392924742829,"keywords":["nocrits","nodmgspread","payload","uncletopia"],"game_id":440,"stv_port":27056,"stv_name":"Uncletopia | London | 5 | All Maps | STV","players":[{"user_id":12,"name":"A Cat","steam_id":76561198221549132,"connected_time":9581000000000,"state":"active","ping":35},{"user_id":13,"name":"frost^","steam_id":76561198167675482,"connected_time":9572000000000,"state":"active","ping":94},{"user_id":149,"name":"Kermit the frog","steam_id":76561198073354238,"connected_time":218000000000,"state":"active","ping":51},{"user_id":143,"name":"‡πñ€£€úSir Robbiewolf","steam_id":76561198001357988,"connected_time":497000000000,"state":"active","ping":64},{"user_id":117,"name":"One armed fiddle enthusiast","steam_id":76561198045847051,"connected_time":2900000000000,"state":"active","ping":57},{"user_id":146,"name":"snazzyyy","steam_id":76561198143529110,"connected_time":300000000000,"state":"active","ping":85},{"user_id":126,"name":"FoOzTV","steam_id":76561197998636728,"connected_time":1739000000000,"state":"active","ping":63},{"user_id":148,"name":"Illecillewaet","steam_id":76561198005935655,"connected_time":269000000000,"state":"active","ping":93},{"user_id":106,"name":"YILK","steam_id":76561198077913307,"connected_time":3234000000000,"state":"active","ping":45},{"user_id":150,"name":"cinny","steam_id":76561198832112629,"connected_time":203000000000,"state":"active","ping":87},{"user_id":115,"name":"lupe.-","steam_id":76561198079813788,"connected_time":2993000000000,"state":"active","ping":60},{"user_id":93,"name":"Cosmetic brain","steam_id":76561198055936410,"connected_time":3950000000000,"state":"active","ping":83},{"user_id":136,"name":"jt7","steam_id":76561198073655162,"connected_time":1208000000000,"state":"active","ping":78},{"user_id":141,"name":"Finder - God's best alcoholic","steam_id":76561198056794088,"connected_time":855000000000,"state":"active","ping":65},{"user_id":151,"name":"dedek.vaclav","steam_id":76561199413878947,"connected_time":144000000000,"state":"active","ping":75},{"user_id":113,"name":"Pinroe","steam_id":76561198968160899,"connected_time":3160000000000,"state":"active","ping":60},{"user_id":101,"name":"MAJAX","steam_id":76561198254828632,"connected_time":3650000000000,"state":"active","ping":72},{"user_id":130,"name":"AureateAura","steam_id":76561198046902265,"connected_time":1636000000000,"state":"active","ping":129},{"user_id":132,"name":"PlebCord","steam_id":76561198120685803,"connected_time":1586000000000,"state":"active","ping":78},{"user_id":153,"name":"Arnold Schwarzenegger","steam_id":76561198871991529,"connected_time":35000000000,"state":"active","ping":45},{"user_id":152,"name":"chin_chillin","steam_id":76561199299095652,"connected_time":101000000000,"state":"active","ping":159},{"user_id":154,"name":"Teddy K","steam_id":76561198361429984,"connected_time":30000000000,"state":"active","ping":77},{"user_id":133,"name":"theogliam","steam_id":76561198814626472,"connected_time":1546000000000,"state":"active","ping":72},{"user_id":79,"name":"Dan","steam_id":76561198314800357,"connected_time":5316000000000,"state":"active","ping":108}]},{"server_id":22,"name":"Uncletopia | London | 6 | All Maps","name_short":"lon-6","host":"lon-1.uk.uncletopia.com","port":27065,"enabled":true,"region":"eu","cc":"gb","latitude":51.509865,"longitude":-0.118092,"reserved":0,"last_update":"0001-01-01T00:00:00Z","name_a2s":"Uncletopia | London | 6 | All Maps","protocol":17,"map":"koth_lakeside_final","folder":"tf","game":"Team Fortress","app_id":440,"player_count":0,"max_players":24,"Bots":0,"server_type":"Dedicated","server_os":"Linux","password":true,"vac":true,"version":"7742253","steam_id":85568392924742830,"keywords":["cp","nocrits","nodmgspread","uncletopia"],"game_id":440,"stv_port":27066,"stv_name":"Uncletopia | London | 6 | All Maps | STV","players":null},{"server_id":40,"name":"Uncletopia | London | 7 | No Payload","name_short":"lon-7","host":"lon-1.uk.uncletopia.com","port":27075,"enabled":true,"region":"eu","cc":"gb","latitude":51.509865,"longitude":-0.118092,"reserved":0,"last_update":"0001-01-01T00:00:00Z","name_a2s":"Uncletopia | London | 7 | No Payload","protocol":17,"map":"plr_bananabay","folder":"tf","game":"Team Fortress","app_id":440,"player_count":0,"max_players":24,"Bots":0,"server_type":"Dedicated","server_os":"Linux","password":true,"vac":true,"version":"7742253","steam_id":85568392924964314,"keywords":["nocrits","nodmgspread","payload","uncletopia"],"game_id":440,"stv_port":27076,"stv_name":"Uncletopia | London | 7 | No Payload | STV","players":null},{"server_id":41,"name":"Uncletopia | London | 8 | Community","name_short":"lon-8","host":"lon-1.uk.uncletopia.com","port":27085,"enabled":true,"region":"eu","cc":"gb","latitude":51.509865,"longitude":-0.118092,"reserved":0,"last_update":"0001-01-01T00:00:00Z","name_a2s":"Uncletopia | London | 8 | Community","protocol":17,"map":"workshop/koth_ramjam_rc1.ugc459778887","folder":"tf","game":"Team Fortress","app_id":440,"player_count":0,"max_players":24,"Bots":0,"server_type":"Dedicated","server_os":"Linux","password":true,"vac":true,"version":"7742253","steam_id":85568392924964315,"keywords":["cp","nocrits","nodmgspread","uncletopia"],"game_id":440,"stv_port":27086,"stv_name":"Uncletopia | London | 8 | Community | STV","players":null},{"server_id":300,"name":"Uncletopia | Montr√©al | 1 | All Maps","name_short":"mtl-1","host":"mtl-1.ca.uncletopia.com","port":27015,"enabled":true,"region":"us-east","cc":"ca","latitude":45.50889,"longitude":-73.56167,"reserved":0,"last_update":"0001-01-01T00:00:00Z","name_a2s":"Uncletopia | Montr√©al | 1 | All Maps","protocol":17,"map":"pl_swiftwater_final1","folder":"tf","game":"Team Fortress","app_id":440,"player_count":0,"max_players":24,"Bots":0,"server_type":"Dedicated","server_os":"Linux","password":true,"vac":true,"version":"7742253","steam_id":85568392924500087,"keywords":["nocrits","nodmgspread","payload","uncletopia"],"game_id":440,"stv_port":27016,"stv_name":"Uncletopia | Montr√©al | 1 | All Maps | STV","players":null},{"server_id":301,"name":"Uncletopia | Montr√©al | 2 | All Maps","name_short":"mtl-2","host":"mtl-1.ca.uncletopia.com","port":27025,"enabled":true,"region":"us-east","cc":"ca","latitude":45.50889,"longitude":-73.56167,"reserved":0,"last_update":"0001-01-01T00:00:00Z","name_a2s":"Uncletopia | Montr√©al | 2 | All Maps","protocol":17,"map":"koth_viaduct","folder":"tf","game":"Team Fortress","app_id":440,"player_count":6,"max_players":24,"Bots":0,"server_type":"Dedicated","server_os":"Linux","password":true,"vac":true,"version":"7742253","steam_id":85568392924500088,"keywords":["cp","nocrits","nodmgspread","uncletopia"],"game_id":440,"stv_port":27026,"stv_name":"Uncletopia | Montr√©al | 2 | All Maps | STV","players":[{"user_id":24,"name":"Enderpanda24","steam_id":76561199461170521,"connected_time":549000000000,"state":"active","ping":121},{"user_id":23,"name":"hotline bling","steam_id":76561198984131011,"connected_time":846000000000,"state":"active","ping":50},{"user_id":25,"name":"mega giga payload hater!","steam_id":76561198039727616,"connected_time":319000000000,"state":"active","ping":88},{"user_id":9,"name":"Stop Tryharding :(","steam_id":76561199130074444,"connected_time":1793000000000,"state":"active","ping":93},{"user_id":10,"name":"Fraglin","steam_id":76561198124964000,"connected_time":1755000000000,"state":"active","ping":57},{"user_id":15,"name":"young prodigy","steam_id":76561198321675742,"connected_time":1637000000000,"state":"active","ping":71}]},{"server_id":302,"name":"Uncletopia | Montr√©al | 3 | All Maps","name_short":"mtl-3","host":"mtl-1.ca.uncletopia.com","port":27035,"enabled":true,"region":"us-east","cc":"ca","latitude":45.50889,"longitude":-73.56167,"reserved":0,"last_update":"0001-01-01T00:00:00Z","name_a2s":"Uncletopia | Montr√©al | 3 | All Maps","protocol":17,"map":"cp_snakewater_final1","folder":"tf","game":"Team Fortress","app_id":440,"player_count":3,"max_players":24,"Bots":0,"server_type":"Dedicated","server_os":"Linux","password":true,"vac":true,"version":"7742253","steam_id":85568392924500089,"keywords":["cp","nocrits","nodmgspread","uncletopia"],"game_id":440,"stv_port":27036,"stv_name":"Uncletopia | Montr√©al | 3 | All Maps | STV","players":[{"user_id":4,"name":"cool beans","steam_id":76561198321591685,"connected_time":172000000000,"state":"active","ping":94},{"user_id":5,"name":"lolzfrdawin21","steam_id":76561199006665979,"connected_time":101000000000,"state":"active","ping":73},{"user_id":6,"name":"Monsterjessy","steam_id":76561198035630985,"connected_time":23000000000,"state":"active","ping":49}]},{"server_id":303,"name":"Uncletopia | Montr√©al | 4 | No Payload","name_short":"mtl-4","host":"mtl-1.ca.uncletopia.com","port":27045,"enabled":true,"region":"us-east","cc":"ca","latitude":45.50889,"longitude":-73.56167,"reserved":0,"last_update":"0001-01-01T00:00:00Z","name_a2s":"Uncletopia | Montr√©al | 4 | No Payload","protocol":17,"map":"cp_snakewater_final1","folder":"tf","game":"Team Fortress","app_id":440,"player_count":0,"max_players":24,"Bots":0,"server_type":"Dedicated","server_os":"Linux","password":true,"vac":true,"version":"7742253","steam_id":85568392924500090,"keywords":["cp","nocrits","nodmgspread","uncletopia"],"game_id":440,"stv_port":27046,"stv_name":"Uncletopia | Montr√©al | 4 | No Payload | STV","players":null},{"server_id":13,"name":"Uncletopia | New York City | 1 | All Maps","name_short":"nyc-1","host":"nyc-1.us.uncletopia.com","port":27015,"enabled":true,"region":"us-east","cc":"us","latitude":40.73061,"longitude":-73.93524,"reserved":0,"last_update":"0001-01-01T00:00:00Z","name_a2s":"Uncletopia | New York City | 1 | All Maps","protocol":17,"map":"pl_pier","folder":"tf","game":"Team Fortress","app_id":440,"player_count":24,"max_players":24,"Bots":0,"server_type":"Dedicated","server_os":"Linux","password":true,"vac":true,"version":"7742253","steam_id":85568392924469993,"keywords":["nocrits","nodmgspread","payload","uncletopia"],"game_id":440,"stv_port":27016,"stv_name":"Uncletopia | New York City | 1 | All Maps | STV","players":[{"user_id":276,"name":"moodi catgirl","steam_id":76561198124028045,"connected_time":3018000000000,"state":"active","ping":46},{"user_id":260,"name":"amnyak","steam_id":76561198165831950,"connected_time":3738000000000,"state":"active","ping":71},{"user_id":297,"name":"Ultra X","steam_id":76561199229227806,"connected_time":996000000000,"state":"active","ping":51},{"user_id":298,"name":"Tywhip","steam_id":76561199207545191,"connected_time":956000000000,"state":"active","ping":137},{"user_id":294,"name":"Kyuu","steam_id":76561198126759702,"connected_time":1381000000000,"state":"active","ping":88},{"user_id":283,"name":"Endy","steam_id":76561199031301177,"connected_time":2150000000000,"state":"active","ping":61},{"user_id":286,"name":"Yuzu","steam_id":76561198417913035,"connected_time":2121000000000,"state":"active","ping":65},{"user_id":302,"name":"BlazeHX","steam_id":76561198827408017,"connected_time":297000000000,"state":"active","ping":92},{"user_id":291,"name":"Orchid","steam_id":76561198044278802,"connected_time":1483000000000,"state":"active","ping":49},{"user_id":282,"name":"Rein","steam_id":76561198300340427,"connected_time":2376000000000,"state":"active","ping":75},{"user_id":299,"name":"BigOrca54","steam_id":76561198181360271,"connected_time":856000000000,"state":"active","ping":58},{"user_id":289,"name":"heywaitasecond","steam_id":76561199064548292,"connected_time":1993000000000,"state":"active","ping":61},{"user_id":300,"name":"Tryrn","steam_id":76561198075487436,"connected_time":848000000000,"state":"active","ping":126},{"user_id":270,"name":"Chicken Bake","steam_id":76561198045366628,"connected_time":3281000000000,"state":"active","ping":52},{"user_id":173,"name":"CosmicClown","steam_id":76561199001021817,"connected_time":6712000000000,"state":"active","ping":132},{"user_id":293,"name":"The Horse from Horsin' Around","steam_id":76561198332887086,"connected_time":1407000000000,"state":"active","ping":49},{"user_id":303,"name":"Sicko Mode (Chris Pratt Cover)","steam_id":76561198315786174,"connected_time":297000000000,"state":"active","ping":67},{"user_id":117,"name":"PizzaPasta","steam_id":76561199125109082,"connected_time":10017000000000,"state":"active","ping":64},{"user_id":258,"name":"Ser Vincenzo","steam_id":76561198040647743,"connected_time":3818000000000,"state":"active","ping":69},{"user_id":265,"name":"hooley","steam_id":76561198041923067,"connected_time":3689000000000,"state":"active","ping":58},{"user_id":172,"name":"snyper_21_21","steam_id":76561199447602219,"connected_time":6728000000000,"state":"active","ping":82},{"user_id":247,"name":"ROGUE-PLANET","steam_id":76561198116023052,"connected_time":4041000000000,"state":"active","ping":87},{"user_id":305,"name":"Clay Pot","steam_id":76561199030644557,"connected_time":239000000000,"state":"active","ping":69},{"user_id":267,"name":"„ÄåDaws_Dudeguy„Äç","steam_id":76561198205838645,"connected_time":3663000000000,"state":"active","ping":78}]},{"server_id":14,"name":"Uncletopia | New York City | 2 | All Maps","name_short":"nyc-2","host":"nyc-1.us.uncletopia.com","port":27025,"enabled":true,"region":"us-east","cc":"us","latitude":40.73061,"longitude":-73.93524,"reserved":0,"last_update":"0001-01-01T00:00:00Z","name_a2s":"Uncletopia | New York City | 2 | All Maps","protocol":17,"map":"koth_cascade","folder":"tf","game":"Team Fortress","app_id":440,"player_count":0,"max_players":24,"Bots":0,"server_type":"Dedicated","server_os":"Linux","password":true,"vac":true,"version":"7742253","steam_id":85568392924469994,"keywords":["cp","nocrits","nodmgspread","uncletopia"],"game_id":440,"stv_port":27026,"stv_name":"Uncletopia | New York City | 2 | All Maps | STV","players":null},{"server_id":15,"name":"Uncletopia | New York City | 3 | Stopwatch Beta","name_short":"nyc-3","host":"nyc-1.us.uncletopia.com","port":27035,"enabled":true,"region":"us-east","cc":"us","latitude":40.73061,"longitude":-73.93524,"reserved":0,"last_update":"0001-01-01T00:00:00Z","name_a2s":"Uncletopia | New York City | 3 | Stopwatch Beta","protocol":17,"map":"pl_pier","folder":"tf","game":"Team Fortress","app_id":440,"player_count":0,"max_players":24,"Bots":0,"server_type":"Dedicated","server_os":"Linux","password":true,"vac":true,"version":"7742253","steam_id":85568392924742820,"keywords":["nocrits","nodmgspread","payload","uncletopia"],"game_id":440,"stv_port":27036,"stv_name":"Uncletopia | New York City | 3 | Stopwatch Beta | STV","players":null},{"server_id":16,"name":"Uncletopia | New York City | 4 | Community","name_short":"nyc-4","host":"nyc-1.us.uncletopia.com","port":27045,"enabled":true,"region":"us-east","cc":"us","latitude":40.73061,"longitude":-73.93524,"reserved":0,"last_update":"0001-01-01T00:00:00Z","name_a2s":"Uncletopia | New York City | 4 | Community","protocol":17,"map":"koth_viaduct","folder":"tf","game":"Team Fortress","app_id":440,"player_count":0,"max_players":24,"Bots":0,"server_type":"Dedicated","server_os":"Linux","password":true,"vac":true,"version":"7742253","steam_id":85568392924742821,"keywords":["cp","nocrits","nodmgspread","uncletopia"],"game_id":440,"stv_port":27046,"stv_name":"Uncletopia | New York City | 4 | Community | STV","players":null},{"server_id":142,"name":"Uncletopia | S√£o Paulo | 1 | All Maps","name_short":"sao-1","host":"sao-1.br.uncletopia.com","port":27015,"enabled":true,"region":"sa","cc":"br","latitude":-23.533773,"longitude":-46.62529,"reserved":0,"last_update":"0001-01-01T00:00:00Z","name_a2s":"Uncletopia | S√£o Paulo | 1 | All Maps","protocol":17,"map":"koth_viaduct","folder":"tf","game":"Team Fortress","app_id":440,"player_count":0,"max_players":24,"Bots":0,"server_type":"Dedicated","server_os":"Linux","password":true,"vac":true,"version":"7742253","steam_id":85568392924469996,"keywords":["cp","nocrits","nodmgspread","uncletopia"],"game_id":440,"stv_port":27016,"stv_name":"Uncletopia | S√£o Paulo | 1 | All Maps | STV","players":null},{"server_id":143,"name":"Uncletopia | S√£o Paulo | 2 | All Maps","name_short":"sao-2","host":"sao-2.br.uncletopia.com","port":27015,"enabled":true,"region":"sa","cc":"br","latitude":-23.533773,"longitude":-46.62529,"reserved":0,"last_update":"0001-01-01T00:00:00Z","name_a2s":"Uncletopia | S√£o Paulo | 2 | All Maps","protocol":17,"map":"koth_cascade","folder":"tf","game":"Team Fortress","app_id":440,"player_count":2,"max_players":24,"Bots":0,"server_type":"Dedicated","server_os":"Linux","password":true,"vac":true,"version":"7742253","steam_id":85568392924485349,"keywords":["cp","nocrits","nodmgspread","uncletopia"],"game_id":440,"stv_port":27016,"stv_name":"Uncletopia | S√£o Paulo | 2 | All Maps | STV","players":[{"user_id":15,"name":"guarda-chuva","steam_id":76561198078694330,"connected_time":1836000000000,"state":"active","ping":272},{"user_id":16,"name":"Tert_14","steam_id":76561198185952289,"connected_time":1823000000000,"state":"active","ping":63}]},{"server_id":7,"name":"Uncletopia | Seattle | 1 | All Maps","name_short":"sea-1","host":"sea-1.us.uncletopia.com","port":27015,"enabled":true,"region":"us-west","cc":"us","latitude":47.608013,"longitude":-122.33517,"reserved":0,"last_update":"0001-01-01T00:00:00Z","name_a2s":"Uncletopia | Seattle | 1 | All Maps","protocol":17,"map":"pl_pier","folder":"tf","game":"Team Fortress","app_id":440,"player_count":24,"max_players":24,"Bots":0,"server_type":"Dedicated","server_os":"Linux","password":true,"vac":true,"version":"7742253","steam_id":85568392924469997,"keywords":["nocrits","nodmgspread","payload","uncletopia"],"game_id":440,"stv_port":27016,"stv_name":"Uncletopia | Seattle | 1 | All Maps | STV","players":[{"user_id":345,"name":"HideOnTate","steam_id":76561198209880837,"connected_time":911000000000,"state":"active","ping":45},{"user_id":361,"name":"yaldabaoth","steam_id":76561198084606869,"connected_time":329000000000,"state":"active","ping":88},{"user_id":347,"name":"KritzKow","steam_id":76561198086164003,"connected_time":786000000000,"state":"active","ping":103},{"user_id":349,"name":"serverVIP","steam_id":76561198173467121,"connected_time":666000000000,"state":"active","ping":45},{"user_id":306,"name":"elyk37","steam_id":76561198124135253,"connected_time":3105000000000,"state":"active","ping":114},{"user_id":362,"name":"SesataPomang","steam_id":76561198145133059,"connected_time":301000000000,"state":"active","ping":94},{"user_id":333,"name":"reinstalled my steering wheel","steam_id":76561198243802280,"connected_time":1846000000000,"state":"active","ping":57},{"user_id":367,"name":"demoman","steam_id":76561199389584938,"connected_time":239000000000,"state":"active","ping":43},{"user_id":352,"name":"Shade","steam_id":76561199043207336,"connected_time":628000000000,"state":"active","ping":45},{"user_id":353,"name":"Scok","steam_id":76561198079991614,"connected_time":627000000000,"state":"active","ping":141},{"user_id":310,"name":"Schlurp","steam_id":76561198004467697,"connected_time":2612000000000,"state":"active","ping":79},{"user_id":354,"name":"Saodde","steam_id":76561198119653709,"connected_time":608000000000,"state":"active","ping":88},{"user_id":326,"name":"Birdman743","steam_id":76561198799636748,"connected_time":2198000000000,"state":"active","ping":51},{"user_id":360,"name":"TurboRaspberry","steam_id":76561199215360629,"connected_time":389000000000,"state":"active","ping":42},{"user_id":343,"name":"Zee‚ù§","steam_id":76561198274550638,"connected_time":1052000000000,"state":"active","ping":108},{"user_id":332,"name":"Zenix","steam_id":76561198261817732,"connected_time":1900000000000,"state":"active","ping":93},{"user_id":324,"name":"squid game","steam_id":76561199248960166,"connected_time":2231000000000,"state":"active","ping":49},{"user_id":318,"name":"Pyvronine","steam_id":76561199466021085,"connected_time":2364000000000,"state":"active","ping":104},{"user_id":356,"name":"jarodfin","steam_id":76561198364681833,"connected_time":478000000000,"state":"active","ping":65},{"user_id":337,"name":"M4 Sherman","steam_id":76561198126990820,"connected_time":1720000000000,"state":"active","ping":91},{"user_id":327,"name":"Piper","steam_id":76561198059054032,"connected_time":2168000000000,"state":"active","ping":142},{"user_id":344,"name":"Mr.Thirteen","steam_id":76561198047468836,"connected_time":947000000000,"state":"active","ping":67},{"user_id":331,"name":"PopcornNinja101","steam_id":76561198330680181,"connected_time":2026000000000,"state":"active","ping":54},{"user_id":368,"name":"laggy mcstab","steam_id":76561198106379962,"connected_time":209000000000,"state":"active","ping":52}]},{"server_id":119,"name":"Uncletopia | Seattle | 2 | All Maps","name_short":"sea-2","host":"sea-1.us.uncletopia.com","port":27025,"enabled":true,"region":"us-west","cc":"us","latitude":47.608013,"longitude":-122.33517,"reserved":0,"last_update":"0001-01-01T00:00:00Z","name_a2s":"Uncletopia | Seattle | 2 | All Maps","protocol":17,"map":"cp_process_final","folder":"tf","game":"Team Fortress","app_id":440,"player_count":24,"max_players":24,"Bots":0,"server_type":"Dedicated","server_os":"Linux","password":true,"vac":true,"version":"7742253","steam_id":85568392924469998,"keywords":["cp","nocrits","nodmgspread","uncletopia"],"game_id":440,"stv_port":27026,"stv_name":"Uncletopia | Seattle | 2 | All Maps | STV","players":[{"user_id":12,"name":"Engineer Gaming Live","steam_id":76561198045914603,"connected_time":4777000000000,"state":"active","ping":69},{"user_id":92,"name":"Bowl of Soup","steam_id":76561198018958668,"connected_time":195000000000,"state":"active","ping":106},{"user_id":14,"name":"MadnessGuy34","steam_id":76561199169691501,"connected_time":4751000000000,"state":"active","ping":172},{"user_id":91,"name":"Cynapse","steam_id":76561198334878862,"connected_time":221000000000,"state":"active","ping":85},{"user_id":17,"name":"Critkey","steam_id":76561198450820435,"connected_time":4704000000000,"state":"active","ping":155},{"user_id":58,"name":"Kitsu ‚ô•","steam_id":76561198091741658,"connected_time":2905000000000,"state":"active","ping":77},{"user_id":67,"name":"DIYspaceship17","steam_id":76561199042640810,"connected_time":2386000000000,"state":"active","ping":149},{"user_id":93,"name":"geL","steam_id":76561198188572226,"connected_time":193000000000,"state":"active","ping":116},{"user_id":50,"name":":D","steam_id":76561198082011283,"connected_time":3237000000000,"state":"active","ping":61},{"user_id":89,"name":"Skabbety","steam_id":76561198168044257,"connected_time":241000000000,"state":"active","ping":33},{"user_id":90,"name":"digitaltic","steam_id":76561199203746541,"connected_time":228000000000,"state":"active","ping":175},{"user_id":94,"name":"gay porn","steam_id":76561198102454261,"connected_time":171000000000,"state":"active","ping":75},{"user_id":81,"name":"Cambonieboo","steam_id":76561198139174433,"connected_time":1330000000000,"state":"active","ping":91},{"user_id":52,"name":"Soda","steam_id":76561198219209367,"connected_time":3109000000000,"state":"active","ping":55},{"user_id":95,"name":"Magik","steam_id":76561198200169706,"connected_time":139000000000,"state":"active","ping":112},{"user_id":96,"name":"Scansy","steam_id":76561198140528754,"connected_time":70000000000,"state":"active","ping":46},{"user_id":77,"name":"‡∂û","steam_id":76561198256701755,"connected_time":1553000000000,"state":"active","ping":61},{"user_id":59,"name":"The Best Healer","steam_id":76561198079452621,"connected_time":2902000000000,"state":"active","ping":53},{"user_id":49,"name":"Pisser12434","steam_id":76561198835144780,"connected_time":3315000000000,"state":"active","ping":124},{"user_id":38,"name":"Sanlas2012","steam_id":76561198127631562,"connected_time":3616000000000,"state":"active","ping":162},{"user_id":97,"name":"MicahTheMica","steam_id":76561198173839135,"connected_time":26000000000,"state":"active","ping":137},{"user_id":57,"name":"i am splatoon (ALL)","steam_id":76561198035698704,"connected_time":2967000000000,"state":"active","ping":75},{"user_id":65,"name":"UnhandyCandle38","steam_id":76561198423893792,"connected_time":2495000000000,"state":"active","ping":119},{"user_id":82,"name":"Dr. Hurrible","steam_id":76561198080070400,"connected_time":1265000000000,"state":"active","ping":121}]},{"server_id":406,"name":"Uncletopia | Seattle | 3 | Stopwatch Beta","name_short":"sea-3","host":"sea-1.us.uncletopia.com","port":27035,"enabled":true,"region":"us-west","cc":"us","latitude":47.608013,"longitude":-122.33517,"reserved":0,"last_update":"0001-01-01T00:00:00Z","name_a2s":"Uncletopia | Seattle | 3 | Stopwatch Beta","protocol":17,"map":"workshop/koth_bagel_rc5.ugc2514036946","folder":"tf","game":"Team Fortress","app_id":440,"player_count":0,"max_players":24,"Bots":0,"server_type":"Dedicated","server_os":"Linux","password":true,"vac":true,"version":"7742253","steam_id":85568392924515217,"keywords":["cp","nocrits","nodmgspread","uncletopia"],"game_id":440,"stv_port":27036,"stv_name":"Uncletopia | Seattle | 3 | Stopwatch Beta | STV","players":null},{"server_id":17,"name":"Uncletopia | San Francisco | 1 | All Maps","name_short":"sfo-1","host":"sfo-1.us.uncletopia.com","port":27015,"enabled":true,"region":"us-west","cc":"us","latitude":37.77397,"longitude":-122.4313,"reserved":0,"last_update":"0001-01-01T00:00:00Z","name_a2s":"Uncletopia | San Francisco | 1 | All Maps","protocol":17,"map":"cp_snakewater_final1","folder":"tf","game":"Team Fortress","app_id":440,"player_count":0,"max_players":24,"Bots":0,"server_type":"Dedicated","server_os":"Linux","password":true,"vac":true,"version":"7742253","steam_id":85568392924469999,"keywords":["cp","nocrits","nodmgspread","uncletopia"],"game_id":440,"stv_port":27016,"stv_name":"Uncletopia | San Francisco | 1 | All Maps | STV","players":null},{"server_id":18,"name":"Uncletopia | San Francisco | 2 | All Maps","name_short":"sfo-2","host":"sfo-1.us.uncletopia.com","port":27025,"enabled":true,"region":"us-west","cc":"us","latitude":37.77397,"longitude":-122.4313,"reserved":0,"last_update":"0001-01-01T00:00:00Z","name_a2s":"Uncletopia | San Francisco | 2 | All Maps","protocol":17,"map":"koth_viaduct","folder":"tf","game":"Team Fortress","app_id":440,"player_count":0,"max_players":24,"Bots":0,"server_type":"Dedicated","server_os":"Linux","password":true,"vac":true,"version":"7742253","steam_id":85568392924470000,"keywords":["cp","nocrits","nodmgspread","uncletopia"],"game_id":440,"stv_port":27026,"stv_name":"Uncletopia | San Francisco | 2 | All Maps | STV","players":null},{"server_id":19,"name":"Uncletopia | San Francisco | 3 | Stopwatch Beta","name_short":"sfo-3","host":"sfo-1.us.uncletopia.com","port":27035,"enabled":true,"region":"us-west","cc":"us","latitude":37.77397,"longitude":-122.4313,"reserved":0,"last_update":"0001-01-01T00:00:00Z","name_a2s":"Uncletopia | San Francisco | 3 | Stopwatch Beta","protocol":17,"map":"koth_highpass","folder":"tf","game":"Team Fortress","app_id":440,"player_count":0,"max_players":24,"Bots":0,"server_type":"Dedicated","server_os":"Linux","password":true,"vac":true,"version":"7742253","steam_id":85568392924742824,"keywords":["cp","nocrits","nodmgspread","uncletopia"],"game_id":440,"stv_port":27036,"stv_name":"Uncletopia | San Francisco | 3 | Stopwatch Beta | STV","players":null},{"server_id":20,"name":"Uncletopia | San Francisco | 4 | Community","name_short":"sfo-4","host":"sfo-1.us.uncletopia.com","port":27045,"enabled":true,"region":"us-west","cc":"us","latitude":37.77397,"longitude":-122.4313,"reserved":0,"last_update":"0001-01-01T00:00:00Z","name_a2s":"Uncletopia | San Francisco | 4 | Community","protocol":17,"map":"cp_dustbowl","folder":"tf","game":"Team Fortress","app_id":440,"player_count":3,"max_players":24,"Bots":0,"server_type":"Dedicated","server_os":"Linux","password":true,"vac":true,"version":"7742253","steam_id":85568392924742826,"keywords":["cp","nocrits","nodmgspread","uncletopia"],"game_id":440,"stv_port":27046,"stv_name":"Uncletopia | San Francisco | 4 | Community | STV","players":[{"user_id":4,"name":"Jediapprentice6","steam_id":76561198799460968,"connected_time":1444000000000,"state":"active","ping":68},{"user_id":5,"name":"lol","steam_id":76561199085745819,"connected_time":1411000000000,"state":"active","ping":68},{"user_id":6,"name":"MegaMott","steam_id":76561199172245274,"connected_time":364000000000,"state":"active","ping":62}]},{"server_id":141,"name":"Uncletopia | Sydney | 1 | All Maps","name_short":"syd-1","host":"syd-1.au.uncletopia.com","port":27015,"enabled":true,"region":"au","cc":"au","latitude":-33.865143,"longitude":151.2099,"reserved":0,"last_update":"0001-01-01T00:00:00Z","name_a2s":"Uncletopia | Sydney | 1 | All Maps","protocol":17,"map":"koth_lakeside_final","folder":"tf","game":"Team Fortress","app_id":440,"player_count":0,"max_players":24,"Bots":0,"server_type":"Dedicated","server_os":"Linux","password":true,"vac":true,"version":"7742253","steam_id":85568392924470001,"keywords":["cp","nocrits","nodmgspread","uncletopia"],"game_id":440,"stv_port":27016,"stv_name":"Uncletopia | Sydney | 1 | All Maps | STV","players":null},{"server_id":123,"name":"Uncletopia | Sydney | 2 | All Maps","name_short":"syd-2","host":"syd-1.au.uncletopia.com","port":27025,"enabled":true,"region":"au","cc":"au","latitude":-33.865143,"longitude":151.2099,"reserved":0,"last_update":"0001-01-01T00:00:00Z","name_a2s":"Uncletopia | Sydney | 2 | All Maps","protocol":17,"map":"pl_swiftwater_final1","folder":"tf","game":"Team Fortress","app_id":440,"player_count":9,"max_players":24,"Bots":0,"server_type":"Dedicated","server_os":"Linux","password":true,"vac":true,"version":"7742253","steam_id":85568392924470002,"keywords":["nocrits","nodmgspread","payload","uncletopia"],"game_id":440,"stv_port":27026,"stv_name":"Uncletopia | Sydney | 2 | All Maps | STV","players":[{"user_id":15,"name":"squrrel","steam_id":76561198083429611,"connected_time":70000000000,"state":"active","ping":68},{"user_id":4,"name":"Skyboi","steam_id":76561199017211623,"connected_time":3649000000000,"state":"active","ping":76},{"user_id":5,"name":"oldboy (2003) is a good film","steam_id":76561199057568663,"connected_time":2948000000000,"state":"active","ping":59},{"user_id":9,"name":"WickedOS","steam_id":76561198452767008,"connected_time":2324000000000,"state":"active","ping":56},{"user_id":8,"name":"Ninjanoah5","steam_id":76561198858613596,"connected_time":2752000000000,"state":"active","ping":45},{"user_id":10,"name":"Wrainbow","steam_id":76561199039385168,"connected_time":2281000000000,"state":"active","ping":63},{"user_id":16,"name":"BIGNATE","steam_id":76561199207791519,"connected_time":23000000000,"state":"spawning","ping":105},{"user_id":13,"name":"Dingo","steam_id":76561198315774295,"connected_time":1074000000000,"state":"active","ping":54},{"user_id":14,"name":"Smokdatup","steam_id":76561198398653664,"connected_time":330000000000,"state":"active","ping":57}]},{"server_id":395,"name":"Uncletopia | Sydney | 3 | All Maps","name_short":"syd-3","host":"syd-1.au.uncletopia.com","port":27035,"enabled":true,"region":"au","cc":"au","latitude":-33.865143,"longitude":151.2099,"reserved":0,"last_update":"0001-01-01T00:00:00Z","name_a2s":"Uncletopia | Sydney | 3 | All Maps","protocol":17,"map":"koth_viaduct","folder":"tf","game":"Team Fortress","app_id":440,"player_count":0,"max_players":24,"Bots":0,"server_type":"Dedicated","server_os":"Linux","password":true,"vac":true,"version":"7742253","steam_id":85568392925194467,"keywords":["cp","nocrits","nodmgspread","uncletopia"],"game_id":440,"stv_port":27036,"stv_name":"Uncletopia | Sydney | 3 | All Maps | STV","players":null},{"server_id":396,"name":"Uncletopia | Sydney | 4 | All Maps","name_short":"syd-4","host":"syd-1.au.uncletopia.com","port":27045,"enabled":true,"region":"au","cc":"au","latitude":-33.865143,"longitude":151.2099,"reserved":0,"last_update":"0001-01-01T00:00:00Z","name_a2s":"Uncletopia | Sydney | 4 | All Maps","protocol":17,"map":"pl_frontier_final","folder":"tf","game":"Team Fortress","app_id":440,"player_count":0,"max_players":24,"Bots":0,"server_type":"Dedicated","server_os":"Linux","password":true,"vac":true,"version":"7742253","steam_id":85568392925397958,"keywords":["nocrits","nodmgspread","payload","uncletopia"],"game_id":440,"stv_port":27046,"stv_name":"Uncletopia | Sydney | 4 | All Maps | STV","players":null},{"server_id":58,"name":"Uncletopia | Sydney | 5 | Stopwatch Beta","name_short":"syd-5","host":"syd-1.au.uncletopia.com","port":27055,"enabled":true,"region":"au","cc":"au","latitude":-33.865143,"longitude":151.2099,"reserved":0,"last_update":"0001-01-01T00:00:00Z","name_a2s":"Uncletopia | Sydney | 5 | Stopwatch Beta","protocol":17,"map":"cp_sunshine","folder":"tf","game":"Team Fortress","app_id":440,"player_count":0,"max_players":24,"Bots":0,"server_type":"Dedicated","server_os":"Linux","password":true,"vac":true,"version":"7742253","steam_id":85568392925397959,"keywords":["cp","nocrits","nodmgspread","uncletopia"],"game_id":440,"stv_port":27056,"stv_name":"Uncletopia | Sydney | 5 | Stopwatch Beta | STV","players":null},{"server_id":59,"name":"Uncletopia | Sydney | 6 | Community","name_short":"syd-6","host":"syd-1.au.uncletopia.com","port":27065,"enabled":true,"region":"au","cc":"au","latitude":-33.865143,"longitude":151.2099,"reserved":0,"last_update":"0001-01-01T00:00:00Z","name_a2s":"Uncletopia | Sydney | 6 | Community","protocol":17,"map":"cp_dustbowl","folder":"tf","game":"Team Fortress","app_id":440,"player_count":0,"max_players":24,"Bots":0,"server_type":"Dedicated","server_os":"Linux","password":true,"vac":true,"version":"7742253","steam_id":85568392925397960,"keywords":["cp","nocrits","nodmgspread","uncletopia"],"game_id":440,"stv_port":27066,"stv_name":"Uncletopia | Sydney | 6 | Community | STV","players":null},{"server_id":49,"name":"Uncletopia | Warsaw | 1 | All Maps","name_short":"waw-1","host":"waw-1.pl.uncletopia.com","port":27015,"enabled":true,"region":"eu","cc":"pl","latitude":52.2297,"longitude":21.017532,"reserved":0,"last_update":"0001-01-01T00:00:00Z","name_a2s":"","protocol":0,"map":"","folder":"","game":"","app_id":0,"player_count":0,"max_players":0,"Bots":0,"server_type":"","server_os":"","password":false,"vac":false,"version":"","steam_id":0,"keywords":null,"game_id":0,"stv_port":0,"stv_name":"","players":null},{"server_id":50,"name":"Uncletopia | Warsaw | 2 | All Maps","name_short":"waw-2","host":"waw-1.pl.uncletopia.com","port":27025,"enabled":true,"region":"eu","cc":"pl","latitude":52.2297,"longitude":21.017532,"reserved":0,"last_update":"0001-01-01T00:00:00Z","name_a2s":"Uncletopia | Warsaw | 2 | All Maps","protocol":17,"map":"koth_lakeside_final","folder":"tf","game":"Team Fortress","app_id":440,"player_count":0,"max_players":24,"Bots":0,"server_type":"Dedicated","server_os":"Linux","password":true,"vac":true,"version":"7742253","steam_id":85568392925397851,"keywords":["cp","nocrits","nodmgspread","uncletopia"],"game_id":440,"stv_port":27026,"stv_name":"Uncletopia | Warsaw | 2 | All Maps | STV","players":null},{"server_id":51,"name":"Uncletopia | Warsaw | 3 | All Maps","name_short":"waw-3","host":"waw-1.pl.uncletopia.com","port":27035,"enabled":true,"region":"eu","cc":"pl","latitude":52.2297,"longitude":21.017532,"reserved":0,"last_update":"0001-01-01T00:00:00Z","name_a2s":"Uncletopia | Warsaw | 3 | All Maps","protocol":17,"map":"koth_lakeside_final","folder":"tf","game":"Team Fortress","app_id":440,"player_count":0,"max_players":24,"Bots":0,"server_type":"Dedicated","server_os":"Linux","password":true,"vac":true,"version":"7742253","steam_id":85568392925397852,"keywords":["cp","nocrits","nodmgspread","uncletopia"],"game_id":440,"stv_port":27036,"stv_name":"Uncletopia | Warsaw | 3 | All Maps | STV","players":null},{"server_id":52,"name":"Uncletopia | Warsaw | 4 | All Maps","name_short":"waw-4","host":"waw-1.pl.uncletopia.com","port":27045,"enabled":true,"region":"eu","cc":"pl","latitude":52.2297,"longitude":21.017532,"reserved":0,"last_update":"0001-01-01T00:00:00Z","name_a2s":"Uncletopia | Warsaw | 4 | All Maps","protocol":17,"map":"pl_pier","folder":"tf","game":"Team Fortress","app_id":440,"player_count":23,"max_players":24,"Bots":0,"server_type":"Dedicated","server_os":"Linux","password":true,"vac":true,"version":"7742253","steam_id":85568392925397853,"keywords":["nocrits","nodmgspread","payload","uncletopia"],"game_id":440,"stv_port":27046,"stv_name":"Uncletopia | Warsaw | 4 | All Maps | STV","players":[{"user_id":443,"name":"Albertzero9 #SaveTF2","steam_id":76561199089134345,"connected_time":1830000000000,"state":"active","ping":93},{"user_id":429,"name":"ice_and_fireboy","steam_id":76561199235600835,"connected_time":2507000000000,"state":"active","ping":67},{"user_id":466,"name":"B52 stealth bomber","steam_id":76561198878274997,"connected_time":315000000000,"state":"active","ping":56},{"user_id":463,"name":":D","steam_id":76561198106788720,"connected_time":600000000000,"state":"active","ping":93},{"user_id":464,"name":"wicked","steam_id":76561198164376035,"connected_time":476000000000,"state":"active","ping":82},{"user_id":451,"name":"c953","steam_id":76561198798981682,"connected_time":1159000000000,"state":"active","ping":162},{"user_id":447,"name":"busgrabb","steam_id":76561198055768465,"connected_time":1383000000000,"state":"active","ping":74},{"user_id":442,"name":"BladedBloom4611","steam_id":76561198416655215,"connected_time":1890000000000,"state":"active","ping":89},{"user_id":465,"name":"Speibsackerl","steam_id":76561198058135257,"connected_time":463000000000,"state":"active","ping":75},{"user_id":471,"name":"CapnFang","steam_id":76561198042687780,"connected_time":87000000000,"state":"active","ping":127},{"user_id":435,"name":"Rubi","steam_id":76561198139410003,"connected_time":2218000000000,"state":"active","ping":92},{"user_id":472,"name":"Hot Coffee","steam_id":76561198106868468,"connected_time":83000000000,"state":"active","ping":89},{"user_id":436,"name":"DrauconeTMDS","steam_id":76561198083510257,"connected_time":2212000000000,"state":"active","ping":63},{"user_id":468,"name":"Redmailbox","steam_id":76561198042930322,"connected_time":298000000000,"state":"active","ping":82},{"user_id":452,"name":"CrosStorm","steam_id":76561198131029562,"connected_time":1146000000000,"state":"active","ping":144},{"user_id":453,"name":"Mass","steam_id":76561198432195204,"connected_time":1137000000000,"state":"active","ping":75},{"user_id":474,"name":"Lukas","steam_id":76561198009118452,"connected_time":10000000000,"state":"active","ping":80},{"user_id":456,"name":"Shawty","steam_id":76561198256704286,"connected_time":867000000000,"state":"active","ping":75},{"user_id":457,"name":"DVous","steam_id":76561198121737111,"connected_time":856000000000,"state":"active","ping":54},{"user_id":460,"name":"Not that good","steam_id":76561199286851783,"connected_time":745000000000,"state":"active","ping":55},{"user_id":420,"name":"[P-roc] Cmm Bert","steam_id":76561198016658674,"connected_time":4228000000000,"state":"active","ping":83},{"user_id":470,"name":"nikke","steam_id":76561198035655270,"connected_time":216000000000,"state":"active","ping":92},{"user_id":421,"name":"[P-roc] Lovely","steam_id":76561198074361075,"connected_time":4199000000000,"state":"active","ping":79}]},{"server_id":53,"name":"Uncletopia | Warsaw | 5 | Stopwatch Beta","name_short":"waw-5","host":"waw-1.pl.uncletopia.com","port":27055,"enabled":true,"region":"eu","cc":"pl","latitude":52.2297,"longitude":21.017532,"reserved":0,"last_update":"0001-01-01T00:00:00Z","name_a2s":"Uncletopia | Warsaw | 5 | Stopwatch Beta","protocol":17,"map":"pl_swiftwater_final1","folder":"tf","game":"Team Fortress","app_id":440,"player_count":0,"max_players":24,"Bots":0,"server_type":"Dedicated","server_os":"Linux","password":true,"vac":true,"version":"7742253","steam_id":85568392925397854,"keywords":["nocrits","nodmgspread","payload","uncletopia"],"game_id":440,"stv_port":27056,"stv_name":"Uncletopia | Warsaw | 5 | Stopwatch Beta | STV","players":null},{"server_id":54,"name":"Uncletopia | Warsaw | 6 | Community","name_short":"waw-6","host":"waw-1.pl.uncletopia.com","port":27065,"enabled":true,"region":"eu","cc":"pl","latitude":52.2297,"longitude":21.017532,"reserved":0,"last_update":"0001-01-01T00:00:00Z","name_a2s":"Uncletopia | Warsaw | 6 | Community","protocol":17,"map":"koth_highpass","folder":"tf","game":"Team Fortress","app_id":440,"player_count":2,"max_players":24,"Bots":0,"server_type":"Dedicated","server_os":"Linux","password":true,"vac":true,"version":"7742253","steam_id":85568392925397856,"keywords":["cp","nocrits","nodmgspread","uncletopia"],"game_id":440,"stv_port":27066,"stv_name":"Uncletopia | Warsaw | 6 | Community | STV","players":[{"user_id":8,"name":"Wojowniczek.pl","steam_id":76561199228645329,"connected_time":4975000000000,"state":"active","ping":496},{"user_id":10,"name":"CzarnyRycerzMomon","steam_id":76561199028465810,"connected_time":4479000000000,"state":"active","ping":45}]}]}