{"status":true,"message":"","result":[{"server_id":9,"name":"Uncletopia | Atlanta | 1 | All Maps","name_short":"atl-1","host":"atl-1.us.uncletopia.com","port":27015,"enabled":true,"region":"us-east","cc":"us","latitude":33.753746,"longitude":-84.38633,"reserved":0,"last_update":"0001-01-01T00:00:00Z","name_a2s":"Uncletopia | Atlanta | 1 | All Maps","protocol":17,"map":"pl_barnblitz","folder":"tf","game":"Team Fortress","app_id":440,"player_count":24,"max_players":24,"Bots":0,"server_type":"Dedicated","server_os":"Linux","password":true,"vac":true,"version":"7708610","steam_id":85568392924469982,"keywords":["nocrits","nodmgspread","payload","uncletopia"],"game_id":440,"stv_port":27016,"stv_name":"Uncletopia | Atlanta | 1 | All Maps | STV","players":[{"user_id":200,"name":"ATL1 | Dec the halls","steam_id":76561199045608372,"connected_time":5910000000000,"state":"active","ping":75},{"user_id":288,"name":"BERBBLES","steam_id":76561198815107994,"connected_time":741000000000,"state":"active","ping":68},{"user_id":296,"name":"fancy chef","steam_id":76561198993641831,"connected_time":75000000000,"state":"active","ping":53},{"user_id":299,"name":"AtlasWarMachine","steam_id":76561198309487226,"connected_time":2000000000,"state":"spawning","ping":86},{"user_id":290,"name":"ATL1 | Psionic Present","steam_id":76561198151019322,"connected_time":720000000000,"state":"active","ping":75},{"user_id":285,"name":"-Enter Name Here-","steam_id":76561198040358938,"connected_time":1049000000000,"state":"active","ping":61},{"user_id":289,"name":"mike","steam_id":76561198099412571,"connected_time":732000000000,"state":"active","ping":63},{"user_id":282,"name":"[CTC] kooldan","steam_id":76561198136593625,"connected_time":1368000000000,"state":"active","ping":56},{"user_id":241,"name":"HARRY","steam_id":76561198842067238,"connected_time":3812000000000,"state":"active","ping":62},{"user_id":268,"name":"Mage","steam_id":76561198285026879,"connected_time":2012000000000,"state":"active","ping":75},{"user_id":260,"name":"Schlooper","steam_id":76561198879313485,"connected_time":2559000000000,"state":"active","ping":73},{"user_id":286,"name":"Ccoomb","steam_id":76561198378076756,"connected_time":839000000000,"state":"active","ping":66},{"user_id":269,"name":"spinglebarp","steam_id":76561198091472345,"connected_time":1967000000000,"state":"active","ping":89},{"user_id":237,"name":"Towns","steam_id":76561198984662863,"connected_time":4360000000000,"state":"active","ping":59},{"user_id":291,"name":".Alex","steam_id":76561199036099287,"connected_time":710000000000,"state":"active","ping":56},{"user_id":279,"name":"spaps","steam_id":76561198123364734,"connected_time":1709000000000,"state":"active","ping":78},{"user_id":276,"name":"GinjaNinja","steam_id":76561198844609316,"connected_time":1800000000000,"state":"active","ping":111},{"user_id":267,"name":"ATL1 | J O V A","steam_id":76561198090333536,"connected_time":2047000000000,"state":"active","ping":66},{"user_id":293,"name":"_Data_Drain_","steam_id":76561198024875402,"connected_time":599000000000,"state":"active","ping":74},{"user_id":284,"name":"i have a gun","steam_id":76561198016121536,"connected_time":1068000000000,"state":"active","ping":94},{"user_id":198,"name":"SnowStorm","steam_id":76561198095817025,"connected_time":5930000000000,"state":"active","ping":42},{"user_id":135,"name":"FancyBones","steam_id":76561198180198885,"connected_time":8753000000000,"state":"active","ping":72},{"user_id":295,"name":"Jitters","steam_id":76561198078898336,"connected_time":384000000000,"state":"active","ping":64},{"user_id":278,"name":"L. Ron Hoyabembe","steam_id":76561198037786766,"connected_time":1782000000000,"state":"active","ping":82}]},{"server_id":400,"name":"Uncletopia | Atlanta | 3 | All Maps","name_short":"atl-3","host":"atl-1.us.uncletopia.com","port":27035,"enabled":true,"region":"us-east","cc":"us","latitude":33.753746,"longitude":-84.38633,"reserved":0,"last_update":"0001-01-01T00:00:00Z","name_a2s":"Uncletopia | Atlanta | 3 | All Maps","protocol":17,"map":"pl_frontier_final","folder":"tf","game":"Team Fortress","app_id":440,"player_count":24,"max_players":24,"Bots":0,"server_type":"Dedicated","server_os":"Linux","password":true,"vac":true,"version":"7708610","steam_id":85568392924515187,"keywords":["nocrits","nodmgspread","payload","uncletopia"],"game_id":440,"stv_port":27036,"stv_name":"Uncletopia | Atlanta | 3 | All Maps | STV","players":[{"user_id":78,"name":"BigBubble42","steam_id":76561198136286123,"connected_time":4478000000000,"state":"active","ping":45},{"user_id":118,"name":"Pie™","steam_id":76561198158312625,"connected_time":847000000000,"state":"active","ping":105},{"user_id":111,"name":"Egg","steam_id":76561199075359963,"connected_time":2098000000000,"state":"active","ping":89},{"user_id":55,"name":"Onyx","steam_id":76561198275349640,"connected_time":5370000000000,"state":"active","ping":74},{"user_id":124,"name":"BEAswacks93 (she/her)","steam_id":76561199222250828,"connected_time":408000000000,"state":"active","ping":78},{"user_id":13,"name":"Psychosis","steam_id":76561198078659070,"connected_time":6386000000000,"state":"active","ping":68},{"user_id":117,"name":"Flawlessrain420","steam_id":76561198974635923,"connected_time":899000000000,"state":"active","ping":79},{"user_id":104,"name":"plastic eater","steam_id":76561198995733161,"connected_time":3176000000000,"state":"active","ping":93},{"user_id":75,"name":"Jackass in a box","steam_id":76561198355268305,"connected_time":4534000000000,"state":"active","ping":74},{"user_id":119,"name":"Lemony Lilly (She/Her)","steam_id":76561198042479066,"connected_time":778000000000,"state":"active","ping":67},{"user_id":125,"name":"yate","steam_id":76561198311004039,"connected_time":275000000000,"state":"active","ping":83},{"user_id":122,"name":"Scut","steam_id":76561198973734291,"connected_time":559000000000,"state":"active","ping":112},{"user_id":94,"name":"Wolfwu - BUFF THE SPEED","steam_id":76561198864421290,"connected_time":3963000000000,"state":"active","ping":37},{"user_id":106,"name":"Moe the lawn \u003c3","steam_id":76561198195620945,"connected_time":3137000000000,"state":"active","ping":73},{"user_id":108,"name":"The Fragrance of Dark Coffee","steam_id":76561198013111370,"connected_time":2797000000000,"state":"active","ping":80},{"user_id":109,"name":"Mrs Moth\u003c3 (She/Her)","steam_id":76561198356567287,"connected_time":2420000000000,"state":"active","ping":66},{"user_id":35,"name":"iamoctopii","steam_id":76561198876901076,"connected_time":5988000000000,"state":"active","ping":108},{"user_id":121,"name":"Dipdoof","steam_id":76561198077634776,"connected_time":600000000000,"state":"active","ping":96},{"user_id":88,"name":"Marco C","steam_id":76561198383730196,"connected_time":4188000000000,"state":"active","ping":94},{"user_id":107,"name":"dakota__","steam_id":76561198076596506,"connected_time":3119000000000,"state":"active","ping":104},{"user_id":82,"name":"nothing good will happen","steam_id":76561198054260599,"connected_time":4406000000000,"state":"active","ping":76},{"user_id":110,"name":"Uung","steam_id":76561198183956731,"connected_time":2400000000000,"state":"active","ping":48},{"user_id":99,"name":"wstrnsmile","steam_id":76561199384654820,"connected_time":3851000000000,"state":"active","ping":65},{"user_id":101,"name":"Rocco__","steam_id":76561197992824074,"connected_time":3646000000000,"state":"active","ping":90}]},{"server_id":401,"name":"Uncletopia | Atlanta | 4 | No Payload","name_short":"atl-4","host":"atl-1.us.uncletopia.com","port":27045,"enabled":true,"region":"us-east","cc":"us","latitude":33.753746,"longitude":-84.38633,"reserved":0,"last_update":"0001-01-01T00:00:00Z","name_a2s":"Uncletopia | Atlanta | 4 | No Payload","protocol":17,"map":"cp_fastlane","folder":"tf","game":"Team Fortress","app_id":440,"player_count":2,"max_players":24,"Bots":0,"server_type":"Dedicated","server_os":"Linux","password":true,"vac":true,"version":"7708610","steam_id":85568392924515188,"keywords":["cp","nocrits","nodmgspread","uncletopia"],"game_id":440,"stv_port":27046,"stv_name":"Uncletopia | Atlanta | 4 | No Payload | STV","players":[{"user_id":21,"name":"tf2 fire extengiusher hater","steam_id":76561199091978264,"connected_time":537000000000,"state":"active","ping":79},{"user_id":23,"name":"lumen","steam_id":76561198412433306,"connected_time":452000000000,"state":"active","ping":92}]},{"server_id":2,"name":"Uncletopia | Chicago | 1 | All Maps","name_short":"chi-1","host":"chi-1.us.uncletopia.com","port":27015,"enabled":true,"region":"us-central","cc":"us","latitude":41.881832,"longitude":-87.62318,"reserved":0,"last_update":"0001-01-01T00:00:00Z","name_a2s":"Uncletopia | Chicago | 1 | All Maps","protocol":17,"map":"koth_sawmill","folder":"tf","game":"Team Fortress","app_id":440,"player_count":23,"max_players":24,"Bots":0,"server_type":"Dedicated","server_os":"Linux","password":true,"vac":true,"version":"7708610","steam_id":85568392924469984,"keywords":["cp","nocrits","nodmgspread","uncletopia"],"game_id":440,"stv_port":27016,"stv_name":"Uncletopia | Chicago | 1 | All Maps | STV","players":[{"user_id":259,"name":"DuckKey","steam_id":76561198904477889,"connected_time":5779000000000,"state":"active","ping":60},{"user_id":334,"name":"what'd you say","steam_id":76561198284992433,"connected_time":1314000000000,"state":"active","ping":48},{"user_id":305,"name":"Andrew","steam_id":76561198070615190,"connected_time":2908000000000,"state":"active","ping":59},{"user_id":335,"name":"Lawnmower","steam_id":76561198186680197,"connected_time":1193000000000,"state":"active","ping":83},{"user_id":310,"name":"freeyman81","steam_id":76561199104215632,"connected_time":2581000000000,"state":"active","ping":72},{"user_id":321,"name":"Sad Man","steam_id":76561197960857993,"connected_time":1537000000000,"state":"active","ping":45},{"user_id":322,"name":"Wug","steam_id":76561198084112264,"connected_time":1535000000000,"state":"active","ping":75},{"user_id":342,"name":"averted","steam_id":76561198067784310,"connected_time":540000000000,"state":"active","ping":61},{"user_id":325,"name":"KOOSTIFF","steam_id":76561198053727976,"connected_time":1523000000000,"state":"active","ping":62},{"user_id":253,"name":"CAdaverOusPRophet","steam_id":76561198045304110,"connected_time":6252000000000,"state":"active","ping":49},{"user_id":343,"name":"Theory-Y","steam_id":76561198116419931,"connected_time":539000000000,"state":"active","ping":114},{"user_id":311,"name":"Sentry Gun (Festive American)","steam_id":76561198313770809,"connected_time":2556000000000,"state":"active","ping":59},{"user_id":340,"name":"Ras","steam_id":76561198123546775,"connected_time":785000000000,"state":"active","ping":60},{"user_id":294,"name":"Cleric","steam_id":76561198045887994,"connected_time":3313000000000,"state":"active","ping":45},{"user_id":344,"name":"Foul Stench","steam_id":76561199024444191,"connected_time":521000000000,"state":"active","ping":80},{"user_id":327,"name":"Frongus","steam_id":76561197979056451,"connected_time":1507000000000,"state":"active","ping":95},{"user_id":350,"name":"ChickenManPhil","steam_id":76561199139508332,"connected_time":149000000000,"state":"active","ping":80},{"user_id":347,"name":"Bunt","steam_id":76561198124477567,"connected_time":478000000000,"state":"active","ping":62},{"user_id":338,"name":"poggar","steam_id":76561198045815615,"connected_time":1174000000000,"state":"active","ping":75},{"user_id":348,"name":"rolt bagger","steam_id":76561198026664629,"connected_time":461000000000,"state":"active","ping":53},{"user_id":351,"name":"Bingus","steam_id":76561198001237783,"connected_time":149000000000,"state":"active","ping":56},{"user_id":291,"name":"Lia_Reindeer","steam_id":76561198151569597,"connected_time":3713000000000,"state":"active","ping":148},{"user_id":341,"name":"silly","steam_id":76561199009200975,"connected_time":784000000000,"state":"active","ping":80}]},{"server_id":106,"name":"Uncletopia | Chicago | 2 | All Maps","name_short":"chi-2","host":"chi-1.us.uncletopia.com","port":27025,"enabled":true,"region":"us-central","cc":"us","latitude":41.881832,"longitude":-87.62318,"reserved":0,"last_update":"0001-01-01T00:00:00Z","name_a2s":"Uncletopia | Chicago | 2 | All Maps","protocol":17,"map":"cp_steel","folder":"tf","game":"Team Fortress","app_id":440,"player_count":25,"max_players":24,"Bots":0,"server_type":"Dedicated","server_os":"Linux","password":true,"vac":true,"version":"7708610","steam_id":85568392924469985,"keywords":["cp","nocrits","nodmgspread","uncletopia"],"game_id":440,"stv_port":27026,"stv_name":"Uncletopia | Chicago | 2 | All Maps | STV","players":[{"user_id":363,"name":"NoonCity","steam_id":76561198010165479,"connected_time":619000000000,"state":"active","ping":62},{"user_id":320,"name":"amagicowl","steam_id":76561199060487814,"connected_time":2951000000000,"state":"active","ping":76},{"user_id":359,"name":"NerdyEnforcement","steam_id":76561198437710820,"connected_time":707000000000,"state":"active","ping":65},{"user_id":322,"name":"Team Fortress 2","steam_id":76561198330697854,"connected_time":2926000000000,"state":"active","ping":179},{"user_id":269,"name":"Onymy. (Is here for your eggnog","steam_id":76561198171048015,"connected_time":5200000000000,"state":"active","ping":59},{"user_id":372,"name":"Sponsored by Nord VPN","steam_id":76561198100385184,"connected_time":308000000000,"state":"active","ping":103},{"user_id":381,"name":"Alberto2104","steam_id":76561198094968873,"connected_time":14000000000,"state":"spawning","ping":274},{"user_id":375,"name":"Herr Müller","steam_id":76561198064876829,"connected_time":225000000000,"state":"active","ping":95},{"user_id":350,"name":"TallBit","steam_id":76561199059748976,"connected_time":1162000000000,"state":"active","ping":58},{"user_id":343,"name":"Prime Sanity","steam_id":76561198395766307,"connected_time":1559000000000,"state":"active","ping":47},{"user_id":344,"name":"Nick","steam_id":76561198144448144,"connected_time":1556000000000,"state":"active","ping":59},{"user_id":314,"name":"no","steam_id":76561198248853140,"connected_time":3183000000000,"state":"active","ping":81},{"user_id":345,"name":"HarryjusttHarry","steam_id":76561198982810452,"connected_time":1457000000000,"state":"active","ping":99},{"user_id":334,"name":"newboi (F2P)","steam_id":76561199273882768,"connected_time":2125000000000,"state":"active","ping":61},{"user_id":351,"name":"Washed up Scout main","steam_id":76561199030160932,"connected_time":1142000000000,"state":"active","ping":87},{"user_id":242,"name":"gps","steam_id":76561198067492304,"connected_time":7160000000000,"state":"active","ping":81},{"user_id":356,"name":"tatis","steam_id":76561198317697314,"connected_time":902000000000,"state":"active","ping":117},{"user_id":307,"name":"Protato","steam_id":76561198061182563,"connected_time":3487000000000,"state":"active","ping":71},{"user_id":336,"name":"Spoonastic","steam_id":76561198343838009,"connected_time":2079000000000,"state":"active","ping":112},{"user_id":287,"name":"spherewithahat","steam_id":76561199122192660,"connected_time":4441000000000,"state":"active","ping":74},{"user_id":366,"name":"PzVIIIMaus","steam_id":76561198346559365,"connected_time":530000000000,"state":"active","ping":49},{"user_id":253,"name":"wiiblob","steam_id":76561198109106242,"connected_time":6182000000000,"state":"active","ping":137},{"user_id":360,"name":"mechiimi ★","steam_id":76561198321627268,"connected_time":705000000000,"state":"active","ping":151},{"user_id":368,"name":"Geloman","steam_id":76561198005501322,"connected_time":446000000000,"state":"active","ping":76},{"user_id":318,"name":"sax","steam_id":76561198094788852,"connected_time":3094000000000,"state":"active","ping":45}]},{"server_id":402,"name":"Uncletopia | Chicago | 3 | All Maps","name_short":"chi-3","host":"chi-1.us.uncletopia.com","port":27035,"enabled":true,"region":"us-central","cc":"us","latitude":41.881832,"longitude":-87.62318,"reserved":0,"last_update":"0001-01-01T00:00:00Z","name_a2s":"Uncletopia | Chicago | 3 | All Maps","protocol":17,"map":"pl_wutville_event","folder":"tf","game":"Team Fortress","app_id":440,"player_count":23,"max_players":24,"Bots":0,"server_type":"Dedicated","server_os":"Linux","password":true,"vac":true,"version":"7708610","steam_id":85568392924515191,"keywords":["nocrits","nodmgspread","payload","uncletopia"],"game_id":440,"stv_port":27036,"stv_name":"Uncletopia | Chicago | 3 | All Maps | STV","players":[{"user_id":444,"name":"NUt","steam_id":76561198031007966,"connected_time":696000000000,"state":"active","ping":59},{"user_id":405,"name":"weeb_whacker #Jenius","steam_id":76561198187098041,"connected_time":3449000000000,"state":"active","ping":57},{"user_id":245,"name":"Lone Dancer","steam_id":76561199096241116,"connected_time":9729000000000,"state":"active","ping":50},{"user_id":459,"name":"a_person_159","steam_id":76561199024416326,"connected_time":236000000000,"state":"active","ping":61},{"user_id":439,"name":"josh","steam_id":76561198111565081,"connected_time":786000000000,"state":"active","ping":107},{"user_id":440,"name":"gautamaYBT","steam_id":76561198133616658,"connected_time":784000000000,"state":"active","ping":101},{"user_id":463,"name":"Papi Pescado","steam_id":76561198039500575,"connected_time":25000000000,"state":"spawning","ping":109},{"user_id":443,"name":"flarp (Naxen)","steam_id":76561198238525296,"connected_time":736000000000,"state":"active","ping":58},{"user_id":456,"name":"Razz","steam_id":76561198119698950,"connected_time":323000000000,"state":"active","ping":131},{"user_id":435,"name":"⌞pizzaguy⌝","steam_id":76561197963710485,"connected_time":1677000000000,"state":"active","ping":102},{"user_id":460,"name":"swan","steam_id":76561198012569200,"connected_time":218000000000,"state":"active","ping":76},{"user_id":447,"name":"GyokuroGreen","steam_id":76561199145852269,"connected_time":606000000000,"state":"active","ping":60},{"user_id":448,"name":"Hylic","steam_id":76561199051314589,"connected_time":594000000000,"state":"active","ping":63},{"user_id":458,"name":"brug","steam_id":76561199086261574,"connected_time":305000000000,"state":"active","ping":59},{"user_id":371,"name":"XX_gamer2001_XxX","steam_id":76561198105405869,"connected_time":4743000000000,"state":"active","ping":77},{"user_id":450,"name":"Season-Null","steam_id":76561198062791227,"connected_time":541000000000,"state":"active","ping":72},{"user_id":454,"name":"Antoni","steam_id":76561198090577320,"connected_time":448000000000,"state":"active","ping":59},{"user_id":452,"name":"LynBoByn","steam_id":76561198052911142,"connected_time":500000000000,"state":"active","ping":70},{"user_id":455,"name":"PrincessSephera","steam_id":76561198018690940,"connected_time":379000000000,"state":"active","ping":72},{"user_id":428,"name":"geg hafly","steam_id":76561198123679124,"connected_time":2460000000000,"state":"active","ping":100},{"user_id":432,"name":"BurnN8or101","steam_id":76561198132668224,"connected_time":1892000000000,"state":"active","ping":74},{"user_id":462,"name":"Tw1tch3r","steam_id":76561199093785937,"connected_time":197000000000,"state":"active","ping":95},{"user_id":420,"name":"trautman5898","steam_id":76561199122916976,"connected_time":2676000000000,"state":"active","ping":82}]},{"server_id":403,"name":"Uncletopia | Chicago | 4 | All Maps","name_short":"chi-4","host":"chi-1.us.uncletopia.com","port":27045,"enabled":true,"region":"us-central","cc":"us","latitude":41.881832,"longitude":-87.62318,"reserved":0,"last_update":"0001-01-01T00:00:00Z","name_a2s":"Uncletopia | Chicago | 4 | All Maps","protocol":17,"map":"pl_badwater","folder":"tf","game":"Team Fortress","app_id":440,"player_count":24,"max_players":24,"Bots":0,"server_type":"Dedicated","server_os":"Linux","password":true,"vac":true,"version":"7708610","steam_id":85568392924515193,"keywords":["nocrits","nodmgspread","payload","uncletopia"],"game_id":440,"stv_port":27046,"stv_name":"Uncletopia | Chicago | 4 | All Maps | STV","players":[{"user_id":12,"name":"Dictatorial Karelian","steam_id":76561198196736457,"connected_time":7748000000000,"state":"active","ping":165},{"user_id":122,"name":"Barakast","steam_id":76561198090270266,"connected_time":1582000000000,"state":"active","ping":62},{"user_id":129,"name":"Rin \"Hindwing\" Redtail","steam_id":76561199074865638,"connected_time":871000000000,"state":"active","ping":73},{"user_id":127,"name":"TriHerdOmniFlow","steam_id":76561198088688531,"connected_time":884000000000,"state":"active","ping":76},{"user_id":126,"name":"lampin","steam_id":76561197964367078,"connected_time":905000000000,"state":"active","ping":45},{"user_id":88,"name":"Jikusen","steam_id":76561198143055842,"connected_time":3491000000000,"state":"active","ping":76},{"user_id":140,"name":"rubb3r","steam_id":76561198096874230,"connected_time":216000000000,"state":"active","ping":68},{"user_id":107,"name":"Synergy","steam_id":76561198098630198,"connected_time":2214000000000,"state":"active","ping":95},{"user_id":111,"name":"a baby","steam_id":76561198008662184,"connected_time":2063000000000,"state":"active","ping":61},{"user_id":98,"name":"Red","steam_id":76561197998285162,"connected_time":2606000000000,"state":"active","ping":77},{"user_id":128,"name":"Jetmonkey","steam_id":76561198013652143,"connected_time":876000000000,"state":"active","ping":68},{"user_id":141,"name":"Baka!⑨⑨⑨⑨","steam_id":76561198152948254,"connected_time":165000000000,"state":"active","ping":67},{"user_id":136,"name":"Sprinklingmydoughnut","steam_id":76561198168009092,"connected_time":671000000000,"state":"active","ping":75},{"user_id":131,"name":"heywaitasecond","steam_id":76561199064548292,"connected_time":862000000000,"state":"active","ping":73},{"user_id":113,"name":"aimbeef.exe","steam_id":76561198163265338,"connected_time":2030000000000,"state":"active","ping":87},{"user_id":99,"name":"ThatScarfDude #NekoIsLife","steam_id":76561198140963271,"connected_time":2478000000000,"state":"active","ping":64},{"user_id":114,"name":"Cuttle's Fish","steam_id":76561198280483257,"connected_time":2022000000000,"state":"active","ping":57},{"user_id":132,"name":"stump","steam_id":76561198012653832,"connected_time":834000000000,"state":"active","ping":51},{"user_id":137,"name":"ShinyOrion (She/Her)","steam_id":76561198408378321,"connected_time":556000000000,"state":"active","ping":70},{"user_id":133,"name":"BigBear","steam_id":76561198105227261,"connected_time":817000000000,"state":"active","ping":74},{"user_id":134,"name":"NyanHorses","steam_id":76561198161584966,"connected_time":813000000000,"state":"active","ping":69},{"user_id":63,"name":"doctor sex md","steam_id":76561198150678175,"connected_time":5201000000000,"state":"active","ping":104},{"user_id":139,"name":"Taco","steam_id":76561198024471874,"connected_time":387000000000,"state":"active","ping":88},{"user_id":119,"name":"Trox","steam_id":76561198263581464,"connected_time":1980000000000,"state":"active","ping":83}]},{"server_id":36,"name":"Uncletopia | Chicago | 5 | All Maps","name_short":"chi-5","host":"chi-2.us.uncletopia.com","port":27015,"enabled":true,"region":"us-central","cc":"us","latitude":41.881832,"longitude":-87.62318,"reserved":0,"last_update":"0001-01-01T00:00:00Z","name_a2s":"Uncletopia | Chicago | 5 | All Maps","protocol":17,"map":"koth_highpass","folder":"tf","game":"Team Fortress","app_id":440,"player_count":6,"max_players":24,"Bots":0,"server_type":"Dedicated","server_os":"Linux","password":true,"vac":true,"version":"7708610","steam_id":85568392924866362,"keywords":["cp","nocrits","nodmgspread","uncletopia"],"game_id":440,"stv_port":27016,"stv_name":"Uncletopia | Chicago | 5 | All Maps | STV","players":[{"user_id":12,"name":"BallisticMelon","steam_id":76561198299243370,"connected_time":1031000000000,"state":"active","ping":75},{"user_id":13,"name":"TapelessTiger","steam_id":76561198313023256,"connected_time":728000000000,"state":"active","ping":76},{"user_id":14,"name":"Shugabush Gaming","steam_id":76561199052184032,"connected_time":709000000000,"state":"active","ping":87},{"user_id":18,"name":"Digitic","steam_id":76561198080295536,"connected_time":181000000000,"state":"active","ping":63},{"user_id":17,"name":"filthycasual","steam_id":76561199138226238,"connected_time":319000000000,"state":"active","ping":76},{"user_id":19,"name":"DoubleX2000","steam_id":76561198164134387,"connected_time":180000000000,"state":"active","ping":93}]},{"server_id":37,"name":"Uncletopia | Chicago | 6 | All Maps","name_short":"chi-6","host":"chi-2.us.uncletopia.com","port":27025,"enabled":true,"region":"us-central","cc":"us","latitude":41.881832,"longitude":-87.62318,"reserved":0,"last_update":"0001-01-01T00:00:00Z","name_a2s":"Uncletopia | Chicago | 6 | All Maps","protocol":17,"map":"pl_barnblitz","folder":"tf","game":"Team Fortress","app_id":440,"player_count":0,"max_players":24,"Bots":0,"server_type":"Dedicated","server_os":"Linux","password":true,"vac":true,"version":"7708610","steam_id":85568392924866363,"keywords":["nocrits","nodmgspread","payload","uncletopia"],"game_id":440,"stv_port":27026,"stv_name":"Uncletopia | Chicago | 6 | All Maps | STV","players":null},{"server_id":38,"name":"Uncletopia | Chicago | 7 | No Payload","name_short":"chi-7","host":"chi-2.us.uncletopia.com","port":27035,"enabled":true,"region":"us-central","cc":"us","latitude":41.881832,"longitude":-87.62318,"reserved":0,"last_update":"0001-01-01T00:00:00Z","name_a2s":"Uncletopia | Chicago | 7 | No Payload","protocol":17,"map":"koth_highpass","folder":"tf","game":"Team Fortress","app_id":440,"player_count":0,"max_players":24,"Bots":0,"server_type":"Dedicated","server_os":"Linux","password":true,"vac":true,"version":"7708610","steam_id":85568392924866364,"keywords":["cp","nocrits","nodmgspread","uncletopia"],"game_id":440,"stv_port":27036,"stv_name":"Uncletopia | Chicago | 7 | No Payload | STV","players":null},{"server_id":39,"name":"Uncletopia | Chicago | 8 | Community","name_short":"chi-8","host":"chi-2.us.uncletopia.com","port":27045,"enabled":true,"region":"us-central","cc":"us","latitude":41.881832,"longitude":-87.62318,"reserved":0,"last_update":"0001-01-01T00:00:00Z","name_a2s":"Uncletopia | Chicago | 8 | Community","protocol":17,"map":"workshop/koth_synthetic_rc6a.ugc1549817316","folder":"tf","game":"Team Fortress","app_id":440,"player_count":0,"max_players":24,"Bots":0,"server_type":"Dedicated","server_os":"Linux","password":true,"vac":true,"version":"7708610","steam_id":85568392924866365,"keywords":["cp","nocrits","nodmgspread","uncletopia"],"game_id":440,"stv_port":27046,"stv_name":"Uncletopia | Chicago | 8 | Community | STV","players":null},{"server_id":8,"name":"Uncletopia | Dallas | 1 | All Maps","name_short":"dal-1","host":"dal-1.us.uncletopia.com","port":27015,"enabled":true,"region":"us-central","cc":"us","latitude":32.779167,"longitude":-96.80889,"reserved":0,"last_update":"0001-01-01T00:00:00Z","name_a2s":"Uncletopia | Dallas | 1 | All Maps","protocol":17,"map":"ctf_2fort","folder":"tf","game":"Team Fortress","app_id":440,"player_count":24,"max_players":24,"Bots":0,"server_type":"Dedicated","server_os":"Linux","password":true,"vac":true,"version":"7708610","steam_id":85568392924469986,"keywords":["ctf","nocrits","nodmgspread","uncletopia"],"game_id":440,"stv_port":27016,"stv_name":"Uncletopia | Dallas | 1 | All Maps | STV","players":[{"user_id":289,"name":"DMM","steam_id":76561198065426171,"connected_time":1647000000000,"state":"active","ping":52},{"user_id":337,"name":"BIG HOG","steam_id":76561198079923652,"connected_time":61000000000,"state":"active","ping":46},{"user_id":331,"name":"Loogus","steam_id":76561198811561721,"connected_time":196000000000,"state":"active","ping":61},{"user_id":312,"name":"ThePirateKenway","steam_id":76561198115156181,"connected_time":905000000000,"state":"active","ping":52},{"user_id":308,"name":"Techo","steam_id":76561199169405285,"connected_time":1116000000000,"state":"active","ping":102},{"user_id":316,"name":"mEch114","steam_id":76561198236936060,"connected_time":791000000000,"state":"active","ping":48},{"user_id":293,"name":"walterfishing_17","steam_id":76561198976904099,"connected_time":1588000000000,"state":"active","ping":74},{"user_id":317,"name":"Im Just A Lost Chicken","steam_id":76561198393764807,"connected_time":789000000000,"state":"active","ping":38},{"user_id":323,"name":"Anon","steam_id":76561198109740776,"connected_time":672000000000,"state":"active","ping":93},{"user_id":321,"name":"spades_noir","steam_id":76561198306690735,"connected_time":741000000000,"state":"active","ping":57},{"user_id":280,"name":"mushroom taco","steam_id":76561198097554694,"connected_time":2614000000000,"state":"active","ping":45},{"user_id":303,"name":"Nermal","steam_id":76561198974110876,"connected_time":1248000000000,"state":"active","ping":102},{"user_id":327,"name":"Normalux","steam_id":76561198293891426,"connected_time":525000000000,"state":"active","ping":98},{"user_id":281,"name":"no vc no c","steam_id":76561197989503095,"connected_time":2185000000000,"state":"active","ping":174},{"user_id":324,"name":"Allotrope","steam_id":76561197998450103,"connected_time":576000000000,"state":"active","ping":56},{"user_id":329,"name":"young thug weaponry","steam_id":76561198363821364,"connected_time":224000000000,"state":"active","ping":76},{"user_id":307,"name":"Crayfry","steam_id":76561198146525237,"connected_time":1197000000000,"state":"active","ping":61},{"user_id":320,"name":"Pinetree w/ apples.","steam_id":76561198105411709,"connected_time":751000000000,"state":"active","ping":99},{"user_id":328,"name":"samsoeder","steam_id":76561198293741183,"connected_time":445000000000,"state":"active","ping":119},{"user_id":270,"name":"garfield","steam_id":76561198114119308,"connected_time":3276000000000,"state":"active","ping":61},{"user_id":322,"name":"Inadequate","steam_id":76561198108263810,"connected_time":716000000000,"state":"active","ping":94},{"user_id":336,"name":"the slop","steam_id":76561198099786822,"connected_time":137000000000,"state":"active","ping":92},{"user_id":178,"name":"xXx_The_REAL_Marge_Simpson_xXx","steam_id":76561199116846851,"connected_time":9885000000000,"state":"active","ping":73},{"user_id":273,"name":"COYOTE","steam_id":76561198988066988,"connected_time":3079000000000,"state":"active","ping":98}]},{"server_id":108,"name":"Uncletopia | Dallas | 2 | All Maps","name_short":"dal-2","host":"dal-1.us.uncletopia.com","port":27025,"enabled":true,"region":"us-central","cc":"us","latitude":32.779167,"longitude":-96.80889,"reserved":0,"last_update":"0001-01-01T00:00:00Z","name_a2s":"Uncletopia | Dallas | 2 | All Maps","protocol":17,"map":"pl_pier","folder":"tf","game":"Team Fortress","app_id":440,"player_count":24,"max_players":24,"Bots":0,"server_type":"Dedicated","server_os":"Linux","password":true,"vac":true,"version":"7708610","steam_id":85568392924469988,"keywords":["nocrits","nodmgspread","payload","uncletopia"],"game_id":440,"stv_port":27026,"stv_name":"Uncletopia | Dallas | 2 | All Maps | STV","players":[{"user_id":38,"name":"The Ultimate Coomer","steam_id":76561199128833757,"connected_time":8554000000000,"state":"active","ping":43},{"user_id":147,"name":"Jack from Jack in The Box","steam_id":76561199083594971,"connected_time":3202000000000,"state":"active","ping":63},{"user_id":42,"name":"uBlock Origin","steam_id":76561198296332500,"connected_time":8150000000000,"state":"active","ping":46},{"user_id":173,"name":"Hernandez$","steam_id":76561198019324588,"connected_time":474000000000,"state":"active","ping":63},{"user_id":125,"name":"Kenpachi","steam_id":76561198803824764,"connected_time":4799000000000,"state":"active","ping":126},{"user_id":152,"name":"LORDMARF","steam_id":76561198143122675,"connected_time":2758000000000,"state":"active","ping":60},{"user_id":166,"name":"Mike","steam_id":76561198408747483,"connected_time":1416000000000,"state":"active","ping":59},{"user_id":165,"name":"justsomeguywhostartedplayingtf2","steam_id":76561199247296835,"connected_time":1766000000000,"state":"active","ping":89},{"user_id":81,"name":"The Great Eagle Scourge of 1822","steam_id":76561198325086209,"connected_time":7057000000000,"state":"active","ping":73},{"user_id":157,"name":"Viperbro_FGC #SaveTF2","steam_id":76561198140863068,"connected_time":2713000000000,"state":"active","ping":66},{"user_id":169,"name":"Crowmancer","steam_id":76561198056707334,"connected_time":952000000000,"state":"active","ping":79},{"user_id":162,"name":"A Gamer [F2P]","steam_id":76561198138712892,"connected_time":2179000000000,"state":"active","ping":47},{"user_id":174,"name":"Jordicr100","steam_id":76561198030999491,"connected_time":299000000000,"state":"active","ping":116},{"user_id":136,"name":"Lamb","steam_id":76561198330819554,"connected_time":3781000000000,"state":"active","ping":81},{"user_id":153,"name":"FSG","steam_id":76561198156869330,"connected_time":2752000000000,"state":"active","ping":75},{"user_id":146,"name":"Pornelius Hubert","steam_id":76561198186128723,"connected_time":3245000000000,"state":"active","ping":48},{"user_id":148,"name":"Convict Police Officers","steam_id":76561197993527275,"connected_time":3158000000000,"state":"active","ping":77},{"user_id":167,"name":"Toasterduds","steam_id":76561198163477584,"connected_time":1056000000000,"state":"active","ping":85},{"user_id":124,"name":"Charles Leclerc","steam_id":76561198972619900,"connected_time":4887000000000,"state":"active","ping":46},{"user_id":154,"name":"kloo_","steam_id":76561199090218013,"connected_time":2750000000000,"state":"active","ping":61},{"user_id":158,"name":"Micah","steam_id":76561198006837982,"connected_time":2640000000000,"state":"active","ping":62},{"user_id":160,"name":"One Inch Punch","steam_id":76561198135274720,"connected_time":2399000000000,"state":"active","ping":89},{"user_id":170,"name":"Kamin","steam_id":76561198255299559,"connected_time":947000000000,"state":"active","ping":59}]},{"server_id":5,"name":"Uncletopia | Frankfurt | 1 | All Maps","name_short":"frk-1","host":"frk-1.de.uncletopia.com","port":27015,"enabled":true,"region":"eu","cc":"de","latitude":50.110924,"longitude":8.682127,"reserved":0,"last_update":"0001-01-01T00:00:00Z","name_a2s":"Uncletopia | Frankfurt | 1 | All Maps","protocol":17,"map":"pl_frontier_final","folder":"tf","game":"Team Fortress","app_id":440,"player_count":24,"max_players":24,"Bots":0,"server_type":"Dedicated","server_os":"Linux","password":true,"vac":true,"version":"7708610","steam_id":85568392924469989,"keywords":["nocrits","nodmgspread","payload","uncletopia"],"game_id":440,"stv_port":27016,"stv_name":"Uncletopia | Frankfurt | 1 | All Maps | STV","players":[{"user_id":674,"name":"barry from jetpack joyride","steam_id":76561198881575174,"connected_time":193000000000,"state":"active","ping":64},{"user_id":669,"name":"Bones","steam_id":76561198065081225,"connected_time":529000000000,"state":"active","ping":53},{"user_id":577,"name":"Rodney Reed","steam_id":76561199005981339,"connected_time":5630000000000,"state":"active","ping":69},{"user_id":663,"name":"PIZZAMAN","steam_id":76561198296484184,"connected_time":785000000000,"state":"active","ping":58},{"user_id":649,"name":"LarsInABox","steam_id":76561198028329262,"connected_time":1642000000000,"state":"active","ping":72},{"user_id":585,"name":"Decloaking ASMR","steam_id":76561198032359132,"connected_time":5353000000000,"state":"active","ping":59},{"user_id":654,"name":"Archie","steam_id":76561199061232100,"connected_time":1401000000000,"state":"active","ping":56},{"user_id":675,"name":"!BruhWat!","steam_id":76561199030100873,"connected_time":179000000000,"state":"active","ping":114},{"user_id":625,"name":"Big Gamer (real)","steam_id":76561198160114532,"connected_time":2472000000000,"state":"active","ping":57},{"user_id":676,"name":"Arcticpyro","steam_id":76561198010708923,"connected_time":157000000000,"state":"active","ping":60},{"user_id":646,"name":"Ben","steam_id":76561198150079417,"connected_time":1803000000000,"state":"active","ping":90},{"user_id":581,"name":"Benson Gutterburg","steam_id":76561198389902190,"connected_time":5606000000000,"state":"active","ping":75},{"user_id":647,"name":"[LR-Looter]MrMurk","steam_id":76561198363380956,"connected_time":1793000000000,"state":"active","ping":45},{"user_id":634,"name":"Festdoktor","steam_id":76561198058159271,"connected_time":2118000000000,"state":"active","ping":60},{"user_id":662,"name":"drwhut","steam_id":76561198070218857,"connected_time":818000000000,"state":"active","ping":47},{"user_id":670,"name":"Somario","steam_id":76561198046598526,"connected_time":401000000000,"state":"active","ping":65},{"user_id":639,"name":"DrunkMurloc","steam_id":76561198285176634,"connected_time":1999000000000,"state":"active","ping":65},{"user_id":673,"name":"p!ke","steam_id":76561198416081952,"connected_time":204000000000,"state":"active","ping":60},{"user_id":671,"name":"solveig","steam_id":76561198271713106,"connected_time":378000000000,"state":"active","ping":139},{"user_id":651,"name":"scout TF2","steam_id":76561198072037878,"connected_time":1542000000000,"state":"active","ping":73},{"user_id":665,"name":"silicon based life form","steam_id":76561199127121346,"connected_time":729000000000,"state":"active","ping":65},{"user_id":659,"name":"Rudebwoyyy","steam_id":76561199387956486,"connected_time":898000000000,"state":"active","ping":59},{"user_id":666,"name":"Loptater","steam_id":76561198114928860,"connected_time":700000000000,"state":"active","ping":71},{"user_id":677,"name":"Bobo","steam_id":76561198052308399,"connected_time":113000000000,"state":"active","ping":53}]},{"server_id":110,"name":"Uncletopia | Frankfurt | 2 | All Maps","name_short":"frk-2","host":"frk-1.de.uncletopia.com","port":27025,"enabled":true,"region":"eu","cc":"de","latitude":50.110924,"longitude":8.682127,"reserved":0,"last_update":"0001-01-01T00:00:00Z","name_a2s":"Uncletopia | Frankfurt | 2 | All Maps","protocol":17,"map":"pl_badwater","folder":"tf","game":"Team Fortress","app_id":440,"player_count":24,"max_players":24,"Bots":0,"server_type":"Dedicated","server_os":"Linux","password":true,"vac":true,"version":"7708610","steam_id":85568392924469990,"keywords":["nocrits","nodmgspread","payload","uncletopia"],"game_id":440,"stv_port":27026,"stv_name":"Uncletopia | Frankfurt | 2 | All Maps | STV","players":[{"user_id":612,"name":"weakest steel enjoyer","steam_id":76561198080310253,"connected_time":3154000000000,"state":"active","ping":58},{"user_id":635,"name":"XxSuperPenisxX","steam_id":76561199089532056,"connected_time":1520000000000,"state":"active","ping":45},{"user_id":627,"name":"Red Dynamite","steam_id":76561199073167935,"connected_time":2560000000000,"state":"active","ping":170},{"user_id":653,"name":"黒皇帝 / black emperor","steam_id":76561198980729208,"connected_time":333000000000,"state":"active","ping":55},{"user_id":654,"name":"Dr Sex","steam_id":76561198029044617,"connected_time":320000000000,"state":"active","ping":62},{"user_id":574,"name":"goprit","steam_id":76561198072518761,"connected_time":5497000000000,"state":"active","ping":76},{"user_id":636,"name":"TheEmeraldStar","steam_id":76561198072942529,"connected_time":1405000000000,"state":"active","ping":75},{"user_id":655,"name":"firenickblood","steam_id":76561199302529256,"connected_time":319000000000,"state":"active","ping":81},{"user_id":622,"name":"Shift","steam_id":76561198028296732,"connected_time":2730000000000,"state":"active","ping":60},{"user_id":657,"name":"Supreme Sads","steam_id":76561198061061147,"connected_time":254000000000,"state":"active","ping":67},{"user_id":658,"name":"W","steam_id":76561198273623211,"connected_time":243000000000,"state":"active","ping":88},{"user_id":656,"name":"upload_mnecraft","steam_id":76561199114948564,"connected_time":310000000000,"state":"active","ping":91},{"user_id":624,"name":"PlasticVoid","steam_id":76561197997870306,"connected_time":2680000000000,"state":"active","ping":73},{"user_id":659,"name":"SubWOOFA","steam_id":76561198025869967,"connected_time":225000000000,"state":"active","ping":198},{"user_id":660,"name":"Well","steam_id":76561198411337640,"connected_time":200000000000,"state":"active","ping":96},{"user_id":649,"name":"steven","steam_id":76561198028240570,"connected_time":692000000000,"state":"active","ping":60},{"user_id":630,"name":"6s offseason","steam_id":76561198281256009,"connected_time":2501000000000,"state":"active","ping":94},{"user_id":661,"name":"sock","steam_id":76561199117597830,"connected_time":189000000000,"state":"spawning","ping":157},{"user_id":662,"name":"Kurage","steam_id":76561198021221288,"connected_time":187000000000,"state":"active","ping":60},{"user_id":642,"name":"0PeKyN","steam_id":76561199027244825,"connected_time":1208000000000,"state":"active","ping":74},{"user_id":663,"name":"bill clinton","steam_id":76561199085624224,"connected_time":159000000000,"state":"active","ping":72},{"user_id":597,"name":"Gandalf","steam_id":76561199072668363,"connected_time":3972000000000,"state":"active","ping":65},{"user_id":664,"name":"Bonca","steam_id":76561198137503531,"connected_time":156000000000,"state":"active","ping":79},{"user_id":634,"name":"Stu","steam_id":76561198131449281,"connected_time":1727000000000,"state":"active","ping":46}]},{"server_id":308,"name":"Uncletopia | Frankfurt | 3 | All Maps","name_short":"frk-3","host":"frk-1.de.uncletopia.com","port":27035,"enabled":true,"region":"eu","cc":"de","latitude":50.110924,"longitude":8.682127,"reserved":0,"last_update":"0001-01-01T00:00:00Z","name_a2s":"Uncletopia | Frankfurt | 3 | All Maps","protocol":17,"map":"cp_process_final","folder":"tf","game":"Team Fortress","app_id":440,"player_count":21,"max_players":24,"Bots":0,"server_type":"Dedicated","server_os":"Linux","password":true,"vac":true,"version":"7708610","steam_id":85568392924504274,"keywords":["cp","nocrits","nodmgspread","uncletopia"],"game_id":440,"stv_port":27036,"stv_name":"Uncletopia | Frankfurt | 3 | All Maps | STV","players":[{"user_id":499,"name":"Prine4","steam_id":76561198108906439,"connected_time":955000000000,"state":"active","ping":46},{"user_id":513,"name":"tortellini in brodo","steam_id":76561198066071855,"connected_time":65000000000,"state":"active","ping":107},{"user_id":509,"name":"The destroyer of foreskin","steam_id":76561198135275966,"connected_time":562000000000,"state":"active","ping":172},{"user_id":502,"name":"etc","steam_id":76561197998394797,"connected_time":819000000000,"state":"active","ping":57},{"user_id":497,"name":"Festive Giggen","steam_id":76561198070986689,"connected_time":1024000000000,"state":"active","ping":42},{"user_id":503,"name":"alego","steam_id":76561198974622852,"connected_time":717000000000,"state":"active","ping":57},{"user_id":505,"name":"★Chaser","steam_id":76561198118891282,"connected_time":671000000000,"state":"active","ping":64},{"user_id":506,"name":"Egtu","steam_id":76561198013757235,"connected_time":661000000000,"state":"active","ping":66},{"user_id":507,"name":"tshirt","steam_id":76561198040757844,"connected_time":656000000000,"state":"active","ping":77},{"user_id":492,"name":"drippin jimmy","steam_id":76561198219243969,"connected_time":1457000000000,"state":"active","ping":52},{"user_id":480,"name":"player","steam_id":76561198054474684,"connected_time":2175000000000,"state":"active","ping":74},{"user_id":495,"name":"Fanci Squid","steam_id":76561198101907818,"connected_time":1251000000000,"state":"active","ping":45},{"user_id":496,"name":"Tj0ckis","steam_id":76561198108854226,"connected_time":1112000000000,"state":"active","ping":78},{"user_id":500,"name":"Klowk","steam_id":76561197960443194,"connected_time":928000000000,"state":"active","ping":91},{"user_id":510,"name":"manure merchant","steam_id":76561198010109316,"connected_time":482000000000,"state":"active","ping":62},{"user_id":461,"name":"pepper","steam_id":76561198059782462,"connected_time":3208000000000,"state":"active","ping":51},{"user_id":511,"name":"3igen3ggy","steam_id":76561197989548015,"connected_time":460000000000,"state":"active","ping":67},{"user_id":447,"name":"bass","steam_id":76561198415564349,"connected_time":3715000000000,"state":"active","ping":62},{"user_id":462,"name":"Marquis de Hoto","steam_id":76561198080687708,"connected_time":3189000000000,"state":"active","ping":65},{"user_id":463,"name":"Zateske","steam_id":76561198047446276,"connected_time":3188000000000,"state":"active","ping":60},{"user_id":493,"name":"JujuBalu","steam_id":76561198207253071,"connected_time":1456000000000,"state":"active","ping":53}]},{"server_id":309,"name":"Uncletopia | Frankfurt | 4 | All Maps","name_short":"frk-4","host":"frk-1.de.uncletopia.com","port":27045,"enabled":true,"region":"eu","cc":"de","latitude":50.110924,"longitude":8.682127,"reserved":0,"last_update":"0001-01-01T00:00:00Z","name_a2s":"Uncletopia | Frankfurt | 4 | All Maps","protocol":17,"map":"pl_borneo","folder":"tf","game":"Team Fortress","app_id":440,"player_count":20,"max_players":24,"Bots":0,"server_type":"Dedicated","server_os":"Linux","password":true,"vac":true,"version":"7708610","steam_id":85568392924504275,"keywords":["nocrits","nodmgspread","payload","uncletopia"],"game_id":440,"stv_port":27046,"stv_name":"Uncletopia | Frankfurt | 4 | All Maps | STV","players":[{"user_id":535,"name":"Lorbin","steam_id":76561199225914483,"connected_time":2647000000000,"state":"active","ping":44},{"user_id":580,"name":"Hook supervisor","steam_id":76561198069562237,"connected_time":522000000000,"state":"active","ping":63},{"user_id":573,"name":"Bunnytt","steam_id":76561198340246275,"connected_time":1070000000000,"state":"active","ping":249},{"user_id":554,"name":"jovi_","steam_id":76561198449280552,"connected_time":1847000000000,"state":"active","ping":85},{"user_id":581,"name":"ZRD83[FR]","steam_id":76561198411341922,"connected_time":480000000000,"state":"active","ping":69},{"user_id":537,"name":"Zelmor","steam_id":76561197997708311,"connected_time":2613000000000,"state":"active","ping":45},{"user_id":515,"name":"Bek","steam_id":76561199061086990,"connected_time":3906000000000,"state":"active","ping":72},{"user_id":512,"name":"heavy sings (real)","steam_id":76561199023804405,"connected_time":4201000000000,"state":"active","ping":76},{"user_id":538,"name":"Alibi","steam_id":76561198061845595,"connected_time":2607000000000,"state":"active","ping":65},{"user_id":570,"name":"Mor'du","steam_id":76561198274105878,"connected_time":1175000000000,"state":"active","ping":82},{"user_id":472,"name":"[UiF] BafTac r/f*ckcars","steam_id":76561198060547050,"connected_time":5981000000000,"state":"active","ping":85},{"user_id":571,"name":"Bounter","steam_id":76561198072614188,"connected_time":1172000000000,"state":"active","ping":67},{"user_id":556,"name":"Bumblebee","steam_id":76561198033551105,"connected_time":1828000000000,"state":"active","ping":52},{"user_id":567,"name":"Cinek S\u003e | Unusual taunt","steam_id":76561198133810911,"connected_time":1216000000000,"state":"active","ping":64},{"user_id":428,"name":"Itai","steam_id":76561198804555329,"connected_time":8658000000000,"state":"active","ping":105},{"user_id":545,"name":"Sodemo","steam_id":76561198074987146,"connected_time":2523000000000,"state":"active","ping":63},{"user_id":544,"name":"Dewotter","steam_id":76561198007653168,"connected_time":2525000000000,"state":"active","ping":74},{"user_id":578,"name":"Stoïcisme","steam_id":76561198127441800,"connected_time":997000000000,"state":"active","ping":64},{"user_id":528,"name":"mohemmedmokhter2005","steam_id":76561199197650506,"connected_time":3047000000000,"state":"active","ping":112},{"user_id":561,"name":"terrine de poisson","steam_id":76561198182874945,"connected_time":1571000000000,"state":"active","ping":52}]},{"server_id":310,"name":"Uncletopia | Frankfurt | 5 | All Maps","name_short":"frk-5","host":"frk-1.de.uncletopia.com","port":27055,"enabled":true,"region":"eu","cc":"de","latitude":50.110924,"longitude":8.682127,"reserved":0,"last_update":"0001-01-01T00:00:00Z","name_a2s":"Uncletopia | Frankfurt | 5 | All Maps","protocol":17,"map":"pl_badwater","folder":"tf","game":"Team Fortress","app_id":440,"player_count":17,"max_players":24,"Bots":0,"server_type":"Dedicated","server_os":"Linux","password":true,"vac":true,"version":"7708610","steam_id":85568392924504277,"keywords":["nocrits","nodmgspread","payload","uncletopia"],"game_id":440,"stv_port":27056,"stv_name":"Uncletopia | Frankfurt | 5 | All Maps | STV","players":[{"user_id":449,"name":"raspberrisung","steam_id":76561198083030373,"connected_time":1545000000000,"state":"active","ping":78},{"user_id":464,"name":"Brick Samson","steam_id":76561198019076104,"connected_time":105000000000,"state":"active","ping":92},{"user_id":445,"name":"[ITA]Stioppen","steam_id":76561198177658715,"connected_time":1782000000000,"state":"active","ping":77},{"user_id":426,"name":"Quaker Yotes","steam_id":76561198083068263,"connected_time":2685000000000,"state":"active","ping":87},{"user_id":450,"name":"erapapa","steam_id":76561198835302370,"connected_time":1540000000000,"state":"active","ping":64},{"user_id":462,"name":"Yoda :D","steam_id":76561198830930208,"connected_time":364000000000,"state":"active","ping":76},{"user_id":459,"name":"Samwise","steam_id":76561198160115838,"connected_time":611000000000,"state":"active","ping":60},{"user_id":451,"name":"Tellme_now","steam_id":76561198847243605,"connected_time":1505000000000,"state":"active","ping":78},{"user_id":453,"name":"Zaakaroose","steam_id":76561198995514961,"connected_time":1451000000000,"state":"active","ping":58},{"user_id":455,"name":"✶Biohazard Maker✶","steam_id":76561198053182839,"connected_time":1055000000000,"state":"active","ping":60},{"user_id":423,"name":"Toad | Mario Kart Double Dash","steam_id":76561198374881425,"connected_time":3084000000000,"state":"active","ping":69},{"user_id":427,"name":"Venus⚢","steam_id":76561198018602969,"connected_time":2679000000000,"state":"active","ping":68},{"user_id":431,"name":"D 1NE 86","steam_id":76561198390063866,"connected_time":2484000000000,"state":"active","ping":170},{"user_id":458,"name":"Prox","steam_id":76561198351490981,"connected_time":690000000000,"state":"active","ping":47},{"user_id":435,"name":"Poor Fucking Infantry","steam_id":76561198055978522,"connected_time":2165000000000,"state":"active","ping":60},{"user_id":457,"name":"pl_plohajavoda","steam_id":76561198300211898,"connected_time":942000000000,"state":"active","ping":90},{"user_id":440,"name":"Laires","steam_id":76561198065140318,"connected_time":1998000000000,"state":"active","ping":58}]},{"server_id":311,"name":"Uncletopia | Frankfurt | 6 | All Maps","name_short":"frk-6","host":"frk-1.de.uncletopia.com","port":27065,"enabled":true,"region":"eu","cc":"de","latitude":50.110924,"longitude":8.682127,"reserved":0,"last_update":"0001-01-01T00:00:00Z","name_a2s":"Uncletopia | Frankfurt | 6 | All Maps","protocol":17,"map":"pl_swiftwater_final1","folder":"tf","game":"Team Fortress","app_id":440,"player_count":17,"max_players":24,"Bots":0,"server_type":"Dedicated","server_os":"Linux","password":true,"vac":true,"version":"7708610","steam_id":85568392924504278,"keywords":["nocrits","nodmgspread","payload","uncletopia"],"game_id":440,"stv_port":27066,"stv_name":"Uncletopia | Frankfurt | 6 | All Maps | STV","players":[{"user_id":155,"name":"Terasaur","steam_id":76561198167262263,"connected_time":1267000000000,"state":"spawning","ping":158},{"user_id":115,"name":"Clitorina","steam_id":76561198077570815,"connected_time":3682000000000,"state":"active","ping":48},{"user_id":160,"name":"dusty","steam_id":76561199011977567,"connected_time":297000000000,"state":"spawning","ping":58},{"user_id":156,"name":"Wolframen","steam_id":76561198074103958,"connected_time":1258000000000,"state":"active","ping":61},{"user_id":166,"name":"FaceShackle","steam_id":76561198038371397,"connected_time":125000000000,"state":"active","ping":52},{"user_id":149,"name":"Mankor","steam_id":76561198020439322,"connected_time":1576000000000,"state":"active","ping":50},{"user_id":43,"name":"jtnrif8dVITifirD8","steam_id":76561198057833760,"connected_time":7195000000000,"state":"active","ping":79},{"user_id":153,"name":"para","steam_id":76561197989877167,"connected_time":1459000000000,"state":"active","ping":54},{"user_id":167,"name":"fat fucking pigeon (real)","steam_id":76561198261094295,"connected_time":43000000000,"state":"active","ping":73},{"user_id":140,"name":"Bromoneto","steam_id":76561198876695014,"connected_time":2087000000000,"state":"spawning","ping":80},{"user_id":162,"name":"THEJamiboi","steam_id":76561198034696965,"connected_time":256000000000,"state":"spawning","ping":147},{"user_id":143,"name":"CaptainDinez","steam_id":76561198391766996,"connected_time":1874000000000,"state":"spawning","ping":92},{"user_id":137,"name":"petit_ewok ʕᵔᴥᵔʔ","steam_id":76561197990244946,"connected_time":2369000000000,"state":"spawning","ping":82},{"user_id":163,"name":"roooc","steam_id":76561198041046977,"connected_time":248000000000,"state":"spawning","ping":99},{"user_id":123,"name":"Gurgula","steam_id":76561198021253678,"connected_time":3096000000000,"state":"active","ping":156},{"user_id":152,"name":"decap8","steam_id":76561198409290152,"connected_time":1534000000000,"state":"active","ping":175},{"user_id":165,"name":"Yoggen","steam_id":76561198048785962,"connected_time":203000000000,"state":"active","ping":59}]},{"server_id":23,"name":"Uncletopia | Frankfurt | 7 | No Payload","name_short":"frk-7","host":"frk-1.de.uncletopia.com","port":27075,"enabled":true,"region":"eu","cc":"de","latitude":50.110924,"longitude":8.682127,"reserved":0,"last_update":"0001-01-01T00:00:00Z","name_a2s":"Uncletopia | Frankfurt | 7 | No Payload","protocol":17,"map":"koth_viaduct","folder":"tf","game":"Team Fortress","app_id":440,"player_count":0,"max_players":24,"Bots":0,"server_type":"Dedicated","server_os":"Linux","password":true,"vac":true,"version":"7708610","steam_id":85568392924742827,"keywords":["cp","nocrits","nodmgspread","uncletopia"],"game_id":440,"stv_port":27076,"stv_name":"Uncletopia | Frankfurt | 7 | No Payload | STV","players":null},{"server_id":24,"name":"Uncletopia | Frankfurt | 8 | Community","name_short":"frk-8","host":"frk-1.de.uncletopia.com","port":27085,"enabled":true,"region":"eu","cc":"de","latitude":50.110924,"longitude":8.682127,"reserved":0,"last_update":"0001-01-01T00:00:00Z","name_a2s":"Uncletopia | Frankfurt | 8 | Community","protocol":17,"map":"workshop/koth_slaughter_rc1.ugc1712845210","folder":"tf","game":"Team Fortress","app_id":440,"player_count":0,"max_players":24,"Bots":0,"server_type":"Dedicated","server_os":"Linux","password":true,"vac":true,"version":"7708610","steam_id":85568392924742828,"keywords":["cp","nocrits","nodmgspread","uncletopia"],"game_id":440,"stv_port":27086,"stv_name":"Uncletopia | Frankfurt | 8 | Community | STV","players":null},{"server_id":202,"name":"Uncletopia | Hong Kong | 1 | All Maps","name_short":"hgk-1","host":"hgk-1.hk.uncletopia.com","port":27015,"enabled":true,"region":"asia","cc":"hk","latitude":22.302711,"longitude":114.177216,"reserved":0,"last_update":"0001-01-01T00:00:00Z","name_a2s":"Uncletopia | Hong Kong | 1 | All Maps","protocol":17,"map":"koth_cascade","folder":"tf","game":"Team Fortress","app_id":440,"player_count":0,"max_players":24,"Bots":0,"server_type":"Dedicated","server_os":"Linux","password":true,"vac":true,"version":"7708610","steam_id":85568392924494504,"keywords":["cp","nocrits","nodmgspread","uncletopia"],"game_id":440,"stv_port":27016,"stv_name":"Uncletopia | Hong Kong | 1 | All Maps | STV","players":null},{"server_id":1,"name":"Uncletopia | Los Angeles | 1 | All Maps","name_short":"lax-1","host":"lax-1.us.uncletopia.com","port":27015,"enabled":true,"region":"us-west","cc":"us","latitude":33.94279,"longitude":-118.41004,"reserved":0,"last_update":"0001-01-01T00:00:00Z","name_a2s":"Uncletopia | Los Angeles | 1 | All Maps","protocol":17,"map":"cp_mountainlab","folder":"tf","game":"Team Fortress","app_id":440,"player_count":0,"max_players":24,"Bots":0,"server_type":"Dedicated","server_os":"Linux","password":true,"vac":true,"version":"7708610","steam_id":85568392924469991,"keywords":["cp","nocrits","nodmgspread","uncletopia"],"game_id":440,"stv_port":27016,"stv_name":"Uncletopia | Los Angeles | 1 | All Maps | STV","players":null},{"server_id":112,"name":"Uncletopia | Los Angeles | 2 | All Maps","name_short":"lax-2","host":"lax-1.us.uncletopia.com","port":27025,"enabled":true,"region":"us-west","cc":"us","latitude":33.94279,"longitude":-118.41004,"reserved":0,"last_update":"0001-01-01T00:00:00Z","name_a2s":"Uncletopia | Los Angeles | 2 | All Maps","protocol":17,"map":"koth_cascade","folder":"tf","game":"Team Fortress","app_id":440,"player_count":0,"max_players":24,"Bots":0,"server_type":"Dedicated","server_os":"Linux","password":true,"vac":true,"version":"7708610","steam_id":85568392924469992,"keywords":["cp","nocrits","nodmgspread","uncletopia"],"game_id":440,"stv_port":27026,"stv_name":"Uncletopia | Los Angeles | 2 | All Maps | STV","players":null},{"server_id":324,"name":"Uncletopia | Los Angeles | 3 | All Maps","name_short":"lax-3","host":"lax-1.us.uncletopia.com","port":27035,"enabled":true,"region":"us-west","cc":"us","latitude":33.94279,"longitude":-118.41004,"reserved":0,"last_update":"0001-01-01T00:00:00Z","name_a2s":"Uncletopia | Los Angeles | 3 | All Maps","protocol":17,"map":"koth_lakeside_final","folder":"tf","game":"Team Fortress","app_id":440,"player_count":8,"max_players":24,"Bots":0,"server_type":"Dedicated","server_os":"Linux","password":true,"vac":true,"version":"7708610","steam_id":85568392924510198,"keywords":["cp","nocrits","nodmgspread","uncletopia"],"game_id":440,"stv_port":27036,"stv_name":"Uncletopia | Los Angeles | 3 | All Maps | STV","players":[{"user_id":5,"name":"Nibotshooter","steam_id":76561199284825579,"connected_time":869000000000,"state":"active","ping":66},{"user_id":6,"name":"Super Mighty G","steam_id":76561198020932806,"connected_time":735000000000,"state":"active","ping":42},{"user_id":7,"name":"StarGuyVI","steam_id":76561199366304746,"connected_time":694000000000,"state":"active","ping":98},{"user_id":8,"name":"Noxus","steam_id":76561199009820852,"connected_time":571000000000,"state":"active","ping":66},{"user_id":10,"name":"Woahhh3","steam_id":76561198340525780,"connected_time":426000000000,"state":"active","ping":101},{"user_id":11,"name":"zaza2k","steam_id":76561198393760567,"connected_time":419000000000,"state":"active","ping":45},{"user_id":12,"name":"tumn","steam_id":76561199241694808,"connected_time":384000000000,"state":"active","ping":74},{"user_id":13,"name":"c0wmanglr","steam_id":76561198025342064,"connected_time":251000000000,"state":"active","ping":48}]},{"server_id":25,"name":"Uncletopia | Los Angeles | 4 | No Payload","name_short":"lax-4","host":"lax-1.us.uncletopia.com","port":27045,"enabled":true,"region":"us-west","cc":"us","latitude":33.94279,"longitude":-118.41004,"reserved":0,"last_update":"0001-01-01T00:00:00Z","name_a2s":"Uncletopia | Los Angeles | 4 | No Payload","protocol":17,"map":"koth_sawmill","folder":"tf","game":"Team Fortress","app_id":440,"player_count":0,"max_players":24,"Bots":0,"server_type":"Dedicated","server_os":"Linux","password":true,"vac":true,"version":"7708610","steam_id":85568392924510199,"keywords":["cp","nocrits","nodmgspread","uncletopia"],"game_id":440,"stv_port":27046,"stv_name":"Uncletopia | Los Angeles | 4 | No Payload | STV","players":null},{"server_id":11,"name":"Uncletopia | London | 1 | All Maps","name_short":"lon-1","host":"lon-1.uk.uncletopia.com","port":27015,"enabled":true,"region":"eu","cc":"gb","latitude":51.509865,"longitude":-0.118092,"reserved":0,"last_update":"0001-01-01T00:00:00Z","name_a2s":"Uncletopia | London | 1 | All Maps","protocol":17,"map":"pl_barnblitz","folder":"tf","game":"Team Fortress","app_id":440,"player_count":24,"max_players":24,"Bots":0,"server_type":"Dedicated","server_os":"Linux","password":true,"vac":true,"version":"7708610","steam_id":85568392924367362,"keywords":["nocrits","nodmgspread","payload","uncletopia"],"game_id":440,"stv_port":27016,"stv_name":"Uncletopia | London | 1 | All Maps | STV","players":[{"user_id":600,"name":"Dragoncristal☯","steam_id":76561198136036701,"connected_time":3778000000000,"state":"active","ping":75},{"user_id":645,"name":"emidog","steam_id":76561198189526557,"connected_time":362000000000,"state":"active","ping":102},{"user_id":632,"name":"Flying whale","steam_id":76561198043797441,"connected_time":1608000000000,"state":"active","ping":61},{"user_id":618,"name":"insanitY","steam_id":76561198055666742,"connected_time":2388000000000,"state":"active","ping":103},{"user_id":565,"name":"nudjura","steam_id":76561198281986139,"connected_time":7047000000000,"state":"active","ping":38},{"user_id":607,"name":"Joseph Stalin LFT","steam_id":76561198033199746,"connected_time":3079000000000,"state":"active","ping":46},{"user_id":586,"name":"KPhii","steam_id":76561198970587061,"connected_time":5684000000000,"state":"active","ping":63},{"user_id":633,"name":"COMPUTER BECOMES SENTIENT O_O","steam_id":76561198108020471,"connected_time":1574000000000,"state":"active","ping":101},{"user_id":625,"name":"big tits","steam_id":76561199026097466,"connected_time":1984000000000,"state":"active","ping":75},{"user_id":601,"name":"Ross from F.R.I.E.N.D.S.","steam_id":76561198008511665,"connected_time":3769000000000,"state":"active","ping":58},{"user_id":613,"name":"Krismas","steam_id":76561198021772843,"connected_time":2997000000000,"state":"active","ping":60},{"user_id":636,"name":"Wee Hoose Rice","steam_id":76561198423902979,"connected_time":1300000000000,"state":"active","ping":47},{"user_id":590,"name":"Rare Demoman Plant ✪","steam_id":76561198157824042,"connected_time":5644000000000,"state":"active","ping":43},{"user_id":637,"name":"Vezage","steam_id":76561198064916164,"connected_time":1207000000000,"state":"active","ping":78},{"user_id":629,"name":"murderfucker","steam_id":76561198038753296,"connected_time":1669000000000,"state":"active","ping":84},{"user_id":617,"name":"i eat white kids","steam_id":76561198259668029,"connected_time":2488000000000,"state":"active","ping":59},{"user_id":643,"name":"MrXtr","steam_id":76561198966247397,"connected_time":557000000000,"state":"active","ping":72},{"user_id":560,"name":"ciliorkun18","steam_id":76561198228942500,"connected_time":7486000000000,"state":"active","ping":90},{"user_id":647,"name":"Founder","steam_id":76561198193763778,"connected_time":337000000000,"state":"active","ping":56},{"user_id":634,"name":"merry beebo","steam_id":76561199120277007,"connected_time":1559000000000,"state":"active","ping":48},{"user_id":605,"name":"Wyro","steam_id":76561199176835169,"connected_time":3413000000000,"state":"active","ping":52},{"user_id":649,"name":"Jimmy","steam_id":76561197999039252,"connected_time":216000000000,"state":"active","ping":52},{"user_id":646,"name":"Posho","steam_id":76561198062396436,"connected_time":355000000000,"state":"active","ping":42},{"user_id":570,"name":"Mango","steam_id":76561198139555709,"connected_time":6685000000000,"state":"active","ping":59}]},{"server_id":114,"name":"Uncletopia | London | 2 | All Maps","name_short":"lon-2","host":"lon-1.uk.uncletopia.com","port":27025,"enabled":true,"region":"eu","cc":"gb","latitude":51.509865,"longitude":-0.118092,"reserved":0,"last_update":"0001-01-01T00:00:00Z","name_a2s":"Uncletopia | London | 2 | All Maps","protocol":17,"map":"pl_badwater","folder":"tf","game":"Team Fortress","app_id":440,"player_count":24,"max_players":24,"Bots":0,"server_type":"Dedicated","server_os":"Linux","password":true,"vac":true,"version":"7708610","steam_id":85568392924470941,"keywords":["nocrits","nodmgspread","payload","uncletopia"],"game_id":440,"stv_port":27026,"stv_name":"Uncletopia | London | 2 | All Maps | STV","players":[{"user_id":581,"name":"your dads bald spot","steam_id":76561199383437138,"connected_time":1043000000000,"state":"active","ping":122},{"user_id":573,"name":"Tasukeru","steam_id":76561198011909704,"connected_time":1418000000000,"state":"active","ping":54},{"user_id":551,"name":"Romu3","steam_id":76561198055484251,"connected_time":2550000000000,"state":"active","ping":108},{"user_id":584,"name":"Kareem","steam_id":76561198364462049,"connected_time":892000000000,"state":"active","ping":126},{"user_id":598,"name":"Drommar","steam_id":76561199219654706,"connected_time":2000000000,"state":"spawning","ping":86},{"user_id":543,"name":"sexbom","steam_id":76561198917309036,"connected_time":3763000000000,"state":"active","ping":125},{"user_id":527,"name":"2 Numba Nines","steam_id":76561198419028874,"connected_time":4703000000000,"state":"active","ping":120},{"user_id":591,"name":"Piss_medic","steam_id":76561198363307216,"connected_time":484000000000,"state":"active","ping":57},{"user_id":564,"name":"Honest Tom's Discount Beef","steam_id":76561198029971392,"connected_time":2142000000000,"state":"active","ping":50},{"user_id":585,"name":"aGreedGryphon","steam_id":76561198245175308,"connected_time":880000000000,"state":"active","ping":56},{"user_id":567,"name":"fénix","steam_id":76561198083199151,"connected_time":1784000000000,"state":"active","ping":62},{"user_id":595,"name":"UltimateSlayer","steam_id":76561198384109309,"connected_time":354000000000,"state":"active","ping":57},{"user_id":596,"name":"w00sh","steam_id":76561198179463343,"connected_time":183000000000,"state":"active","ping":51},{"user_id":549,"name":"Scarlet","steam_id":76561198075966579,"connected_time":2752000000000,"state":"active","ping":44},{"user_id":588,"name":"Sch","steam_id":76561198071341689,"connected_time":645000000000,"state":"active","ping":64},{"user_id":566,"name":"MAKENTAKEN","steam_id":76561199127359587,"connected_time":1846000000000,"state":"active","ping":102},{"user_id":589,"name":"jelly donut","steam_id":76561198102947221,"connected_time":633000000000,"state":"active","ping":89},{"user_id":545,"name":"TommyNom","steam_id":76561197975300526,"connected_time":3179000000000,"state":"active","ping":47},{"user_id":593,"name":"cropping","steam_id":76561198026586456,"connected_time":472000000000,"state":"active","ping":60},{"user_id":594,"name":"When Life gives you Lemons","steam_id":76561198318290663,"connected_time":462000000000,"state":"active","ping":65},{"user_id":559,"name":"zinzyk","steam_id":76561198128011822,"connected_time":2215000000000,"state":"active","ping":64},{"user_id":590,"name":"bruh","steam_id":76561198927077674,"connected_time":587000000000,"state":"active","ping":201},{"user_id":475,"name":"Fat Pigeon","steam_id":76561198817940142,"connected_time":7646000000000,"state":"active","ping":47},{"user_id":597,"name":"OrangeBanana","steam_id":76561199230233875,"connected_time":172000000000,"state":"active","ping":48}]},{"server_id":320,"name":"Uncletopia | London | 3 | All Maps","name_short":"lon-3","host":"lon-1.uk.uncletopia.com","port":27035,"enabled":true,"region":"eu","cc":"gb","latitude":51.509865,"longitude":-0.118092,"reserved":0,"last_update":"0001-01-01T00:00:00Z","name_a2s":"Uncletopia | London | 3 | All Maps","protocol":17,"map":"koth_lakeside_final","folder":"tf","game":"Team Fortress","app_id":440,"player_count":0,"max_players":24,"Bots":0,"server_type":"Dedicated","server_os":"Linux","password":true,"vac":true,"version":"7708610","steam_id":85568392924510192,"keywords":["cp","nocrits","nodmgspread","uncletopia"],"game_id":440,"stv_port":27036,"stv_name":"Uncletopia | London | 3 | All Maps | STV","players":null},{"server_id":321,"name":"Uncletopia | London | 4 | All Maps","name_short":"lon-4","host":"lon-1.uk.uncletopia.com","port":27045,"enabled":true,"region":"eu","cc":"gb","latitude":51.509865,"longitude":-0.118092,"reserved":0,"last_update":"0001-01-01T00:00:00Z","name_a2s":"Uncletopia | London | 4 | All Maps","protocol":17,"map":"pl_upward","folder":"tf","game":"Team Fortress","app_id":440,"player_count":24,"max_players":24,"Bots":0,"server_type":"Dedicated","server_os":"Linux","password":true,"vac":true,"version":"7708610","steam_id":85568392924510193,"keywords":["nocrits","nodmgspread","payload","uncletopia"],"game_id":440,"stv_port":27046,"stv_name":"Uncletopia | London | 4 | All Maps | STV","players":[{"user_id":397,"name":"Trombouner","steam_id":76561197992852282,"connected_time":753000000000,"state":"active","ping":45},{"user_id":387,"name":"Smag","steam_id":76561198153675141,"connected_time":1244000000000,"state":"active","ping":53},{"user_id":393,"name":"Audiofall","steam_id":76561198208814216,"connected_time":1014000000000,"state":"active","ping":49},{"user_id":399,"name":"festive poptart","steam_id":76561199284453568,"connected_time":382000000000,"state":"active","ping":145},{"user_id":396,"name":"bruh","steam_id":76561199439030016,"connected_time":886000000000,"state":"active","ping":110},{"user_id":307,"name":"KAKTyC","steam_id":76561198019296536,"connected_time":5130000000000,"state":"active","ping":91},{"user_id":403,"name":"seneca","steam_id":76561198189243221,"connected_time":341000000000,"state":"active","ping":120},{"user_id":267,"name":"CarbonPan","steam_id":76561198072169983,"connected_time":7675000000000,"state":"active","ping":123},{"user_id":373,"name":"Caruzon - Obismal","steam_id":76561198036211170,"connected_time":1938000000000,"state":"active","ping":72},{"user_id":382,"name":"SnailMan","steam_id":76561198152092323,"connected_time":1415000000000,"state":"active","ping":95},{"user_id":400,"name":"Man O' Steel","steam_id":76561198108612758,"connected_time":376000000000,"state":"active","ping":59},{"user_id":363,"name":"BlockierVase3","steam_id":76561199068827256,"connected_time":2127000000000,"state":"active","ping":190},{"user_id":356,"name":"Ritzy","steam_id":76561198381955342,"connected_time":2301000000000,"state":"active","ping":41},{"user_id":359,"name":"Sugercrash","steam_id":76561199187685119,"connected_time":2264000000000,"state":"active","ping":166},{"user_id":389,"name":"Muffin","steam_id":76561198134575280,"connected_time":1237000000000,"state":"active","ping":60},{"user_id":390,"name":"Ollie","steam_id":76561198066483629,"connected_time":1199000000000,"state":"active","ping":75},{"user_id":405,"name":"CheetahGamer","steam_id":76561198213080323,"connected_time":56000000000,"state":"active","ping":107},{"user_id":347,"name":"NonProphet","steam_id":76561198280149820,"connected_time":2859000000000,"state":"active","ping":59},{"user_id":358,"name":"roby","steam_id":76561198044660393,"connected_time":2298000000000,"state":"active","ping":66},{"user_id":401,"name":"CitroenSM","steam_id":76561199071383249,"connected_time":374000000000,"state":"active","ping":121},{"user_id":402,"name":"cu_tee_x","steam_id":76561198355788237,"connected_time":367000000000,"state":"active","ping":45},{"user_id":404,"name":"pl_ben","steam_id":76561198084890757,"connected_time":285000000000,"state":"active","ping":55},{"user_id":374,"name":"DHD - Obismal","steam_id":76561198000356530,"connected_time":1926000000000,"state":"active","ping":74},{"user_id":379,"name":"Macci - Obismal","steam_id":76561198050485404,"connected_time":1847000000000,"state":"active","ping":73}]},{"server_id":21,"name":"Uncletopia | London | 5 | All Maps","name_short":"lon-5","host":"lon-1.uk.uncletopia.com","port":27055,"enabled":true,"region":"eu","cc":"gb","latitude":51.509865,"longitude":-0.118092,"reserved":0,"last_update":"0001-01-01T00:00:00Z","name_a2s":"Uncletopia | London | 5 | All Maps","protocol":17,"map":"pl_pier","folder":"tf","game":"Team Fortress","app_id":440,"player_count":23,"max_players":24,"Bots":0,"server_type":"Dedicated","server_os":"Linux","password":true,"vac":true,"version":"7708610","steam_id":85568392924742829,"keywords":["nocrits","nodmgspread","payload","uncletopia"],"game_id":440,"stv_port":27056,"stv_name":"Uncletopia | London | 5 | All Maps | STV","players":[{"user_id":172,"name":"Knoxx","steam_id":76561198260692541,"connected_time":2779000000000,"state":"active","ping":50},{"user_id":202,"name":"Akero","steam_id":76561198857883916,"connected_time":161000000000,"state":"active","ping":75},{"user_id":204,"name":"AwterSix","steam_id":76561198042561678,"connected_time":94000000000,"state":"active","ping":58},{"user_id":193,"name":"dunduu","steam_id":76561198875240717,"connected_time":1108000000000,"state":"active","ping":78},{"user_id":134,"name":"|20BB)\u003eMach","steam_id":76561198952487564,"connected_time":4951000000000,"state":"active","ping":83},{"user_id":170,"name":"Markein","steam_id":76561198360754280,"connected_time":2839000000000,"state":"active","ping":56},{"user_id":184,"name":"GesuCapriola","steam_id":76561198137646763,"connected_time":1649000000000,"state":"active","ping":76},{"user_id":196,"name":"SunZi","steam_id":76561198139243535,"connected_time":884000000000,"state":"active","ping":69},{"user_id":205,"name":"Tryrn","steam_id":76561198075487436,"connected_time":90000000000,"state":"active","ping":99},{"user_id":203,"name":"War Ren","steam_id":76561198301524251,"connected_time":160000000000,"state":"active","ping":51},{"user_id":206,"name":"MittenArtz","steam_id":76561198864216556,"connected_time":60000000000,"state":"active","ping":70},{"user_id":207,"name":"NotFionn","steam_id":76561198890525176,"connected_time":52000000000,"state":"active","ping":61},{"user_id":188,"name":"Jouppi","steam_id":76561198063725468,"connected_time":1295000000000,"state":"active","ping":84},{"user_id":152,"name":"Raxor","steam_id":76561198239927434,"connected_time":3742000000000,"state":"active","ping":90},{"user_id":208,"name":"Puzzles","steam_id":76561198137106459,"connected_time":37000000000,"state":"active","ping":48},{"user_id":209,"name":"Milosz52","steam_id":76561199060940204,"connected_time":31000000000,"state":"active","ping":79},{"user_id":174,"name":"Sgreff","steam_id":76561198036304365,"connected_time":2530000000000,"state":"active","ping":43},{"user_id":179,"name":"MMS21","steam_id":76561198059351269,"connected_time":1809000000000,"state":"active","ping":46},{"user_id":164,"name":"FeminineAtom","steam_id":76561198311208470,"connected_time":3315000000000,"state":"active","ping":46},{"user_id":165,"name":"DEFENDOR62","steam_id":76561199386703896,"connected_time":3306000000000,"state":"active","ping":51},{"user_id":200,"name":"washed up","steam_id":76561198275742101,"connected_time":632000000000,"state":"active","ping":70},{"user_id":173,"name":"( ]KROAN[ )","steam_id":76561198022840710,"connected_time":2737000000000,"state":"active","ping":71},{"user_id":198,"name":"Slazaa","steam_id":76561197993252446,"connected_time":782000000000,"state":"active","ping":45}]},{"server_id":22,"name":"Uncletopia | London | 6 | All Maps","name_short":"lon-6","host":"lon-1.uk.uncletopia.com","port":27065,"enabled":true,"region":"eu","cc":"gb","latitude":51.509865,"longitude":-0.118092,"reserved":0,"last_update":"0001-01-01T00:00:00Z","name_a2s":"Uncletopia | London | 6 | All Maps","protocol":17,"map":"cp_badlands","folder":"tf","game":"Team Fortress","app_id":440,"player_count":24,"max_players":24,"Bots":0,"server_type":"Dedicated","server_os":"Linux","password":true,"vac":true,"version":"7708610","steam_id":85568392924742830,"keywords":["cp","nocrits","nodmgspread","uncletopia"],"game_id":440,"stv_port":27066,"stv_name":"Uncletopia | London | 6 | All Maps | STV","players":[{"user_id":304,"name":"Max Andrew","steam_id":76561198158955194,"connected_time":67000000000,"state":"active","ping":240},{"user_id":305,"name":"Several geollos screaming","steam_id":76561198291326102,"connected_time":14000000000,"state":"spawning","ping":111},{"user_id":216,"name":"i am bread","steam_id":76561199180277321,"connected_time":4489000000000,"state":"active","ping":54},{"user_id":288,"name":"Tea","steam_id":76561198799243030,"connected_time":1156000000000,"state":"active","ping":47},{"user_id":240,"name":"D D","steam_id":76561198257836694,"connected_time":3489000000000,"state":"active","ping":40},{"user_id":291,"name":"Th3Celestial","steam_id":76561198353312252,"connected_time":1042000000000,"state":"active","ping":43},{"user_id":306,"name":"Hertz","steam_id":76561198139375133,"connected_time":4000000000,"state":"spawning","ping":89},{"user_id":256,"name":"cinny","steam_id":76561198832112629,"connected_time":2987000000000,"state":"active","ping":122},{"user_id":303,"name":"broken html image","steam_id":76561198286100751,"connected_time":504000000000,"state":"active","ping":54},{"user_id":280,"name":"Alain de l'ombre","steam_id":76561198037938833,"connected_time":1437000000000,"state":"active","ping":53},{"user_id":293,"name":"bubblojoe","steam_id":76561198044534119,"connected_time":922000000000,"state":"active","ping":50},{"user_id":282,"name":"JoJo","steam_id":76561198296920548,"connected_time":1333000000000,"state":"active","ping":98},{"user_id":275,"name":"Slurms McKenzie","steam_id":76561198112947951,"connected_time":1602000000000,"state":"active","ping":144},{"user_id":270,"name":"Salesman","steam_id":76561198045527771,"connected_time":1822000000000,"state":"active","ping":47},{"user_id":265,"name":"Нікітрон","steam_id":76561198044401080,"connected_time":2123000000000,"state":"active","ping":73},{"user_id":212,"name":"porkchop","steam_id":76561198353047916,"connected_time":4655000000000,"state":"active","ping":47},{"user_id":283,"name":"Greencoffee","steam_id":76561198842090589,"connected_time":1284000000000,"state":"active","ping":67},{"user_id":294,"name":"portokalli","steam_id":76561198289735082,"connected_time":914000000000,"state":"active","ping":48},{"user_id":301,"name":"Giga Chad Revi","steam_id":76561198288444777,"connected_time":666000000000,"state":"active","ping":174},{"user_id":295,"name":"bocian2703","steam_id":76561198134203031,"connected_time":877000000000,"state":"active","ping":71},{"user_id":296,"name":"Kanny","steam_id":76561198058810184,"connected_time":860000000000,"state":"active","ping":57},{"user_id":300,"name":"moocow916","steam_id":76561198040954339,"connected_time":780000000000,"state":"active","ping":47},{"user_id":245,"name":"76561198205267113","steam_id":76561198048250715,"connected_time":3395000000000,"state":"active","ping":60},{"user_id":299,"name":"roar","steam_id":76561198032516058,"connected_time":797000000000,"state":"active","ping":56}]},{"server_id":40,"name":"Uncletopia | London | 7 | No Payload","name_short":"lon-7","host":"lon-1.uk.uncletopia.com","port":27075,"enabled":true,"region":"eu","cc":"gb","latitude":51.509865,"longitude":-0.118092,"reserved":0,"last_update":"0001-01-01T00:00:00Z","name_a2s":"Uncletopia | London | 7 | No Payload","protocol":17,"map":"koth_lakeside_final","folder":"tf","game":"Team Fortress","app_id":440,"player_count":0,"max_players":24,"Bots":0,"server_type":"Dedicated","server_os":"Linux","password":true,"vac":true,"version":"7708610","steam_id":85568392924964314,"keywords":["cp","nocrits","nodmgspread","uncletopia"],"game_id":440,"stv_port":27076,"stv_name":"Uncletopia | London | 7 | No Payload | STV","players":null},{"server_id":41,"name":"Uncletopia | London | 8 | Community","name_short":"lon-8","host":"lon-1.uk.uncletopia.com","port":27085,"enabled":true,"region":"eu","cc":"gb","latitude":51.509865,"longitude":-0.118092,"reserved":0,"last_update":"0001-01-01T00:00:00Z","name_a2s":"Uncletopia | London | 8 | Community","protocol":17,"map":"koth_highpass","folder":"tf","game":"Team Fortress","app_id":440,"player_count":0,"max_players":24,"Bots":0,"server_type":"Dedicated","server_os":"Linux","password":true,"vac":true,"version":"7708610","steam_id":85568392924964315,"keywords":["cp","nocrits","nodmgspread","uncletopia"],"game_id":440,"stv_port":27086,"stv_name":"Uncletopia | London | 8 | Community | STV","players":null},{"server_id":300,"name":"Uncletopia | Montréal | 1 | All Maps","name_short":"mtl-1","host":"mtl-1.ca.uncletopia.com","port":27015,"enabled":true,"region":"us-east","cc":"ca","latitude":45.50889,"longitude":-73.56167,"reserved":0,"last_update":"0001-01-01T00:00:00Z","name_a2s":"Uncletopia | Montréal | 1 | All Maps","protocol":17,"map":"pl_upward","folder":"tf","game":"Team Fortress","app_id":440,"player_count":0,"max_players":24,"Bots":0,"server_type":"Dedicated","server_os":"Linux","password":true,"vac":true,"version":"7708610","steam_id":85568392924500087,"keywords":["nocrits","nodmgspread","payload","uncletopia"],"game_id":440,"stv_port":27016,"stv_name":"Uncletopia | Montréal | 1 | All Maps | STV","players":null},{"server_id":301,"name":"Uncletopia | Montréal | 2 | All Maps","name_short":"mtl-2","host":"mtl-1.ca.uncletopia.com","port":27025,"enabled":true,"region":"us-east","cc":"ca","latitude":45.50889,"longitude":-73.56167,"reserved":0,"last_update":"0001-01-01T00:00:00Z","name_a2s":"Uncletopia | Montréal | 2 | All Maps","protocol":17,"map":"koth_cascade","folder":"tf","game":"Team Fortress","app_id":440,"player_count":0,"max_players":24,"Bots":0,"server_type":"Dedicated","server_os":"Linux","password":true,"vac":true,"version":"7708610","steam_id":85568392924500088,"keywords":["cp","nocrits","nodmgspread","uncletopia"],"game_id":440,"stv_port":27026,"stv_name":"Uncletopia | Montréal | 2 | All Maps | STV","players":null},{"server_id":302,"name":"Uncletopia | Montréal | 3 | All Maps","name_short":"mtl-3","host":"mtl-1.ca.uncletopia.com","port":27035,"enabled":true,"region":"us-east","cc":"ca","latitude":45.50889,"longitude":-73.56167,"reserved":0,"last_update":"0001-01-01T00:00:00Z","name_a2s":"Uncletopia | Montréal | 3 | All Maps","protocol":17,"map":"koth_highpass","folder":"tf","game":"Team Fortress","app_id":440,"player_count":0,"max_players":24,"Bots":0,"server_type":"Dedicated","server_os":"Linux","password":true,"vac":true,"version":"7708610","steam_id":85568392924500089,"keywords":["cp","nocrits","nodmgspread","uncletopia"],"game_id":440,"stv_port":27036,"stv_name":"Uncletopia | Montréal | 3 | All Maps | STV","players":null},{"server_id":303,"name":"Uncletopia | Montréal | 4 | No Payload","name_short":"mtl-4","host":"mtl-1.ca.uncletopia.com","port":27045,"enabled":true,"region":"us-east","cc":"ca","latitude":45.50889,"longitude":-73.56167,"reserved":0,"last_update":"0001-01-01T00:00:00Z","name_a2s":"Uncletopia | Montréal | 4 | No Payload","protocol":17,"map":"koth_suijin","folder":"tf","game":"Team Fortress","app_id":440,"player_count":0,"max_players":24,"Bots":0,"server_type":"Dedicated","server_os":"Linux","password":true,"vac":true,"version":"7708610","steam_id":85568392924500090,"keywords":["cp","nocrits","nodmgspread","uncletopia"],"game_id":440,"stv_port":27046,"stv_name":"Uncletopia | Montréal | 4 | No Payload | STV","players":null},{"server_id":13,"name":"Uncletopia | New York City | 1 | All Maps","name_short":"nyc-1","host":"nyc-1.us.uncletopia.com","port":27015,"enabled":true,"region":"us-east","cc":"us","latitude":40.73061,"longitude":-73.93524,"reserved":0,"last_update":"0001-01-01T00:00:00Z","name_a2s":"Uncletopia | New York City | 1 | All Maps","protocol":17,"map":"koth_highpass","folder":"tf","game":"Team Fortress","app_id":440,"player_count":0,"max_players":24,"Bots":0,"server_type":"Dedicated","server_os":"Linux","password":true,"vac":true,"version":"7708610","steam_id":85568392924469993,"keywords":["cp","nocrits","nodmgspread","uncletopia"],"game_id":440,"stv_port":27016,"stv_name":"Uncletopia | New York City | 1 | All Maps | STV","players":null},{"server_id":14,"name":"Uncletopia | New York City | 2 | All Maps","name_short":"nyc-2","host":"nyc-1.us.uncletopia.com","port":27025,"enabled":true,"region":"us-east","cc":"us","latitude":40.73061,"longitude":-73.93524,"reserved":0,"last_update":"0001-01-01T00:00:00Z","name_a2s":"Uncletopia | New York City | 2 | All Maps","protocol":17,"map":"cp_process_final","folder":"tf","game":"Team Fortress","app_id":440,"player_count":24,"max_players":24,"Bots":0,"server_type":"Dedicated","server_os":"Linux","password":true,"vac":true,"version":"7708610","steam_id":85568392924469994,"keywords":["cp","nocrits","nodmgspread","uncletopia"],"game_id":440,"stv_port":27026,"stv_name":"Uncletopia | New York City | 2 | All Maps | STV","players":[{"user_id":252,"name":"SuperJagops","steam_id":76561198034689716,"connected_time":6893000000000,"state":"active","ping":47},{"user_id":377,"name":"CANDICE","steam_id":76561198208496036,"connected_time":610000000000,"state":"active","ping":60},{"user_id":367,"name":"PrinceGrotle","steam_id":76561198206131603,"connected_time":867000000000,"state":"active","ping":56},{"user_id":380,"name":"Atdum1","steam_id":76561198245424984,"connected_time":502000000000,"state":"active","ping":45},{"user_id":388,"name":"CLAYDUCK","steam_id":76561197995221829,"connected_time":67000000000,"state":"active","ping":112},{"user_id":227,"name":"uhooter","steam_id":76561198007829078,"connected_time":8208000000000,"state":"active","ping":59},{"user_id":390,"name":"Seayon","steam_id":76561198151688517,"connected_time":41000000000,"state":"spawning","ping":58},{"user_id":383,"name":"Cleo","steam_id":76561198441116082,"connected_time":229000000000,"state":"active","ping":121},{"user_id":387,"name":"Vagineer Gaming","steam_id":76561198276179693,"connected_time":80000000000,"state":"active","ping":58},{"user_id":389,"name":"SoggyBread","steam_id":76561199094181697,"connected_time":59000000000,"state":"active","ping":54},{"user_id":330,"name":"coconut","steam_id":76561198057136814,"connected_time":2749000000000,"state":"active","ping":80},{"user_id":373,"name":"Cheezyfrie","steam_id":76561199112210824,"connected_time":804000000000,"state":"active","ping":65},{"user_id":334,"name":"goodheartchris","steam_id":76561198045836210,"connected_time":2086000000000,"state":"active","ping":62},{"user_id":378,"name":"groda_spel","steam_id":76561198121349387,"connected_time":557000000000,"state":"active","ping":78},{"user_id":382,"name":"TheAshenDerp","steam_id":76561198848585450,"connected_time":240000000000,"state":"active","ping":43},{"user_id":379,"name":"Mutt x","steam_id":76561197995197443,"connected_time":553000000000,"state":"active","ping":103},{"user_id":372,"name":"Ifrit","steam_id":76561198044730782,"connected_time":808000000000,"state":"active","ping":94},{"user_id":325,"name":"monke","steam_id":76561198057493413,"connected_time":2962000000000,"state":"active","ping":71},{"user_id":371,"name":"The IRS","steam_id":76561197998344127,"connected_time":818000000000,"state":"active","ping":68},{"user_id":381,"name":"John Waffles Brown","steam_id":76561197989105786,"connected_time":261000000000,"state":"active","ping":69},{"user_id":318,"name":"Carl Griffensneed","steam_id":76561199131920084,"connected_time":3102000000000,"state":"active","ping":59},{"user_id":375,"name":"also here","steam_id":76561199122466169,"connected_time":771000000000,"state":"active","ping":50},{"user_id":327,"name":"Cooldog","steam_id":76561198080548713,"connected_time":2926000000000,"state":"active","ping":55},{"user_id":384,"name":"Big bathroom","steam_id":76561198034771900,"connected_time":205000000000,"state":"active","ping":57}]},{"server_id":15,"name":"Uncletopia | New York City | 3 | All Maps","name_short":"nyc-3","host":"nyc-1.us.uncletopia.com","port":27035,"enabled":true,"region":"us-east","cc":"us","latitude":40.73061,"longitude":-73.93524,"reserved":0,"last_update":"0001-01-01T00:00:00Z","name_a2s":"Uncletopia | New York City | 3 | All Maps","protocol":17,"map":"koth_lakeside_final","folder":"tf","game":"Team Fortress","app_id":440,"player_count":16,"max_players":24,"Bots":0,"server_type":"Dedicated","server_os":"Linux","password":true,"vac":true,"version":"7708610","steam_id":85568392924742820,"keywords":["cp","nocrits","nodmgspread","uncletopia"],"game_id":440,"stv_port":27036,"stv_name":"Uncletopia | New York City | 3 | All Maps | STV","players":[{"user_id":192,"name":"The One True Pineapple #SaveTF2","steam_id":76561198083157236,"connected_time":650000000000,"state":"active","ping":88},{"user_id":194,"name":"Irunman","steam_id":76561198058243536,"connected_time":562000000000,"state":"active","ping":57},{"user_id":195,"name":"AbbyRoads","steam_id":76561198868564212,"connected_time":512000000000,"state":"active","ping":52},{"user_id":197,"name":"Joe Burning","steam_id":76561198208623275,"connected_time":324000000000,"state":"active","ping":78},{"user_id":198,"name":"dav!d","steam_id":76561198150627999,"connected_time":307000000000,"state":"active","ping":58},{"user_id":176,"name":"BrandOp","steam_id":76561198177154519,"connected_time":1623000000000,"state":"active","ping":63},{"user_id":201,"name":"average new yorker","steam_id":76561198039094633,"connected_time":156000000000,"state":"active","ping":31},{"user_id":177,"name":"Acher","steam_id":76561198117843951,"connected_time":1593000000000,"state":"active","ping":42},{"user_id":206,"name":"SHREK5","steam_id":76561198245927592,"connected_time":42000000000,"state":"active","ping":50},{"user_id":208,"name":"Rattle Bones","steam_id":76561198075736702,"connected_time":22000000000,"state":"active","ping":601},{"user_id":182,"name":"CHKR","steam_id":76561198366790166,"connected_time":1386000000000,"state":"active","ping":43},{"user_id":183,"name":"🌸Red🌸","steam_id":76561198037346199,"connected_time":1259000000000,"state":"active","ping":145},{"user_id":134,"name":"space mann","steam_id":76561198174447043,"connected_time":4190000000000,"state":"active","ping":40},{"user_id":203,"name":"Roz257","steam_id":76561198842844532,"connected_time":71000000000,"state":"active","ping":76},{"user_id":204,"name":"X","steam_id":76561198868600487,"connected_time":59000000000,"state":"active","ping":188},{"user_id":209,"name":"willpstackhouse","steam_id":76561199429341254,"connected_time":16000000000,"state":"active","ping":87}]},{"server_id":16,"name":"Uncletopia | New York City | 4 | Community","name_short":"nyc-4","host":"nyc-1.us.uncletopia.com","port":27045,"enabled":true,"region":"us-east","cc":"us","latitude":40.73061,"longitude":-73.93524,"reserved":0,"last_update":"0001-01-01T00:00:00Z","name_a2s":"Uncletopia | New York City | 4 | Community","protocol":17,"map":"workshop/cp_villa_b19.ugc2113052569","folder":"tf","game":"Team Fortress","app_id":440,"player_count":0,"max_players":24,"Bots":0,"server_type":"Dedicated","server_os":"Linux","password":true,"vac":true,"version":"7708610","steam_id":85568392924742821,"keywords":["cp","nocrits","nodmgspread","uncletopia"],"game_id":440,"stv_port":27046,"stv_name":"Uncletopia | New York City | 4 | Community | STV","players":null},{"server_id":142,"name":"Uncletopia | São Paulo | 1 | All Maps","name_short":"sao-1","host":"sao-1.br.uncletopia.com","port":27015,"enabled":true,"region":"sa","cc":"br","latitude":-23.533773,"longitude":-46.62529,"reserved":0,"last_update":"0001-01-01T00:00:00Z","name_a2s":"Uncletopia | São Paulo | 1 | All Maps","protocol":17,"map":"pl_upward","folder":"tf","game":"Team Fortress","app_id":440,"player_count":15,"max_players":24,"Bots":0,"server_type":"Dedicated","server_os":"Linux","password":true,"vac":true,"version":"7708610","steam_id":85568392924469996,"keywords":["nocrits","nodmgspread","payload","uncletopia"],"game_id":440,"stv_port":27016,"stv_name":"Uncletopia | São Paulo | 1 | All Maps | STV","players":[{"user_id":77,"name":"AnGiovanni","steam_id":76561198857071387,"connected_time":1215000000000,"state":"active","ping":61},{"user_id":82,"name":"batmanbeginscurling","steam_id":76561198148278021,"connected_time":178000000000,"state":"active","ping":38},{"user_id":83,"name":"Pr通りの伝説","steam_id":76561198976110673,"connected_time":150000000000,"state":"active","ping":59},{"user_id":50,"name":"Thompy","steam_id":76561199409024712,"connected_time":3300000000000,"state":"active","ping":63},{"user_id":51,"name":"admouse","steam_id":76561198251951784,"connected_time":3289000000000,"state":"active","ping":33},{"user_id":47,"name":"your motivational man","steam_id":76561199063498193,"connected_time":3620000000000,"state":"active","ping":45},{"user_id":80,"name":"Nano","steam_id":76561198104020259,"connected_time":607000000000,"state":"active","ping":75},{"user_id":65,"name":"SPYRYTTS","steam_id":76561197983312920,"connected_time":1777000000000,"state":"active","ping":60},{"user_id":61,"name":"Pyro","steam_id":76561198256242118,"connected_time":2118000000000,"state":"active","ping":54},{"user_id":63,"name":"ailuros","steam_id":76561198171349369,"connected_time":2064000000000,"state":"active","ping":34},{"user_id":76,"name":"rafxv","steam_id":76561198083321227,"connected_time":1345000000000,"state":"active","ping":67},{"user_id":69,"name":"gordo armas homem","steam_id":76561198801134216,"connected_time":1657000000000,"state":"active","ping":45},{"user_id":70,"name":"xaropinho","steam_id":76561199082074514,"connected_time":1616000000000,"state":"active","ping":51},{"user_id":72,"name":"The Square Engineer","steam_id":76561199077687042,"connected_time":1588000000000,"state":"active","ping":59},{"user_id":74,"name":"Gomarra","steam_id":76561199202174355,"connected_time":1558000000000,"state":"active","ping":75}]},{"server_id":143,"name":"Uncletopia | São Paulo | 2 | All Maps","name_short":"sao-2","host":"sao-2.br.uncletopia.com","port":27015,"enabled":true,"region":"sa","cc":"br","latitude":-23.533773,"longitude":-46.62529,"reserved":0,"last_update":"0001-01-01T00:00:00Z","name_a2s":"Uncletopia | São Paulo | 2 | All Maps","protocol":17,"map":"cp_gorge","folder":"tf","game":"Team Fortress","app_id":440,"player_count":24,"max_players":24,"Bots":0,"server_type":"Dedicated","server_os":"Linux","password":true,"vac":true,"version":"7708610","steam_id":85568392924485349,"keywords":["cp","nocrits","nodmgspread","uncletopia"],"game_id":440,"stv_port":27016,"stv_name":"Uncletopia | São Paulo | 2 | All Maps | STV","players":[{"user_id":63,"name":"Gogoyle50","steam_id":76561198148524228,"connected_time":4276000000000,"state":"active","ping":46},{"user_id":55,"name":"Abiodon","steam_id":76561199001721897,"connected_time":5052000000000,"state":"active","ping":57},{"user_id":50,"name":"pequeno pedrinho","steam_id":76561198994253286,"connected_time":5613000000000,"state":"active","ping":36},{"user_id":102,"name":"Ricardo Ereto","steam_id":76561199022729585,"connected_time":935000000000,"state":"active","ping":58},{"user_id":52,"name":"Kasper","steam_id":76561199019108684,"connected_time":5349000000000,"state":"active","ping":59},{"user_id":111,"name":"Out of scrumpy f2p","steam_id":76561198985108739,"connected_time":266000000000,"state":"active","ping":69},{"user_id":94,"name":"Komuna","steam_id":76561199405330162,"connected_time":2875000000000,"state":"active","ping":40},{"user_id":103,"name":"HelferB.R.","steam_id":76561199116803379,"connected_time":934000000000,"state":"active","ping":58},{"user_id":65,"name":"Zoom!","steam_id":76561198289562649,"connected_time":4253000000000,"state":"active","ping":45},{"user_id":104,"name":"delta","steam_id":76561198288966901,"connected_time":871000000000,"state":"active","ping":59},{"user_id":106,"name":"Isen","steam_id":76561198282557354,"connected_time":694000000000,"state":"active","ping":71},{"user_id":107,"name":"Ice Whallow Come","steam_id":76561198063668057,"connected_time":672000000000,"state":"active","ping":53},{"user_id":73,"name":"Laggy Niks","steam_id":76561198451216653,"connected_time":3903000000000,"state":"active","ping":83},{"user_id":99,"name":"asdadsadasdasda","steam_id":76561198415484497,"connected_time":2337000000000,"state":"active","ping":61},{"user_id":95,"name":"Kira_NEM","steam_id":76561198972506897,"connected_time":2846000000000,"state":"active","ping":45},{"user_id":108,"name":"Tio KillerParty","steam_id":76561198067918814,"connected_time":633000000000,"state":"active","ping":59},{"user_id":91,"name":"ＥｎｄｅｒＮｅｃｒｏ","steam_id":76561198044304293,"connected_time":3071000000000,"state":"active","ping":42},{"user_id":87,"name":"Pathetic","steam_id":76561198051056987,"connected_time":3513000000000,"state":"active","ping":60},{"user_id":71,"name":"leoextremo","steam_id":76561198867928520,"connected_time":4041000000000,"state":"active","ping":60},{"user_id":84,"name":"Mitke","steam_id":76561198156271334,"connected_time":3682000000000,"state":"active","ping":57},{"user_id":110,"name":"joaolokofgg","steam_id":76561199110347873,"connected_time":383000000000,"state":"active","ping":69},{"user_id":100,"name":"Burilo","steam_id":76561198014445055,"connected_time":2224000000000,"state":"active","ping":42},{"user_id":112,"name":"blazz","steam_id":76561198119687477,"connected_time":265000000000,"state":"active","ping":106},{"user_id":101,"name":"GabrielCB","steam_id":76561198060023858,"connected_time":1422000000000,"state":"active","ping":64}]},{"server_id":7,"name":"Uncletopia | Seattle | 1 | All Maps","name_short":"sea-1","host":"sea-1.us.uncletopia.com","port":27015,"enabled":true,"region":"us-west","cc":"us","latitude":47.608013,"longitude":-122.33517,"reserved":0,"last_update":"0001-01-01T00:00:00Z","name_a2s":"Uncletopia | Seattle | 1 | All Maps","protocol":17,"map":"pl_upward","folder":"tf","game":"Team Fortress","app_id":440,"player_count":24,"max_players":24,"Bots":0,"server_type":"Dedicated","server_os":"Linux","password":true,"vac":true,"version":"7708610","steam_id":85568392924469997,"keywords":["nocrits","nodmgspread","payload","uncletopia"],"game_id":440,"stv_port":27016,"stv_name":"Uncletopia | Seattle | 1 | All Maps | STV","players":[{"user_id":63,"name":"An Old Lady","steam_id":76561198047480318,"connected_time":2569000000000,"state":"active","ping":93},{"user_id":65,"name":"McSpazatron","steam_id":76561198955942148,"connected_time":2530000000000,"state":"active","ping":60},{"user_id":81,"name":"grimorreaper","steam_id":76561199217539356,"connected_time":1790000000000,"state":"active","ping":87},{"user_id":96,"name":"Thathamster","steam_id":76561199049045034,"connected_time":390000000000,"state":"active","ping":58},{"user_id":69,"name":"Livin' Like Larry","steam_id":76561198313360974,"connected_time":2369000000000,"state":"active","ping":57},{"user_id":79,"name":"Grill Skills","steam_id":76561198053575147,"connected_time":1841000000000,"state":"active","ping":58},{"user_id":97,"name":"video games","steam_id":76561198334059206,"connected_time":147000000000,"state":"active","ping":68},{"user_id":77,"name":"Doidled Tyatsmr","steam_id":76561198085228896,"connected_time":1854000000000,"state":"active","ping":77},{"user_id":95,"name":"Esau","steam_id":76561198110449520,"connected_time":749000000000,"state":"active","ping":119},{"user_id":80,"name":"dude","steam_id":76561198253202693,"connected_time":1838000000000,"state":"active","ping":61},{"user_id":82,"name":"bongcloud","steam_id":76561198116337540,"connected_time":1761000000000,"state":"active","ping":89},{"user_id":62,"name":"maximusbabaximus","steam_id":76561198419378913,"connected_time":2877000000000,"state":"active","ping":77},{"user_id":75,"name":"Soap Man","steam_id":76561198000490235,"connected_time":2157000000000,"state":"active","ping":62},{"user_id":78,"name":"dougrocks421","steam_id":76561198165063918,"connected_time":1852000000000,"state":"active","ping":34},{"user_id":83,"name":"sora","steam_id":76561198094256973,"connected_time":1759000000000,"state":"active","ping":70},{"user_id":84,"name":"BasedGod","steam_id":76561198061177973,"connected_time":1750000000000,"state":"active","ping":64},{"user_id":93,"name":"PROD CHAMPION","steam_id":76561199245670274,"connected_time":880000000000,"state":"active","ping":76},{"user_id":91,"name":"Can of Oranges (Festive)","steam_id":76561199121813529,"connected_time":955000000000,"state":"active","ping":38},{"user_id":85,"name":"dust","steam_id":76561198045218909,"connected_time":1743000000000,"state":"active","ping":42},{"user_id":87,"name":"Huge","steam_id":76561199030987614,"connected_time":1401000000000,"state":"active","ping":140},{"user_id":74,"name":"Level 1 Crook","steam_id":76561198441098132,"connected_time":2225000000000,"state":"active","ping":105},{"user_id":57,"name":"Master Of Whales","steam_id":76561198349104889,"connected_time":3135000000000,"state":"active","ping":76},{"user_id":55,"name":"chunkysquare","steam_id":76561199076468383,"connected_time":3185000000000,"state":"active","ping":62},{"user_id":76,"name":"Taberone","steam_id":76561198032653574,"connected_time":2110000000000,"state":"active","ping":66}]},{"server_id":119,"name":"Uncletopia | Seattle | 2 | All Maps","name_short":"sea-2","host":"sea-1.us.uncletopia.com","port":27025,"enabled":true,"region":"us-west","cc":"us","latitude":47.608013,"longitude":-122.33517,"reserved":0,"last_update":"0001-01-01T00:00:00Z","name_a2s":"Uncletopia | Seattle | 2 | All Maps","protocol":17,"map":"pl_swiftwater_final1","folder":"tf","game":"Team Fortress","app_id":440,"player_count":0,"max_players":24,"Bots":0,"server_type":"Dedicated","server_os":"Linux","password":true,"vac":true,"version":"7708610","steam_id":85568392924469998,"keywords":["nocrits","nodmgspread","payload","uncletopia"],"game_id":440,"stv_port":27026,"stv_name":"Uncletopia | Seattle | 2 | All Maps | STV","players":null},{"server_id":17,"name":"Uncletopia | San Francisco | 1 | All Maps","name_short":"sfo-1","host":"sfo-1.us.uncletopia.com","port":27015,"enabled":true,"region":"us-west","cc":"us","latitude":37.77397,"longitude":-122.4313,"reserved":0,"last_update":"0001-01-01T00:00:00Z","name_a2s":"Uncletopia | San Francisco | 1 | All Maps","protocol":17,"map":"koth_lakeside_final","folder":"tf","game":"Team Fortress","app_id":440,"player_count":0,"max_players":24,"Bots":0,"server_type":"Dedicated","server_os":"Linux","password":true,"vac":true,"version":"7708610","steam_id":85568392924469999,"keywords":["cp","nocrits","nodmgspread","uncletopia"],"game_id":440,"stv_port":27016,"stv_name":"Uncletopia | San Francisco | 1 | All Maps | STV","players":null},{"server_id":18,"name":"Uncletopia | San Francisco | 2 | All Maps","name_short":"sfo-2","host":"sfo-1.us.uncletopia.com","port":27025,"enabled":true,"region":"us-west","cc":"us","latitude":37.77397,"longitude":-122.4313,"reserved":0,"last_update":"0001-01-01T00:00:00Z","name_a2s":"Uncletopia | San Francisco | 2 | All Maps","protocol":17,"map":"koth_viaduct","folder":"tf","game":"Team Fortress","app_id":440,"player_count":0,"max_players":24,"Bots":0,"server_type":"Dedicated","server_os":"Linux","password":true,"vac":true,"version":"7708610","steam_id":85568392924470000,"keywords":["cp","nocrits","nodmgspread","uncletopia"],"game_id":440,"stv_port":27026,"stv_name":"Uncletopia | San Francisco | 2 | All Maps | STV","players":null},{"server_id":19,"name":"Uncletopia | San Francisco | 3 | No Payload","name_short":"sfo-3","host":"sfo-1.us.uncletopia.com","port":27035,"enabled":true,"region":"us-west","cc":"us","latitude":37.77397,"longitude":-122.4313,"reserved":0,"last_update":"0001-01-01T00:00:00Z","name_a2s":"Uncletopia | San Francisco | 3 | No Payload","protocol":17,"map":"plr_hightower","folder":"tf","game":"Team Fortress","app_id":440,"player_count":0,"max_players":24,"Bots":0,"server_type":"Dedicated","server_os":"Linux","password":true,"vac":true,"version":"7708610","steam_id":85568392924742824,"keywords":["nocrits","nodmgspread","payload","uncletopia"],"game_id":440,"stv_port":27036,"stv_name":"Uncletopia | San Francisco | 3 | No Payload | STV","players":null},{"server_id":20,"name":"Uncletopia | San Francisco | 4 | Community","name_short":"sfo-4","host":"sfo-1.us.uncletopia.com","port":27045,"enabled":true,"region":"us-west","cc":"us","latitude":37.77397,"longitude":-122.4313,"reserved":0,"last_update":"0001-01-01T00:00:00Z","name_a2s":"Uncletopia | San Francisco | 4 | Community","protocol":17,"map":"workshop/pl_vigil_rc9.ugc1266210012","folder":"tf","game":"Team Fortress","app_id":440,"player_count":0,"max_players":24,"Bots":0,"server_type":"Dedicated","server_os":"Linux","password":true,"vac":true,"version":"7708610","steam_id":85568392924742826,"keywords":["nocrits","nodmgspread","payload","uncletopia"],"game_id":440,"stv_port":27046,"stv_name":"Uncletopia | San Francisco | 4 | Community | STV","players":null},{"server_id":141,"name":"Uncletopia | Sydney | 1 | All Maps","name_short":"syd-1","host":"syd-1.au.uncletopia.com","port":27015,"enabled":true,"region":"au","cc":"au","latitude":-33.865143,"longitude":151.2099,"reserved":0,"last_update":"0001-01-01T00:00:00Z","name_a2s":"Uncletopia | Sydney | 1 | All Maps","protocol":17,"map":"pl_frontier_final","folder":"tf","game":"Team Fortress","app_id":440,"player_count":0,"max_players":24,"Bots":0,"server_type":"Dedicated","server_os":"Linux","password":true,"vac":true,"version":"7708610","steam_id":85568392924470001,"keywords":["nocrits","nodmgspread","payload","uncletopia"],"game_id":440,"stv_port":27016,"stv_name":"Uncletopia | Sydney | 1 | All Maps | STV","players":null},{"server_id":123,"name":"Uncletopia | Sydney | 2 | All Maps","name_short":"syd-2","host":"syd-1.au.uncletopia.com","port":27025,"enabled":true,"region":"au","cc":"au","latitude":-33.865143,"longitude":151.2099,"reserved":0,"last_update":"0001-01-01T00:00:00Z","name_a2s":"Uncletopia | Sydney | 2 | All Maps","protocol":17,"map":"cp_altitude","folder":"tf","game":"Team Fortress","app_id":440,"player_count":0,"max_players":24,"Bots":0,"server_type":"Dedicated","server_os":"Linux","password":true,"vac":true,"version":"7708610","steam_id":85568392924470002,"keywords":["cp","nocrits","nodmgspread","uncletopia"],"game_id":440,"stv_port":27026,"stv_name":"Uncletopia | Sydney | 2 | All Maps | STV","players":null},{"server_id":395,"name":"Uncletopia | Sydney | 3 | All Maps","name_short":"syd-3","host":"syd-1.au.uncletopia.com","port":27035,"enabled":true,"region":"au","cc":"au","latitude":-33.865143,"longitude":151.2099,"reserved":0,"last_update":"0001-01-01T00:00:00Z","name_a2s":"Uncletopia | Sydney | 3 | All Maps","protocol":17,"map":"pl_badwater","folder":"tf","game":"Team Fortress","app_id":440,"player_count":0,"max_players":24,"Bots":0,"server_type":"Dedicated","server_os":"Linux","password":true,"vac":true,"version":"7708610","steam_id":85568392925194467,"keywords":["nocrits","nodmgspread","payload","uncletopia"],"game_id":440,"stv_port":27036,"stv_name":"Uncletopia | Sydney | 3 | All Maps | STV","players":null},{"server_id":396,"name":"Uncletopia | Sydney | 4 | All Maps","name_short":"syd-4","host":"syd-1.au.uncletopia.com","port":27045,"enabled":true,"region":"au","cc":"au","latitude":-33.865143,"longitude":151.2099,"reserved":0,"last_update":"0001-01-01T00:00:00Z","name_a2s":"Uncletopia | Sydney | 4 | All Maps","protocol":17,"map":"pl_pier","folder":"tf","game":"Team Fortress","app_id":440,"player_count":0,"max_players":24,"Bots":0,"server_type":"Dedicated","server_os":"Linux","password":true,"vac":true,"version":"7708610","steam_id":85568392925397958,"keywords":["nocrits","nodmgspread","payload","uncletopia"],"game_id":440,"stv_port":27046,"stv_name":"Uncletopia | Sydney | 4 | All Maps | STV","players":null},{"server_id":58,"name":"Uncletopia | Sydney | 5 | No Payload","name_short":"syd-5","host":"syd-1.au.uncletopia.com","port":27055,"enabled":true,"region":"au","cc":"au","latitude":-33.865143,"longitude":151.2099,"reserved":0,"last_update":"0001-01-01T00:00:00Z","name_a2s":"Uncletopia | Sydney | 5 | No Payload","protocol":17,"map":"koth_lakeside_final","folder":"tf","game":"Team Fortress","app_id":440,"player_count":0,"max_players":24,"Bots":0,"server_type":"Dedicated","server_os":"Linux","password":true,"vac":true,"version":"7708610","steam_id":85568392925397959,"keywords":["cp","nocrits","nodmgspread","uncletopia"],"game_id":440,"stv_port":27056,"stv_name":"Uncletopia | Sydney | 5 | No Payload | STV","players":null},{"server_id":59,"name":"Uncletopia | Sydney | 6 | Community","name_short":"syd-6","host":"syd-1.au.uncletopia.com","port":27065,"enabled":true,"region":"au","cc":"au","latitude":-33.865143,"longitude":151.2099,"reserved":0,"last_update":"0001-01-01T00:00:00Z","name_a2s":"Uncletopia | Sydney | 6 | Community","protocol":17,"map":"koth_lakeside_final","folder":"tf","game":"Team Fortress","app_id":440,"player_count":0,"max_players":24,"Bots":0,"server_type":"Dedicated","server_os":"Linux","password":true,"vac":true,"version":"7708610","steam_id":85568392925397960,"keywords":["cp","nocrits","nodmgspread","uncletopia"],"game_id":440,"stv_port":27066,"stv_name":"Uncletopia | Sydney | 6 | Community | STV","players":null},{"server_id":49,"name":"Uncletopia | Warsaw | 1 | All Maps","name_short":"waw-1","host":"waw-1.pl.uncletopia.com","port":27015,"enabled":true,"region":"eu","cc":"pl","latitude":52.2297,"longitude":21.017532,"reserved":0,"last_update":"0001-01-01T00:00:00Z","name_a2s":"Uncletopia | Warsaw | 1 | All Maps","protocol":17,"map":"koth_viaduct","folder":"tf","game":"Team Fortress","app_id":440,"player_count":0,"max_players":24,"Bots":0,"server_type":"Dedicated","server_os":"Linux","password":true,"vac":true,"version":"7708610","steam_id":85568392925397850,"keywords":["cp","nocrits","nodmgspread","uncletopia"],"game_id":440,"stv_port":27016,"stv_name":"Uncletopia | Warsaw | 1 | All Maps | STV","players":null},{"server_id":50,"name":"Uncletopia | Warsaw | 2 | All Maps","name_short":"waw-2","host":"waw-1.pl.uncletopia.com","port":27025,"enabled":true,"region":"eu","cc":"pl","latitude":52.2297,"longitude":21.017532,"reserved":0,"last_update":"0001-01-01T00:00:00Z","name_a2s":"Uncletopia | Warsaw | 2 | All Maps","protocol":17,"map":"koth_cascade","folder":"tf","game":"Team Fortress","app_id":440,"player_count":0,"max_players":24,"Bots":0,"server_type":"Dedicated","server_os":"Linux","password":true,"vac":true,"version":"7708610","steam_id":85568392925397851,"keywords":["cp","nocrits","nodmgspread","uncletopia"],"game_id":440,"stv_port":27026,"stv_name":"Uncletopia | Warsaw | 2 | All Maps | STV","players":null},{"server_id":51,"name":"Uncletopia | Warsaw | 3 | All Maps","name_short":"waw-3","host":"waw-1.pl.uncletopia.com","port":27035,"enabled":true,"region":"eu","cc":"pl","latitude":52.2297,"longitude":21.017532,"reserved":0,"last_update":"0001-01-01T00:00:00Z","name_a2s":"Uncletopia | Warsaw | 3 | All Maps","protocol":17,"map":"koth_viaduct","folder":"tf","game":"Team Fortress","app_id":440,"player_count":0,"max_players":24,"Bots":0,"server_type":"Dedicated","server_os":"Linux","password":true,"vac":true,"version":"7708610","steam_id":85568392925397852,"keywords":["cp","nocrits","nodmgspread","uncletopia"],"game_id":440,"stv_port":27036,"stv_name":"Uncletopia | Warsaw | 3 | All Maps | STV","players":null},{"server_id":52,"name":"Uncletopia | Warsaw | 4 | All Maps","name_short":"waw-4","host":"waw-1.pl.uncletopia.com","port":27045,"enabled":true,"region":"eu","cc":"pl","latitude":52.2297,"longitude":21.017532,"reserved":0,"last_update":"0001-01-01T00:00:00Z","name_a2s":"Uncletopia | Warsaw | 4 | All Maps","protocol":17,"map":"koth_cascade","folder":"tf","game":"Team Fortress","app_id":440,"player_count":0,"max_players":24,"Bots":0,"server_type":"Dedicated","server_os":"Linux","password":true,"vac":true,"version":"7708610","steam_id":85568392925397853,"keywords":["cp","nocrits","nodmgspread","uncletopia"],"game_id":440,"stv_port":27046,"stv_name":"Uncletopia | Warsaw | 4 | All Maps | STV","players":null},{"server_id":53,"name":"Uncletopia | Warsaw | 5 | No Payload","name_short":"waw-5","host":"waw-1.pl.uncletopia.com","port":27055,"enabled":true,"region":"eu","cc":"pl","latitude":52.2297,"longitude":21.017532,"reserved":0,"last_update":"0001-01-01T00:00:00Z","name_a2s":"Uncletopia | Warsaw | 5 | No Payload","protocol":17,"map":"cp_altitude","folder":"tf","game":"Team Fortress","app_id":440,"player_count":0,"max_players":24,"Bots":0,"server_type":"Dedicated","server_os":"Linux","password":true,"vac":true,"version":"7708610","steam_id":85568392925397854,"keywords":["cp","nocrits","nodmgspread","uncletopia"],"game_id":440,"stv_port":27056,"stv_name":"Uncletopia | Warsaw | 5 | No Payload | STV","players":null},{"server_id":54,"name":"Uncletopia | Warsaw | 6 | Community","name_short":"waw-6","host":"waw-1.pl.uncletopia.com","port":27065,"enabled":true,"region":"eu","cc":"pl","latitude":52.2297,"longitude":21.017532,"reserved":0,"last_update":"0001-01-01T00:00:00Z","name_a2s":"Uncletopia | Warsaw | 6 | Community","protocol":17,"map":"workshop/cp_reckoner_rc6.ugc674719999","folder":"tf","game":"Team Fortress","app_id":440,"player_count":0,"max_players":24,"Bots":0,"server_type":"Dedicated","server_os":"Linux","password":true,"vac":true,"version":"7708610","steam_id":85568392925397856,"keywords":["cp","nocrits","nodmgspread","uncletopia"],"game_id":440,"stv_port":27066,"stv_name":"Uncletopia | Warsaw | 6 | Community | STV","players":null}]}