{"status":true,"message":"","result":[{"server_id":9,"name":"Uncletopia | Atlanta | 1 | All Maps","name_short":"atl-1","host":"atl-1.us.uncletopia.com","port":27015,"enabled":true,"region":"us-east","cc":"us","latitude":33.753746,"longitude":-84.38633,"reserved":0,"last_update":"0001-01-01T00:00:00Z","name_a2s":"Uncletopia | Atlanta | 1 | All Maps","protocol":17,"map":"pl_upward","folder":"tf","game":"Team Fortress","app_id":440,"player_count":16,"max_players":24,"Bots":0,"server_type":"Dedicated","server_os":"Linux","password":true,"vac":true,"version":"7961495","steam_id":85568392924469982,"keywords":["nocrits","nodmgspread","payload","uncletopia"],"game_id":440,"stv_port":27016,"stv_name":"Uncletopia | Atlanta | 1 | All Maps | STV","players":null},{"server_id":104,"name":"Uncletopia | Atlanta | 2 | All Maps","name_short":"atl-2","host":"atl-1.us.uncletopia.com","port":27025,"enabled":true,"region":"us-east","cc":"us","latitude":33.753746,"longitude":-84.38633,"reserved":0,"last_update":"0001-01-01T00:00:00Z","name_a2s":"Uncletopia | Atlanta | 2 | All Maps","protocol":17,"map":"koth_cascade","folder":"tf","game":"Team Fortress","app_id":440,"player_count":0,"max_players":24,"Bots":0,"server_type":"Dedicated","server_os":"Linux","password":true,"vac":true,"version":"7961495","steam_id":85568392924469983,"keywords":["cp","nocrits","nodmgspread","uncletopia"],"game_id":440,"stv_port":27026,"stv_name":"Uncletopia | Atlanta | 2 | All Maps | STV","players":null},{"server_id":400,"name":"Uncletopia | Atlanta | 3 | Stopwatch","name_short":"atl-3","host":"atl-1.us.uncletopia.com","port":27035,"enabled":true,"region":"us-east","cc":"us","latitude":33.753746,"longitude":-84.38633,"reserved":0,"last_update":"0001-01-01T00:00:00Z","name_a2s":"Uncletopia | Atlanta | 3 | Stopwatch","protocol":17,"map":"koth_clearcut_b15","folder":"tf","game":"Team Fortress","app_id":440,"player_count":0,"max_players":24,"Bots":0,"server_type":"Dedicated","server_os":"Linux","password":true,"vac":true,"version":"7961495","steam_id":85568392924515187,"keywords":["cp","nocrits","nodmgspread","uncletopia"],"game_id":440,"stv_port":27036,"stv_name":"Uncletopia | Atlanta | 3 | Stopwatch | STV","players":null},{"server_id":401,"name":"Uncletopia | Atlanta | 4 | Community","name_short":"atl-4","host":"atl-1.us.uncletopia.com","port":27045,"enabled":true,"region":"us-east","cc":"us","latitude":33.753746,"longitude":-84.38633,"reserved":0,"last_update":"0001-01-01T00:00:00Z","name_a2s":"Uncletopia | Atlanta | 4 | Community","protocol":17,"map":"koth_trenchfoot_b1a","folder":"tf","game":"Team Fortress","app_id":440,"player_count":0,"max_players":24,"Bots":0,"server_type":"Dedicated","server_os":"Linux","password":true,"vac":true,"version":"7961495","steam_id":85568392924515188,"keywords":["cp","nocrits","nodmgspread","uncletopia"],"game_id":440,"stv_port":27046,"stv_name":"Uncletopia | Atlanta | 4 | Community | STV","players":null},{"server_id":2,"name":"Uncletopia | Chicago | 1 | All Maps","name_short":"chi-1","host":"chi-1.us.uncletopia.com","port":27015,"enabled":true,"region":"us-central","cc":"us","latitude":41.881832,"longitude":-87.62318,"reserved":0,"last_update":"0001-01-01T00:00:00Z","name_a2s":"Uncletopia | Chicago | 1 | All Maps","protocol":17,"map":"pl_badwater","folder":"tf","game":"Team Fortress","app_id":440,"player_count":25,"max_players":24,"Bots":0,"server_type":"Dedicated","server_os":"Linux","password":true,"vac":true,"version":"7961495","steam_id":85568392924469984,"keywords":["nocrits","nodmgspread","payload","uncletopia"],"game_id":440,"stv_port":27016,"stv_name":"Uncletopia | Chicago | 1 | All Maps | STV","players":[{"user_id":13,"name":"Forehead","steam_id":76561198124151399,"connected_time":5354000000000,"state":"active","ping":70},{"user_id":85,"name":"TOMMYDREAMERECW","steam_id":76561198817675660,"connected_time":693000000000,"state":"active","ping":51},{"user_id":82,"name":"namenafe","steam_id":76561198106279222,"connected_time":747000000000,"state":"active","ping":66},{"user_id":74,"name":"Raz","steam_id":76561198879521002,"connected_time":930000000000,"state":"active","ping":61},{"user_id":70,"name":"debin","steam_id":76561198070711217,"connected_time":964000000000,"state":"active","ping":49},{"user_id":80,"name":"Fluffeline","steam_id":76561198352909489,"connected_time":847000000000,"state":"active","ping":144},{"user_id":87,"name":"Mihalys","steam_id":76561198076645019,"connected_time":167000000000,"state":"active","ping":69},{"user_id":76,"name":"uweh","steam_id":76561198113707813,"connected_time":921000000000,"state":"active","ping":79},{"user_id":61,"name":"AkimboAoki","steam_id":76561198158323058,"connected_time":2309000000000,"state":"active","ping":100},{"user_id":68,"name":"cool swag","steam_id":76561198312058142,"connected_time":1959000000000,"state":"active","ping":82},{"user_id":90,"name":"Ⱨï₥","steam_id":76561198056871257,"connected_time":111000000000,"state":"active","ping":62},{"user_id":84,"name":"dunker","steam_id":76561198066114874,"connected_time":710000000000,"state":"active","ping":107},{"user_id":63,"name":"roythecyclops","steam_id":76561198055295759,"connected_time":2215000000000,"state":"active","ping":79},{"user_id":91,"name":"POLICE","steam_id":76561198120757569,"connected_time":1000000000,"state":"spawning","ping":54},{"user_id":88,"name":"Ceige LFT","steam_id":76561198068538473,"connected_time":164000000000,"state":"active","ping":78},{"user_id":86,"name":"Hadvar","steam_id":76561198081681234,"connected_time":662000000000,"state":"active","ping":56},{"user_id":67,"name":"I came (up)","steam_id":76561198057745131,"connected_time":2033000000000,"state":"active","ping":54},{"user_id":65,"name":"dahperson","steam_id":76561198067207467,"connected_time":2149000000000,"state":"active","ping":58},{"user_id":92,"name":"Orange Joe","steam_id":76561198082208637,"connected_time":1000000000,"state":"spawning","ping":61},{"user_id":69,"name":"indi","steam_id":76561198045917538,"connected_time":1817000000000,"state":"active","ping":48},{"user_id":60,"name":"Mango","steam_id":76561198156746320,"connected_time":2326000000000,"state":"active","ping":50},{"user_id":39,"name":"IanTheAwsm","steam_id":76561198093031738,"connected_time":4057000000000,"state":"active","ping":61},{"user_id":66,"name":"wile","steam_id":76561198125261443,"connected_time":2092000000000,"state":"active","ping":115},{"user_id":41,"name":"Ashes!","steam_id":76561197998475441,"connected_time":4017000000000,"state":"active","ping":90},{"user_id":72,"name":"Goose","steam_id":76561198328998533,"connected_time":960000000000,"state":"active","ping":50}]},{"server_id":106,"name":"Uncletopia | Chicago | 2 | All Maps","name_short":"chi-2","host":"chi-1.us.uncletopia.com","port":27025,"enabled":true,"region":"us-central","cc":"us","latitude":41.881832,"longitude":-87.62318,"reserved":0,"last_update":"0001-01-01T00:00:00Z","name_a2s":"Uncletopia | Chicago | 2 | All Maps","protocol":17,"map":"cp_steel","folder":"tf","game":"Team Fortress","app_id":440,"player_count":24,"max_players":24,"Bots":0,"server_type":"Dedicated","server_os":"Linux","password":true,"vac":true,"version":"7961495","steam_id":85568392924469985,"keywords":["cp","nocrits","nodmgspread","uncletopia"],"game_id":440,"stv_port":27026,"stv_name":"Uncletopia | Chicago | 2 | All Maps | STV","players":[{"user_id":285,"name":"Þú lýsir upp allan geiminn","steam_id":76561197999657118,"connected_time":2459000000000,"state":"active","ping":81},{"user_id":311,"name":"otcu","steam_id":76561198339644583,"connected_time":665000000000,"state":"active","ping":55},{"user_id":306,"name":"Protato","steam_id":76561198061182563,"connected_time":765000000000,"state":"active","ping":72},{"user_id":299,"name":"Doctor_Redstone","steam_id":76561198061947161,"connected_time":947000000000,"state":"active","ping":70},{"user_id":300,"name":"Visual Depression","steam_id":76561198825918366,"connected_time":934000000000,"state":"active","ping":100},{"user_id":244,"name":"[ミラージュ] Mirage","steam_id":76561198205500300,"connected_time":6726000000000,"state":"active","ping":64},{"user_id":303,"name":"William Wallace","steam_id":76561199343316814,"connected_time":866000000000,"state":"active","ping":70},{"user_id":295,"name":"pluto","steam_id":76561198354990729,"connected_time":1724000000000,"state":"active","ping":79},{"user_id":288,"name":"Papi","steam_id":76561198027779564,"connected_time":2222000000000,"state":"active","ping":51},{"user_id":274,"name":"mechiimi","steam_id":76561198321627268,"connected_time":3932000000000,"state":"active","ping":113},{"user_id":318,"name":"Gaiduk","steam_id":76561198112323877,"connected_time":146000000000,"state":"active","ping":74},{"user_id":304,"name":"lightning mcmeth adict","steam_id":76561198272508301,"connected_time":833000000000,"state":"active","ping":155},{"user_id":248,"name":"pelt","steam_id":76561197993593754,"connected_time":6167000000000,"state":"active","ping":46},{"user_id":317,"name":"thecal","steam_id":76561198307893384,"connected_time":224000000000,"state":"active","ping":59},{"user_id":313,"name":"MR SKELTAL","steam_id":76561198031089598,"connected_time":657000000000,"state":"active","ping":70},{"user_id":310,"name":"Guy Fieri","steam_id":76561198060481820,"connected_time":681000000000,"state":"active","ping":68},{"user_id":283,"name":"--_Cook_--","steam_id":76561198080855748,"connected_time":2819000000000,"state":"active","ping":45},{"user_id":312,"name":"Pendrive","steam_id":76561199427354854,"connected_time":665000000000,"state":"active","ping":179},{"user_id":291,"name":"Psionara","steam_id":76561198211684263,"connected_time":2097000000000,"state":"active","ping":101},{"user_id":309,"name":"Sorry","steam_id":76561198040722720,"connected_time":736000000000,"state":"active","ping":85},{"user_id":241,"name":"Tommy Pickles (Very Cool)","steam_id":76561198391261463,"connected_time":7042000000000,"state":"active","ping":76},{"user_id":315,"name":"Octto","steam_id":76561198070124921,"connected_time":298000000000,"state":"active","ping":65},{"user_id":293,"name":"sandwichsteven96","steam_id":76561199176875499,"connected_time":2079000000000,"state":"active","ping":104},{"user_id":162,"name":"lol boobs","steam_id":76561198249206656,"connected_time":10196000000000,"state":"active","ping":61}]},{"server_id":402,"name":"Uncletopia | Chicago | 3 | All Maps","name_short":"chi-3","host":"chi-1.us.uncletopia.com","port":27035,"enabled":true,"region":"us-central","cc":"us","latitude":41.881832,"longitude":-87.62318,"reserved":0,"last_update":"0001-01-01T00:00:00Z","name_a2s":"Uncletopia | Chicago | 3 | All Maps","protocol":17,"map":"pl_frontier_final","folder":"tf","game":"Team Fortress","app_id":440,"player_count":0,"max_players":24,"Bots":0,"server_type":"Dedicated","server_os":"Linux","password":true,"vac":true,"version":"7961495","steam_id":85568392924515191,"keywords":["nocrits","nodmgspread","payload","uncletopia"],"game_id":440,"stv_port":27036,"stv_name":"Uncletopia | Chicago | 3 | All Maps | STV","players":null},{"server_id":403,"name":"Uncletopia | Chicago | 4 | All Maps","name_short":"chi-4","host":"chi-1.us.uncletopia.com","port":27045,"enabled":true,"region":"us-central","cc":"us","latitude":41.881832,"longitude":-87.62318,"reserved":0,"last_update":"0001-01-01T00:00:00Z","name_a2s":"Uncletopia | Chicago | 4 | All Maps","protocol":17,"map":"koth_cascade","folder":"tf","game":"Team Fortress","app_id":440,"player_count":0,"max_players":24,"Bots":0,"server_type":"Dedicated","server_os":"Linux","password":true,"vac":true,"version":"7961495","steam_id":85568392924515193,"keywords":["cp","nocrits","nodmgspread","uncletopia"],"game_id":440,"stv_port":27046,"stv_name":"Uncletopia | Chicago | 4 | All Maps | STV","players":null},{"server_id":36,"name":"Uncletopia | Chicago | 5 | All Maps","name_short":"chi-5","host":"chi-2.us.uncletopia.com","port":27015,"enabled":true,"region":"us-central","cc":"us","latitude":41.881832,"longitude":-87.62318,"reserved":0,"last_update":"0001-01-01T00:00:00Z","name_a2s":"Uncletopia | Chicago | 5 | All Maps","protocol":17,"map":"koth_viaduct","folder":"tf","game":"Team Fortress","app_id":440,"player_count":0,"max_players":24,"Bots":0,"server_type":"Dedicated","server_os":"Linux","password":true,"vac":true,"version":"7961495","steam_id":85568392924866362,"keywords":["cp","nocrits","nodmgspread","uncletopia"],"game_id":440,"stv_port":27016,"stv_name":"Uncletopia | Chicago | 5 | All Maps | STV","players":null},{"server_id":37,"name":"Uncletopia | Chicago | 6 | All Maps","name_short":"chi-6","host":"chi-2.us.uncletopia.com","port":27025,"enabled":true,"region":"us-central","cc":"us","latitude":41.881832,"longitude":-87.62318,"reserved":0,"last_update":"0001-01-01T00:00:00Z","name_a2s":"Uncletopia | Chicago | 6 | All Maps","protocol":17,"map":"cp_snakewater_final1","folder":"tf","game":"Team Fortress","app_id":440,"player_count":0,"max_players":24,"Bots":0,"server_type":"Dedicated","server_os":"Linux","password":true,"vac":true,"version":"7961495","steam_id":85568392924866363,"keywords":["cp","nocrits","nodmgspread","uncletopia"],"game_id":440,"stv_port":27026,"stv_name":"Uncletopia | Chicago | 6 | All Maps | STV","players":null},{"server_id":38,"name":"Uncletopia | Chicago | 7 | Stopwatch","name_short":"chi-7","host":"chi-2.us.uncletopia.com","port":27035,"enabled":true,"region":"us-central","cc":"us","latitude":41.881832,"longitude":-87.62318,"reserved":0,"last_update":"0001-01-01T00:00:00Z","name_a2s":"Uncletopia | Chicago | 7 | Stopwatch","protocol":17,"map":"pl_badwater","folder":"tf","game":"Team Fortress","app_id":440,"player_count":0,"max_players":24,"Bots":0,"server_type":"Dedicated","server_os":"Linux","password":true,"vac":true,"version":"7961495","steam_id":85568392924866364,"keywords":["nocrits","nodmgspread","payload","uncletopia"],"game_id":440,"stv_port":27036,"stv_name":"Uncletopia | Chicago | 7 | Stopwatch | STV","players":null},{"server_id":39,"name":"Uncletopia | Chicago | 8 | Community","name_short":"chi-8","host":"chi-2.us.uncletopia.com","port":27045,"enabled":true,"region":"us-central","cc":"us","latitude":41.881832,"longitude":-87.62318,"reserved":0,"last_update":"0001-01-01T00:00:00Z","name_a2s":"Uncletopia | Chicago | 8 | Community","protocol":17,"map":"pl_pier","folder":"tf","game":"Team Fortress","app_id":440,"player_count":0,"max_players":24,"Bots":0,"server_type":"Dedicated","server_os":"Linux","password":true,"vac":true,"version":"7961495","steam_id":85568392924866365,"keywords":["nocrits","nodmgspread","payload","uncletopia"],"game_id":440,"stv_port":27046,"stv_name":"Uncletopia | Chicago | 8 | Community | STV","players":null},{"server_id":8,"name":"Uncletopia | Dallas | 1 | All Maps","name_short":"dal-1","host":"dal-1.us.uncletopia.com","port":27015,"enabled":true,"region":"us-central","cc":"us","latitude":32.779167,"longitude":-96.80889,"reserved":0,"last_update":"0001-01-01T00:00:00Z","name_a2s":"Uncletopia | Dallas | 1 | All Maps","protocol":17,"map":"pl_borneo","folder":"tf","game":"Team Fortress","app_id":440,"player_count":24,"max_players":24,"Bots":0,"server_type":"Dedicated","server_os":"Linux","password":true,"vac":true,"version":"7961495","steam_id":85568392924469986,"keywords":["nocrits","nodmgspread","payload","uncletopia"],"game_id":440,"stv_port":27016,"stv_name":"Uncletopia | Dallas | 1 | All Maps | STV","players":[{"user_id":118,"name":"Pixeled","steam_id":76561198088917077,"connected_time":3249000000000,"state":"active","ping":95},{"user_id":141,"name":"Finn the Dafter","steam_id":76561198004267413,"connected_time":716000000000,"state":"active","ping":54},{"user_id":115,"name":"HeroOfTime","steam_id":76561199096218001,"connected_time":3672000000000,"state":"active","ping":83},{"user_id":133,"name":"Bostonstapler","steam_id":76561197996334971,"connected_time":1638000000000,"state":"active","ping":60},{"user_id":132,"name":"Borgir","steam_id":76561198325390265,"connected_time":1764000000000,"state":"active","ping":54},{"user_id":66,"name":"Gelliterate","steam_id":76561198107233070,"connected_time":6634000000000,"state":"active","ping":52},{"user_id":137,"name":"dax","steam_id":76561198045335319,"connected_time":1142000000000,"state":"active","ping":85},{"user_id":86,"name":"Exetior","steam_id":76561198978688451,"connected_time":5551000000000,"state":"active","ping":70},{"user_id":116,"name":"Vordt","steam_id":76561198040942866,"connected_time":3608000000000,"state":"active","ping":77},{"user_id":123,"name":"your little goofy homie","steam_id":76561198967158026,"connected_time":2640000000000,"state":"active","ping":76},{"user_id":105,"name":"Andrew","steam_id":76561198070615190,"connected_time":4419000000000,"state":"active","ping":118},{"user_id":19,"name":"Bippums","steam_id":76561198366406729,"connected_time":9267000000000,"state":"active","ping":92},{"user_id":139,"name":"SeaBass","steam_id":76561197982949108,"connected_time":834000000000,"state":"active","ping":72},{"user_id":21,"name":"woke moralist","steam_id":76561198301021031,"connected_time":9241000000000,"state":"active","ping":87},{"user_id":22,"name":"Doctor Bear ʕ •ᴥ•ʔ","steam_id":76561197968103161,"connected_time":9232000000000,"state":"active","ping":85},{"user_id":134,"name":"t.tv/FamilyGuyFunnyMoments277","steam_id":76561198416047580,"connected_time":1622000000000,"state":"active","ping":86},{"user_id":138,"name":"Major Woody","steam_id":76561198835541533,"connected_time":1140000000000,"state":"active","ping":59},{"user_id":109,"name":"Lock'd","steam_id":76561198170108230,"connected_time":4212000000000,"state":"active","ping":60},{"user_id":93,"name":"Gen-E","steam_id":76561199497800989,"connected_time":4996000000000,"state":"active","ping":91},{"user_id":135,"name":"None of that $9.99 bullshit","steam_id":76561198116169903,"connected_time":1608000000000,"state":"active","ping":74},{"user_id":140,"name":"KATSURB","steam_id":76561199172118456,"connected_time":820000000000,"state":"active","ping":65},{"user_id":62,"name":"Zeek","steam_id":76561197987204351,"connected_time":7359000000000,"state":"active","ping":77},{"user_id":106,"name":"Jeremy","steam_id":76561198283977979,"connected_time":4363000000000,"state":"active","ping":96},{"user_id":142,"name":"Shalom","steam_id":76561198410005222,"connected_time":42000000000,"state":"active","ping":75}]},{"server_id":108,"name":"Uncletopia | Dallas | 2 | All Maps","name_short":"dal-2","host":"dal-1.us.uncletopia.com","port":27025,"enabled":true,"region":"us-central","cc":"us","latitude":32.779167,"longitude":-96.80889,"reserved":0,"last_update":"0001-01-01T00:00:00Z","name_a2s":"Uncletopia | Dallas | 2 | All Maps","protocol":17,"map":"cp_snakewater_final1","folder":"tf","game":"Team Fortress","app_id":440,"player_count":24,"max_players":24,"Bots":0,"server_type":"Dedicated","server_os":"Linux","password":true,"vac":true,"version":"7961495","steam_id":85568392924469988,"keywords":["cp","nocrits","nodmgspread","uncletopia"],"game_id":440,"stv_port":27026,"stv_name":"Uncletopia | Dallas | 2 | All Maps | STV","players":[{"user_id":312,"name":"xelph","steam_id":76561198443008847,"connected_time":3471000000000,"state":"active","ping":64},{"user_id":354,"name":"SanitysEdge","steam_id":76561198130732813,"connected_time":424000000000,"state":"active","ping":78},{"user_id":350,"name":"Nylus","steam_id":76561198026623489,"connected_time":935000000000,"state":"active","ping":175},{"user_id":324,"name":"BatMatt","steam_id":76561198045910433,"connected_time":2479000000000,"state":"active","ping":52},{"user_id":318,"name":"Aerobro","steam_id":76561198033530996,"connected_time":2765000000000,"state":"active","ping":69},{"user_id":333,"name":"Jubtice","steam_id":76561198995538396,"connected_time":2172000000000,"state":"active","ping":84},{"user_id":338,"name":"Neptune˖⁺｡˚⋆˙♥","steam_id":76561199054203198,"connected_time":1899000000000,"state":"active","ping":151},{"user_id":293,"name":"denzell05","steam_id":76561198086987061,"connected_time":4258000000000,"state":"active","ping":86},{"user_id":299,"name":"cyborgjo2147","steam_id":76561199184761439,"connected_time":4018000000000,"state":"active","ping":79},{"user_id":314,"name":"Elizabeth2021","steam_id":76561198075708489,"connected_time":3273000000000,"state":"active","ping":180},{"user_id":302,"name":"MrQuack","steam_id":76561198873049714,"connected_time":3823000000000,"state":"active","ping":77},{"user_id":201,"name":"DragonJimmy","steam_id":76561198272966565,"connected_time":12085000000000,"state":"active","ping":75},{"user_id":360,"name":"NamelessBear™","steam_id":76561198014564006,"connected_time":114000000000,"state":"active","ping":99},{"user_id":340,"name":"basilberry","steam_id":76561198145275937,"connected_time":1757000000000,"state":"active","ping":60},{"user_id":327,"name":"JoanitoBananas","steam_id":76561198942953101,"connected_time":2411000000000,"state":"active","ping":89},{"user_id":346,"name":"mkl","steam_id":76561197986401685,"connected_time":1138000000000,"state":"active","ping":58},{"user_id":351,"name":"HooHay","steam_id":76561199350870177,"connected_time":887000000000,"state":"active","ping":92},{"user_id":362,"name":"Tots","steam_id":76561198027485007,"connected_time":24000000000,"state":"spawning","ping":59},{"user_id":263,"name":"Rob","steam_id":76561199187786660,"connected_time":7046000000000,"state":"active","ping":55},{"user_id":265,"name":"Unusual Scout","steam_id":76561198379574232,"connected_time":6980000000000,"state":"active","ping":59},{"user_id":348,"name":"ThatGamingKiwi","steam_id":76561199170522237,"connected_time":1106000000000,"state":"active","ping":108},{"user_id":352,"name":"phfez","steam_id":76561198046150386,"connected_time":750000000000,"state":"active","ping":75},{"user_id":361,"name":"i wanna cum in a femboy (F2P)","steam_id":76561199468748840,"connected_time":84000000000,"state":"active","ping":90},{"user_id":349,"name":"Ðιяту BɄβblє","steam_id":76561198382555244,"connected_time":1054000000000,"state":"active","ping":54}]},{"server_id":404,"name":"Uncletopia | Dallas | 3 | All Maps","name_short":"dal-3","host":"dal-1.us.uncletopia.com","port":27035,"enabled":true,"region":"us-central","cc":"us","latitude":32.779167,"longitude":-96.80889,"reserved":0,"last_update":"0001-01-01T00:00:00Z","name_a2s":"Uncletopia | Dallas | 3 | All Maps","protocol":17,"map":"cp_snakewater_final1","folder":"tf","game":"Team Fortress","app_id":440,"player_count":0,"max_players":24,"Bots":0,"server_type":"Dedicated","server_os":"Linux","password":true,"vac":true,"version":"7961495","steam_id":85568392924515219,"keywords":["cp","nocrits","nodmgspread","uncletopia"],"game_id":440,"stv_port":27036,"stv_name":"Uncletopia | Dallas | 3 | All Maps | STV","players":null},{"server_id":405,"name":"Uncletopia | Dallas | 4 | Community","name_short":"dal-4","host":"dal-1.us.uncletopia.com","port":27045,"enabled":true,"region":"us-central","cc":"us","latitude":32.779167,"longitude":-96.80889,"reserved":0,"last_update":"0001-01-01T00:00:00Z","name_a2s":"Uncletopia | Dallas | 4 | Community","protocol":17,"map":"pl_pier","folder":"tf","game":"Team Fortress","app_id":440,"player_count":0,"max_players":24,"Bots":0,"server_type":"Dedicated","server_os":"Linux","password":true,"vac":true,"version":"7961495","steam_id":85568392924515220,"keywords":["nocrits","nodmgspread","payload","uncletopia"],"game_id":440,"stv_port":27046,"stv_name":"Uncletopia | Dallas | 4 | Community | STV","players":null},{"server_id":5,"name":"Uncletopia | Frankfurt | 1 | All Maps","name_short":"frk-1","host":"frk-1.de.uncletopia.com","port":27015,"enabled":true,"region":"eu","cc":"de","latitude":50.110924,"longitude":8.682127,"reserved":0,"last_update":"0001-01-01T00:00:00Z","name_a2s":"Uncletopia | Frankfurt | 1 | All Maps","protocol":17,"map":"pl_swiftwater_final1","folder":"tf","game":"Team Fortress","app_id":440,"player_count":24,"max_players":24,"Bots":0,"server_type":"Dedicated","server_os":"Linux","password":true,"vac":true,"version":"7961495","steam_id":85568392924469989,"keywords":["nocrits","nodmgspread","payload","uncletopia"],"game_id":440,"stv_port":27016,"stv_name":"Uncletopia | Frankfurt | 1 | All Maps | STV","players":[{"user_id":360,"name":"Necator","steam_id":76561198094006970,"connected_time":6559000000000,"state":"active","ping":62},{"user_id":428,"name":"♠Anti_BOI♠","steam_id":76561198274593231,"connected_time":1354000000000,"state":"active","ping":68},{"user_id":431,"name":"Racco","steam_id":76561198198855238,"connected_time":1350000000000,"state":"active","ping":57},{"user_id":426,"name":"=OKB= P4NTH3R","steam_id":76561197999204603,"connected_time":1468000000000,"state":"active","ping":60},{"user_id":432,"name":"Wertix","steam_id":76561198284475045,"connected_time":1338000000000,"state":"active","ping":73},{"user_id":451,"name":"Safe Joint","steam_id":76561198017799687,"connected_time":229000000000,"state":"active","ping":116},{"user_id":433,"name":"KESO","steam_id":76561198000391945,"connected_time":1300000000000,"state":"active","ping":54},{"user_id":449,"name":"Kleptofilen","steam_id":76561198003405040,"connected_time":584000000000,"state":"active","ping":74},{"user_id":434,"name":"I am dating your grandmother","steam_id":76561198268159433,"connected_time":1282000000000,"state":"active","ping":100},{"user_id":412,"name":"Aven","steam_id":76561198974343597,"connected_time":2588000000000,"state":"active","ping":89},{"user_id":435,"name":"Bienko","steam_id":76561198356009131,"connected_time":1262000000000,"state":"active","ping":96},{"user_id":448,"name":"Sibola","steam_id":76561198065337688,"connected_time":791000000000,"state":"active","ping":59},{"user_id":413,"name":"frey`","steam_id":76561197971548290,"connected_time":2575000000000,"state":"active","ping":72},{"user_id":437,"name":"lyudmilakh","steam_id":76561198362779878,"connected_time":1208000000000,"state":"active","ping":84},{"user_id":438,"name":"Carry Krypl","steam_id":76561198136938121,"connected_time":1204000000000,"state":"active","ping":55},{"user_id":402,"name":"LeGerooo","steam_id":76561199110422160,"connected_time":3608000000000,"state":"active","ping":86},{"user_id":452,"name":"Sisyphus","steam_id":76561198146194820,"connected_time":26000000000,"state":"spawning","ping":50},{"user_id":445,"name":"Pffff imetrash","steam_id":76561198091017416,"connected_time":1147000000000,"state":"active","ping":78},{"user_id":440,"name":"padillacampos","steam_id":76561198161923970,"connected_time":1180000000000,"state":"active","ping":76},{"user_id":425,"name":"Unreliable, funny and dangerous","steam_id":76561198050709790,"connected_time":1548000000000,"state":"active","ping":106},{"user_id":441,"name":"−•−• •− −","steam_id":76561198139398425,"connected_time":1164000000000,"state":"active","ping":84},{"user_id":442,"name":"Getrkod","steam_id":76561198986560793,"connected_time":1152000000000,"state":"active","ping":73},{"user_id":443,"name":"zazuza","steam_id":76561198049820905,"connected_time":1151000000000,"state":"active","ping":68},{"user_id":444,"name":"Vonacht","steam_id":76561198016033944,"connected_time":1150000000000,"state":"active","ping":62}]},{"server_id":110,"name":"Uncletopia | Frankfurt | 2 | All Maps","name_short":"frk-2","host":"frk-1.de.uncletopia.com","port":27025,"enabled":true,"region":"eu","cc":"de","latitude":50.110924,"longitude":8.682127,"reserved":0,"last_update":"0001-01-01T00:00:00Z","name_a2s":"Uncletopia | Frankfurt | 2 | All Maps","protocol":17,"map":"cp_sunshine","folder":"tf","game":"Team Fortress","app_id":440,"player_count":24,"max_players":24,"Bots":0,"server_type":"Dedicated","server_os":"Linux","password":true,"vac":true,"version":"7961495","steam_id":85568392924469990,"keywords":["cp","nocrits","nodmgspread","uncletopia"],"game_id":440,"stv_port":27026,"stv_name":"Uncletopia | Frankfurt | 2 | All Maps | STV","players":[{"user_id":442,"name":"Generál Kiwi","steam_id":76561198255946537,"connected_time":3088000000000,"state":"active","ping":42},{"user_id":346,"name":"Ketich","steam_id":76561198021772703,"connected_time":9122000000000,"state":"active","ping":73},{"user_id":457,"name":"thia","steam_id":76561198186366599,"connected_time":2607000000000,"state":"active","ping":79},{"user_id":417,"name":"Lyncurion","steam_id":76561199260022725,"connected_time":4918000000000,"state":"active","ping":75},{"user_id":488,"name":"Lyell","steam_id":76561198350329389,"connected_time":1120000000000,"state":"active","ping":75},{"user_id":489,"name":"tensh1","steam_id":76561198282471866,"connected_time":1117000000000,"state":"active","ping":92},{"user_id":507,"name":"Eid Spell","steam_id":76561198279952779,"connected_time":510000000000,"state":"active","ping":164},{"user_id":490,"name":"hasky","steam_id":76561197986052798,"connected_time":1092000000000,"state":"active","ping":75},{"user_id":491,"name":"the_Qcumber","steam_id":76561199152515819,"connected_time":1081000000000,"state":"active","ping":69},{"user_id":501,"name":"benjaminmarkMLP","steam_id":76561198920361202,"connected_time":959000000000,"state":"active","ping":129},{"user_id":482,"name":"else1","steam_id":76561197996558319,"connected_time":1565000000000,"state":"active","ping":75},{"user_id":509,"name":"jin.88","steam_id":76561198045099492,"connected_time":74000000000,"state":"active","ping":109},{"user_id":504,"name":"Jewix","steam_id":76561198063457899,"connected_time":868000000000,"state":"active","ping":64},{"user_id":505,"name":"Jezal dan Luthar","steam_id":76561198989449047,"connected_time":562000000000,"state":"active","ping":127},{"user_id":414,"name":"Solymr ibn Wali Barad","steam_id":76561198044008976,"connected_time":4987000000000,"state":"active","ping":69},{"user_id":460,"name":"Aspartus","steam_id":76561198101385763,"connected_time":2584000000000,"state":"active","ping":46},{"user_id":500,"name":"GlueTasty {she/her}","steam_id":76561199086480891,"connected_time":1020000000000,"state":"active","ping":76},{"user_id":492,"name":"Cosmic Gamer","steam_id":76561198027357981,"connected_time":1076000000000,"state":"active","ping":94},{"user_id":451,"name":"ABC555ABC666ABC555","steam_id":76561197995676953,"connected_time":2788000000000,"state":"active","ping":52},{"user_id":506,"name":"najed","steam_id":76561198107767664,"connected_time":542000000000,"state":"active","ping":61},{"user_id":483,"name":"Creative","steam_id":76561198835034247,"connected_time":1535000000000,"state":"active","ping":116},{"user_id":496,"name":"cuddle","steam_id":76561198805181599,"connected_time":1041000000000,"state":"active","ping":68},{"user_id":474,"name":"Aleknat","steam_id":76561198055379857,"connected_time":1810000000000,"state":"active","ping":67},{"user_id":508,"name":"kisutyty :3","steam_id":76561198723244199,"connected_time":115000000000,"state":"active","ping":78}]},{"server_id":308,"name":"Uncletopia | Frankfurt | 3 | All Maps","name_short":"frk-3","host":"frk-1.de.uncletopia.com","port":27035,"enabled":true,"region":"eu","cc":"de","latitude":50.110924,"longitude":8.682127,"reserved":0,"last_update":"0001-01-01T00:00:00Z","name_a2s":"Uncletopia | Frankfurt | 3 | All Maps","protocol":17,"map":"cp_mountainlab","folder":"tf","game":"Team Fortress","app_id":440,"player_count":24,"max_players":24,"Bots":0,"server_type":"Dedicated","server_os":"Linux","password":true,"vac":true,"version":"7961495","steam_id":85568392924504274,"keywords":["cp","nocrits","nodmgspread","uncletopia"],"game_id":440,"stv_port":27036,"stv_name":"Uncletopia | Frankfurt | 3 | All Maps | STV","players":[{"user_id":207,"name":"MISTER SUIIII","steam_id":76561198018330092,"connected_time":950000000000,"state":"active","ping":70},{"user_id":186,"name":"beardeath","steam_id":76561199064688448,"connected_time":1669000000000,"state":"active","ping":86},{"user_id":214,"name":"Pudlich","steam_id":76561198300089671,"connected_time":683000000000,"state":"active","ping":74},{"user_id":223,"name":"applefrompear","steam_id":76561199258816743,"connected_time":500000000000,"state":"active","ping":83},{"user_id":213,"name":"Jannisxxl","steam_id":76561198048377916,"connected_time":713000000000,"state":"active","ping":70},{"user_id":166,"name":"Mirra","steam_id":76561198076597292,"connected_time":2846000000000,"state":"active","ping":68},{"user_id":227,"name":"sevius","steam_id":76561199275250303,"connected_time":338000000000,"state":"active","ping":69},{"user_id":187,"name":"ElTamagoshi","steam_id":76561198419143622,"connected_time":1668000000000,"state":"active","ping":95},{"user_id":230,"name":"hhhhhh","steam_id":76561198031982574,"connected_time":193000000000,"state":"active","ping":51},{"user_id":228,"name":"Accwith12chr","steam_id":76561198311593297,"connected_time":326000000000,"state":"active","ping":80},{"user_id":217,"name":"MEIXO","steam_id":76561199401401551,"connected_time":592000000000,"state":"active","ping":71},{"user_id":218,"name":"Archie","steam_id":76561198073498063,"connected_time":580000000000,"state":"active","ping":53},{"user_id":219,"name":"mr.Man","steam_id":76561199069774176,"connected_time":576000000000,"state":"active","ping":1048},{"user_id":225,"name":"Archive","steam_id":76561198071255385,"connected_time":488000000000,"state":"active","ping":94},{"user_id":233,"name":"Fiurius","steam_id":76561198151910950,"connected_time":102000000000,"state":"active","ping":65},{"user_id":232,"name":"Favi","steam_id":76561198013236935,"connected_time":124000000000,"state":"active","ping":61},{"user_id":199,"name":"corralled","steam_id":76561198028648627,"connected_time":1355000000000,"state":"active","ping":66},{"user_id":195,"name":"GMsU | Rebikas","steam_id":76561198077053764,"connected_time":1473000000000,"state":"active","ping":46},{"user_id":205,"name":"Ady Pádlo","steam_id":76561198263104437,"connected_time":985000000000,"state":"active","ping":66},{"user_id":197,"name":"Jägermann","steam_id":76561198048506715,"connected_time":1442000000000,"state":"active","ping":81},{"user_id":226,"name":"Gamlader","steam_id":76561198306177608,"connected_time":390000000000,"state":"active","ping":93},{"user_id":202,"name":"JustMayor","steam_id":76561198050515503,"connected_time":1161000000000,"state":"active","ping":57},{"user_id":165,"name":"King Goomba","steam_id":76561198146467813,"connected_time":3135000000000,"state":"active","ping":79},{"user_id":231,"name":"Lucan","steam_id":76561198219195135,"connected_time":140000000000,"state":"active","ping":55}]},{"server_id":309,"name":"Uncletopia | Frankfurt | 4 | All Maps","name_short":"frk-4","host":"frk-1.de.uncletopia.com","port":27045,"enabled":true,"region":"eu","cc":"de","latitude":50.110924,"longitude":8.682127,"reserved":0,"last_update":"0001-01-01T00:00:00Z","name_a2s":"Uncletopia | Frankfurt | 4 | All Maps","protocol":17,"map":"pl_badwater","folder":"tf","game":"Team Fortress","app_id":440,"player_count":24,"max_players":24,"Bots":0,"server_type":"Dedicated","server_os":"Linux","password":true,"vac":true,"version":"7961495","steam_id":85568392924504275,"keywords":["nocrits","nodmgspread","payload","uncletopia"],"game_id":440,"stv_port":27046,"stv_name":"Uncletopia | Frankfurt | 4 | All Maps | STV","players":[{"user_id":233,"name":"Ardaaaaaaaaaaaaaaaaaaaaaaaaaaa","steam_id":76561199004214779,"connected_time":2507000000000,"state":"active","ping":85},{"user_id":270,"name":"Monster?? How should I feel?!","steam_id":76561199156497840,"connected_time":167000000000,"state":"active","ping":61},{"user_id":269,"name":"Storm's Foreshadow","steam_id":76561198098462526,"connected_time":191000000000,"state":"active","ping":60},{"user_id":248,"name":"Grimm","steam_id":76561198044684227,"connected_time":2107000000000,"state":"active","ping":66},{"user_id":221,"name":"Tohtori gerhard (official)","steam_id":76561198835081622,"connected_time":2993000000000,"state":"active","ping":101},{"user_id":264,"name":"Kol Engigfikod","steam_id":76561199115261187,"connected_time":358000000000,"state":"active","ping":91},{"user_id":256,"name":"☭King☭","steam_id":76561199214677088,"connected_time":1175000000000,"state":"active","ping":73},{"user_id":227,"name":"I-Wolf","steam_id":76561199100512277,"connected_time":2717000000000,"state":"active","ping":68},{"user_id":271,"name":"ouchie wouchies","steam_id":76561198105443986,"connected_time":153000000000,"state":"active","ping":79},{"user_id":266,"name":"Akisян","steam_id":76561198078706435,"connected_time":253000000000,"state":"active","ping":72},{"user_id":267,"name":"Dapper Chap","steam_id":76561198083892511,"connected_time":214000000000,"state":"active","ping":85},{"user_id":176,"name":"MakSok","steam_id":76561198050889367,"connected_time":5841000000000,"state":"active","ping":135},{"user_id":209,"name":"DwarfInYou","steam_id":76561198966341795,"connected_time":3658000000000,"state":"active","ping":51},{"user_id":273,"name":"GigaСhad Pyro","steam_id":76561198140742485,"connected_time":123000000000,"state":"active","ping":102},{"user_id":274,"name":"Birch","steam_id":76561197998712822,"connected_time":111000000000,"state":"active","ping":59},{"user_id":259,"name":"Der Herr Doktor","steam_id":76561198119476089,"connected_time":1002000000000,"state":"active","ping":54},{"user_id":275,"name":"Keijo","steam_id":76561198010255870,"connected_time":111000000000,"state":"active","ping":96},{"user_id":262,"name":"Baba Sraka","steam_id":76561198128292318,"connected_time":779000000000,"state":"active","ping":122},{"user_id":243,"name":"sokige","steam_id":76561198167112371,"connected_time":2232000000000,"state":"active","ping":84},{"user_id":251,"name":"Radegast the Brown","steam_id":76561198075489505,"connected_time":1396000000000,"state":"active","ping":63},{"user_id":244,"name":"Count Grishnackh","steam_id":76561198004415658,"connected_time":2178000000000,"state":"active","ping":75},{"user_id":252,"name":"Arperen","steam_id":76561198205024167,"connected_time":1395000000000,"state":"active","ping":58},{"user_id":254,"name":"2spooky4me","steam_id":76561198043211244,"connected_time":1386000000000,"state":"active","ping":67},{"user_id":263,"name":"PROFILE NAME","steam_id":76561198180056982,"connected_time":778000000000,"state":"active","ping":61}]},{"server_id":310,"name":"Uncletopia | Frankfurt | 5 | All Maps","name_short":"frk-5","host":"frk-1.de.uncletopia.com","port":27055,"enabled":true,"region":"eu","cc":"de","latitude":50.110924,"longitude":8.682127,"reserved":0,"last_update":"0001-01-01T00:00:00Z","name_a2s":"Uncletopia | Frankfurt | 5 | All Maps","protocol":17,"map":"pl_snowycoast","folder":"tf","game":"Team Fortress","app_id":440,"player_count":0,"max_players":24,"Bots":0,"server_type":"Dedicated","server_os":"Linux","password":true,"vac":true,"version":"7961495","steam_id":85568392924504277,"keywords":["nocrits","nodmgspread","payload","uncletopia"],"game_id":440,"stv_port":27056,"stv_name":"Uncletopia | Frankfurt | 5 | All Maps | STV","players":null},{"server_id":311,"name":"Uncletopia | Frankfurt | 6 | All Maps","name_short":"frk-6","host":"frk-1.de.uncletopia.com","port":27065,"enabled":true,"region":"eu","cc":"de","latitude":50.110924,"longitude":8.682127,"reserved":0,"last_update":"0001-01-01T00:00:00Z","name_a2s":"Uncletopia | Frankfurt | 6 | All Maps","protocol":17,"map":"cp_powerhouse","folder":"tf","game":"Team Fortress","app_id":440,"player_count":24,"max_players":24,"Bots":0,"server_type":"Dedicated","server_os":"Linux","password":true,"vac":true,"version":"7961495","steam_id":85568392924504278,"keywords":["cp","nocrits","nodmgspread","uncletopia"],"game_id":440,"stv_port":27066,"stv_name":"Uncletopia | Frankfurt | 6 | All Maps | STV","players":[{"user_id":224,"name":"Danger_665","steam_id":76561199075064273,"connected_time":610000000000,"state":"active","ping":105},{"user_id":213,"name":"SUU#7344","steam_id":76561198343018975,"connected_time":1260000000000,"state":"active","ping":83},{"user_id":230,"name":"shr1mple","steam_id":76561198173537027,"connected_time":72000000000,"state":"active","ping":40},{"user_id":196,"name":"dash.","steam_id":76561198084796149,"connected_time":2467000000000,"state":"active","ping":48},{"user_id":197,"name":"jcb.f.smith","steam_id":76561199491964000,"connected_time":2450000000000,"state":"active","ping":66},{"user_id":209,"name":"Ḷ̴̂ǫ̸̰̒̿s̴̩̫̉͝t\ufffd","steam_id":76561198102415153,"connected_time":1515000000000,"state":"active","ping":141},{"user_id":185,"name":"Lynx","steam_id":76561199274008207,"connected_time":3265000000000,"state":"active","ping":72},{"user_id":222,"name":"Menny","steam_id":76561197992054834,"connected_time":722000000000,"state":"active","ping":54},{"user_id":219,"name":"Gibb0ne-Bri0s0","steam_id":76561199289898291,"connected_time":799000000000,"state":"active","ping":55},{"user_id":214,"name":"Spetse","steam_id":76561197990649972,"connected_time":1243000000000,"state":"active","ping":89},{"user_id":212,"name":"Deckard","steam_id":76561198004704647,"connected_time":1362000000000,"state":"active","ping":76},{"user_id":225,"name":"owo","steam_id":76561198158209651,"connected_time":543000000000,"state":"active","ping":75},{"user_id":226,"name":"Musicano","steam_id":76561198114541088,"connected_time":445000000000,"state":"active","ping":86},{"user_id":191,"name":"JaneDoe","steam_id":76561198067081506,"connected_time":2702000000000,"state":"active","ping":95},{"user_id":192,"name":"chair 2.0","steam_id":76561199233470150,"connected_time":2695000000000,"state":"active","ping":43},{"user_id":203,"name":"Yobopan","steam_id":76561198088064860,"connected_time":2398000000000,"state":"active","ping":69},{"user_id":227,"name":"Kirby2Rosy","steam_id":76561198013115723,"connected_time":309000000000,"state":"active","ping":70},{"user_id":150,"name":"SuntanPikachu","steam_id":76561198121242476,"connected_time":5802000000000,"state":"active","ping":70},{"user_id":200,"name":"Daan77","steam_id":76561198129940468,"connected_time":2428000000000,"state":"active","ping":72},{"user_id":201,"name":"Der ewige Boomer","steam_id":76561198254812703,"connected_time":2428000000000,"state":"active","ping":67},{"user_id":231,"name":"JepCabestany","steam_id":76561198123812578,"connected_time":45000000000,"state":"active","ping":88},{"user_id":228,"name":"Qwerty","steam_id":76561198023525894,"connected_time":299000000000,"state":"active","ping":83},{"user_id":112,"name":"lisivi","steam_id":76561198365503306,"connected_time":8759000000000,"state":"active","ping":57},{"user_id":163,"name":"Irbynx","steam_id":76561197980421195,"connected_time":4683000000000,"state":"active","ping":78}]},{"server_id":23,"name":"Uncletopia | Frankfurt | 7 | Stopwatch","name_short":"frk-7","host":"frk-1.de.uncletopia.com","port":27075,"enabled":true,"region":"eu","cc":"de","latitude":50.110924,"longitude":8.682127,"reserved":0,"last_update":"0001-01-01T00:00:00Z","name_a2s":"Uncletopia | Frankfurt | 7 | Stopwatch","protocol":17,"map":"workshop/pl_barnblitz_pro7.ugc582280235","folder":"tf","game":"Team Fortress","app_id":440,"player_count":0,"max_players":24,"Bots":0,"server_type":"Dedicated","server_os":"Linux","password":true,"vac":true,"version":"7961495","steam_id":85568392924742827,"keywords":["nocrits","nodmgspread","payload","uncletopia"],"game_id":440,"stv_port":27076,"stv_name":"Uncletopia | Frankfurt | 7 | Stopwatch | STV","players":null},{"server_id":24,"name":"Uncletopia | Frankfurt | 8 | Community","name_short":"frk-8","host":"frk-1.de.uncletopia.com","port":27085,"enabled":true,"region":"eu","cc":"de","latitude":50.110924,"longitude":8.682127,"reserved":0,"last_update":"0001-01-01T00:00:00Z","name_a2s":"Uncletopia | Frankfurt | 8 | Community","protocol":17,"map":"workshop/koth_ramjam_rc1.ugc459778887","folder":"tf","game":"Team Fortress","app_id":440,"player_count":0,"max_players":24,"Bots":0,"server_type":"Dedicated","server_os":"Linux","password":true,"vac":true,"version":"7961495","steam_id":85568392924742828,"keywords":["cp","nocrits","nodmgspread","uncletopia"],"game_id":440,"stv_port":27086,"stv_name":"Uncletopia | Frankfurt | 8 | Community | STV","players":null},{"server_id":202,"name":"Uncletopia | Hong Kong | 1 | All Maps","name_short":"hgk-1","host":"hgk-1.hk.uncletopia.com","port":27015,"enabled":true,"region":"asia","cc":"hk","latitude":22.302711,"longitude":114.177216,"reserved":0,"last_update":"0001-01-01T00:00:00Z","name_a2s":"Uncletopia | Hong Kong | 1 | All Maps","protocol":17,"map":"pl_frontier_final","folder":"tf","game":"Team Fortress","app_id":440,"player_count":22,"max_players":24,"Bots":0,"server_type":"Dedicated","server_os":"Linux","password":true,"vac":true,"version":"7961495","steam_id":85568392924494504,"keywords":["nocrits","nodmgspread","payload","uncletopia"],"game_id":440,"stv_port":27016,"stv_name":"Uncletopia | Hong Kong | 1 | All Maps | STV","players":[{"user_id":503,"name":"mother of all omeletes:D","steam_id":76561198996979171,"connected_time":2784000000000,"state":"active","ping":104},{"user_id":540,"name":"Mülleimer","steam_id":76561198971922538,"connected_time":93000000000,"state":"active","ping":343},{"user_id":519,"name":"KFJ_TH","steam_id":76561198326047274,"connected_time":1419000000000,"state":"active","ping":111},{"user_id":508,"name":"kuy yai gaming","steam_id":76561198040204743,"connected_time":2004000000000,"state":"active","ping":82},{"user_id":515,"name":"Z-DiZ","steam_id":76561198056537641,"connected_time":1497000000000,"state":"active","ping":88},{"user_id":494,"name":"(TW)9367hours","steam_id":76561198162424362,"connected_time":3779000000000,"state":"active","ping":67},{"user_id":534,"name":"timothylmao38","steam_id":76561199348861599,"connected_time":485000000000,"state":"active","ping":100},{"user_id":521,"name":"Akira.","steam_id":76561198434637272,"connected_time":1276000000000,"state":"active","ping":88},{"user_id":511,"name":"cokie","steam_id":76561198156148323,"connected_time":1676000000000,"state":"active","ping":119},{"user_id":539,"name":"Banana Milk","steam_id":76561198005156257,"connected_time":254000000000,"state":"active","ping":140},{"user_id":489,"name":"[=WiJ=]","steam_id":76561198087453911,"connected_time":4020000000000,"state":"active","ping":54},{"user_id":513,"name":"nox","steam_id":76561198365460548,"connected_time":1601000000000,"state":"active","ping":143},{"user_id":532,"name":"are you lost baby girl?","steam_id":76561198340560338,"connected_time":729000000000,"state":"active","ping":150},{"user_id":490,"name":"kartaglanguz","steam_id":76561198192906779,"connected_time":4018000000000,"state":"active","ping":53},{"user_id":520,"name":"Yuribanzai","steam_id":76561198867967853,"connected_time":1357000000000,"state":"active","ping":117},{"user_id":533,"name":"ksx","steam_id":76561198406204858,"connected_time":491000000000,"state":"active","ping":102},{"user_id":525,"name":"Saber","steam_id":76561198140953055,"connected_time":1023000000000,"state":"active","ping":132},{"user_id":535,"name":"builderman","steam_id":76561198211578967,"connected_time":472000000000,"state":"active","ping":88},{"user_id":527,"name":"moomin","steam_id":76561197994194946,"connected_time":953000000000,"state":"active","ping":96},{"user_id":530,"name":"senseless","steam_id":76561198074413124,"connected_time":940000000000,"state":"active","ping":102},{"user_id":529,"name":"ultimatederpface28","steam_id":76561198850021147,"connected_time":944000000000,"state":"active","ping":84},{"user_id":531,"name":"kitty eater","steam_id":76561198045489976,"connected_time":901000000000,"state":"active","ping":168}]},{"server_id":1,"name":"Uncletopia | Los Angeles | 1 | All Maps","name_short":"lax-1","host":"lax-1.us.uncletopia.com","port":27015,"enabled":true,"region":"us-west","cc":"us","latitude":33.94279,"longitude":-118.41004,"reserved":0,"last_update":"0001-01-01T00:00:00Z","name_a2s":"Uncletopia | Los Angeles | 1 | All Maps","protocol":17,"map":"koth_cascade","folder":"tf","game":"Team Fortress","app_id":440,"player_count":0,"max_players":24,"Bots":0,"server_type":"Dedicated","server_os":"Linux","password":true,"vac":true,"version":"7961495","steam_id":85568392924469991,"keywords":["cp","nocrits","nodmgspread","uncletopia"],"game_id":440,"stv_port":27016,"stv_name":"Uncletopia | Los Angeles | 1 | All Maps | STV","players":null},{"server_id":112,"name":"Uncletopia | Los Angeles | 2 | All Maps","name_short":"lax-2","host":"lax-1.us.uncletopia.com","port":27025,"enabled":true,"region":"us-west","cc":"us","latitude":33.94279,"longitude":-118.41004,"reserved":0,"last_update":"0001-01-01T00:00:00Z","name_a2s":"Uncletopia | Los Angeles | 2 | All Maps","protocol":17,"map":"koth_lakeside_final","folder":"tf","game":"Team Fortress","app_id":440,"player_count":0,"max_players":24,"Bots":0,"server_type":"Dedicated","server_os":"Linux","password":true,"vac":true,"version":"7961495","steam_id":85568392924469992,"keywords":["cp","nocrits","nodmgspread","uncletopia"],"game_id":440,"stv_port":27026,"stv_name":"Uncletopia | Los Angeles | 2 | All Maps | STV","players":null},{"server_id":324,"name":"Uncletopia | Los Angeles | 3 | All Maps","name_short":"lax-3","host":"lax-1.us.uncletopia.com","port":27035,"enabled":true,"region":"us-west","cc":"us","latitude":33.94279,"longitude":-118.41004,"reserved":0,"last_update":"0001-01-01T00:00:00Z","name_a2s":"Uncletopia | Los Angeles | 3 | All Maps","protocol":17,"map":"pl_barnblitz","folder":"tf","game":"Team Fortress","app_id":440,"player_count":0,"max_players":24,"Bots":0,"server_type":"Dedicated","server_os":"Linux","password":true,"vac":true,"version":"7961495","steam_id":85568392924510198,"keywords":["nocrits","nodmgspread","payload","uncletopia"],"game_id":440,"stv_port":27036,"stv_name":"Uncletopia | Los Angeles | 3 | All Maps | STV","players":null},{"server_id":25,"name":"Uncletopia | Los Angeles | 4 | Stopwatch","name_short":"lax-4","host":"lax-1.us.uncletopia.com","port":27045,"enabled":true,"region":"us-west","cc":"us","latitude":33.94279,"longitude":-118.41004,"reserved":0,"last_update":"0001-01-01T00:00:00Z","name_a2s":"Uncletopia | Los Angeles | 4 | Stopwatch","protocol":17,"map":"pl_barnblitz","folder":"tf","game":"Team Fortress","app_id":440,"player_count":0,"max_players":24,"Bots":0,"server_type":"Dedicated","server_os":"Linux","password":true,"vac":true,"version":"7961495","steam_id":85568392924510199,"keywords":["nocrits","nodmgspread","payload","uncletopia"],"game_id":440,"stv_port":27046,"stv_name":"Uncletopia | Los Angeles | 4 | Stopwatch | STV","players":null},{"server_id":11,"name":"Uncletopia | London | 1 | All Maps","name_short":"lon-1","host":"lon-1.uk.uncletopia.com","port":27015,"enabled":true,"region":"eu","cc":"gb","latitude":51.509865,"longitude":-0.118092,"reserved":0,"last_update":"0001-01-01T00:00:00Z","name_a2s":"Uncletopia | London | 1 | All Maps","protocol":17,"map":"pl_barnblitz","folder":"tf","game":"Team Fortress","app_id":440,"player_count":24,"max_players":24,"Bots":0,"server_type":"Dedicated","server_os":"Linux","password":true,"vac":true,"version":"7961495","steam_id":85568392924367362,"keywords":["nocrits","nodmgspread","payload","uncletopia"],"game_id":440,"stv_port":27016,"stv_name":"Uncletopia | London | 1 | All Maps | STV","players":[{"user_id":495,"name":"AlfonsoM","steam_id":76561198138832894,"connected_time":4852000000000,"state":"active","ping":91},{"user_id":544,"name":"On The Rise","steam_id":76561199171488677,"connected_time":925000000000,"state":"active","ping":43},{"user_id":549,"name":"L.Ron Hoyabembe","steam_id":76561198009887251,"connected_time":81000000000,"state":"active","ping":80},{"user_id":491,"name":"maDEMOman","steam_id":76561198018630906,"connected_time":4900000000000,"state":"active","ping":71},{"user_id":550,"name":"jermany","steam_id":76561198126599355,"connected_time":65000000000,"state":"active","ping":53},{"user_id":522,"name":"⸸aura⸸","steam_id":76561198066258544,"connected_time":3764000000000,"state":"active","ping":59},{"user_id":534,"name":"Doctor Mobius","steam_id":76561197971281806,"connected_time":2109000000000,"state":"active","ping":73},{"user_id":508,"name":"job that slowly kills you","steam_id":76561198072320671,"connected_time":4637000000000,"state":"active","ping":32},{"user_id":451,"name":"Yarr","steam_id":76561198067663021,"connected_time":8158000000000,"state":"active","ping":45},{"user_id":514,"name":"snert","steam_id":76561198451550309,"connected_time":4199000000000,"state":"active","ping":51},{"user_id":512,"name":"Flint Atheno","steam_id":76561198000565196,"connected_time":4322000000000,"state":"active","ping":61},{"user_id":547,"name":"Palex","steam_id":76561198093219465,"connected_time":496000000000,"state":"active","ping":46},{"user_id":507,"name":"Omyskull","steam_id":76561198131711758,"connected_time":4659000000000,"state":"active","ping":72},{"user_id":535,"name":"Archer","steam_id":76561197994239444,"connected_time":2013000000000,"state":"active","ping":119},{"user_id":499,"name":"shooer!","steam_id":76561198110531281,"connected_time":4839000000000,"state":"active","ping":71},{"user_id":545,"name":"hbivnm#freeforsen","steam_id":76561197996468677,"connected_time":797000000000,"state":"active","ping":64},{"user_id":546,"name":"PossumSpaghetti","steam_id":76561198407385321,"connected_time":582000000000,"state":"active","ping":45},{"user_id":525,"name":"generic alias","steam_id":76561198271607226,"connected_time":3065000000000,"state":"active","ping":91},{"user_id":540,"name":"Solus","steam_id":76561199486493777,"connected_time":1146000000000,"state":"active","ping":53},{"user_id":526,"name":"Slifer the BIG SHOT","steam_id":76561198062255803,"connected_time":3010000000000,"state":"active","ping":90},{"user_id":532,"name":"Lieutenant Porky","steam_id":76561198076939947,"connected_time":2493000000000,"state":"active","ping":57},{"user_id":543,"name":"INDIEFRAME","steam_id":76561199086092220,"connected_time":1113000000000,"state":"active","ping":75},{"user_id":439,"name":"UltimateSlayer","steam_id":76561198384109309,"connected_time":8853000000000,"state":"active","ping":54},{"user_id":484,"name":"most sane mentalist","steam_id":76561198310095220,"connected_time":5584000000000,"state":"active","ping":44}]},{"server_id":114,"name":"Uncletopia | London | 2 | All Maps","name_short":"lon-2","host":"lon-1.uk.uncletopia.com","port":27025,"enabled":true,"region":"eu","cc":"gb","latitude":51.509865,"longitude":-0.118092,"reserved":0,"last_update":"0001-01-01T00:00:00Z","name_a2s":"Uncletopia | London | 2 | All Maps","protocol":17,"map":"pl_frontier_final","folder":"tf","game":"Team Fortress","app_id":440,"player_count":24,"max_players":24,"Bots":0,"server_type":"Dedicated","server_os":"Linux","password":true,"vac":true,"version":"7961495","steam_id":85568392924470941,"keywords":["nocrits","nodmgspread","payload","uncletopia"],"game_id":440,"stv_port":27026,"stv_name":"Uncletopia | London | 2 | All Maps | STV","players":[{"user_id":465,"name":"supisnormal6","steam_id":76561199477899305,"connected_time":231000000000,"state":"active","ping":169},{"user_id":377,"name":"saywoo","steam_id":76561198904469197,"connected_time":6910000000000,"state":"active","ping":58},{"user_id":460,"name":"adamslavkov0107","steam_id":76561199498393023,"connected_time":319000000000,"state":"active","ping":78},{"user_id":391,"name":"Raulca25","steam_id":76561199068256964,"connected_time":4795000000000,"state":"active","ping":79},{"user_id":457,"name":"randompixel","steam_id":76561198003941207,"connected_time":375000000000,"state":"active","ping":58},{"user_id":454,"name":"Ynss","steam_id":76561198021472798,"connected_time":547000000000,"state":"active","ping":58},{"user_id":458,"name":"JoJo1105","steam_id":76561198926013207,"connected_time":371000000000,"state":"active","ping":70},{"user_id":447,"name":"Homosapien","steam_id":76561197972035953,"connected_time":1123000000000,"state":"active","ping":73},{"user_id":448,"name":"I Love Filtered Water","steam_id":76561198016042113,"connected_time":1046000000000,"state":"active","ping":92},{"user_id":461,"name":"PAN Dan","steam_id":76561198259233354,"connected_time":318000000000,"state":"active","ping":62},{"user_id":456,"name":"burgz","steam_id":76561198109955787,"connected_time":426000000000,"state":"active","ping":57},{"user_id":462,"name":"Oriuke","steam_id":76561197992166123,"connected_time":317000000000,"state":"active","ping":51},{"user_id":389,"name":"Taez","steam_id":76561198261820803,"connected_time":4855000000000,"state":"active","ping":60},{"user_id":446,"name":"Pfuck","steam_id":76561198146081601,"connected_time":1148000000000,"state":"active","ping":49},{"user_id":435,"name":"Vee","steam_id":76561198173065294,"connected_time":1592000000000,"state":"active","ping":58},{"user_id":407,"name":"Tuosan","steam_id":76561198062611429,"connected_time":3907000000000,"state":"active","ping":86},{"user_id":283,"name":"David","steam_id":76561198017852330,"connected_time":12942000000000,"state":"active","ping":84},{"user_id":467,"name":"A.D.H.|Artem","steam_id":76561198041801369,"connected_time":146000000000,"state":"active","ping":89},{"user_id":436,"name":"Maks","steam_id":76561198315278876,"connected_time":1581000000000,"state":"active","ping":48},{"user_id":463,"name":"hooty","steam_id":76561199043415746,"connected_time":316000000000,"state":"active","ping":72},{"user_id":449,"name":"throne","steam_id":76561198059723960,"connected_time":954000000000,"state":"active","ping":58},{"user_id":453,"name":"c1v","steam_id":76561199085624224,"connected_time":775000000000,"state":"active","ping":90},{"user_id":441,"name":"Ascended Noob","steam_id":76561198079411460,"connected_time":1181000000000,"state":"active","ping":53},{"user_id":468,"name":"ExtraFlames","steam_id":76561199136146246,"connected_time":126000000000,"state":"active","ping":56}]},{"server_id":320,"name":"Uncletopia | London | 3 | All Maps","name_short":"lon-3","host":"lon-1.uk.uncletopia.com","port":27035,"enabled":true,"region":"eu","cc":"gb","latitude":51.509865,"longitude":-0.118092,"reserved":0,"last_update":"0001-01-01T00:00:00Z","name_a2s":"Uncletopia | London | 3 | All Maps","protocol":17,"map":"pl_swiftwater_final1","folder":"tf","game":"Team Fortress","app_id":440,"player_count":24,"max_players":24,"Bots":0,"server_type":"Dedicated","server_os":"Linux","password":true,"vac":true,"version":"7961495","steam_id":85568392924510192,"keywords":["nocrits","nodmgspread","payload","uncletopia"],"game_id":440,"stv_port":27036,"stv_name":"Uncletopia | London | 3 | All Maps | STV","players":[{"user_id":375,"name":"Gugu gaga","steam_id":76561198161822358,"connected_time":311000000000,"state":"active","ping":74},{"user_id":376,"name":"plep","steam_id":76561198041463901,"connected_time":308000000000,"state":"active","ping":44},{"user_id":289,"name":"the rizzard of oz","steam_id":76561198066631833,"connected_time":4458000000000,"state":"active","ping":81},{"user_id":314,"name":"frogdestroyer42","steam_id":76561198129106602,"connected_time":2483000000000,"state":"active","ping":68},{"user_id":322,"name":"howabe","steam_id":76561197996486818,"connected_time":1992000000000,"state":"active","ping":62},{"user_id":368,"name":"loser","steam_id":76561199042470246,"connected_time":770000000000,"state":"active","ping":61},{"user_id":336,"name":"wheelchair emperor","steam_id":76561198076084824,"connected_time":1462000000000,"state":"active","ping":64},{"user_id":373,"name":"Cuthbert","steam_id":76561198204649481,"connected_time":411000000000,"state":"active","ping":105},{"user_id":367,"name":"cool guy","steam_id":76561199244543995,"connected_time":795000000000,"state":"active","ping":86},{"user_id":371,"name":"Yilow","steam_id":76561198040036642,"connected_time":467000000000,"state":"active","ping":79},{"user_id":377,"name":"based gorou pfp","steam_id":76561198122814249,"connected_time":296000000000,"state":"active","ping":45},{"user_id":380,"name":"deflox","steam_id":76561198087450635,"connected_time":224000000000,"state":"active","ping":45},{"user_id":374,"name":"lol","steam_id":76561198104438656,"connected_time":375000000000,"state":"active","ping":63},{"user_id":324,"name":"Pipp Petals2014","steam_id":76561198147668373,"connected_time":1939000000000,"state":"active","ping":62},{"user_id":333,"name":"magnificent darkness","steam_id":76561199059524050,"connected_time":1729000000000,"state":"active","ping":85},{"user_id":319,"name":":3","steam_id":76561198169471853,"connected_time":2142000000000,"state":"active","ping":40},{"user_id":325,"name":"Chicoboi","steam_id":76561198109855177,"connected_time":1936000000000,"state":"active","ping":76},{"user_id":197,"name":"hubert","steam_id":76561198057722639,"connected_time":9790000000000,"state":"active","ping":76},{"user_id":370,"name":"MrMoopne","steam_id":76561198207282400,"connected_time":550000000000,"state":"active","ping":52},{"user_id":244,"name":"FlameTheGame","steam_id":76561198841108519,"connected_time":7183000000000,"state":"active","ping":109},{"user_id":286,"name":"jill sandwich","steam_id":76561198075068529,"connected_time":5244000000000,"state":"active","ping":66},{"user_id":334,"name":"Scobra","steam_id":76561198000734400,"connected_time":1671000000000,"state":"active","ping":115},{"user_id":379,"name":"Aeinzalot","steam_id":76561198195288449,"connected_time":232000000000,"state":"active","ping":48},{"user_id":381,"name":"Eltonius","steam_id":76561198157560715,"connected_time":198000000000,"state":"active","ping":86}]},{"server_id":321,"name":"Uncletopia | London | 4 | All Maps","name_short":"lon-4","host":"lon-1.uk.uncletopia.com","port":27045,"enabled":true,"region":"eu","cc":"gb","latitude":51.509865,"longitude":-0.118092,"reserved":0,"last_update":"0001-01-01T00:00:00Z","name_a2s":"Uncletopia | London | 4 | All Maps","protocol":17,"map":"pl_badwater","folder":"tf","game":"Team Fortress","app_id":440,"player_count":24,"max_players":24,"Bots":0,"server_type":"Dedicated","server_os":"Linux","password":true,"vac":true,"version":"7961495","steam_id":85568392924510193,"keywords":["nocrits","nodmgspread","payload","uncletopia"],"game_id":440,"stv_port":27046,"stv_name":"Uncletopia | London | 4 | All Maps | STV","players":[{"user_id":88,"name":"Hexagon","steam_id":76561198151205758,"connected_time":3453000000000,"state":"active","ping":59},{"user_id":119,"name":"Welder","steam_id":76561198355300561,"connected_time":143000000000,"state":"active","ping":71},{"user_id":120,"name":"Luuk","steam_id":76561198088266026,"connected_time":131000000000,"state":"active","ping":45},{"user_id":23,"name":"Caruzon - Obismal","steam_id":76561198036211170,"connected_time":7792000000000,"state":"active","ping":82},{"user_id":24,"name":"Macci - Obismal","steam_id":76561198050485404,"connected_time":7786000000000,"state":"active","ping":77},{"user_id":104,"name":"Sandvich","steam_id":76561199079493666,"connected_time":1863000000000,"state":"active","ping":104},{"user_id":108,"name":"ha,burger","steam_id":76561199093584225,"connected_time":985000000000,"state":"active","ping":66},{"user_id":109,"name":"baby's first domination","steam_id":76561198325898181,"connected_time":975000000000,"state":"active","ping":71},{"user_id":54,"name":"BigDikNRJ - Obismal","steam_id":76561198055309521,"connected_time":6691000000000,"state":"active","ping":74},{"user_id":55,"name":"Mr. Mundy","steam_id":76561198132008918,"connected_time":6627000000000,"state":"active","ping":87},{"user_id":99,"name":"d u k k i","steam_id":76561198071807437,"connected_time":2285000000000,"state":"active","ping":98},{"user_id":105,"name":"What If We Kissed In Cockpit","steam_id":76561197988085026,"connected_time":1847000000000,"state":"active","ping":69},{"user_id":79,"name":"woople","steam_id":76561198076625889,"connected_time":4604000000000,"state":"active","ping":86},{"user_id":93,"name":"Nugget","steam_id":76561198338916407,"connected_time":2698000000000,"state":"active","ping":77},{"user_id":117,"name":"Dictatorial Karelian","steam_id":76561198196736457,"connected_time":315000000000,"state":"active","ping":89},{"user_id":118,"name":"tired","steam_id":76561198046838168,"connected_time":237000000000,"state":"active","ping":58},{"user_id":111,"name":"Locke","steam_id":76561198339408300,"connected_time":949000000000,"state":"active","ping":57},{"user_id":77,"name":"Rocket.Blade","steam_id":76561198063104145,"connected_time":4649000000000,"state":"active","ping":50},{"user_id":101,"name":"R8N - Obismal","steam_id":76561198007482714,"connected_time":2198000000000,"state":"active","ping":79},{"user_id":114,"name":"St. Pablo","steam_id":76561199009805208,"connected_time":661000000000,"state":"active","ping":116},{"user_id":60,"name":"↯","steam_id":76561198055389492,"connected_time":6426000000000,"state":"active","ping":43},{"user_id":84,"name":"Nick","steam_id":76561198036109469,"connected_time":4312000000000,"state":"active","ping":103},{"user_id":107,"name":"Angry the lime","steam_id":76561199012566222,"connected_time":1305000000000,"state":"active","ping":69},{"user_id":116,"name":"VEH-DEH-VEH","steam_id":76561198010978989,"connected_time":326000000000,"state":"active","ping":73}]},{"server_id":21,"name":"Uncletopia | London | 5 | All Maps","name_short":"lon-5","host":"lon-1.uk.uncletopia.com","port":27055,"enabled":true,"region":"eu","cc":"gb","latitude":51.509865,"longitude":-0.118092,"reserved":0,"last_update":"0001-01-01T00:00:00Z","name_a2s":"Uncletopia | London | 5 | All Maps","protocol":17,"map":"koth_lakeside_final","folder":"tf","game":"Team Fortress","app_id":440,"player_count":11,"max_players":24,"Bots":0,"server_type":"Dedicated","server_os":"Linux","password":true,"vac":true,"version":"7961495","steam_id":85568392924742829,"keywords":["cp","nocrits","nodmgspread","uncletopia"],"game_id":440,"stv_port":27056,"stv_name":"Uncletopia | London | 5 | All Maps | STV","players":[{"user_id":21,"name":"SaSSolino","steam_id":76561198011308018,"connected_time":652000000000,"state":"active","ping":63},{"user_id":19,"name":"Gentlemann Co.","steam_id":76561197997142921,"connected_time":912000000000,"state":"active","ping":54},{"user_id":20,"name":"Zuuzul","steam_id":76561198272671267,"connected_time":859000000000,"state":"active","ping":124},{"user_id":22,"name":"DeterminedXD[HUN]","steam_id":76561199469006453,"connected_time":615000000000,"state":"active","ping":100},{"user_id":23,"name":"Weegad Wobus","steam_id":76561199429562693,"connected_time":353000000000,"state":"active","ping":70},{"user_id":24,"name":"Drunk cunt","steam_id":76561198398438169,"connected_time":338000000000,"state":"active","ping":69},{"user_id":25,"name":"Kenny_killer_69","steam_id":76561199465207725,"connected_time":290000000000,"state":"active","ping":70},{"user_id":26,"name":"GMsU | AuxiliusM","steam_id":76561198071903356,"connected_time":80000000000,"state":"active","ping":45},{"user_id":27,"name":"meta1","steam_id":76561198087824752,"connected_time":57000000000,"state":"active","ping":31},{"user_id":28,"name":"Mobster Tortoise","steam_id":76561199036837091,"connected_time":38000000000,"state":"active","ping":89},{"user_id":29,"name":"conehead","steam_id":76561198157984921,"connected_time":26000000000,"state":"active","ping":56}]},{"server_id":22,"name":"Uncletopia | London | 6 | All Maps","name_short":"lon-6","host":"lon-1.uk.uncletopia.com","port":27065,"enabled":true,"region":"eu","cc":"gb","latitude":51.509865,"longitude":-0.118092,"reserved":0,"last_update":"0001-01-01T00:00:00Z","name_a2s":"Uncletopia | London | 6 | All Maps","protocol":17,"map":"koth_harvest_final","folder":"tf","game":"Team Fortress","app_id":440,"player_count":22,"max_players":24,"Bots":0,"server_type":"Dedicated","server_os":"Linux","password":true,"vac":true,"version":"7961495","steam_id":85568392924742830,"keywords":["cp","nocrits","nodmgspread","uncletopia"],"game_id":440,"stv_port":27066,"stv_name":"Uncletopia | London | 6 | All Maps | STV","players":[{"user_id":306,"name":"sand","steam_id":76561199166176718,"connected_time":3247000000000,"state":"active","ping":70},{"user_id":346,"name":"Chill Spirit","steam_id":76561198845001725,"connected_time":611000000000,"state":"active","ping":47},{"user_id":327,"name":"Zerfesh","steam_id":76561198117534358,"connected_time":1860000000000,"state":"active","ping":103},{"user_id":281,"name":"_DEI_","steam_id":76561199140785144,"connected_time":5412000000000,"state":"active","ping":94},{"user_id":351,"name":"123","steam_id":76561198084517952,"connected_time":163000000000,"state":"active","ping":69},{"user_id":239,"name":"oskaroku00","steam_id":76561199025360128,"connected_time":9132000000000,"state":"active","ping":76},{"user_id":210,"name":"bitkomet","steam_id":76561198058232147,"connected_time":11508000000000,"state":"active","ping":88},{"user_id":297,"name":"Zazou","steam_id":76561198028076362,"connected_time":4056000000000,"state":"active","ping":50},{"user_id":335,"name":"soap lore 22","steam_id":76561198058879767,"connected_time":1636000000000,"state":"active","ping":38},{"user_id":324,"name":"society","steam_id":76561198019065232,"connected_time":2220000000000,"state":"active","ping":26},{"user_id":308,"name":"Zarden","steam_id":76561198080638451,"connected_time":3166000000000,"state":"active","ping":45},{"user_id":345,"name":"GGlut","steam_id":76561198034281473,"connected_time":766000000000,"state":"active","ping":45},{"user_id":354,"name":"Hamedius","steam_id":76561199152512027,"connected_time":8000000000,"state":"spawning","ping":73},{"user_id":353,"name":"PhotonicMike","steam_id":76561199022534414,"connected_time":28000000000,"state":"spawning","ping":54},{"user_id":355,"name":"OMG IS THAT SPY FROM TF2?","steam_id":76561199291684647,"connected_time":4000000000,"state":"spawning","ping":67},{"user_id":319,"name":"Futatsuiwa Mamizou","steam_id":76561198799303596,"connected_time":2690000000000,"state":"active","ping":114},{"user_id":312,"name":"medic gaming","steam_id":76561198866194704,"connected_time":3095000000000,"state":"active","ping":74},{"user_id":334,"name":"David \"Crash\" Murphy","steam_id":76561198292845505,"connected_time":1697000000000,"state":"active","ping":92},{"user_id":314,"name":"MyAnacondaDontWantNone","steam_id":76561199044028826,"connected_time":3073000000000,"state":"active","ping":41},{"user_id":341,"name":"MpJens","steam_id":76561198000347669,"connected_time":992000000000,"state":"active","ping":46},{"user_id":348,"name":"The CEO of Sex Inc.","steam_id":76561198385989487,"connected_time":494000000000,"state":"active","ping":88},{"user_id":315,"name":"Real (Real)","steam_id":76561198323425034,"connected_time":3036000000000,"state":"active","ping":70}]},{"server_id":40,"name":"Uncletopia | London | 7 | Stopwatch","name_short":"lon-7","host":"lon-1.uk.uncletopia.com","port":27075,"enabled":true,"region":"eu","cc":"gb","latitude":51.509865,"longitude":-0.118092,"reserved":0,"last_update":"0001-01-01T00:00:00Z","name_a2s":"Uncletopia | London | 7 | Stopwatch","protocol":17,"map":"workshop/koth_ashville_final.ugc2130459942","folder":"tf","game":"Team Fortress","app_id":440,"player_count":0,"max_players":24,"Bots":0,"server_type":"Dedicated","server_os":"Linux","password":true,"vac":true,"version":"7961495","steam_id":85568392924964314,"keywords":["cp","nocrits","nodmgspread","uncletopia"],"game_id":440,"stv_port":27076,"stv_name":"Uncletopia | London | 7 | Stopwatch | STV","players":null},{"server_id":41,"name":"Uncletopia | London | 8 | Community","name_short":"lon-8","host":"lon-1.uk.uncletopia.com","port":27085,"enabled":true,"region":"eu","cc":"gb","latitude":51.509865,"longitude":-0.118092,"reserved":0,"last_update":"0001-01-01T00:00:00Z","name_a2s":"Uncletopia | London | 8 | Community","protocol":17,"map":"workshop/cp_glassworks_rc6a.ugc454118349","folder":"tf","game":"Team Fortress","app_id":440,"player_count":0,"max_players":24,"Bots":0,"server_type":"Dedicated","server_os":"Linux","password":true,"vac":true,"version":"7961495","steam_id":85568392924964315,"keywords":["cp","nocrits","nodmgspread","uncletopia"],"game_id":440,"stv_port":27086,"stv_name":"Uncletopia | London | 8 | Community | STV","players":null},{"server_id":300,"name":"Uncletopia | Montréal | 1 | One Thousand Uncles","name_short":"mtl-1","host":"mtl-1.ca.uncletopia.com","port":27015,"enabled":true,"region":"us-east","cc":"ca","latitude":45.50889,"longitude":-73.56167,"reserved":0,"last_update":"0001-01-01T00:00:00Z","name_a2s":"","protocol":0,"map":"","folder":"","game":"","app_id":0,"player_count":5,"max_players":0,"Bots":0,"server_type":"","server_os":"","password":false,"vac":false,"version":"","steam_id":0,"keywords":null,"game_id":0,"stv_port":0,"stv_name":"","players":[{"user_id":53,"name":"Congcrab","steam_id":76561198078687685,"connected_time":3335000000000,"state":"active","ping":84},{"user_id":70,"name":"Негр южнее Сахар\ufffd","steam_id":76561199296042270,"connected_time":2798000000000,"state":"active","ping":178},{"user_id":71,"name":"ThatGirlWithaK","steam_id":76561198317602350,"connected_time":2254000000000,"state":"active","ping":89},{"user_id":73,"name":"็Periculosum PhD in Funny","steam_id":76561198123370914,"connected_time":1813000000000,"state":"active","ping":75},{"user_id":78,"name":"Wafflehead","steam_id":76561198053539741,"connected_time":315000000000,"state":"active","ping":40}]},{"server_id":301,"name":"Uncletopia | Montréal | 2 | One Thousand Uncles","name_short":"mtl-2","host":"mtl-1.ca.uncletopia.com","port":27025,"enabled":true,"region":"us-east","cc":"ca","latitude":45.50889,"longitude":-73.56167,"reserved":0,"last_update":"0001-01-01T00:00:00Z","name_a2s":"","protocol":0,"map":"","folder":"","game":"","app_id":0,"player_count":0,"max_players":0,"Bots":0,"server_type":"","server_os":"","password":false,"vac":false,"version":"","steam_id":0,"keywords":null,"game_id":0,"stv_port":0,"stv_name":"","players":null},{"server_id":302,"name":"Uncletopia | Montréal | 3 | One Thousand Uncles","name_short":"mtl-3","host":"mtl-1.ca.uncletopia.com","port":27035,"enabled":true,"region":"us-east","cc":"ca","latitude":45.50889,"longitude":-73.56167,"reserved":0,"last_update":"0001-01-01T00:00:00Z","name_a2s":"","protocol":0,"map":"","folder":"","game":"","app_id":0,"player_count":0,"max_players":0,"Bots":0,"server_type":"","server_os":"","password":false,"vac":false,"version":"","steam_id":0,"keywords":null,"game_id":0,"stv_port":0,"stv_name":"","players":null},{"server_id":13,"name":"Uncletopia | New York City | 1 | All Maps","name_short":"nyc-1","host":"nyc-1.us.uncletopia.com","port":27015,"enabled":true,"region":"us-east","cc":"us","latitude":40.73061,"longitude":-73.93524,"reserved":0,"last_update":"0001-01-01T00:00:00Z","name_a2s":"Uncletopia | New York City | 1 | All Maps","protocol":17,"map":"pl_pier","folder":"tf","game":"Team Fortress","app_id":440,"player_count":24,"max_players":24,"Bots":0,"server_type":"Dedicated","server_os":"Linux","password":true,"vac":true,"version":"7961495","steam_id":85568392924469993,"keywords":["nocrits","nodmgspread","payload","uncletopia"],"game_id":440,"stv_port":27016,"stv_name":"Uncletopia | New York City | 1 | All Maps | STV","players":[{"user_id":98,"name":"Hazeyboi","steam_id":76561198130687838,"connected_time":3598000000000,"state":"active","ping":84},{"user_id":110,"name":"xXBongRipper420Xx","steam_id":76561198199344313,"connected_time":1534000000000,"state":"active","ping":132},{"user_id":112,"name":"DiscoTraveler","steam_id":76561199240168088,"connected_time":1478000000000,"state":"active","ping":53},{"user_id":126,"name":"GummybearKillr","steam_id":76561198031235750,"connected_time":279000000000,"state":"active","ping":57},{"user_id":127,"name":"zabloinkus","steam_id":76561198069967245,"connected_time":111000000000,"state":"active","ping":86},{"user_id":91,"name":"FIJI","steam_id":76561198126087725,"connected_time":4703000000000,"state":"active","ping":61},{"user_id":107,"name":"taigaxx","steam_id":76561198202669250,"connected_time":3137000000000,"state":"active","ping":67},{"user_id":25,"name":"Sodemo","steam_id":76561198074987146,"connected_time":10247000000000,"state":"active","ping":63},{"user_id":85,"name":"DerpyNate","steam_id":76561198100249037,"connected_time":5118000000000,"state":"active","ping":65},{"user_id":104,"name":"Weerk","steam_id":76561199209543551,"connected_time":3565000000000,"state":"active","ping":79},{"user_id":75,"name":"Rigby","steam_id":76561198258121396,"connected_time":6447000000000,"state":"active","ping":80},{"user_id":78,"name":"soty","steam_id":76561198829285363,"connected_time":6205000000000,"state":"active","ping":127},{"user_id":114,"name":"mallmann","steam_id":76561199213157869,"connected_time":1323000000000,"state":"active","ping":176},{"user_id":73,"name":"The Big","steam_id":76561198078572184,"connected_time":6628000000000,"state":"active","ping":86},{"user_id":87,"name":"fLock","steam_id":76561198091578187,"connected_time":5077000000000,"state":"active","ping":54},{"user_id":124,"name":"new person","steam_id":76561198210767823,"connected_time":511000000000,"state":"active","ping":49},{"user_id":118,"name":"Swedish Crowbar","steam_id":76561199105488936,"connected_time":1158000000000,"state":"active","ping":139},{"user_id":54,"name":"Rornir","steam_id":76561198081829615,"connected_time":9184000000000,"state":"active","ping":59},{"user_id":66,"name":"Toxic Ron","steam_id":76561198089302972,"connected_time":8266000000000,"state":"active","ping":71},{"user_id":97,"name":"Ziath","steam_id":76561198094009164,"connected_time":4122000000000,"state":"active","ping":50},{"user_id":122,"name":"rice white","steam_id":76561198320732910,"connected_time":648000000000,"state":"active","ping":65},{"user_id":119,"name":"Try Gardening","steam_id":76561198120311340,"connected_time":1151000000000,"state":"active","ping":59},{"user_id":123,"name":"DankMemes4EV3R","steam_id":76561199012294783,"connected_time":643000000000,"state":"active","ping":84},{"user_id":125,"name":"darkelaine227","steam_id":76561198097330521,"connected_time":503000000000,"state":"active","ping":166}]},{"server_id":14,"name":"Uncletopia | New York City | 2 | All Maps","name_short":"nyc-2","host":"nyc-1.us.uncletopia.com","port":27025,"enabled":true,"region":"us-east","cc":"us","latitude":40.73061,"longitude":-73.93524,"reserved":0,"last_update":"0001-01-01T00:00:00Z","name_a2s":"Uncletopia | New York City | 2 | All Maps","protocol":17,"map":"pl_frontier_final","folder":"tf","game":"Team Fortress","app_id":440,"player_count":24,"max_players":24,"Bots":0,"server_type":"Dedicated","server_os":"Linux","password":true,"vac":true,"version":"7961495","steam_id":85568392924469994,"keywords":["nocrits","nodmgspread","payload","uncletopia"],"game_id":440,"stv_port":27026,"stv_name":"Uncletopia | New York City | 2 | All Maps | STV","players":[{"user_id":59,"name":"Jared","steam_id":76561198020432651,"connected_time":3914000000000,"state":"active","ping":63},{"user_id":56,"name":"John Fortnite","steam_id":76561198076608253,"connected_time":3971000000000,"state":"active","ping":56},{"user_id":88,"name":"bumrusherz","steam_id":76561198440658195,"connected_time":2332000000000,"state":"active","ping":78},{"user_id":123,"name":"TheSecretNewbie","steam_id":76561198194671218,"connected_time":370000000000,"state":"active","ping":58},{"user_id":108,"name":"Wilhelmktx","steam_id":76561198158102295,"connected_time":1532000000000,"state":"active","ping":60},{"user_id":125,"name":"beast from the east","steam_id":76561198267624034,"connected_time":248000000000,"state":"active","ping":61},{"user_id":104,"name":"V. G. Sunderland","steam_id":76561198161839980,"connected_time":1588000000000,"state":"active","ping":44},{"user_id":76,"name":"Butthole Bandit","steam_id":76561198397257870,"connected_time":3180000000000,"state":"active","ping":69},{"user_id":114,"name":"photonbinding","steam_id":76561198250996330,"connected_time":1145000000000,"state":"active","ping":98},{"user_id":119,"name":"PaD_Ding","steam_id":76561198831202965,"connected_time":724000000000,"state":"active","ping":158},{"user_id":71,"name":"The Hose on Upward","steam_id":76561197965092192,"connected_time":3432000000000,"state":"active","ping":70},{"user_id":127,"name":"Oopsie Daisy ❋","steam_id":76561198042144492,"connected_time":212000000000,"state":"active","ping":69},{"user_id":98,"name":"Acro","steam_id":76561198092451804,"connected_time":1885000000000,"state":"active","ping":75},{"user_id":82,"name":"ADRIEN BRODY","steam_id":76561198009299473,"connected_time":2558000000000,"state":"active","ping":57},{"user_id":52,"name":"Fresh0c0","steam_id":76561198271933283,"connected_time":4922000000000,"state":"active","ping":76},{"user_id":116,"name":"gIBBY","steam_id":76561198080099598,"connected_time":906000000000,"state":"active","ping":41},{"user_id":83,"name":"barney","steam_id":76561198166433332,"connected_time":2515000000000,"state":"active","ping":107},{"user_id":107,"name":"Assitins","steam_id":76561198041572892,"connected_time":1539000000000,"state":"active","ping":61},{"user_id":103,"name":"chiswola","steam_id":76561198046920142,"connected_time":1730000000000,"state":"active","ping":90},{"user_id":109,"name":"Random","steam_id":76561199116602799,"connected_time":1530000000000,"state":"active","ping":114},{"user_id":124,"name":"Nash","steam_id":76561198044192734,"connected_time":311000000000,"state":"active","ping":63},{"user_id":112,"name":"SuperSkrull","steam_id":76561198035695823,"connected_time":1482000000000,"state":"active","ping":145},{"user_id":111,"name":"az","steam_id":76561198090531755,"connected_time":1503000000000,"state":"active","ping":80},{"user_id":122,"name":"YourFriendJessie","steam_id":76561198176883097,"connected_time":568000000000,"state":"active","ping":56}]},{"server_id":15,"name":"Uncletopia | New York City | 3 | Stopwatch","name_short":"nyc-3","host":"nyc-1.us.uncletopia.com","port":27035,"enabled":true,"region":"us-east","cc":"us","latitude":40.73061,"longitude":-73.93524,"reserved":0,"last_update":"0001-01-01T00:00:00Z","name_a2s":"Uncletopia | New York City | 3 | Stopwatch","protocol":17,"map":"workshop/koth_ramjam_rc1.ugc459778887","folder":"tf","game":"Team Fortress","app_id":440,"player_count":0,"max_players":24,"Bots":0,"server_type":"Dedicated","server_os":"Linux","password":true,"vac":true,"version":"7961495","steam_id":85568392924742820,"keywords":["cp","nocrits","nodmgspread","uncletopia"],"game_id":440,"stv_port":27036,"stv_name":"Uncletopia | New York City | 3 | Stopwatch | STV","players":null},{"server_id":16,"name":"Uncletopia | New York City | 4 | Community","name_short":"nyc-4","host":"nyc-1.us.uncletopia.com","port":27045,"enabled":true,"region":"us-east","cc":"us","latitude":40.73061,"longitude":-73.93524,"reserved":0,"last_update":"0001-01-01T00:00:00Z","name_a2s":"Uncletopia | New York City | 4 | Community","protocol":17,"map":"cp_altitude","folder":"tf","game":"Team Fortress","app_id":440,"player_count":0,"max_players":24,"Bots":0,"server_type":"Dedicated","server_os":"Linux","password":true,"vac":true,"version":"7961495","steam_id":85568392924742821,"keywords":["cp","nocrits","nodmgspread","uncletopia"],"game_id":440,"stv_port":27046,"stv_name":"Uncletopia | New York City | 4 | Community | STV","players":null},{"server_id":142,"name":"Uncletopia | São Paulo | 1 | All Maps","name_short":"sao-1","host":"sao-1.br.uncletopia.com","port":27015,"enabled":true,"region":"sa","cc":"br","latitude":-23.533773,"longitude":-46.62529,"reserved":0,"last_update":"0001-01-01T00:00:00Z","name_a2s":"Uncletopia | São Paulo | 1 | All Maps","protocol":17,"map":"pl_snowycoast","folder":"tf","game":"Team Fortress","app_id":440,"player_count":0,"max_players":24,"Bots":0,"server_type":"Dedicated","server_os":"Linux","password":true,"vac":true,"version":"7961495","steam_id":85568392924469996,"keywords":["nocrits","nodmgspread","payload","uncletopia"],"game_id":440,"stv_port":27016,"stv_name":"Uncletopia | São Paulo | 1 | All Maps | STV","players":null},{"server_id":143,"name":"Uncletopia | São Paulo | 2 | Community","name_short":"sao-2","host":"sao-2.br.uncletopia.com","port":27015,"enabled":true,"region":"sa","cc":"br","latitude":-23.533773,"longitude":-46.62529,"reserved":0,"last_update":"0001-01-01T00:00:00Z","name_a2s":"Uncletopia | São Paulo | 2 | Community","protocol":17,"map":"workshop/pl_badwater_pro_v12.ugc2142942074","folder":"tf","game":"Team Fortress","app_id":440,"player_count":0,"max_players":24,"Bots":0,"server_type":"Dedicated","server_os":"Linux","password":true,"vac":true,"version":"7961495","steam_id":85568392924485349,"keywords":["nocrits","nodmgspread","payload","uncletopia"],"game_id":440,"stv_port":27016,"stv_name":"Uncletopia | São Paulo | 2 | Community | STV","players":null},{"server_id":7,"name":"Uncletopia | Seattle | 1 | All Maps","name_short":"sea-1","host":"sea-1.us.uncletopia.com","port":27015,"enabled":true,"region":"us-west","cc":"us","latitude":47.608013,"longitude":-122.33517,"reserved":0,"last_update":"0001-01-01T00:00:00Z","name_a2s":"Uncletopia | Seattle | 1 | All Maps","protocol":17,"map":"koth_cascade","folder":"tf","game":"Team Fortress","app_id":440,"player_count":22,"max_players":24,"Bots":0,"server_type":"Dedicated","server_os":"Linux","password":true,"vac":true,"version":"7961495","steam_id":85568392924469997,"keywords":["cp","nocrits","nodmgspread","uncletopia"],"game_id":440,"stv_port":27016,"stv_name":"Uncletopia | Seattle | 1 | All Maps | STV","players":[{"user_id":178,"name":"MxProf","steam_id":76561198044519572,"connected_time":2000000000,"state":"spawning","ping":44},{"user_id":173,"name":"The Child","steam_id":76561198173557213,"connected_time":248000000000,"state":"active","ping":60},{"user_id":176,"name":"sneed","steam_id":76561198118010424,"connected_time":65000000000,"state":"active","ping":52},{"user_id":171,"name":"nfseskimo","steam_id":76561198078745666,"connected_time":300000000000,"state":"active","ping":45},{"user_id":163,"name":"Winter the Witchie","steam_id":76561198151971178,"connected_time":1102000000000,"state":"active","ping":114},{"user_id":164,"name":"PopcornBucketGames","steam_id":76561199089562026,"connected_time":1098000000000,"state":"active","ping":37},{"user_id":177,"name":"Touka Katanouka","steam_id":76561198171521806,"connected_time":3000000000,"state":"spawning","ping":62},{"user_id":137,"name":"Waltuh White","steam_id":76561198964210411,"connected_time":3575000000000,"state":"active","ping":75},{"user_id":153,"name":"Little Linguine","steam_id":76561198816986370,"connected_time":2010000000000,"state":"active","ping":45},{"user_id":174,"name":"Jazz Hands","steam_id":76561199225708271,"connected_time":149000000000,"state":"active","ping":52},{"user_id":109,"name":"rad killl raccoon","steam_id":76561198980975595,"connected_time":7545000000000,"state":"active","ping":56},{"user_id":169,"name":"Dox","steam_id":76561198120368589,"connected_time":378000000000,"state":"active","ping":130},{"user_id":168,"name":"Pneumo.","steam_id":76561197987911883,"connected_time":632000000000,"state":"active","ping":44},{"user_id":130,"name":"DubiousDodo","steam_id":76561198828172686,"connected_time":4894000000000,"state":"active","ping":75},{"user_id":91,"name":"sonicboom14","steam_id":76561198866558393,"connected_time":9422000000000,"state":"active","ping":86},{"user_id":160,"name":"Arkus","steam_id":76561199092478198,"connected_time":1503000000000,"state":"active","ping":46},{"user_id":161,"name":"Dr. Peelz","steam_id":76561198156452499,"connected_time":1214000000000,"state":"active","ping":73},{"user_id":157,"name":"byte_sized","steam_id":76561198155560837,"connected_time":1750000000000,"state":"active","ping":90},{"user_id":140,"name":"captain red","steam_id":76561198191587983,"connected_time":3563000000000,"state":"active","ping":76},{"user_id":165,"name":"Noah","steam_id":76561198059048749,"connected_time":1050000000000,"state":"active","ping":59},{"user_id":172,"name":"Joeyy #1Team","steam_id":76561198284576866,"connected_time":294000000000,"state":"active","ping":63},{"user_id":167,"name":"Klip","steam_id":76561198316254429,"connected_time":1010000000000,"state":"active","ping":123}]},{"server_id":119,"name":"Uncletopia | Seattle | 2 | All Maps","name_short":"sea-2","host":"sea-1.us.uncletopia.com","port":27025,"enabled":true,"region":"us-west","cc":"us","latitude":47.608013,"longitude":-122.33517,"reserved":0,"last_update":"0001-01-01T00:00:00Z","name_a2s":"Uncletopia | Seattle | 2 | All Maps","protocol":17,"map":"cp_dustbowl","folder":"tf","game":"Team Fortress","app_id":440,"player_count":23,"max_players":24,"Bots":0,"server_type":"Dedicated","server_os":"Linux","password":true,"vac":true,"version":"7961495","steam_id":85568392924469998,"keywords":["cp","nocrits","nodmgspread","uncletopia"],"game_id":440,"stv_port":27026,"stv_name":"Uncletopia | Seattle | 2 | All Maps | STV","players":[{"user_id":146,"name":"federal agent","steam_id":76561198136278172,"connected_time":445000000000,"state":"active","ping":119},{"user_id":147,"name":"keffers","steam_id":76561198202338796,"connected_time":438000000000,"state":"active","ping":102},{"user_id":98,"name":"Eevee (She/Her)","steam_id":76561198271393589,"connected_time":3218000000000,"state":"active","ping":67},{"user_id":134,"name":"TastyWheat","steam_id":76561198855061918,"connected_time":1168000000000,"state":"active","ping":45},{"user_id":126,"name":"Shark Sandwich","steam_id":76561198025007938,"connected_time":2128000000000,"state":"active","ping":44},{"user_id":141,"name":"YOU WHAT?!","steam_id":76561198418679471,"connected_time":673000000000,"state":"active","ping":107},{"user_id":148,"name":"breathing meat donut","steam_id":76561198123566649,"connected_time":432000000000,"state":"active","ping":176},{"user_id":156,"name":"Schmupp","steam_id":76561198150928115,"connected_time":138000000000,"state":"active","ping":75},{"user_id":131,"name":"JDM","steam_id":76561199497603020,"connected_time":1563000000000,"state":"active","ping":75},{"user_id":151,"name":"jerma but crying and lesbian","steam_id":76561198110661425,"connected_time":339000000000,"state":"active","ping":86},{"user_id":115,"name":"Sniper","steam_id":76561198285891257,"connected_time":2446000000000,"state":"active","ping":68},{"user_id":137,"name":"Rally Racer","steam_id":76561198044613715,"connected_time":964000000000,"state":"active","ping":49},{"user_id":117,"name":"ShadowSoul","steam_id":76561198259225072,"connected_time":2415000000000,"state":"active","ping":102},{"user_id":142,"name":"Sugary","steam_id":76561198088267265,"connected_time":566000000000,"state":"active","ping":89},{"user_id":109,"name":"soldier","steam_id":76561199498571584,"connected_time":2774000000000,"state":"active","ping":46},{"user_id":140,"name":"Colonel Crazy","steam_id":76561198262296550,"connected_time":766000000000,"state":"active","ping":139},{"user_id":111,"name":"krill your shelfd","steam_id":76561198293556549,"connected_time":2740000000000,"state":"active","ping":49},{"user_id":113,"name":"Immortal8Reaper","steam_id":76561198297661559,"connected_time":2723000000000,"state":"active","ping":76},{"user_id":143,"name":"lvl 99 bastard","steam_id":76561198044761617,"connected_time":564000000000,"state":"active","ping":131},{"user_id":157,"name":"Chemzo","steam_id":76561199092858118,"connected_time":44000000000,"state":"active","ping":119},{"user_id":149,"name":"NASA PEEPO","steam_id":76561198024982267,"connected_time":426000000000,"state":"active","ping":60},{"user_id":150,"name":"catrinaisahuman","steam_id":76561198281355729,"connected_time":367000000000,"state":"active","ping":76},{"user_id":155,"name":"Fairchild Republic A-10 Thndrbl","steam_id":76561199038043360,"connected_time":312000000000,"state":"active","ping":118}]},{"server_id":406,"name":"Uncletopia | Seattle | 3 | Stopwatch","name_short":"sea-3","host":"sea-1.us.uncletopia.com","port":27035,"enabled":true,"region":"us-west","cc":"us","latitude":47.608013,"longitude":-122.33517,"reserved":0,"last_update":"0001-01-01T00:00:00Z","name_a2s":"Uncletopia | Seattle | 3 | Stopwatch","protocol":17,"map":"cp_granary","folder":"tf","game":"Team Fortress","app_id":440,"player_count":0,"max_players":24,"Bots":0,"server_type":"Dedicated","server_os":"Linux","password":true,"vac":true,"version":"7961495","steam_id":85568392924515217,"keywords":["cp","nocrits","nodmgspread","uncletopia"],"game_id":440,"stv_port":27036,"stv_name":"Uncletopia | Seattle | 3 | Stopwatch | STV","players":null},{"server_id":17,"name":"Uncletopia | San Francisco | 1 | All Maps","name_short":"sfo-1","host":"sfo-1.us.uncletopia.com","port":27015,"enabled":true,"region":"us-west","cc":"us","latitude":37.77397,"longitude":-122.4313,"reserved":0,"last_update":"0001-01-01T00:00:00Z","name_a2s":"Uncletopia | San Francisco | 1 | All Maps","protocol":17,"map":"koth_cascade","folder":"tf","game":"Team Fortress","app_id":440,"player_count":0,"max_players":24,"Bots":0,"server_type":"Dedicated","server_os":"Linux","password":true,"vac":true,"version":"7961495","steam_id":85568392924469999,"keywords":["cp","nocrits","nodmgspread","uncletopia"],"game_id":440,"stv_port":27016,"stv_name":"Uncletopia | San Francisco | 1 | All Maps | STV","players":null},{"server_id":18,"name":"Uncletopia | San Francisco | 2 | All Maps","name_short":"sfo-2","host":"sfo-1.us.uncletopia.com","port":27025,"enabled":true,"region":"us-west","cc":"us","latitude":37.77397,"longitude":-122.4313,"reserved":0,"last_update":"0001-01-01T00:00:00Z","name_a2s":"Uncletopia | San Francisco | 2 | All Maps","protocol":17,"map":"pl_frontier_final","folder":"tf","game":"Team Fortress","app_id":440,"player_count":0,"max_players":24,"Bots":0,"server_type":"Dedicated","server_os":"Linux","password":true,"vac":true,"version":"7961495","steam_id":85568392924470000,"keywords":["nocrits","nodmgspread","payload","uncletopia"],"game_id":440,"stv_port":27026,"stv_name":"Uncletopia | San Francisco | 2 | All Maps | STV","players":null},{"server_id":19,"name":"Uncletopia | San Francisco | 3 | Stopwatch","name_short":"sfo-3","host":"sfo-1.us.uncletopia.com","port":27035,"enabled":true,"region":"us-west","cc":"us","latitude":37.77397,"longitude":-122.4313,"reserved":0,"last_update":"0001-01-01T00:00:00Z","name_a2s":"Uncletopia | San Francisco | 3 | Stopwatch","protocol":17,"map":"pl_pier","folder":"tf","game":"Team Fortress","app_id":440,"player_count":0,"max_players":24,"Bots":0,"server_type":"Dedicated","server_os":"Linux","password":true,"vac":true,"version":"7961495","steam_id":85568392924742824,"keywords":["nocrits","nodmgspread","payload","uncletopia"],"game_id":440,"stv_port":27036,"stv_name":"Uncletopia | San Francisco | 3 | Stopwatch | STV","players":null},{"server_id":20,"name":"Uncletopia | San Francisco | 4 | Community","name_short":"sfo-4","host":"sfo-1.us.uncletopia.com","port":27045,"enabled":true,"region":"us-west","cc":"us","latitude":37.77397,"longitude":-122.4313,"reserved":0,"last_update":"0001-01-01T00:00:00Z","name_a2s":"Uncletopia | San Francisco | 4 | Community","protocol":17,"map":"pl_pier","folder":"tf","game":"Team Fortress","app_id":440,"player_count":0,"max_players":24,"Bots":0,"server_type":"Dedicated","server_os":"Linux","password":true,"vac":true,"version":"7961495","steam_id":85568392924742826,"keywords":["nocrits","nodmgspread","payload","uncletopia"],"game_id":440,"stv_port":27046,"stv_name":"Uncletopia | San Francisco | 4 | Community | STV","players":null},{"server_id":141,"name":"Uncletopia | Sydney | 1 | All Maps","name_short":"syd-1","host":"syd-1.au.uncletopia.com","port":27015,"enabled":true,"region":"au","cc":"au","latitude":-33.865143,"longitude":151.2099,"reserved":0,"last_update":"0001-01-01T00:00:00Z","name_a2s":"Uncletopia | Sydney | 1 | All Maps","protocol":17,"map":"cp_altitude","folder":"tf","game":"Team Fortress","app_id":440,"player_count":0,"max_players":24,"Bots":0,"server_type":"Dedicated","server_os":"Linux","password":true,"vac":true,"version":"7961495","steam_id":85568392924470001,"keywords":["cp","nocrits","nodmgspread","uncletopia"],"game_id":440,"stv_port":27016,"stv_name":"Uncletopia | Sydney | 1 | All Maps | STV","players":null},{"server_id":123,"name":"Uncletopia | Sydney | 2 | All Maps","name_short":"syd-2","host":"syd-1.au.uncletopia.com","port":27025,"enabled":true,"region":"au","cc":"au","latitude":-33.865143,"longitude":151.2099,"reserved":0,"last_update":"0001-01-01T00:00:00Z","name_a2s":"Uncletopia | Sydney | 2 | All Maps","protocol":17,"map":"koth_viaduct","folder":"tf","game":"Team Fortress","app_id":440,"player_count":0,"max_players":24,"Bots":0,"server_type":"Dedicated","server_os":"Linux","password":true,"vac":true,"version":"7961495","steam_id":85568392924470002,"keywords":["cp","nocrits","nodmgspread","uncletopia"],"game_id":440,"stv_port":27026,"stv_name":"Uncletopia | Sydney | 2 | All Maps | STV","players":null},{"server_id":395,"name":"Uncletopia | Sydney | 3 | All Maps","name_short":"syd-3","host":"syd-1.au.uncletopia.com","port":27035,"enabled":true,"region":"au","cc":"au","latitude":-33.865143,"longitude":151.2099,"reserved":0,"last_update":"0001-01-01T00:00:00Z","name_a2s":"Uncletopia | Sydney | 3 | All Maps","protocol":17,"map":"pl_snowycoast","folder":"tf","game":"Team Fortress","app_id":440,"player_count":0,"max_players":24,"Bots":0,"server_type":"Dedicated","server_os":"Linux","password":true,"vac":true,"version":"7961495","steam_id":85568392925194467,"keywords":["nocrits","nodmgspread","payload","uncletopia"],"game_id":440,"stv_port":27036,"stv_name":"Uncletopia | Sydney | 3 | All Maps | STV","players":null},{"server_id":396,"name":"Uncletopia | Sydney | 4 | All Maps","name_short":"syd-4","host":"syd-1.au.uncletopia.com","port":27045,"enabled":true,"region":"au","cc":"au","latitude":-33.865143,"longitude":151.2099,"reserved":0,"last_update":"0001-01-01T00:00:00Z","name_a2s":"Uncletopia | Sydney | 4 | All Maps","protocol":17,"map":"koth_cascade","folder":"tf","game":"Team Fortress","app_id":440,"player_count":0,"max_players":24,"Bots":0,"server_type":"Dedicated","server_os":"Linux","password":true,"vac":true,"version":"7961495","steam_id":85568392925397958,"keywords":["cp","nocrits","nodmgspread","uncletopia"],"game_id":440,"stv_port":27046,"stv_name":"Uncletopia | Sydney | 4 | All Maps | STV","players":null},{"server_id":58,"name":"Uncletopia | Sydney | 5 | Stopwatch","name_short":"syd-5","host":"syd-1.au.uncletopia.com","port":27055,"enabled":true,"region":"au","cc":"au","latitude":-33.865143,"longitude":151.2099,"reserved":0,"last_update":"0001-01-01T00:00:00Z","name_a2s":"Uncletopia | Sydney | 5 | Stopwatch","protocol":17,"map":"workshop/pl_summercoast_rc8e.ugc1761528829","folder":"tf","game":"Team Fortress","app_id":440,"player_count":0,"max_players":24,"Bots":0,"server_type":"Dedicated","server_os":"Linux","password":true,"vac":true,"version":"7961495","steam_id":85568392925397959,"keywords":["nocrits","nodmgspread","payload","uncletopia"],"game_id":440,"stv_port":27056,"stv_name":"Uncletopia | Sydney | 5 | Stopwatch | STV","players":null},{"server_id":59,"name":"Uncletopia | Sydney | 6 | Community","name_short":"syd-6","host":"syd-1.au.uncletopia.com","port":27065,"enabled":true,"region":"au","cc":"au","latitude":-33.865143,"longitude":151.2099,"reserved":0,"last_update":"0001-01-01T00:00:00Z","name_a2s":"Uncletopia | Sydney | 6 | Community","protocol":17,"map":"workshop/koth_trenchfoot_b1a.ugc731436616","folder":"tf","game":"Team Fortress","app_id":440,"player_count":0,"max_players":24,"Bots":0,"server_type":"Dedicated","server_os":"Linux","password":true,"vac":true,"version":"7961495","steam_id":85568392925397960,"keywords":["cp","nocrits","nodmgspread","uncletopia"],"game_id":440,"stv_port":27066,"stv_name":"Uncletopia | Sydney | 6 | Community | STV","players":null},{"server_id":49,"name":"Uncletopia | Warsaw | 1 | One Thousand Uncles","name_short":"waw-1","host":"waw-1.pl.uncletopia.com","port":27015,"enabled":true,"region":"eu","cc":"pl","latitude":52.2297,"longitude":21.017532,"reserved":0,"last_update":"0001-01-01T00:00:00Z","name_a2s":"Uncletopia | Warsaw | 1 | One Thousand Uncles","protocol":17,"map":"cp_mercenarypark","folder":"tf","game":"Team Fortress","app_id":440,"player_count":0,"max_players":32,"Bots":0,"server_type":"Dedicated","server_os":"Linux","password":true,"vac":true,"version":"7961495","steam_id":85568392925397850,"keywords":["alltalk","cp","danepve","increased_maxplayers","nocrits","norespawntime","uncletopia"],"game_id":440,"stv_port":0,"stv_name":"","players":null},{"server_id":50,"name":"Uncletopia | Warsaw | 2 | One Thousand Uncles","name_short":"waw-2","host":"waw-1.pl.uncletopia.com","port":27025,"enabled":true,"region":"eu","cc":"pl","latitude":52.2297,"longitude":21.017532,"reserved":0,"last_update":"0001-01-01T00:00:00Z","name_a2s":"Uncletopia | Warsaw | 2 | One Thousand Uncles","protocol":17,"map":"cp_mercenarypark","folder":"tf","game":"Team Fortress","app_id":440,"player_count":29,"max_players":32,"Bots":16,"server_type":"Dedicated","server_os":"Linux","password":true,"vac":true,"version":"7961495","steam_id":85568392925397851,"keywords":["alltalk","bots","cp","danepve","increased_maxplayers","nocrits","norespawntime","uncletopia"],"game_id":440,"stv_port":0,"stv_name":"","players":[{"user_id":491,"name":"dank pank","steam_id":76561198995052713,"connected_time":2238000000000,"state":"active","ping":67},{"user_id":511,"name":"nobleevolved","steam_id":76561199240626135,"connected_time":975000000000,"state":"active","ping":81},{"user_id":461,"name":"Mackerel","steam_id":76561197980088396,"connected_time":3254000000000,"state":"active","ping":64},{"user_id":520,"name":"Squanchy","steam_id":76561198013657513,"connected_time":553000000000,"state":"active","ping":42},{"user_id":506,"name":"AftiksPL","steam_id":76561198875182686,"connected_time":1410000000000,"state":"active","ping":63},{"user_id":449,"name":"BUCKET:\\soldier\\Desktop\\","steam_id":76561199047240319,"connected_time":4595000000000,"state":"active","ping":102},{"user_id":523,"name":"Samuel L. Jackson","steam_id":76561198130427881,"connected_time":403000000000,"state":"active","ping":182},{"user_id":450,"name":"the bee shield","steam_id":76561198315405589,"connected_time":4581000000000,"state":"active","ping":37},{"user_id":512,"name":"skille","steam_id":76561198005794325,"connected_time":943000000000,"state":"active","ping":61},{"user_id":522,"name":"ZhuKiss_","steam_id":76561198088147628,"connected_time":465000000000,"state":"active","ping":53},{"user_id":503,"name":"SpineJuice","steam_id":76561199084272069,"connected_time":1612000000000,"state":"active","ping":69},{"user_id":518,"name":"failed poet","steam_id":76561198987041283,"connected_time":648000000000,"state":"active","ping":81},{"user_id":516,"name":"Kornel","steam_id":76561199000320652,"connected_time":693000000000,"state":"active","ping":76}]},{"server_id":51,"name":"Uncletopia | Warsaw | 3 | All Maps","name_short":"waw-3","host":"waw-1.pl.uncletopia.com","port":27035,"enabled":true,"region":"eu","cc":"pl","latitude":52.2297,"longitude":21.017532,"reserved":0,"last_update":"0001-01-01T00:00:00Z","name_a2s":"Uncletopia | Warsaw | 3 | All Maps","protocol":17,"map":"koth_suijin","folder":"tf","game":"Team Fortress","app_id":440,"player_count":23,"max_players":24,"Bots":0,"server_type":"Dedicated","server_os":"Linux","password":true,"vac":true,"version":"7961495","steam_id":85568392925397852,"keywords":["cp","nocrits","nodmgspread","uncletopia"],"game_id":440,"stv_port":27036,"stv_name":"Uncletopia | Warsaw | 3 | All Maps | STV","players":[{"user_id":50,"name":"I Am Coming For Your Anus","steam_id":76561198303492953,"connected_time":765000000000,"state":"active","ping":126},{"user_id":51,"name":"limbicsystem","steam_id":76561198025612680,"connected_time":752000000000,"state":"active","ping":72},{"user_id":52,"name":"7evaa","steam_id":76561198046754534,"connected_time":732000000000,"state":"active","ping":100},{"user_id":53,"name":"Vexeus","steam_id":76561198190475806,"connected_time":720000000000,"state":"active","ping":106},{"user_id":18,"name":"blissful overdose","steam_id":76561199092286532,"connected_time":2895000000000,"state":"active","ping":60},{"user_id":23,"name":"full power heart attack","steam_id":76561199196568965,"connected_time":2282000000000,"state":"active","ping":73},{"user_id":39,"name":"HTML","steam_id":76561199435629385,"connected_time":1126000000000,"state":"active","ping":103},{"user_id":24,"name":"Average meme enjoyer","steam_id":76561199087566663,"connected_time":1965000000000,"state":"active","ping":58},{"user_id":54,"name":"Master Of Noob","steam_id":76561198217926783,"connected_time":704000000000,"state":"active","ping":79},{"user_id":63,"name":"snork","steam_id":76561198138386260,"connected_time":455000000000,"state":"active","ping":75},{"user_id":68,"name":"Keke","steam_id":76561198042032908,"connected_time":56000000000,"state":"active","ping":103},{"user_id":57,"name":"All hail Pootis","steam_id":76561199104417916,"connected_time":635000000000,"state":"active","ping":168},{"user_id":30,"name":"Sex Monster","steam_id":76561199426920744,"connected_time":1744000000000,"state":"active","ping":79},{"user_id":66,"name":"rets_","steam_id":76561198061551392,"connected_time":400000000000,"state":"active","ping":73},{"user_id":59,"name":"has entered the chat","steam_id":76561198078798799,"connected_time":512000000000,"state":"active","ping":71},{"user_id":48,"name":"Ye","steam_id":76561198354719262,"connected_time":881000000000,"state":"active","ping":75},{"user_id":35,"name":"prinz eeugen \u003c3","steam_id":76561198981017406,"connected_time":1414000000000,"state":"active","ping":99},{"user_id":60,"name":"GGabe","steam_id":76561198117199068,"connected_time":485000000000,"state":"active","ping":83},{"user_id":37,"name":"Klaus","steam_id":76561198150394201,"connected_time":1281000000000,"state":"active","ping":56},{"user_id":61,"name":"Dirk.van.den.Broek 2008","steam_id":76561198124226614,"connected_time":484000000000,"state":"active","ping":60},{"user_id":62,"name":"JVLIVS","steam_id":76561198366167099,"connected_time":466000000000,"state":"active","ping":68},{"user_id":64,"name":"Its_azZ","steam_id":76561199220897052,"connected_time":455000000000,"state":"active","ping":106},{"user_id":65,"name":"Pighead_08","steam_id":76561199060466647,"connected_time":454000000000,"state":"active","ping":111}]},{"server_id":52,"name":"Uncletopia | Warsaw | 4 | All Maps","name_short":"waw-4","host":"waw-1.pl.uncletopia.com","port":27045,"enabled":true,"region":"eu","cc":"pl","latitude":52.2297,"longitude":21.017532,"reserved":0,"last_update":"0001-01-01T00:00:00Z","name_a2s":"Uncletopia | Warsaw | 4 | All Maps","protocol":17,"map":"koth_harvest_final","folder":"tf","game":"Team Fortress","app_id":440,"player_count":3,"max_players":24,"Bots":0,"server_type":"Dedicated","server_os":"Linux","password":true,"vac":true,"version":"7961495","steam_id":85568392925397853,"keywords":["cp","nocrits","nodmgspread","uncletopia"],"game_id":440,"stv_port":27046,"stv_name":"Uncletopia | Warsaw | 4 | All Maps | STV","players":[{"user_id":37,"name":"realguy","steam_id":76561198821743257,"connected_time":592000000000,"state":"active","ping":91},{"user_id":31,"name":"julek.tymek","steam_id":76561198059093414,"connected_time":1511000000000,"state":"active","ping":35},{"user_id":35,"name":"jjkun786","steam_id":76561199438517484,"connected_time":696000000000,"state":"active","ping":71}]},{"server_id":53,"name":"Uncletopia | Warsaw | 5 | Stopwatch","name_short":"waw-5","host":"waw-1.pl.uncletopia.com","port":27055,"enabled":true,"region":"eu","cc":"pl","latitude":52.2297,"longitude":21.017532,"reserved":0,"last_update":"0001-01-01T00:00:00Z","name_a2s":"Uncletopia | Warsaw | 5 | Stopwatch","protocol":17,"map":"pl_swiftwater_final1","folder":"tf","game":"Team Fortress","app_id":440,"player_count":0,"max_players":24,"Bots":0,"server_type":"Dedicated","server_os":"Linux","password":true,"vac":true,"version":"7961495","steam_id":85568392925397854,"keywords":["nocrits","nodmgspread","payload","uncletopia"],"game_id":440,"stv_port":27056,"stv_name":"Uncletopia | Warsaw | 5 | Stopwatch | STV","players":null},{"server_id":54,"name":"Uncletopia | Warsaw | 6 | Community","name_short":"waw-6","host":"waw-1.pl.uncletopia.com","port":27065,"enabled":true,"region":"eu","cc":"pl","latitude":52.2297,"longitude":21.017532,"reserved":0,"last_update":"0001-01-01T00:00:00Z","name_a2s":"Uncletopia | Warsaw | 6 | Community","protocol":17,"map":"workshop/pl_badwater_pro_v12.ugc2142942074","folder":"tf","game":"Team Fortress","app_id":440,"player_count":0,"max_players":24,"Bots":0,"server_type":"Dedicated","server_os":"Linux","password":true,"vac":true,"version":"7961495","steam_id":85568392925397856,"keywords":["nocrits","nodmgspread","payload","uncletopia"],"game_id":440,"stv_port":27066,"stv_name":"Uncletopia | Warsaw | 6 | Community | STV","players":null}]}