{"status":true,"message":"","result":[{"server_id":9,"name":"Uncletopia | Atlanta | 1 | All Maps","name_short":"atl-1","host":"atl-1.us.uncletopia.com","port":27015,"enabled":true,"region":"us-east","cc":"us","latitude":33.753746,"longitude":-84.38633,"reserved":0,"last_update":"0001-01-01T00:00:00Z","name_a2s":"Uncletopia | Atlanta | 1 | All Maps","protocol":17,"map":"pl_snowycoast","folder":"tf","game":"Team Fortress","app_id":440,"player_count":24,"max_players":24,"Bots":0,"server_type":"Dedicated","server_os":"Linux","password":true,"vac":true,"version":"7961495","steam_id":85568392924469982,"keywords":["nocrits","nodmgspread","payload","uncletopia"],"game_id":440,"stv_port":27016,"stv_name":"Uncletopia | Atlanta | 1 | All Maps | STV","players":[{"user_id":73,"name":"metalfan666","steam_id":76561198386344068,"connected_time":496000000000,"state":"active","ping":75},{"user_id":64,"name":"Bobletoob","steam_id":76561199184464900,"connected_time":1302000000000,"state":"active","ping":102},{"user_id":58,"name":"Xavibite","steam_id":76561198209380493,"connected_time":1543000000000,"state":"active","ping":61},{"user_id":75,"name":"felon","steam_id":76561199100342013,"connected_time":311000000000,"state":"active","ping":93},{"user_id":56,"name":"Armstrong Dicksmasher™","steam_id":76561198020925352,"connected_time":1559000000000,"state":"active","ping":81},{"user_id":69,"name":"joyeuxnoelle","steam_id":76561198062423120,"connected_time":1098000000000,"state":"active","ping":68},{"user_id":57,"name":"Maestro","steam_id":76561198157325020,"connected_time":1554000000000,"state":"active","ping":59},{"user_id":14,"name":"KrashBoomBang","steam_id":76561199002978777,"connected_time":4466000000000,"state":"active","ping":74},{"user_id":49,"name":"Du_Laitborer","steam_id":76561198197209646,"connected_time":2258000000000,"state":"active","ping":64},{"user_id":65,"name":"orks is da best","steam_id":76561199039152146,"connected_time":1288000000000,"state":"active","ping":76},{"user_id":17,"name":"Blackwing","steam_id":76561198225732032,"connected_time":4325000000000,"state":"active","ping":53},{"user_id":66,"name":"sansa musa","steam_id":76561198163723555,"connected_time":1226000000000,"state":"active","ping":68},{"user_id":70,"name":"Singular Rooster","steam_id":76561197983872657,"connected_time":941000000000,"state":"active","ping":51},{"user_id":50,"name":"Uncle Leo From Seinfeld (Real)","steam_id":76561199102009679,"connected_time":2247000000000,"state":"active","ping":81},{"user_id":67,"name":"Hulkster","steam_id":76561198278156353,"connected_time":1209000000000,"state":"active","ping":125},{"user_id":26,"name":"totoro","steam_id":76561198210420871,"connected_time":4081000000000,"state":"active","ping":69},{"user_id":33,"name":"Hel1oHiBye","steam_id":76561199101173899,"connected_time":3748000000000,"state":"active","ping":111},{"user_id":72,"name":"Jin Gulilo","steam_id":76561198065151242,"connected_time":516000000000,"state":"active","ping":68},{"user_id":60,"name":"lurid","steam_id":76561199134999203,"connected_time":1526000000000,"state":"active","ping":59},{"user_id":41,"name":"Ok-Par","steam_id":76561199221067945,"connected_time":3088000000000,"state":"active","ping":70},{"user_id":74,"name":"-_-","steam_id":76561198302976864,"connected_time":420000000000,"state":"active","ping":65},{"user_id":68,"name":"skullface","steam_id":76561198353704776,"connected_time":1200000000000,"state":"active","ping":60},{"user_id":38,"name":"Yeetachu","steam_id":76561199477430076,"connected_time":3229000000000,"state":"active","ping":65},{"user_id":53,"name":"cheesebro","steam_id":76561198002072852,"connected_time":2206000000000,"state":"active","ping":101}]},{"server_id":104,"name":"Uncletopia | Atlanta | 2 | All Maps","name_short":"atl-2","host":"atl-1.us.uncletopia.com","port":27025,"enabled":true,"region":"us-east","cc":"us","latitude":33.753746,"longitude":-84.38633,"reserved":0,"last_update":"0001-01-01T00:00:00Z","name_a2s":"Uncletopia | Atlanta | 2 | All Maps","protocol":17,"map":"pl_borneo","folder":"tf","game":"Team Fortress","app_id":440,"player_count":24,"max_players":24,"Bots":0,"server_type":"Dedicated","server_os":"Linux","password":true,"vac":true,"version":"7961495","steam_id":85568392924469983,"keywords":["nocrits","nodmgspread","payload","uncletopia"],"game_id":440,"stv_port":27026,"stv_name":"Uncletopia | Atlanta | 2 | All Maps | STV","players":[{"user_id":22,"name":"biel","steam_id":76561199063153084,"connected_time":1758000000000,"state":"active","ping":182},{"user_id":28,"name":"showblown","steam_id":76561199211861730,"connected_time":1259000000000,"state":"active","ping":99},{"user_id":9,"name":"chiswola","steam_id":76561198046920142,"connected_time":2804000000000,"state":"active","ping":85},{"user_id":34,"name":"Ginger Jesus","steam_id":76561198052386458,"connected_time":957000000000,"state":"active","ping":62},{"user_id":32,"name":"Dr. Bobo","steam_id":76561198271696761,"connected_time":1164000000000,"state":"active","ping":73},{"user_id":47,"name":"Whompert","steam_id":76561198042939624,"connected_time":0,"state":"spawning","ping":11},{"user_id":16,"name":"Sydney [bot killer]","steam_id":76561198873792876,"connected_time":2130000000000,"state":"active","ping":75},{"user_id":45,"name":"Kiss Master","steam_id":76561198289572271,"connected_time":447000000000,"state":"active","ping":63},{"user_id":15,"name":"Zero Tech","steam_id":76561199257316028,"connected_time":2479000000000,"state":"active","ping":73},{"user_id":17,"name":"POPcornPlay89 | blw.tf","steam_id":76561198837437794,"connected_time":2118000000000,"state":"active","ping":98},{"user_id":18,"name":"Oxygen User","steam_id":76561199111975528,"connected_time":2052000000000,"state":"active","ping":62},{"user_id":29,"name":"Ranch Style Beans","steam_id":76561198126791566,"connected_time":1233000000000,"state":"active","ping":81},{"user_id":38,"name":"IM@S! Kael","steam_id":76561197971968764,"connected_time":917000000000,"state":"active","ping":81},{"user_id":21,"name":"Stolas ♥","steam_id":76561198835430280,"connected_time":2019000000000,"state":"active","ping":73},{"user_id":44,"name":"pasqual","steam_id":76561198888816510,"connected_time":458000000000,"state":"active","ping":72},{"user_id":46,"name":"Dick to ball ratio","steam_id":76561198072205512,"connected_time":429000000000,"state":"active","ping":91},{"user_id":27,"name":"Shmiel","steam_id":76561198175734166,"connected_time":1412000000000,"state":"active","ping":67},{"user_id":35,"name":"name420","steam_id":76561198129374525,"connected_time":935000000000,"state":"active","ping":46},{"user_id":33,"name":"mister slippery","steam_id":76561198057076267,"connected_time":1133000000000,"state":"active","ping":76},{"user_id":36,"name":"The_atom_bomb","steam_id":76561198139944683,"connected_time":918000000000,"state":"active","ping":75},{"user_id":37,"name":"antomas lake","steam_id":76561198319995689,"connected_time":918000000000,"state":"active","ping":92},{"user_id":39,"name":"The Convention","steam_id":76561198445006943,"connected_time":856000000000,"state":"active","ping":96},{"user_id":40,"name":"non_ai","steam_id":76561198270951938,"connected_time":850000000000,"state":"active","ping":60},{"user_id":43,"name":"chrisd149","steam_id":76561198018710480,"connected_time":619000000000,"state":"active","ping":64}]},{"server_id":400,"name":"Uncletopia | Atlanta | 3 | Stopwatch","name_short":"atl-3","host":"atl-1.us.uncletopia.com","port":27035,"enabled":true,"region":"us-east","cc":"us","latitude":33.753746,"longitude":-84.38633,"reserved":0,"last_update":"0001-01-01T00:00:00Z","name_a2s":"Uncletopia | Atlanta | 3 | Stopwatch","protocol":17,"map":"workshop/pl_badwater_pro_v12.ugc2142942074","folder":"tf","game":"Team Fortress","app_id":440,"player_count":0,"max_players":24,"Bots":0,"server_type":"Dedicated","server_os":"Linux","password":true,"vac":true,"version":"7961495","steam_id":85568392924515187,"keywords":["nocrits","nodmgspread","payload","uncletopia"],"game_id":440,"stv_port":27036,"stv_name":"Uncletopia | Atlanta | 3 | Stopwatch | STV","players":null},{"server_id":401,"name":"Uncletopia | Atlanta | 4 | Community","name_short":"atl-4","host":"atl-1.us.uncletopia.com","port":27045,"enabled":true,"region":"us-east","cc":"us","latitude":33.753746,"longitude":-84.38633,"reserved":0,"last_update":"0001-01-01T00:00:00Z","name_a2s":"Uncletopia | Atlanta | 4 | Community","protocol":17,"map":"workshop/pl_phoenix_b4a.ugc2969509359","folder":"tf","game":"Team Fortress","app_id":440,"player_count":0,"max_players":24,"Bots":0,"server_type":"Dedicated","server_os":"Linux","password":true,"vac":true,"version":"7961495","steam_id":85568392924515188,"keywords":["nocrits","nodmgspread","payload","uncletopia"],"game_id":440,"stv_port":27046,"stv_name":"Uncletopia | Atlanta | 4 | Community | STV","players":null},{"server_id":2,"name":"Uncletopia | Chicago | 1 | All Maps","name_short":"chi-1","host":"chi-1.us.uncletopia.com","port":27015,"enabled":true,"region":"us-central","cc":"us","latitude":41.881832,"longitude":-87.62318,"reserved":0,"last_update":"0001-01-01T00:00:00Z","name_a2s":"Uncletopia | Chicago | 1 | All Maps","protocol":17,"map":"pl_swiftwater_final1","folder":"tf","game":"Team Fortress","app_id":440,"player_count":24,"max_players":24,"Bots":0,"server_type":"Dedicated","server_os":"Linux","password":true,"vac":true,"version":"7961495","steam_id":85568392924469984,"keywords":["nocrits","nodmgspread","payload","uncletopia"],"game_id":440,"stv_port":27016,"stv_name":"Uncletopia | Chicago | 1 | All Maps | STV","players":[{"user_id":149,"name":"Bonk","steam_id":76561198138107407,"connected_time":1518000000000,"state":"active","ping":64},{"user_id":75,"name":"Dr.Zarann","steam_id":76561198163952958,"connected_time":7106000000000,"state":"active","ping":107},{"user_id":130,"name":"Farmer2145","steam_id":76561198217084115,"connected_time":3114000000000,"state":"active","ping":77},{"user_id":168,"name":"beep","steam_id":76561199096448766,"connected_time":111000000000,"state":"active","ping":70},{"user_id":123,"name":"Shark In Awe","steam_id":76561198032663494,"connected_time":3576000000000,"state":"active","ping":67},{"user_id":128,"name":"rat eater","steam_id":76561199216874750,"connected_time":3388000000000,"state":"active","ping":54},{"user_id":154,"name":"War on Drugs Fighter","steam_id":76561198103211035,"connected_time":994000000000,"state":"active","ping":60},{"user_id":163,"name":"YOU WHAT?!","steam_id":76561198418679471,"connected_time":478000000000,"state":"active","ping":60},{"user_id":139,"name":"ThatGamingKiwi","steam_id":76561199170522237,"connected_time":2393000000000,"state":"active","ping":97},{"user_id":161,"name":"comfy.","steam_id":76561198008818346,"connected_time":515000000000,"state":"active","ping":81},{"user_id":158,"name":"Mr. Luggy","steam_id":76561198072723392,"connected_time":917000000000,"state":"active","ping":92},{"user_id":136,"name":"Zozbieta","steam_id":76561198010336265,"connected_time":2910000000000,"state":"active","ping":85},{"user_id":159,"name":"snugglebug","steam_id":76561199489391928,"connected_time":642000000000,"state":"active","ping":59},{"user_id":157,"name":"Pixler544","steam_id":76561198240575132,"connected_time":939000000000,"state":"active","ping":71},{"user_id":145,"name":"Raz","steam_id":76561198002426150,"connected_time":1864000000000,"state":"active","ping":75},{"user_id":162,"name":"Not_Douglas","steam_id":76561199024184136,"connected_time":492000000000,"state":"active","ping":50},{"user_id":153,"name":"XtraCrums","steam_id":76561199230212648,"connected_time":1220000000000,"state":"active","ping":71},{"user_id":129,"name":"Jon Allen","steam_id":76561199014634984,"connected_time":3280000000000,"state":"active","ping":74},{"user_id":160,"name":"Im totally a hacker","steam_id":76561198888005736,"connected_time":593000000000,"state":"active","ping":74},{"user_id":141,"name":"gmaay","steam_id":76561199104911185,"connected_time":2290000000000,"state":"active","ping":66},{"user_id":165,"name":"ts","steam_id":76561198384120999,"connected_time":452000000000,"state":"active","ping":82},{"user_id":84,"name":"HarryjusttHarry","steam_id":76561198982810452,"connected_time":6381000000000,"state":"active","ping":80},{"user_id":135,"name":"Seducktive","steam_id":76561198003267177,"connected_time":3077000000000,"state":"active","ping":89},{"user_id":107,"name":"freyja","steam_id":76561198249206656,"connected_time":5330000000000,"state":"active","ping":65}]},{"server_id":106,"name":"Uncletopia | Chicago | 2 | All Maps","name_short":"chi-2","host":"chi-1.us.uncletopia.com","port":27025,"enabled":true,"region":"us-central","cc":"us","latitude":41.881832,"longitude":-87.62318,"reserved":0,"last_update":"0001-01-01T00:00:00Z","name_a2s":"Uncletopia | Chicago | 2 | All Maps","protocol":17,"map":"koth_harvest_final","folder":"tf","game":"Team Fortress","app_id":440,"player_count":9,"max_players":24,"Bots":0,"server_type":"Dedicated","server_os":"Linux","password":true,"vac":true,"version":"7961495","steam_id":85568392924469985,"keywords":["cp","nocrits","nodmgspread","uncletopia"],"game_id":440,"stv_port":27026,"stv_name":"Uncletopia | Chicago | 2 | All Maps | STV","players":[{"user_id":12,"name":"MagicCraftMaster","steam_id":76561198179156615,"connected_time":824000000000,"state":"active","ping":66},{"user_id":13,"name":"Harry Spotter","steam_id":76561198115714484,"connected_time":524000000000,"state":"active","ping":108},{"user_id":18,"name":"Shadowwalker","steam_id":76561198344642637,"connected_time":81000000000,"state":"active","ping":85},{"user_id":15,"name":"Drachma","steam_id":76561198007310514,"connected_time":239000000000,"state":"active","ping":52},{"user_id":16,"name":"Taskrabbits","steam_id":76561198366682546,"connected_time":163000000000,"state":"active","ping":84},{"user_id":17,"name":"Jeffrey Steel, FBI","steam_id":76561198863619592,"connected_time":158000000000,"state":"active","ping":64},{"user_id":22,"name":"DanFango","steam_id":76561198078300753,"connected_time":10000000000,"state":"spawning","ping":59},{"user_id":20,"name":"Mr. Tickle","steam_id":76561198126684647,"connected_time":75000000000,"state":"active","ping":57},{"user_id":21,"name":"crox","steam_id":76561199024792831,"connected_time":40000000000,"state":"active","ping":59}]},{"server_id":402,"name":"Uncletopia | Chicago | 3 | All Maps","name_short":"chi-3","host":"chi-1.us.uncletopia.com","port":27035,"enabled":true,"region":"us-central","cc":"us","latitude":41.881832,"longitude":-87.62318,"reserved":0,"last_update":"0001-01-01T00:00:00Z","name_a2s":"Uncletopia | Chicago | 3 | All Maps","protocol":17,"map":"pl_barnblitz","folder":"tf","game":"Team Fortress","app_id":440,"player_count":0,"max_players":24,"Bots":0,"server_type":"Dedicated","server_os":"Linux","password":true,"vac":true,"version":"7961495","steam_id":85568392924515191,"keywords":["nocrits","nodmgspread","payload","uncletopia"],"game_id":440,"stv_port":27036,"stv_name":"Uncletopia | Chicago | 3 | All Maps | STV","players":null},{"server_id":403,"name":"Uncletopia | Chicago | 4 | All Maps","name_short":"chi-4","host":"chi-1.us.uncletopia.com","port":27045,"enabled":true,"region":"us-central","cc":"us","latitude":41.881832,"longitude":-87.62318,"reserved":0,"last_update":"0001-01-01T00:00:00Z","name_a2s":"Uncletopia | Chicago | 4 | All Maps","protocol":17,"map":"pl_snowycoast","folder":"tf","game":"Team Fortress","app_id":440,"player_count":22,"max_players":24,"Bots":0,"server_type":"Dedicated","server_os":"Linux","password":true,"vac":true,"version":"7961495","steam_id":85568392924515193,"keywords":["nocrits","nodmgspread","payload","uncletopia"],"game_id":440,"stv_port":27046,"stv_name":"Uncletopia | Chicago | 4 | All Maps | STV","players":[{"user_id":49,"name":"Goomby","steam_id":76561198079416561,"connected_time":646000000000,"state":"active","ping":106},{"user_id":33,"name":"Jimbo Jones","steam_id":76561198031493107,"connected_time":1652000000000,"state":"active","ping":84},{"user_id":18,"name":"bleach65","steam_id":76561198115270571,"connected_time":2619000000000,"state":"active","ping":76},{"user_id":50,"name":"RyCeBread","steam_id":76561198152822390,"connected_time":218000000000,"state":"active","ping":46},{"user_id":19,"name":"eyes on the prize","steam_id":76561198184076165,"connected_time":2542000000000,"state":"active","ping":141},{"user_id":22,"name":"Grop Noise","steam_id":76561198145445403,"connected_time":2184000000000,"state":"active","ping":46},{"user_id":14,"name":"King Blaze","steam_id":76561198327492856,"connected_time":3118000000000,"state":"active","ping":56},{"user_id":51,"name":"Ghost","steam_id":76561198110914180,"connected_time":60000000000,"state":"active","ping":186},{"user_id":21,"name":"TOBY!!!","steam_id":76561199380822531,"connected_time":2471000000000,"state":"spawning","ping":49},{"user_id":52,"name":"Pyronautica","steam_id":76561198032490218,"connected_time":16000000000,"state":"spawning","ping":89},{"user_id":53,"name":"floppy muppet","steam_id":76561198003076261,"connected_time":15000000000,"state":"active","ping":62},{"user_id":54,"name":"gothpapa","steam_id":76561198452122510,"connected_time":2000000000,"state":"spawning","ping":53},{"user_id":30,"name":"Satchamo","steam_id":76561198012968239,"connected_time":1830000000000,"state":"active","ping":70},{"user_id":32,"name":"William Lovett","steam_id":76561197991063996,"connected_time":1714000000000,"state":"active","ping":44},{"user_id":38,"name":"bcizzo","steam_id":76561197994399953,"connected_time":1344000000000,"state":"active","ping":92},{"user_id":43,"name":"Rouslen","steam_id":76561198258136676,"connected_time":1241000000000,"state":"active","ping":135},{"user_id":40,"name":"Starkiller","steam_id":76561198101643120,"connected_time":1330000000000,"state":"active","ping":88},{"user_id":41,"name":"Menacing","steam_id":76561198009093788,"connected_time":1328000000000,"state":"active","ping":54},{"user_id":42,"name":"meow","steam_id":76561199027265733,"connected_time":1322000000000,"state":"active","ping":70},{"user_id":44,"name":"Chris P. Bacon","steam_id":76561198000851038,"connected_time":1224000000000,"state":"active","ping":67},{"user_id":45,"name":"das forscher","steam_id":76561197981952334,"connected_time":1202000000000,"state":"active","ping":60},{"user_id":48,"name":"totally nuts","steam_id":76561198072856511,"connected_time":871000000000,"state":"active","ping":62}]},{"server_id":36,"name":"Uncletopia | Chicago | 5 | All Maps","name_short":"chi-5","host":"chi-2.us.uncletopia.com","port":27015,"enabled":true,"region":"us-central","cc":"us","latitude":41.881832,"longitude":-87.62318,"reserved":0,"last_update":"0001-01-01T00:00:00Z","name_a2s":"Uncletopia | Chicago | 5 | All Maps","protocol":17,"map":"cp_mercenarypark","folder":"tf","game":"Team Fortress","app_id":440,"player_count":0,"max_players":24,"Bots":0,"server_type":"Dedicated","server_os":"Linux","password":true,"vac":true,"version":"7961495","steam_id":85568392924866362,"keywords":["cp","nocrits","nodmgspread","uncletopia"],"game_id":440,"stv_port":27016,"stv_name":"Uncletopia | Chicago | 5 | All Maps | STV","players":null},{"server_id":37,"name":"Uncletopia | Chicago | 6 | All Maps","name_short":"chi-6","host":"chi-2.us.uncletopia.com","port":27025,"enabled":true,"region":"us-central","cc":"us","latitude":41.881832,"longitude":-87.62318,"reserved":0,"last_update":"0001-01-01T00:00:00Z","name_a2s":"Uncletopia | Chicago | 6 | All Maps","protocol":17,"map":"pl_swiftwater_final1","folder":"tf","game":"Team Fortress","app_id":440,"player_count":0,"max_players":24,"Bots":0,"server_type":"Dedicated","server_os":"Linux","password":true,"vac":true,"version":"7961495","steam_id":85568392924866363,"keywords":["nocrits","nodmgspread","payload","uncletopia"],"game_id":440,"stv_port":27026,"stv_name":"Uncletopia | Chicago | 6 | All Maps | STV","players":null},{"server_id":38,"name":"Uncletopia | Chicago | 7 | Stopwatch","name_short":"chi-7","host":"chi-2.us.uncletopia.com","port":27035,"enabled":true,"region":"us-central","cc":"us","latitude":41.881832,"longitude":-87.62318,"reserved":0,"last_update":"0001-01-01T00:00:00Z","name_a2s":"Uncletopia | Chicago | 7 | Stopwatch","protocol":17,"map":"workshop/pl_summercoast_rc8e.ugc1761528829","folder":"tf","game":"Team Fortress","app_id":440,"player_count":0,"max_players":24,"Bots":0,"server_type":"Dedicated","server_os":"Linux","password":true,"vac":true,"version":"7961495","steam_id":85568392924866364,"keywords":["nocrits","nodmgspread","payload","uncletopia"],"game_id":440,"stv_port":27036,"stv_name":"Uncletopia | Chicago | 7 | Stopwatch | STV","players":null},{"server_id":39,"name":"Uncletopia | Chicago | 8 | Community","name_short":"chi-8","host":"chi-2.us.uncletopia.com","port":27045,"enabled":true,"region":"us-central","cc":"us","latitude":41.881832,"longitude":-87.62318,"reserved":0,"last_update":"0001-01-01T00:00:00Z","name_a2s":"Uncletopia | Chicago | 8 | Community","protocol":17,"map":"workshop/cp_caldera_rc3.ugc2834196889","folder":"tf","game":"Team Fortress","app_id":440,"player_count":0,"max_players":24,"Bots":0,"server_type":"Dedicated","server_os":"Linux","password":true,"vac":true,"version":"7961495","steam_id":85568392924866365,"keywords":["cp","nocrits","nodmgspread","uncletopia"],"game_id":440,"stv_port":27046,"stv_name":"Uncletopia | Chicago | 8 | Community | STV","players":null},{"server_id":8,"name":"Uncletopia | Dallas | 1 | All Maps","name_short":"dal-1","host":"dal-1.us.uncletopia.com","port":27015,"enabled":true,"region":"us-central","cc":"us","latitude":32.779167,"longitude":-96.80889,"reserved":0,"last_update":"0001-01-01T00:00:00Z","name_a2s":"Uncletopia | Dallas | 1 | All Maps","protocol":17,"map":"pl_pier","folder":"tf","game":"Team Fortress","app_id":440,"player_count":0,"max_players":24,"Bots":0,"server_type":"Dedicated","server_os":"Linux","password":true,"vac":true,"version":"7961495","steam_id":85568392924469986,"keywords":["nocrits","nodmgspread","payload","uncletopia"],"game_id":440,"stv_port":27016,"stv_name":"Uncletopia | Dallas | 1 | All Maps | STV","players":null},{"server_id":108,"name":"Uncletopia | Dallas | 2 | All Maps","name_short":"dal-2","host":"dal-1.us.uncletopia.com","port":27025,"enabled":true,"region":"us-central","cc":"us","latitude":32.779167,"longitude":-96.80889,"reserved":0,"last_update":"0001-01-01T00:00:00Z","name_a2s":"Uncletopia | Dallas | 2 | All Maps","protocol":17,"map":"cp_freight_final1","folder":"tf","game":"Team Fortress","app_id":440,"player_count":0,"max_players":24,"Bots":0,"server_type":"Dedicated","server_os":"Linux","password":true,"vac":true,"version":"7961495","steam_id":85568392924469988,"keywords":["cp","nocrits","nodmgspread","uncletopia"],"game_id":440,"stv_port":27026,"stv_name":"Uncletopia | Dallas | 2 | All Maps | STV","players":null},{"server_id":404,"name":"Uncletopia | Dallas | 3 | All Maps","name_short":"dal-3","host":"dal-1.us.uncletopia.com","port":27035,"enabled":true,"region":"us-central","cc":"us","latitude":32.779167,"longitude":-96.80889,"reserved":0,"last_update":"0001-01-01T00:00:00Z","name_a2s":"Uncletopia | Dallas | 3 | All Maps","protocol":17,"map":"cp_steel","folder":"tf","game":"Team Fortress","app_id":440,"player_count":22,"max_players":24,"Bots":0,"server_type":"Dedicated","server_os":"Linux","password":true,"vac":true,"version":"7961495","steam_id":85568392924515219,"keywords":["cp","nocrits","nodmgspread","uncletopia"],"game_id":440,"stv_port":27036,"stv_name":"Uncletopia | Dallas | 3 | All Maps | STV","players":[{"user_id":87,"name":"Nitwimp","steam_id":76561198028709054,"connected_time":24000000000,"state":"active","ping":75},{"user_id":41,"name":"orange cat","steam_id":76561198060748016,"connected_time":2618000000000,"state":"active","ping":90},{"user_id":71,"name":"Toripollo","steam_id":76561198251665862,"connected_time":478000000000,"state":"active","ping":98},{"user_id":88,"name":"The Escaper","steam_id":76561198850419297,"connected_time":23000000000,"state":"active","ping":95},{"user_id":73,"name":"redarcher42","steam_id":76561199027887687,"connected_time":416000000000,"state":"active","ping":81},{"user_id":75,"name":"Bohagrius","steam_id":76561198003554034,"connected_time":391000000000,"state":"active","ping":91},{"user_id":85,"name":"hamza","steam_id":76561198996539622,"connected_time":200000000000,"state":"active","ping":67},{"user_id":76,"name":"King K. Rool","steam_id":76561199045033653,"connected_time":375000000000,"state":"active","ping":83},{"user_id":60,"name":"my mom","steam_id":76561199225201569,"connected_time":1519000000000,"state":"active","ping":76},{"user_id":63,"name":"firetamer2","steam_id":76561198040886980,"connected_time":1069000000000,"state":"active","ping":78},{"user_id":86,"name":"Pyrolandian","steam_id":76561199057252600,"connected_time":158000000000,"state":"active","ping":105},{"user_id":64,"name":"reis","steam_id":76561199232952016,"connected_time":1067000000000,"state":"active","ping":174},{"user_id":78,"name":"malice","steam_id":76561198208849751,"connected_time":359000000000,"state":"active","ping":77},{"user_id":79,"name":"Wang of Wall St","steam_id":76561198047460598,"connected_time":355000000000,"state":"active","ping":91},{"user_id":89,"name":"kratomSnorter.1quarter","steam_id":76561198946987511,"connected_time":3000000000,"state":"spawning","ping":75},{"user_id":80,"name":"Chocolate","steam_id":76561199067610053,"connected_time":351000000000,"state":"active","ping":83},{"user_id":81,"name":"Boring","steam_id":76561198827219701,"connected_time":347000000000,"state":"active","ping":181},{"user_id":82,"name":"EmeraldCola","steam_id":76561198066663687,"connected_time":293000000000,"state":"active","ping":82},{"user_id":83,"name":"ScribblyTheScribble","steam_id":76561199446805070,"connected_time":261000000000,"state":"active","ping":88},{"user_id":40,"name":"averde602","steam_id":76561198178858222,"connected_time":2662000000000,"state":"active","ping":83},{"user_id":67,"name":"slowdance","steam_id":76561198097427947,"connected_time":902000000000,"state":"active","ping":121},{"user_id":54,"name":"Type Three Dabeetus","steam_id":76561198062710038,"connected_time":1851000000000,"state":"active","ping":84}]},{"server_id":405,"name":"Uncletopia | Dallas | 4 | Community","name_short":"dal-4","host":"dal-1.us.uncletopia.com","port":27045,"enabled":true,"region":"us-central","cc":"us","latitude":32.779167,"longitude":-96.80889,"reserved":0,"last_update":"0001-01-01T00:00:00Z","name_a2s":"Uncletopia | Dallas | 4 | Community","protocol":17,"map":"workshop/cp_croissant_final.ugc458840209","folder":"tf","game":"Team Fortress","app_id":440,"player_count":0,"max_players":24,"Bots":0,"server_type":"Dedicated","server_os":"Linux","password":true,"vac":true,"version":"7961495","steam_id":85568392924515220,"keywords":["cp","nocrits","nodmgspread","uncletopia"],"game_id":440,"stv_port":27046,"stv_name":"Uncletopia | Dallas | 4 | Community | STV","players":null},{"server_id":5,"name":"Uncletopia | Frankfurt | 1 | All Maps","name_short":"frk-1","host":"frk-1.de.uncletopia.com","port":27015,"enabled":true,"region":"eu","cc":"de","latitude":50.110924,"longitude":8.682127,"reserved":0,"last_update":"0001-01-01T00:00:00Z","name_a2s":"Uncletopia | Frankfurt | 1 | All Maps","protocol":17,"map":"pl_badwater","folder":"tf","game":"Team Fortress","app_id":440,"player_count":24,"max_players":24,"Bots":0,"server_type":"Dedicated","server_os":"Linux","password":true,"vac":true,"version":"7961495","steam_id":85568392924469989,"keywords":["nocrits","nodmgspread","payload","uncletopia"],"game_id":440,"stv_port":27016,"stv_name":"Uncletopia | Frankfurt | 1 | All Maps | STV","players":[{"user_id":154,"name":"Skeletros","steam_id":76561198130969152,"connected_time":6259000000000,"state":"active","ping":134},{"user_id":120,"name":"XPullaHiiri","steam_id":76561198031652375,"connected_time":8568000000000,"state":"active","ping":81},{"user_id":142,"name":"nori","steam_id":76561198099077097,"connected_time":6705000000000,"state":"active","ping":91},{"user_id":177,"name":"DoKo_O","steam_id":76561198028025069,"connected_time":4332000000000,"state":"active","ping":46},{"user_id":206,"name":"404nonamefound","steam_id":76561198354682115,"connected_time":1798000000000,"state":"active","ping":65},{"user_id":203,"name":"Uganda Warrior","steam_id":76561198120502313,"connected_time":2023000000000,"state":"active","ping":55},{"user_id":188,"name":"Chen","steam_id":76561198440363619,"connected_time":2899000000000,"state":"active","ping":45},{"user_id":175,"name":"Höyler","steam_id":76561198082177314,"connected_time":4399000000000,"state":"active","ping":75},{"user_id":198,"name":"kenzou","steam_id":76561199180054996,"connected_time":2401000000000,"state":"active","ping":70},{"user_id":226,"name":"Cencut","steam_id":76561198989449047,"connected_time":146000000000,"state":"active","ping":121},{"user_id":202,"name":"snayke","steam_id":76561198077822932,"connected_time":2204000000000,"state":"active","ping":68},{"user_id":209,"name":"Hoff","steam_id":76561198138540938,"connected_time":1541000000000,"state":"active","ping":82},{"user_id":217,"name":"JepCabestany","steam_id":76561198123812578,"connected_time":589000000000,"state":"active","ping":91},{"user_id":225,"name":"Jeremy265","steam_id":76561199004316549,"connected_time":210000000000,"state":"active","ping":122},{"user_id":173,"name":"Franz_","steam_id":76561199167103120,"connected_time":4738000000000,"state":"active","ping":55},{"user_id":223,"name":"The economy","steam_id":76561198358275344,"connected_time":298000000000,"state":"active","ping":66},{"user_id":200,"name":"walluu","steam_id":76561198121830870,"connected_time":2338000000000,"state":"active","ping":75},{"user_id":158,"name":"Gordon Birdman","steam_id":76561198013382324,"connected_time":6029000000000,"state":"active","ping":75},{"user_id":227,"name":"Entity from Hell","steam_id":76561199174310124,"connected_time":126000000000,"state":"active","ping":155},{"user_id":210,"name":"Frankus McSpankus","steam_id":76561198945408096,"connected_time":1537000000000,"state":"active","ping":151},{"user_id":194,"name":"Anti-Capitalist Weapon","steam_id":76561198143526071,"connected_time":2672000000000,"state":"active","ping":61},{"user_id":205,"name":"Accident","steam_id":76561198115160396,"connected_time":1892000000000,"state":"active","ping":68},{"user_id":208,"name":"yodel","steam_id":76561198138777659,"connected_time":1733000000000,"state":"active","ping":70},{"user_id":222,"name":"Struix","steam_id":76561199413463591,"connected_time":476000000000,"state":"active","ping":85}]},{"server_id":110,"name":"Uncletopia | Frankfurt | 2 | All Maps","name_short":"frk-2","host":"frk-1.de.uncletopia.com","port":27025,"enabled":true,"region":"eu","cc":"de","latitude":50.110924,"longitude":8.682127,"reserved":0,"last_update":"0001-01-01T00:00:00Z","name_a2s":"Uncletopia | Frankfurt | 2 | All Maps","protocol":17,"map":"pl_barnblitz","folder":"tf","game":"Team Fortress","app_id":440,"player_count":23,"max_players":24,"Bots":0,"server_type":"Dedicated","server_os":"Linux","password":true,"vac":true,"version":"7961495","steam_id":85568392924469990,"keywords":["nocrits","nodmgspread","payload","uncletopia"],"game_id":440,"stv_port":27026,"stv_name":"Uncletopia | Frankfurt | 2 | All Maps | STV","players":[{"user_id":104,"name":"BΣNZOIC","steam_id":76561198875665995,"connected_time":1885000000000,"state":"active","ping":71},{"user_id":132,"name":"Dolcelatte","steam_id":76561198038501770,"connected_time":54000000000,"state":"active","ping":53},{"user_id":123,"name":"Mr_Pulse_","steam_id":76561198095001602,"connected_time":421000000000,"state":"active","ping":136},{"user_id":116,"name":"ShiroReal","steam_id":76561198433951684,"connected_time":840000000000,"state":"active","ping":41},{"user_id":112,"name":"BitSpenser","steam_id":76561198001377076,"connected_time":1395000000000,"state":"active","ping":68},{"user_id":125,"name":"enjoyer enjoyer","steam_id":76561198065438030,"connected_time":339000000000,"state":"active","ping":125},{"user_id":126,"name":"Gay Potato","steam_id":76561198018859519,"connected_time":325000000000,"state":"active","ping":74},{"user_id":113,"name":"⨂","steam_id":76561198087800030,"connected_time":1369000000000,"state":"active","ping":45},{"user_id":127,"name":"Froenzi","steam_id":76561198168841723,"connected_time":273000000000,"state":"active","ping":73},{"user_id":106,"name":"Janner","steam_id":76561198127045282,"connected_time":1877000000000,"state":"active","ping":57},{"user_id":129,"name":"GGabe","steam_id":76561198117199068,"connected_time":70000000000,"state":"active","ping":71},{"user_id":131,"name":"malotenbende","steam_id":76561198201171239,"connected_time":62000000000,"state":"active","ping":47},{"user_id":102,"name":"baronne","steam_id":76561198262910410,"connected_time":1916000000000,"state":"active","ping":90},{"user_id":105,"name":"andeddk","steam_id":76561198261869475,"connected_time":1881000000000,"state":"active","ping":86},{"user_id":120,"name":"Rodia","steam_id":76561197968293161,"connected_time":775000000000,"state":"active","ping":62},{"user_id":133,"name":"Milo","steam_id":76561198407461881,"connected_time":33000000000,"state":"active","ping":69},{"user_id":107,"name":"Friendly","steam_id":76561198081388322,"connected_time":1783000000000,"state":"active","ping":142},{"user_id":134,"name":"waffle toaster","steam_id":76561198799089628,"connected_time":20000000000,"state":"spawning","ping":103},{"user_id":115,"name":"Staffy","steam_id":76561198859722036,"connected_time":950000000000,"state":"active","ping":104},{"user_id":108,"name":"shapeshifter","steam_id":76561198052898368,"connected_time":1765000000000,"state":"active","ping":62},{"user_id":55,"name":"steck","steam_id":76561197973948113,"connected_time":5242000000000,"state":"active","ping":47},{"user_id":135,"name":"Rachugh","steam_id":76561199235852578,"connected_time":8000000000,"state":"spawning","ping":159},{"user_id":111,"name":"salmonander","steam_id":76561198104577052,"connected_time":1578000000000,"state":"active","ping":102}]},{"server_id":308,"name":"Uncletopia | Frankfurt | 3 | All Maps","name_short":"frk-3","host":"frk-1.de.uncletopia.com","port":27035,"enabled":true,"region":"eu","cc":"de","latitude":50.110924,"longitude":8.682127,"reserved":0,"last_update":"0001-01-01T00:00:00Z","name_a2s":"Uncletopia | Frankfurt | 3 | All Maps","protocol":17,"map":"koth_lakeside_final","folder":"tf","game":"Team Fortress","app_id":440,"player_count":24,"max_players":24,"Bots":0,"server_type":"Dedicated","server_os":"Linux","password":true,"vac":true,"version":"7961495","steam_id":85568392924504274,"keywords":["cp","nocrits","nodmgspread","uncletopia"],"game_id":440,"stv_port":27036,"stv_name":"Uncletopia | Frankfurt | 3 | All Maps | STV","players":[{"user_id":13,"name":"Mozzaza","steam_id":76561198156316111,"connected_time":3127000000000,"state":"active","ping":151},{"user_id":12,"name":"kid named ringfinger","steam_id":76561198159100379,"connected_time":3354000000000,"state":"active","ping":53},{"user_id":14,"name":"Graham (dog)","steam_id":76561198062668942,"connected_time":2625000000000,"state":"active","ping":46},{"user_id":15,"name":"Moth boy","steam_id":76561198422779449,"connected_time":2519000000000,"state":"active","ping":56},{"user_id":46,"name":"Vorkytaka","steam_id":76561198002998620,"connected_time":183000000000,"state":"active","ping":72},{"user_id":18,"name":"ThellanM","steam_id":76561199014222387,"connected_time":1454000000000,"state":"active","ping":67},{"user_id":19,"name":"dexter","steam_id":76561198937297906,"connected_time":1441000000000,"state":"active","ping":89},{"user_id":20,"name":"Jemixz","steam_id":76561198075766516,"connected_time":1424000000000,"state":"active","ping":66},{"user_id":22,"name":"mexswall","steam_id":76561198075748245,"connected_time":1324000000000,"state":"active","ping":60},{"user_id":33,"name":"Shrimpeee","steam_id":76561199012689768,"connected_time":940000000000,"state":"active","ping":72},{"user_id":34,"name":"breadbear \u003c3","steam_id":76561198036895007,"connected_time":931000000000,"state":"active","ping":80},{"user_id":25,"name":"Amon Gus","steam_id":76561199094540960,"connected_time":1166000000000,"state":"active","ping":55},{"user_id":27,"name":"lumikko","steam_id":76561198112012468,"connected_time":1106000000000,"state":"active","ping":90},{"user_id":42,"name":"scott steiners strongest warrio","steam_id":76561198148888622,"connected_time":738000000000,"state":"active","ping":70},{"user_id":43,"name":"tealoverr.190","steam_id":76561199028497703,"connected_time":487000000000,"state":"active","ping":104},{"user_id":30,"name":"[ITA]Stioppen","steam_id":76561198177658715,"connected_time":1000000000000,"state":"active","ping":75},{"user_id":45,"name":"HumorlessButton","steam_id":76561198170128638,"connected_time":319000000000,"state":"active","ping":53},{"user_id":32,"name":"Volt","steam_id":76561198237074532,"connected_time":990000000000,"state":"active","ping":108},{"user_id":35,"name":"only1indigo","steam_id":76561198380193071,"connected_time":923000000000,"state":"active","ping":60},{"user_id":36,"name":"NoName","steam_id":76561198108612230,"connected_time":921000000000,"state":"active","ping":83},{"user_id":38,"name":"lugi","steam_id":76561198026903673,"connected_time":884000000000,"state":"active","ping":55},{"user_id":39,"name":"literallyjasonx","steam_id":76561198835895387,"connected_time":871000000000,"state":"active","ping":76},{"user_id":40,"name":"tired","steam_id":76561198046838168,"connected_time":871000000000,"state":"active","ping":46},{"user_id":44,"name":"Oviraptor Supreme","steam_id":76561198044262534,"connected_time":400000000000,"state":"active","ping":165}]},{"server_id":309,"name":"Uncletopia | Frankfurt | 4 | All Maps","name_short":"frk-4","host":"frk-1.de.uncletopia.com","port":27045,"enabled":true,"region":"eu","cc":"de","latitude":50.110924,"longitude":8.682127,"reserved":0,"last_update":"0001-01-01T00:00:00Z","name_a2s":"Uncletopia | Frankfurt | 4 | All Maps","protocol":17,"map":"pl_frontier_final","folder":"tf","game":"Team Fortress","app_id":440,"player_count":24,"max_players":24,"Bots":0,"server_type":"Dedicated","server_os":"Linux","password":true,"vac":true,"version":"7961495","steam_id":85568392924504275,"keywords":["nocrits","nodmgspread","payload","uncletopia"],"game_id":440,"stv_port":27046,"stv_name":"Uncletopia | Frankfurt | 4 | All Maps | STV","players":[{"user_id":146,"name":".l.","steam_id":76561198343328308,"connected_time":1410000000000,"state":"active","ping":46},{"user_id":158,"name":"AI | Davidoscki","steam_id":76561198129166046,"connected_time":1205000000000,"state":"active","ping":86},{"user_id":147,"name":"CHarteneq","steam_id":76561198864628434,"connected_time":1405000000000,"state":"active","ping":75},{"user_id":125,"name":"General Solemani from TF2","steam_id":76561198261001389,"connected_time":2974000000000,"state":"active","ping":46},{"user_id":167,"name":"Gator","steam_id":76561198065624683,"connected_time":790000000000,"state":"active","ping":85},{"user_id":170,"name":"Tanuki San","steam_id":76561198432638733,"connected_time":325000000000,"state":"active","ping":77},{"user_id":135,"name":"jonas","steam_id":76561198883559477,"connected_time":2306000000000,"state":"active","ping":63},{"user_id":169,"name":"jur","steam_id":76561198096189399,"connected_time":382000000000,"state":"active","ping":47},{"user_id":150,"name":"Wolfy","steam_id":76561198077232111,"connected_time":1330000000000,"state":"active","ping":71},{"user_id":126,"name":"Hussain_144","steam_id":76561198346029208,"connected_time":2970000000000,"state":"active","ping":176},{"user_id":171,"name":"I Love Filtered Water","steam_id":76561198016042113,"connected_time":24000000000,"state":"active","ping":69},{"user_id":74,"name":"anders McFlanders","steam_id":76561198022811995,"connected_time":6698000000000,"state":"active","ping":58},{"user_id":153,"name":"halo_66","steam_id":76561198085471286,"connected_time":1298000000000,"state":"active","ping":68},{"user_id":154,"name":"poovy","steam_id":76561198334992772,"connected_time":1293000000000,"state":"active","ping":95},{"user_id":54,"name":"I-I","steam_id":76561198267969436,"connected_time":8299000000000,"state":"active","ping":57},{"user_id":164,"name":"dumo dumo","steam_id":76561198346638308,"connected_time":901000000000,"state":"active","ping":59},{"user_id":114,"name":"FLAKEZ4REAL","steam_id":76561197978361391,"connected_time":3617000000000,"state":"active","ping":58},{"user_id":168,"name":"Spinach Loving Elkman Steve","steam_id":76561198861519418,"connected_time":554000000000,"state":"active","ping":88},{"user_id":115,"name":"ZANNABLUKE","steam_id":76561198013534336,"connected_time":3545000000000,"state":"active","ping":55},{"user_id":165,"name":"Célério","steam_id":76561198088253576,"connected_time":874000000000,"state":"active","ping":44},{"user_id":139,"name":"888888888","steam_id":76561198163081194,"connected_time":2163000000000,"state":"active","ping":59},{"user_id":142,"name":"Saihtama","steam_id":76561198067497192,"connected_time":1844000000000,"state":"active","ping":87},{"user_id":159,"name":"nordstream bomber","steam_id":76561199401283123,"connected_time":1205000000000,"state":"active","ping":65},{"user_id":160,"name":"y0stErCix","steam_id":76561198219698192,"connected_time":1203000000000,"state":"active","ping":61}]},{"server_id":310,"name":"Uncletopia | Frankfurt | 5 | All Maps","name_short":"frk-5","host":"frk-1.de.uncletopia.com","port":27055,"enabled":true,"region":"eu","cc":"de","latitude":50.110924,"longitude":8.682127,"reserved":0,"last_update":"0001-01-01T00:00:00Z","name_a2s":"Uncletopia | Frankfurt | 5 | All Maps","protocol":17,"map":"cp_sunshine","folder":"tf","game":"Team Fortress","app_id":440,"player_count":4,"max_players":24,"Bots":0,"server_type":"Dedicated","server_os":"Linux","password":true,"vac":true,"version":"7961495","steam_id":85568392924504277,"keywords":["cp","nocrits","nodmgspread","uncletopia"],"game_id":440,"stv_port":27056,"stv_name":"Uncletopia | Frankfurt | 5 | All Maps | STV","players":[{"user_id":236,"name":"WIZARD","steam_id":76561198199570742,"connected_time":219000000000,"state":"active","ping":94},{"user_id":237,"name":"k.","steam_id":76561198258197649,"connected_time":212000000000,"state":"active","ping":77},{"user_id":239,"name":"hammertime","steam_id":76561199097714393,"connected_time":52000000000,"state":"active","ping":127},{"user_id":240,"name":"mokau","steam_id":76561199150622722,"connected_time":24000000000,"state":"spawning","ping":74}]},{"server_id":311,"name":"Uncletopia | Frankfurt | 6 | All Maps","name_short":"frk-6","host":"frk-1.de.uncletopia.com","port":27065,"enabled":true,"region":"eu","cc":"de","latitude":50.110924,"longitude":8.682127,"reserved":0,"last_update":"0001-01-01T00:00:00Z","name_a2s":"Uncletopia | Frankfurt | 6 | All Maps","protocol":17,"map":"pl_thundermountain","folder":"tf","game":"Team Fortress","app_id":440,"player_count":24,"max_players":24,"Bots":0,"server_type":"Dedicated","server_os":"Linux","password":true,"vac":true,"version":"7961495","steam_id":85568392924504278,"keywords":["nocrits","nodmgspread","payload","uncletopia"],"game_id":440,"stv_port":27066,"stv_name":"Uncletopia | Frankfurt | 6 | All Maps | STV","players":[{"user_id":218,"name":"medick","steam_id":76561199380849468,"connected_time":3232000000000,"state":"active","ping":83},{"user_id":191,"name":"Dicartal","steam_id":76561198295793592,"connected_time":4792000000000,"state":"active","ping":126},{"user_id":192,"name":"GG","steam_id":76561198260569123,"connected_time":4747000000000,"state":"active","ping":125},{"user_id":216,"name":"Sebab","steam_id":76561198122706821,"connected_time":3307000000000,"state":"active","ping":59},{"user_id":271,"name":"Summer ♥","steam_id":76561198047723907,"connected_time":525000000000,"state":"active","ping":45},{"user_id":268,"name":"hbdie_","steam_id":76561198109996675,"connected_time":671000000000,"state":"active","ping":45},{"user_id":272,"name":"ztrs6","steam_id":76561198314853803,"connected_time":524000000000,"state":"active","ping":90},{"user_id":259,"name":",","steam_id":76561198347020945,"connected_time":1426000000000,"state":"active","ping":77},{"user_id":227,"name":"Spurt","steam_id":76561198078523852,"connected_time":3106000000000,"state":"active","ping":63},{"user_id":266,"name":"Supercoxylac","steam_id":76561198376300138,"connected_time":924000000000,"state":"active","ping":62},{"user_id":232,"name":"Penis Contortionist","steam_id":76561198073663784,"connected_time":3044000000000,"state":"active","ping":48},{"user_id":260,"name":"Mike","steam_id":76561198228455736,"connected_time":1394000000000,"state":"active","ping":65},{"user_id":270,"name":"jill sandwich","steam_id":76561198075068529,"connected_time":562000000000,"state":"active","ping":58},{"user_id":225,"name":"Sir Warock","steam_id":76561198180468693,"connected_time":3121000000000,"state":"active","ping":83},{"user_id":267,"name":"star_wheatley","steam_id":76561199160267373,"connected_time":813000000000,"state":"active","ping":72},{"user_id":261,"name":"go play rimworld","steam_id":76561199397932924,"connected_time":1106000000000,"state":"active","ping":68},{"user_id":254,"name":"Irme","steam_id":76561198161590299,"connected_time":1855000000000,"state":"active","ping":77},{"user_id":230,"name":"i am the rat","steam_id":76561199491122698,"connected_time":3078000000000,"state":"active","ping":116},{"user_id":258,"name":"Poule De Combat","steam_id":76561198002108430,"connected_time":1585000000000,"state":"active","ping":75},{"user_id":233,"name":"Blackchantingrows","steam_id":76561198972312498,"connected_time":3032000000000,"state":"active","ping":71},{"user_id":251,"name":"Megafrox","steam_id":76561199091818724,"connected_time":2095000000000,"state":"active","ping":102},{"user_id":237,"name":"Spinya","steam_id":76561198086653667,"connected_time":2913000000000,"state":"active","ping":71},{"user_id":255,"name":"God is serb","steam_id":76561198966246028,"connected_time":1762000000000,"state":"active","ping":83},{"user_id":275,"name":"blazeeight","steam_id":76561198159456502,"connected_time":273000000000,"state":"active","ping":62}]},{"server_id":23,"name":"Uncletopia | Frankfurt | 7 | Stopwatch","name_short":"frk-7","host":"frk-1.de.uncletopia.com","port":27075,"enabled":true,"region":"eu","cc":"de","latitude":50.110924,"longitude":8.682127,"reserved":0,"last_update":"0001-01-01T00:00:00Z","name_a2s":"Uncletopia | Frankfurt | 7 | Stopwatch","protocol":17,"map":"cp_metalworks","folder":"tf","game":"Team Fortress","app_id":440,"player_count":0,"max_players":24,"Bots":0,"server_type":"Dedicated","server_os":"Linux","password":true,"vac":true,"version":"7961495","steam_id":85568392924742827,"keywords":["cp","nocrits","nodmgspread","uncletopia"],"game_id":440,"stv_port":27076,"stv_name":"Uncletopia | Frankfurt | 7 | Stopwatch | STV","players":null},{"server_id":24,"name":"Uncletopia | Frankfurt | 8 | Community","name_short":"frk-8","host":"frk-1.de.uncletopia.com","port":27085,"enabled":true,"region":"eu","cc":"de","latitude":50.110924,"longitude":8.682127,"reserved":0,"last_update":"0001-01-01T00:00:00Z","name_a2s":"Uncletopia | Frankfurt | 8 | Community","protocol":17,"map":"workshop/koth_jamram_rc1a.ugc2964065613","folder":"tf","game":"Team Fortress","app_id":440,"player_count":3,"max_players":24,"Bots":0,"server_type":"Dedicated","server_os":"Linux","password":true,"vac":true,"version":"7961495","steam_id":85568392924742828,"keywords":["cp","nocrits","nodmgspread","uncletopia"],"game_id":440,"stv_port":27086,"stv_name":"Uncletopia | Frankfurt | 8 | Community | STV","players":[{"user_id":11,"name":"Alpharius","steam_id":76561198403059034,"connected_time":4343000000000,"state":"active","ping":80},{"user_id":12,"name":"W a y n e e","steam_id":76561198248290806,"connected_time":4150000000000,"state":"active","ping":85},{"user_id":15,"name":"VillagerKing2","steam_id":76561198992914638,"connected_time":1811000000000,"state":"active","ping":76}]},{"server_id":202,"name":"Uncletopia | Hong Kong | 1 | All Maps","name_short":"hgk-1","host":"hgk-1.hk.uncletopia.com","port":27015,"enabled":true,"region":"asia","cc":"hk","latitude":22.302711,"longitude":114.177216,"reserved":0,"last_update":"0001-01-01T00:00:00Z","name_a2s":"Uncletopia | Hong Kong | 1 | All Maps","protocol":17,"map":"pl_borneo","folder":"tf","game":"Team Fortress","app_id":440,"player_count":9,"max_players":24,"Bots":0,"server_type":"Dedicated","server_os":"Linux","password":true,"vac":true,"version":"7961495","steam_id":85568392924494504,"keywords":["nocrits","nodmgspread","payload","uncletopia"],"game_id":440,"stv_port":27016,"stv_name":"Uncletopia | Hong Kong | 1 | All Maps | STV","players":[{"user_id":173,"name":"arjunjiji.2006","steam_id":76561199381905256,"connected_time":25000000000,"state":"active","ping":137},{"user_id":163,"name":"九九想叨人","steam_id":76561199185190512,"connected_time":739000000000,"state":"active","ping":265},{"user_id":139,"name":"beepis","steam_id":76561198965473654,"connected_time":2964000000000,"state":"active","ping":70},{"user_id":170,"name":"mentlegen","steam_id":76561199217256681,"connected_time":46000000000,"state":"active","ping":135},{"user_id":168,"name":"Table","steam_id":76561199094388107,"connected_time":191000000000,"state":"active","ping":66},{"user_id":164,"name":"HyperRetry","steam_id":76561199491878511,"connected_time":723000000000,"state":"active","ping":96},{"user_id":161,"name":"tomato","steam_id":76561198378829574,"connected_time":1286000000000,"state":"active","ping":56},{"user_id":120,"name":"Skyler White yo","steam_id":76561198895193247,"connected_time":5447000000000,"state":"active","ping":66},{"user_id":135,"name":"母の肉団子@hao123.com","steam_id":76561198069561896,"connected_time":3223000000000,"state":"active","ping":31}]},{"server_id":1,"name":"Uncletopia | Los Angeles | 1 | All Maps","name_short":"lax-1","host":"lax-1.us.uncletopia.com","port":27015,"enabled":true,"region":"us-west","cc":"us","latitude":33.94279,"longitude":-118.41004,"reserved":0,"last_update":"0001-01-01T00:00:00Z","name_a2s":"Uncletopia | Los Angeles | 1 | All Maps","protocol":17,"map":"koth_lakeside_final","folder":"tf","game":"Team Fortress","app_id":440,"player_count":0,"max_players":24,"Bots":0,"server_type":"Dedicated","server_os":"Linux","password":true,"vac":true,"version":"7961495","steam_id":85568392924469991,"keywords":["cp","nocrits","nodmgspread","uncletopia"],"game_id":440,"stv_port":27016,"stv_name":"Uncletopia | Los Angeles | 1 | All Maps | STV","players":null},{"server_id":112,"name":"Uncletopia | Los Angeles | 2 | All Maps","name_short":"lax-2","host":"lax-1.us.uncletopia.com","port":27025,"enabled":true,"region":"us-west","cc":"us","latitude":33.94279,"longitude":-118.41004,"reserved":0,"last_update":"0001-01-01T00:00:00Z","name_a2s":"Uncletopia | Los Angeles | 2 | All Maps","protocol":17,"map":"koth_lazarus","folder":"tf","game":"Team Fortress","app_id":440,"player_count":0,"max_players":24,"Bots":0,"server_type":"Dedicated","server_os":"Linux","password":true,"vac":true,"version":"7961495","steam_id":85568392924469992,"keywords":["cp","nocrits","nodmgspread","uncletopia"],"game_id":440,"stv_port":27026,"stv_name":"Uncletopia | Los Angeles | 2 | All Maps | STV","players":null},{"server_id":324,"name":"Uncletopia | Los Angeles | 3 | All Maps","name_short":"lax-3","host":"lax-1.us.uncletopia.com","port":27035,"enabled":true,"region":"us-west","cc":"us","latitude":33.94279,"longitude":-118.41004,"reserved":0,"last_update":"0001-01-01T00:00:00Z","name_a2s":"Uncletopia | Los Angeles | 3 | All Maps","protocol":17,"map":"pl_frontier_final","folder":"tf","game":"Team Fortress","app_id":440,"player_count":0,"max_players":24,"Bots":0,"server_type":"Dedicated","server_os":"Linux","password":true,"vac":true,"version":"7961495","steam_id":85568392924510198,"keywords":["nocrits","nodmgspread","payload","uncletopia"],"game_id":440,"stv_port":27036,"stv_name":"Uncletopia | Los Angeles | 3 | All Maps | STV","players":null},{"server_id":25,"name":"Uncletopia | Los Angeles | 4 | Stopwatch","name_short":"lax-4","host":"lax-1.us.uncletopia.com","port":27045,"enabled":true,"region":"us-west","cc":"us","latitude":33.94279,"longitude":-118.41004,"reserved":0,"last_update":"0001-01-01T00:00:00Z","name_a2s":"Uncletopia | Los Angeles | 4 | Stopwatch","protocol":17,"map":"workshop/koth_bagel_rc6.ugc2514036946","folder":"tf","game":"Team Fortress","app_id":440,"player_count":0,"max_players":24,"Bots":0,"server_type":"Dedicated","server_os":"Linux","password":true,"vac":true,"version":"7961495","steam_id":85568392924510199,"keywords":["cp","nocrits","nodmgspread","uncletopia"],"game_id":440,"stv_port":27046,"stv_name":"Uncletopia | Los Angeles | 4 | Stopwatch | STV","players":null},{"server_id":11,"name":"Uncletopia | London | 1 | All Maps","name_short":"lon-1","host":"lon-1.uk.uncletopia.com","port":27015,"enabled":true,"region":"eu","cc":"gb","latitude":51.509865,"longitude":-0.118092,"reserved":0,"last_update":"0001-01-01T00:00:00Z","name_a2s":"Uncletopia | London | 1 | All Maps","protocol":17,"map":"pl_upward","folder":"tf","game":"Team Fortress","app_id":440,"player_count":24,"max_players":24,"Bots":0,"server_type":"Dedicated","server_os":"Linux","password":true,"vac":true,"version":"7961495","steam_id":85568392924367362,"keywords":["nocrits","nodmgspread","payload","uncletopia"],"game_id":440,"stv_port":27016,"stv_name":"Uncletopia | London | 1 | All Maps | STV","players":[{"user_id":214,"name":"Pyrolander","steam_id":76561198050785450,"connected_time":2570000000000,"state":"active","ping":46},{"user_id":253,"name":"Pride moth","steam_id":76561198799133372,"connected_time":174000000000,"state":"active","ping":98},{"user_id":254,"name":"Gayass","steam_id":76561198288695867,"connected_time":170000000000,"state":"active","ping":79},{"user_id":216,"name":"dim","steam_id":76561198381310350,"connected_time":2367000000000,"state":"active","ping":74},{"user_id":245,"name":"hitbox criminal","steam_id":76561198079277466,"connected_time":824000000000,"state":"active","ping":74},{"user_id":238,"name":"generic alias","steam_id":76561198271607226,"connected_time":1304000000000,"state":"active","ping":92},{"user_id":188,"name":"emer","steam_id":76561198001420975,"connected_time":3808000000000,"state":"active","ping":98},{"user_id":239,"name":"RubyTheUnicorn","steam_id":76561198091772218,"connected_time":1213000000000,"state":"active","ping":60},{"user_id":237,"name":"Maldom","steam_id":76561198000687053,"connected_time":1340000000000,"state":"active","ping":54},{"user_id":222,"name":"dafydd","steam_id":76561198052200325,"connected_time":2099000000000,"state":"active","ping":90},{"user_id":229,"name":"Tomato","steam_id":76561199124472513,"connected_time":1651000000000,"state":"active","ping":131},{"user_id":175,"name":"teddy","steam_id":76561198007436837,"connected_time":5017000000000,"state":"active","ping":45},{"user_id":110,"name":"soil.dirt.earth","steam_id":76561198014377623,"connected_time":9391000000000,"state":"active","ping":31},{"user_id":220,"name":"ashley","steam_id":76561198448551449,"connected_time":2127000000000,"state":"active","ping":35},{"user_id":247,"name":"GrosFumiste","steam_id":76561198850134909,"connected_time":693000000000,"state":"active","ping":53},{"user_id":47,"name":"Anri Okita's Massive Milkers","steam_id":76561199186352720,"connected_time":14707000000000,"state":"active","ping":51},{"user_id":230,"name":"alfus","steam_id":76561198071003109,"connected_time":1649000000000,"state":"active","ping":60},{"user_id":240,"name":"♡ Birdy but sick :( ♡","steam_id":76561198139632682,"connected_time":890000000000,"state":"active","ping":77},{"user_id":256,"name":"lowdash","steam_id":76561198327827635,"connected_time":5000000000,"state":"spawning","ping":66},{"user_id":202,"name":"JGV","steam_id":76561198094654971,"connected_time":3630000000000,"state":"active","ping":93},{"user_id":249,"name":"Spike","steam_id":76561197994537515,"connected_time":550000000000,"state":"active","ping":69},{"user_id":218,"name":"The Subway Scientist","steam_id":76561198193757646,"connected_time":2222000000000,"state":"active","ping":45},{"user_id":251,"name":"♥ Emma ♥","steam_id":76561198046796406,"connected_time":335000000000,"state":"active","ping":57},{"user_id":250,"name":"makarov","steam_id":76561198363892870,"connected_time":440000000000,"state":"active","ping":69}]},{"server_id":114,"name":"Uncletopia | London | 2 | All Maps","name_short":"lon-2","host":"lon-1.uk.uncletopia.com","port":27025,"enabled":true,"region":"eu","cc":"gb","latitude":51.509865,"longitude":-0.118092,"reserved":0,"last_update":"0001-01-01T00:00:00Z","name_a2s":"Uncletopia | London | 2 | All Maps","protocol":17,"map":"pl_snowycoast","folder":"tf","game":"Team Fortress","app_id":440,"player_count":0,"max_players":24,"Bots":0,"server_type":"Dedicated","server_os":"Linux","password":true,"vac":true,"version":"7961495","steam_id":85568392924470941,"keywords":["nocrits","nodmgspread","payload","uncletopia"],"game_id":440,"stv_port":27026,"stv_name":"Uncletopia | London | 2 | All Maps | STV","players":null},{"server_id":320,"name":"Uncletopia | London | 3 | All Maps","name_short":"lon-3","host":"lon-1.uk.uncletopia.com","port":27035,"enabled":true,"region":"eu","cc":"gb","latitude":51.509865,"longitude":-0.118092,"reserved":0,"last_update":"0001-01-01T00:00:00Z","name_a2s":"Uncletopia | London | 3 | All Maps","protocol":17,"map":"pl_pier","folder":"tf","game":"Team Fortress","app_id":440,"player_count":24,"max_players":24,"Bots":0,"server_type":"Dedicated","server_os":"Linux","password":true,"vac":true,"version":"7961495","steam_id":85568392924510192,"keywords":["nocrits","nodmgspread","payload","uncletopia"],"game_id":440,"stv_port":27036,"stv_name":"Uncletopia | London | 3 | All Maps | STV","players":[{"user_id":224,"name":"agent chubo","steam_id":76561199029137789,"connected_time":2821000000000,"state":"active","ping":152},{"user_id":242,"name":"Jack O'Neill","steam_id":76561198024268584,"connected_time":1934000000000,"state":"active","ping":75},{"user_id":232,"name":"Royal Puker","steam_id":76561198039978105,"connected_time":2333000000000,"state":"active","ping":66},{"user_id":233,"name":"pengp068","steam_id":76561198879358103,"connected_time":2319000000000,"state":"active","ping":44},{"user_id":249,"name":"джегеми хэпкингс","steam_id":76561198131531394,"connected_time":683000000000,"state":"active","ping":95},{"user_id":247,"name":"Jesus","steam_id":76561199106262610,"connected_time":985000000000,"state":"active","ping":58},{"user_id":75,"name":"s a i","steam_id":76561197970379754,"connected_time":13655000000000,"state":"active","ping":45},{"user_id":251,"name":"murderwow","steam_id":76561198024566944,"connected_time":668000000000,"state":"active","ping":104},{"user_id":255,"name":"James","steam_id":76561198168882012,"connected_time":566000000000,"state":"active","ping":51},{"user_id":258,"name":"hasansaeedifar","steam_id":76561198974563618,"connected_time":67000000000,"state":"active","ping":160},{"user_id":193,"name":"natinoot","steam_id":76561198212005117,"connected_time":6055000000000,"state":"active","ping":76},{"user_id":241,"name":"Jam","steam_id":76561198090409013,"connected_time":1959000000000,"state":"active","ping":86},{"user_id":259,"name":"Swayer","steam_id":76561198056192460,"connected_time":65000000000,"state":"active","ping":64},{"user_id":248,"name":"Fentanyl Perc","steam_id":76561198370631337,"connected_time":697000000000,"state":"active","ping":57},{"user_id":245,"name":"Ullr","steam_id":76561198140547483,"connected_time":1446000000000,"state":"active","ping":44},{"user_id":256,"name":"JohnTraveltime","steam_id":76561199244281754,"connected_time":326000000000,"state":"active","ping":62},{"user_id":226,"name":"Hot Beverage Enjoyer","steam_id":76561198060638325,"connected_time":2662000000000,"state":"active","ping":47},{"user_id":212,"name":"Berdly","steam_id":76561199029872533,"connected_time":3701000000000,"state":"active","ping":46},{"user_id":253,"name":"summer","steam_id":76561198170056395,"connected_time":649000000000,"state":"active","ping":53},{"user_id":214,"name":"[UM-monster","steam_id":76561198085098243,"connected_time":3663000000000,"state":"active","ping":116},{"user_id":260,"name":"moseley519","steam_id":76561198045485374,"connected_time":40000000000,"state":"active","ping":45},{"user_id":191,"name":"fy","steam_id":76561198315371425,"connected_time":6242000000000,"state":"active","ping":45},{"user_id":240,"name":"Michael","steam_id":76561198003146906,"connected_time":2090000000000,"state":"active","ping":43},{"user_id":177,"name":"my cat","steam_id":76561198348686648,"connected_time":7059000000000,"state":"active","ping":45}]},{"server_id":321,"name":"Uncletopia | London | 4 | All Maps","name_short":"lon-4","host":"lon-1.uk.uncletopia.com","port":27045,"enabled":true,"region":"eu","cc":"gb","latitude":51.509865,"longitude":-0.118092,"reserved":0,"last_update":"0001-01-01T00:00:00Z","name_a2s":"Uncletopia | London | 4 | All Maps","protocol":17,"map":"cp_snakewater_final1","folder":"tf","game":"Team Fortress","app_id":440,"player_count":24,"max_players":24,"Bots":0,"server_type":"Dedicated","server_os":"Linux","password":true,"vac":true,"version":"7961495","steam_id":85568392924510193,"keywords":["cp","nocrits","nodmgspread","uncletopia"],"game_id":440,"stv_port":27046,"stv_name":"Uncletopia | London | 4 | All Maps | STV","players":[{"user_id":261,"name":"Ethee05","steam_id":76561198221013980,"connected_time":207000000000,"state":"active","ping":44},{"user_id":212,"name":"pfear","steam_id":76561197999207328,"connected_time":3588000000000,"state":"active","ping":90},{"user_id":233,"name":"Rusted","steam_id":76561198310605286,"connected_time":2576000000000,"state":"active","ping":66},{"user_id":249,"name":"0.01 of Germs","steam_id":76561199006462039,"connected_time":743000000000,"state":"active","ping":64},{"user_id":234,"name":"Machine Elf","steam_id":76561198274465755,"connected_time":2540000000000,"state":"active","ping":46},{"user_id":243,"name":"Big Mean Muther Hubbard","steam_id":76561199223016965,"connected_time":1865000000000,"state":"active","ping":46},{"user_id":218,"name":"snowball","steam_id":76561198026525289,"connected_time":3512000000000,"state":"active","ping":85},{"user_id":186,"name":"waitrose gaming","steam_id":76561198011450253,"connected_time":5693000000000,"state":"active","ping":52},{"user_id":235,"name":"Storm's Foreshadow","steam_id":76561198098462526,"connected_time":2532000000000,"state":"active","ping":73},{"user_id":83,"name":"Warrior555MainsGanon","steam_id":76561198388627786,"connected_time":11528000000000,"state":"active","ping":65},{"user_id":208,"name":"SissifiedBlackGuy","steam_id":76561199509261527,"connected_time":3803000000000,"state":"active","ping":115},{"user_id":250,"name":"Sham!","steam_id":76561198050434275,"connected_time":714000000000,"state":"active","ping":57},{"user_id":251,"name":"Marukuso","steam_id":76561198154229845,"connected_time":707000000000,"state":"active","ping":62},{"user_id":259,"name":"SCRAMMMBLED","steam_id":76561197998307746,"connected_time":465000000000,"state":"active","ping":72},{"user_id":253,"name":"Pjuske","steam_id":76561198013943953,"connected_time":629000000000,"state":"active","ping":64},{"user_id":257,"name":"I.AM.THE.BOOP.WHICH.IS.APROACHI","steam_id":76561198049342507,"connected_time":538000000000,"state":"active","ping":92},{"user_id":237,"name":"Some Portuguese Bean","steam_id":76561198031930035,"connected_time":2496000000000,"state":"active","ping":71},{"user_id":260,"name":"wavelength","steam_id":76561198154677956,"connected_time":262000000000,"state":"active","ping":76},{"user_id":192,"name":"John Noob","steam_id":76561197999170026,"connected_time":5033000000000,"state":"active","ping":79},{"user_id":244,"name":"benjaminsfortress1i7","steam_id":76561199297010083,"connected_time":1713000000000,"state":"active","ping":75},{"user_id":242,"name":"Paint","steam_id":76561198166823873,"connected_time":1965000000000,"state":"active","ping":50},{"user_id":255,"name":"lord-carlos","steam_id":76561198025150761,"connected_time":574000000000,"state":"active","ping":61},{"user_id":245,"name":"Pozdaddy","steam_id":76561199500132317,"connected_time":1586000000000,"state":"active","ping":171},{"user_id":256,"name":"Vibrátor (418 122 locomotive)","steam_id":76561198097789669,"connected_time":574000000000,"state":"active","ping":70}]},{"server_id":21,"name":"Uncletopia | London | 5 | All Maps","name_short":"lon-5","host":"lon-1.uk.uncletopia.com","port":27055,"enabled":true,"region":"eu","cc":"gb","latitude":51.509865,"longitude":-0.118092,"reserved":0,"last_update":"0001-01-01T00:00:00Z","name_a2s":"Uncletopia | London | 5 | All Maps","protocol":17,"map":"koth_suijin","folder":"tf","game":"Team Fortress","app_id":440,"player_count":0,"max_players":24,"Bots":0,"server_type":"Dedicated","server_os":"Linux","password":true,"vac":true,"version":"7961495","steam_id":85568392924742829,"keywords":["cp","nocrits","nodmgspread","uncletopia"],"game_id":440,"stv_port":27056,"stv_name":"Uncletopia | London | 5 | All Maps | STV","players":null},{"server_id":22,"name":"Uncletopia | London | 6 | All Maps","name_short":"lon-6","host":"lon-1.uk.uncletopia.com","port":27065,"enabled":true,"region":"eu","cc":"gb","latitude":51.509865,"longitude":-0.118092,"reserved":0,"last_update":"0001-01-01T00:00:00Z","name_a2s":"Uncletopia | London | 6 | All Maps","protocol":17,"map":"cp_altitude","folder":"tf","game":"Team Fortress","app_id":440,"player_count":0,"max_players":24,"Bots":0,"server_type":"Dedicated","server_os":"Linux","password":true,"vac":true,"version":"7961495","steam_id":85568392924742830,"keywords":["cp","nocrits","nodmgspread","uncletopia"],"game_id":440,"stv_port":27066,"stv_name":"Uncletopia | London | 6 | All Maps | STV","players":null},{"server_id":40,"name":"Uncletopia | London | 7 | Stopwatch","name_short":"lon-7","host":"lon-1.uk.uncletopia.com","port":27075,"enabled":true,"region":"eu","cc":"gb","latitude":51.509865,"longitude":-0.118092,"reserved":0,"last_update":"0001-01-01T00:00:00Z","name_a2s":"Uncletopia | London | 7 | Stopwatch","protocol":17,"map":"pl_upward","folder":"tf","game":"Team Fortress","app_id":440,"player_count":0,"max_players":24,"Bots":0,"server_type":"Dedicated","server_os":"Linux","password":true,"vac":true,"version":"7961495","steam_id":85568392924964314,"keywords":["nocrits","nodmgspread","payload","uncletopia"],"game_id":440,"stv_port":27076,"stv_name":"Uncletopia | London | 7 | Stopwatch | STV","players":null},{"server_id":41,"name":"Uncletopia | London | 8 | Community","name_short":"lon-8","host":"lon-1.uk.uncletopia.com","port":27085,"enabled":true,"region":"eu","cc":"gb","latitude":51.509865,"longitude":-0.118092,"reserved":0,"last_update":"0001-01-01T00:00:00Z","name_a2s":"Uncletopia | London | 8 | Community","protocol":17,"map":"workshop/cp_propaganda_b18.ugc1603743849","folder":"tf","game":"Team Fortress","app_id":440,"player_count":0,"max_players":24,"Bots":0,"server_type":"Dedicated","server_os":"Linux","password":true,"vac":true,"version":"7961495","steam_id":85568392924964315,"keywords":["cp","nocrits","nodmgspread","uncletopia"],"game_id":440,"stv_port":27086,"stv_name":"Uncletopia | London | 8 | Community | STV","players":null},{"server_id":300,"name":"Uncletopia | Montréal | 1 | One Thousand Uncles","name_short":"mtl-1","host":"mtl-1.ca.uncletopia.com","port":27015,"enabled":true,"region":"us-east","cc":"ca","latitude":45.50889,"longitude":-73.56167,"reserved":0,"last_update":"0001-01-01T00:00:00Z","name_a2s":"Uncletopia | Montréal | 1 | One Thousand Uncles","protocol":17,"map":"pl_barnblitz","folder":"tf","game":"Team Fortress","app_id":440,"player_count":0,"max_players":32,"Bots":0,"server_type":"Dedicated","server_os":"Linux","password":true,"vac":true,"version":"7961495","steam_id":85568392924500087,"keywords":["alltalk","danepve","increased_maxplayers","norespawntime","payload","uncletopia"],"game_id":440,"stv_port":0,"stv_name":"","players":null},{"server_id":301,"name":"Uncletopia | Montréal | 2 | One Thousand Uncles","name_short":"mtl-2","host":"mtl-1.ca.uncletopia.com","port":27025,"enabled":true,"region":"us-east","cc":"ca","latitude":45.50889,"longitude":-73.56167,"reserved":0,"last_update":"0001-01-01T00:00:00Z","name_a2s":"Uncletopia | Montréal | 2 | One Thousand Uncles","protocol":17,"map":"cp_mossrock","folder":"tf","game":"Team Fortress","app_id":440,"player_count":0,"max_players":32,"Bots":0,"server_type":"Dedicated","server_os":"Linux","password":true,"vac":true,"version":"7961495","steam_id":85568392924500088,"keywords":["alltalk","cp","danepve","increased_maxplayers","norespawntime","uncletopia"],"game_id":440,"stv_port":0,"stv_name":"","players":null},{"server_id":302,"name":"Uncletopia | Montréal | 3 | One Thousand Uncles","name_short":"mtl-3","host":"mtl-1.ca.uncletopia.com","port":27035,"enabled":true,"region":"us-east","cc":"ca","latitude":45.50889,"longitude":-73.56167,"reserved":0,"last_update":"0001-01-01T00:00:00Z","name_a2s":"Uncletopia | Montréal | 3 | One Thousand Uncles","protocol":17,"map":"cp_dustbowl","folder":"tf","game":"Team Fortress","app_id":440,"player_count":0,"max_players":32,"Bots":0,"server_type":"Dedicated","server_os":"Linux","password":true,"vac":true,"version":"7961495","steam_id":85568392924500089,"keywords":["alltalk","cp","danepve","increased_maxplayers","norespawntime","uncletopia"],"game_id":440,"stv_port":0,"stv_name":"","players":null},{"server_id":13,"name":"Uncletopia | New York City | 1 | All Maps","name_short":"nyc-1","host":"nyc-1.us.uncletopia.com","port":27015,"enabled":true,"region":"us-east","cc":"us","latitude":40.73061,"longitude":-73.93524,"reserved":0,"last_update":"0001-01-01T00:00:00Z","name_a2s":"Uncletopia | New York City | 1 | All Maps","protocol":17,"map":"pl_upward","folder":"tf","game":"Team Fortress","app_id":440,"player_count":24,"max_players":24,"Bots":0,"server_type":"Dedicated","server_os":"Linux","password":true,"vac":true,"version":"7961495","steam_id":85568392924469993,"keywords":["nocrits","nodmgspread","payload","uncletopia"],"game_id":440,"stv_port":27016,"stv_name":"Uncletopia | New York City | 1 | All Maps | STV","players":[{"user_id":235,"name":"Dude","steam_id":76561199058616824,"connected_time":506000000000,"state":"active","ping":90},{"user_id":236,"name":"vom","steam_id":76561198070311363,"connected_time":364000000000,"state":"active","ping":62},{"user_id":209,"name":"get scrongled, idiot","steam_id":76561198115874625,"connected_time":3295000000000,"state":"active","ping":56},{"user_id":237,"name":"MaxTheRetroGuy","steam_id":76561198845344731,"connected_time":231000000000,"state":"active","ping":71},{"user_id":221,"name":"jg125","steam_id":76561198824953530,"connected_time":912000000000,"state":"active","ping":175},{"user_id":199,"name":"Memoirist","steam_id":76561198026002842,"connected_time":3530000000000,"state":"active","ping":67},{"user_id":149,"name":"Snoopy","steam_id":76561198273735974,"connected_time":5859000000000,"state":"active","ping":126},{"user_id":231,"name":"Tony Pizza","steam_id":76561198276513608,"connected_time":641000000000,"state":"active","ping":155},{"user_id":222,"name":"IdkProlly","steam_id":76561198269212968,"connected_time":910000000000,"state":"active","ping":41},{"user_id":145,"name":"B.","steam_id":76561198040445907,"connected_time":6102000000000,"state":"active","ping":79},{"user_id":223,"name":"Fernando Alonso","steam_id":76561198066822788,"connected_time":897000000000,"state":"active","ping":62},{"user_id":211,"name":"ya ya breathe","steam_id":76561198075858067,"connected_time":3271000000000,"state":"active","ping":44},{"user_id":216,"name":"SpaceSanctum","steam_id":76561198805242305,"connected_time":2726000000000,"state":"active","ping":45},{"user_id":176,"name":"Pinkie Pie","steam_id":76561198957996236,"connected_time":4888000000000,"state":"active","ping":76},{"user_id":228,"name":"clio","steam_id":76561198141700569,"connected_time":782000000000,"state":"active","ping":59},{"user_id":182,"name":"Rhutebeer","steam_id":76561198018302761,"connected_time":4543000000000,"state":"active","ping":109},{"user_id":217,"name":"Marcusatomz","steam_id":76561198079169629,"connected_time":2630000000000,"state":"active","ping":72},{"user_id":212,"name":"Hunto","steam_id":76561198328052562,"connected_time":3227000000000,"state":"active","ping":87},{"user_id":232,"name":"mostly ham","steam_id":76561199479937232,"connected_time":606000000000,"state":"active","ping":72},{"user_id":229,"name":"Rue","steam_id":76561198013135993,"connected_time":753000000000,"state":"active","ping":61},{"user_id":74,"name":"A Rhino with Coronavirus","steam_id":76561197999451366,"connected_time":10995000000000,"state":"active","ping":72},{"user_id":227,"name":"Tethered","steam_id":76561199237582239,"connected_time":806000000000,"state":"active","ping":77},{"user_id":230,"name":"-W3E- grim10465","steam_id":76561198045698581,"connected_time":722000000000,"state":"active","ping":34},{"user_id":234,"name":"Snow Squid","steam_id":76561198201565674,"connected_time":604000000000,"state":"active","ping":90}]},{"server_id":14,"name":"Uncletopia | New York City | 2 | All Maps","name_short":"nyc-2","host":"nyc-1.us.uncletopia.com","port":27025,"enabled":true,"region":"us-east","cc":"us","latitude":40.73061,"longitude":-73.93524,"reserved":0,"last_update":"0001-01-01T00:00:00Z","name_a2s":"Uncletopia | New York City | 2 | All Maps","protocol":17,"map":"koth_highpass","folder":"tf","game":"Team Fortress","app_id":440,"player_count":0,"max_players":24,"Bots":0,"server_type":"Dedicated","server_os":"Linux","password":true,"vac":true,"version":"7961495","steam_id":85568392924469994,"keywords":["cp","nocrits","nodmgspread","uncletopia"],"game_id":440,"stv_port":27026,"stv_name":"Uncletopia | New York City | 2 | All Maps | STV","players":null},{"server_id":15,"name":"Uncletopia | New York City | 3 | Stopwatch","name_short":"nyc-3","host":"nyc-1.us.uncletopia.com","port":27035,"enabled":true,"region":"us-east","cc":"us","latitude":40.73061,"longitude":-73.93524,"reserved":0,"last_update":"0001-01-01T00:00:00Z","name_a2s":"Uncletopia | New York City | 3 | Stopwatch","protocol":17,"map":"workshop/cp_reckoner_rc6.ugc674719999","folder":"tf","game":"Team Fortress","app_id":440,"player_count":0,"max_players":24,"Bots":0,"server_type":"Dedicated","server_os":"Linux","password":true,"vac":true,"version":"7961495","steam_id":85568392924742820,"keywords":["cp","nocrits","nodmgspread","uncletopia"],"game_id":440,"stv_port":27036,"stv_name":"Uncletopia | New York City | 3 | Stopwatch | STV","players":null},{"server_id":16,"name":"Uncletopia | New York City | 4 | Community","name_short":"nyc-4","host":"nyc-1.us.uncletopia.com","port":27045,"enabled":true,"region":"us-east","cc":"us","latitude":40.73061,"longitude":-73.93524,"reserved":0,"last_update":"0001-01-01T00:00:00Z","name_a2s":"Uncletopia | New York City | 4 | Community","protocol":17,"map":"workshop/cp_reckoner_rc6.ugc674719999","folder":"tf","game":"Team Fortress","app_id":440,"player_count":0,"max_players":24,"Bots":0,"server_type":"Dedicated","server_os":"Linux","password":true,"vac":true,"version":"7961495","steam_id":85568392924742821,"keywords":["cp","nocrits","nodmgspread","uncletopia"],"game_id":440,"stv_port":27046,"stv_name":"Uncletopia | New York City | 4 | Community | STV","players":null},{"server_id":142,"name":"Uncletopia | São Paulo | 1 | All Maps","name_short":"sao-1","host":"sao-1.br.uncletopia.com","port":27015,"enabled":true,"region":"sa","cc":"br","latitude":-23.533773,"longitude":-46.62529,"reserved":0,"last_update":"0001-01-01T00:00:00Z","name_a2s":"Uncletopia | São Paulo | 1 | All Maps","protocol":17,"map":"cp_mountainlab","folder":"tf","game":"Team Fortress","app_id":440,"player_count":3,"max_players":24,"Bots":0,"server_type":"Dedicated","server_os":"Linux","password":true,"vac":true,"version":"7961495","steam_id":85568392924469996,"keywords":["cp","nocrits","nodmgspread","uncletopia"],"game_id":440,"stv_port":27016,"stv_name":"Uncletopia | São Paulo | 1 | All Maps | STV","players":[{"user_id":3,"name":"https://youtu.be/RvVdFXOFcjw","steam_id":76561198844048672,"connected_time":2053000000000,"state":"active","ping":44},{"user_id":4,"name":"ZINIZOTTI","steam_id":76561199212649021,"connected_time":2053000000000,"state":"active","ping":92},{"user_id":11,"name":"JM","steam_id":76561199467146607,"connected_time":301000000000,"state":"active","ping":36}]},{"server_id":143,"name":"Uncletopia | São Paulo | 2 | Community","name_short":"sao-2","host":"sao-2.br.uncletopia.com","port":27015,"enabled":true,"region":"sa","cc":"br","latitude":-23.533773,"longitude":-46.62529,"reserved":0,"last_update":"0001-01-01T00:00:00Z","name_a2s":"Uncletopia | São Paulo | 2 | Community","protocol":17,"map":"workshop/koth_slaughter_rc1.ugc1712845210","folder":"tf","game":"Team Fortress","app_id":440,"player_count":0,"max_players":24,"Bots":0,"server_type":"Dedicated","server_os":"Linux","password":true,"vac":true,"version":"7961495","steam_id":85568392924485349,"keywords":["cp","nocrits","nodmgspread","uncletopia"],"game_id":440,"stv_port":27016,"stv_name":"Uncletopia | São Paulo | 2 | Community | STV","players":null},{"server_id":7,"name":"Uncletopia | Seattle | 1 | All Maps","name_short":"sea-1","host":"sea-1.us.uncletopia.com","port":27015,"enabled":true,"region":"us-west","cc":"us","latitude":47.608013,"longitude":-122.33517,"reserved":0,"last_update":"0001-01-01T00:00:00Z","name_a2s":"Uncletopia | Seattle | 1 | All Maps","protocol":17,"map":"pl_pier","folder":"tf","game":"Team Fortress","app_id":440,"player_count":23,"max_players":24,"Bots":0,"server_type":"Dedicated","server_os":"Linux","password":true,"vac":true,"version":"7961495","steam_id":85568392924469997,"keywords":["nocrits","nodmgspread","payload","uncletopia"],"game_id":440,"stv_port":27016,"stv_name":"Uncletopia | Seattle | 1 | All Maps | STV","players":[{"user_id":106,"name":"Cheese Fiend","steam_id":76561198053602591,"connected_time":2328000000000,"state":"active","ping":96},{"user_id":107,"name":"TylertheImperial","steam_id":76561199401195068,"connected_time":2309000000000,"state":"active","ping":93},{"user_id":120,"name":"Squiliam","steam_id":76561198025278006,"connected_time":1249000000000,"state":"active","ping":102},{"user_id":77,"name":"killswitch","steam_id":76561198213385439,"connected_time":5042000000000,"state":"active","ping":71},{"user_id":129,"name":"Whimsy!","steam_id":76561197989578836,"connected_time":363000000000,"state":"active","ping":61},{"user_id":105,"name":"Master Wots","steam_id":76561198021535235,"connected_time":2347000000000,"state":"active","ping":60},{"user_id":119,"name":"Peppy","steam_id":76561198866629645,"connected_time":1306000000000,"state":"active","ping":53},{"user_id":122,"name":"PurplePond","steam_id":76561199062421006,"connected_time":1047000000000,"state":"active","ping":93},{"user_id":111,"name":"Phantom","steam_id":76561199200400404,"connected_time":1915000000000,"state":"active","ping":76},{"user_id":126,"name":"Tyler\u0026Fingers","steam_id":76561198085154485,"connected_time":718000000000,"state":"active","ping":130},{"user_id":42,"name":"Deadline","steam_id":76561199079078845,"connected_time":7936000000000,"state":"active","ping":148},{"user_id":114,"name":"jer","steam_id":76561198148235230,"connected_time":1595000000000,"state":"active","ping":84},{"user_id":83,"name":"Fish Lambert","steam_id":76561198098279668,"connected_time":4888000000000,"state":"active","ping":88},{"user_id":127,"name":"Rutherford B. Shopping","steam_id":76561198080687598,"connected_time":716000000000,"state":"active","ping":108},{"user_id":117,"name":"Zannybar","steam_id":76561198096515729,"connected_time":1581000000000,"state":"active","ping":83},{"user_id":93,"name":"Dim","steam_id":76561198061411324,"connected_time":3624000000000,"state":"active","ping":134},{"user_id":103,"name":"Mediocre Gaming","steam_id":76561199230467980,"connected_time":3086000000000,"state":"active","ping":142},{"user_id":104,"name":":3","steam_id":76561199194702127,"connected_time":2706000000000,"state":"active","ping":103},{"user_id":124,"name":"Smashing93","steam_id":76561199058453316,"connected_time":941000000000,"state":"active","ping":114},{"user_id":125,"name":"Tom","steam_id":76561198070630154,"connected_time":915000000000,"state":"active","ping":70},{"user_id":130,"name":"help","steam_id":76561199056338917,"connected_time":208000000000,"state":"active","ping":131},{"user_id":110,"name":"Monty","steam_id":76561197993567253,"connected_time":2092000000000,"state":"active","ping":52},{"user_id":98,"name":"Dimple","steam_id":76561198980324190,"connected_time":3238000000000,"state":"active","ping":57}]},{"server_id":119,"name":"Uncletopia | Seattle | 2 | All Maps","name_short":"sea-2","host":"sea-1.us.uncletopia.com","port":27025,"enabled":true,"region":"us-west","cc":"us","latitude":47.608013,"longitude":-122.33517,"reserved":0,"last_update":"0001-01-01T00:00:00Z","name_a2s":"Uncletopia | Seattle | 2 | All Maps","protocol":17,"map":"cp_dustbowl","folder":"tf","game":"Team Fortress","app_id":440,"player_count":0,"max_players":24,"Bots":0,"server_type":"Dedicated","server_os":"Linux","password":true,"vac":true,"version":"7961495","steam_id":85568392924469998,"keywords":["cp","nocrits","nodmgspread","uncletopia"],"game_id":440,"stv_port":27026,"stv_name":"Uncletopia | Seattle | 2 | All Maps | STV","players":null},{"server_id":406,"name":"Uncletopia | Seattle | 3 | Stopwatch","name_short":"sea-3","host":"sea-1.us.uncletopia.com","port":27035,"enabled":true,"region":"us-west","cc":"us","latitude":47.608013,"longitude":-122.33517,"reserved":0,"last_update":"0001-01-01T00:00:00Z","name_a2s":"Uncletopia | Seattle | 3 | Stopwatch","protocol":17,"map":"cp_gullywash_final1","folder":"tf","game":"Team Fortress","app_id":440,"player_count":0,"max_players":24,"Bots":0,"server_type":"Dedicated","server_os":"Linux","password":true,"vac":true,"version":"7961495","steam_id":85568392924515217,"keywords":["cp","nocrits","nodmgspread","uncletopia"],"game_id":440,"stv_port":27036,"stv_name":"Uncletopia | Seattle | 3 | Stopwatch | STV","players":null},{"server_id":17,"name":"Uncletopia | San Francisco | 1 | All Maps","name_short":"sfo-1","host":"sfo-1.us.uncletopia.com","port":27015,"enabled":true,"region":"us-west","cc":"us","latitude":37.77397,"longitude":-122.4313,"reserved":0,"last_update":"0001-01-01T00:00:00Z","name_a2s":"Uncletopia | San Francisco | 1 | All Maps","protocol":17,"map":"cp_gullywash_final1","folder":"tf","game":"Team Fortress","app_id":440,"player_count":0,"max_players":24,"Bots":0,"server_type":"Dedicated","server_os":"Linux","password":true,"vac":true,"version":"7961495","steam_id":85568392924469999,"keywords":["cp","nocrits","nodmgspread","uncletopia"],"game_id":440,"stv_port":27016,"stv_name":"Uncletopia | San Francisco | 1 | All Maps | STV","players":null},{"server_id":18,"name":"Uncletopia | San Francisco | 2 | All Maps","name_short":"sfo-2","host":"sfo-1.us.uncletopia.com","port":27025,"enabled":true,"region":"us-west","cc":"us","latitude":37.77397,"longitude":-122.4313,"reserved":0,"last_update":"0001-01-01T00:00:00Z","name_a2s":"Uncletopia | San Francisco | 2 | All Maps","protocol":17,"map":"pl_hoodoo_final","folder":"tf","game":"Team Fortress","app_id":440,"player_count":0,"max_players":24,"Bots":0,"server_type":"Dedicated","server_os":"Linux","password":true,"vac":true,"version":"7961495","steam_id":85568392924470000,"keywords":["nocrits","nodmgspread","payload","uncletopia"],"game_id":440,"stv_port":27026,"stv_name":"Uncletopia | San Francisco | 2 | All Maps | STV","players":null},{"server_id":19,"name":"Uncletopia | San Francisco | 3 | Stopwatch","name_short":"sfo-3","host":"sfo-1.us.uncletopia.com","port":27035,"enabled":true,"region":"us-west","cc":"us","latitude":37.77397,"longitude":-122.4313,"reserved":0,"last_update":"0001-01-01T00:00:00Z","name_a2s":"Uncletopia | San Francisco | 3 | Stopwatch","protocol":17,"map":"workshop/koth_clearcut_b15.ugc2107050255","folder":"tf","game":"Team Fortress","app_id":440,"player_count":0,"max_players":24,"Bots":0,"server_type":"Dedicated","server_os":"Linux","password":true,"vac":true,"version":"7961495","steam_id":85568392924742824,"keywords":["cp","nocrits","nodmgspread","uncletopia"],"game_id":440,"stv_port":27036,"stv_name":"Uncletopia | San Francisco | 3 | Stopwatch | STV","players":null},{"server_id":20,"name":"Uncletopia | San Francisco | 4 | Community","name_short":"sfo-4","host":"sfo-1.us.uncletopia.com","port":27045,"enabled":true,"region":"us-west","cc":"us","latitude":37.77397,"longitude":-122.4313,"reserved":0,"last_update":"0001-01-01T00:00:00Z","name_a2s":"Uncletopia | San Francisco | 4 | Community","protocol":17,"map":"workshop/cp_reckoner_rc6.ugc674719999","folder":"tf","game":"Team Fortress","app_id":440,"player_count":0,"max_players":24,"Bots":0,"server_type":"Dedicated","server_os":"Linux","password":true,"vac":true,"version":"7961495","steam_id":85568392924742826,"keywords":["cp","nocrits","nodmgspread","uncletopia"],"game_id":440,"stv_port":27046,"stv_name":"Uncletopia | San Francisco | 4 | Community | STV","players":null},{"server_id":141,"name":"Uncletopia | Sydney | 1 | All Maps","name_short":"syd-1","host":"syd-1.au.uncletopia.com","port":27015,"enabled":true,"region":"au","cc":"au","latitude":-33.865143,"longitude":151.2099,"reserved":0,"last_update":"0001-01-01T00:00:00Z","name_a2s":"Uncletopia | Sydney | 1 | All Maps","protocol":17,"map":"cp_5gorge","folder":"tf","game":"Team Fortress","app_id":440,"player_count":0,"max_players":24,"Bots":0,"server_type":"Dedicated","server_os":"Linux","password":true,"vac":true,"version":"7961495","steam_id":85568392924470001,"keywords":["cp","nocrits","nodmgspread","uncletopia"],"game_id":440,"stv_port":27016,"stv_name":"Uncletopia | Sydney | 1 | All Maps | STV","players":null},{"server_id":123,"name":"Uncletopia | Sydney | 2 | All Maps","name_short":"syd-2","host":"syd-1.au.uncletopia.com","port":27025,"enabled":true,"region":"au","cc":"au","latitude":-33.865143,"longitude":151.2099,"reserved":0,"last_update":"0001-01-01T00:00:00Z","name_a2s":"Uncletopia | Sydney | 2 | All Maps","protocol":17,"map":"koth_highpass","folder":"tf","game":"Team Fortress","app_id":440,"player_count":13,"max_players":24,"Bots":0,"server_type":"Dedicated","server_os":"Linux","password":true,"vac":true,"version":"7961495","steam_id":85568392924470002,"keywords":["cp","nocrits","nodmgspread","uncletopia"],"game_id":440,"stv_port":27026,"stv_name":"Uncletopia | Sydney | 2 | All Maps | STV","players":[{"user_id":185,"name":"mutwo","steam_id":76561198077043500,"connected_time":1039000000000,"state":"active","ping":131},{"user_id":191,"name":"unblended frappe","steam_id":76561198201760578,"connected_time":156000000000,"state":"active","ping":45},{"user_id":176,"name":"11/10 would cook spider again","steam_id":76561198285714724,"connected_time":2062000000000,"state":"active","ping":61},{"user_id":130,"name":"invert.","steam_id":76561198049619174,"connected_time":6181000000000,"state":"active","ping":52},{"user_id":122,"name":"bruiseblood","steam_id":76561198062301135,"connected_time":6813000000000,"state":"active","ping":49},{"user_id":179,"name":"cbat peek namanish","steam_id":76561198288035849,"connected_time":1260000000000,"state":"active","ping":117},{"user_id":180,"name":"clubalang","steam_id":76561198155972273,"connected_time":1182000000000,"state":"active","ping":50},{"user_id":181,"name":"Huz","steam_id":76561198039231303,"connected_time":1180000000000,"state":"active","ping":92},{"user_id":188,"name":"beesha","steam_id":76561198092473954,"connected_time":306000000000,"state":"active","ping":90},{"user_id":149,"name":"homes inc","steam_id":76561198170188198,"connected_time":4992000000000,"state":"active","ping":54},{"user_id":148,"name":"dc","steam_id":76561198040993425,"connected_time":5129000000000,"state":"active","ping":79},{"user_id":186,"name":"noXy","steam_id":76561198032671657,"connected_time":894000000000,"state":"active","ping":59},{"user_id":154,"name":"TarzyD","steam_id":76561198402744887,"connected_time":4897000000000,"state":"active","ping":33}]},{"server_id":395,"name":"Uncletopia | Sydney | 3 | All Maps","name_short":"syd-3","host":"syd-1.au.uncletopia.com","port":27035,"enabled":true,"region":"au","cc":"au","latitude":-33.865143,"longitude":151.2099,"reserved":0,"last_update":"0001-01-01T00:00:00Z","name_a2s":"Uncletopia | Sydney | 3 | All Maps","protocol":17,"map":"koth_viaduct","folder":"tf","game":"Team Fortress","app_id":440,"player_count":0,"max_players":24,"Bots":0,"server_type":"Dedicated","server_os":"Linux","password":true,"vac":true,"version":"7961495","steam_id":85568392925194467,"keywords":["cp","nocrits","nodmgspread","uncletopia"],"game_id":440,"stv_port":27036,"stv_name":"Uncletopia | Sydney | 3 | All Maps | STV","players":null},{"server_id":396,"name":"Uncletopia | Sydney | 4 | All Maps","name_short":"syd-4","host":"syd-1.au.uncletopia.com","port":27045,"enabled":true,"region":"au","cc":"au","latitude":-33.865143,"longitude":151.2099,"reserved":0,"last_update":"0001-01-01T00:00:00Z","name_a2s":"Uncletopia | Sydney | 4 | All Maps","protocol":17,"map":"pl_badwater","folder":"tf","game":"Team Fortress","app_id":440,"player_count":0,"max_players":24,"Bots":0,"server_type":"Dedicated","server_os":"Linux","password":true,"vac":true,"version":"7961495","steam_id":85568392925397958,"keywords":["nocrits","nodmgspread","payload","uncletopia"],"game_id":440,"stv_port":27046,"stv_name":"Uncletopia | Sydney | 4 | All Maps | STV","players":null},{"server_id":58,"name":"Uncletopia | Sydney | 5 | Stopwatch","name_short":"syd-5","host":"syd-1.au.uncletopia.com","port":27055,"enabled":true,"region":"au","cc":"au","latitude":-33.865143,"longitude":151.2099,"reserved":0,"last_update":"0001-01-01T00:00:00Z","name_a2s":"Uncletopia | Sydney | 5 | Stopwatch","protocol":17,"map":"koth_highpass","folder":"tf","game":"Team Fortress","app_id":440,"player_count":0,"max_players":24,"Bots":0,"server_type":"Dedicated","server_os":"Linux","password":true,"vac":true,"version":"7961495","steam_id":85568392925397959,"keywords":["cp","nocrits","nodmgspread","uncletopia"],"game_id":440,"stv_port":27056,"stv_name":"Uncletopia | Sydney | 5 | Stopwatch | STV","players":null},{"server_id":59,"name":"Uncletopia | Sydney | 6 | Community","name_short":"syd-6","host":"syd-1.au.uncletopia.com","port":27065,"enabled":true,"region":"au","cc":"au","latitude":-33.865143,"longitude":151.2099,"reserved":0,"last_update":"0001-01-01T00:00:00Z","name_a2s":"Uncletopia | Sydney | 6 | Community","protocol":17,"map":"workshop/koth_soot_final1.ugc2969540689","folder":"tf","game":"Team Fortress","app_id":440,"player_count":0,"max_players":24,"Bots":0,"server_type":"Dedicated","server_os":"Linux","password":true,"vac":true,"version":"7961495","steam_id":85568392925397960,"keywords":["cp","nocrits","nodmgspread","uncletopia"],"game_id":440,"stv_port":27066,"stv_name":"Uncletopia | Sydney | 6 | Community | STV","players":null},{"server_id":49,"name":"Uncletopia | Warsaw | 1 | One Thousand Uncles","name_short":"waw-1","host":"waw-1.pl.uncletopia.com","port":27015,"enabled":true,"region":"eu","cc":"pl","latitude":52.2297,"longitude":21.017532,"reserved":0,"last_update":"0001-01-01T00:00:00Z","name_a2s":"Uncletopia | Warsaw | 1 | One Thousand Uncles","protocol":17,"map":"pl_badwater","folder":"tf","game":"Team Fortress","app_id":440,"player_count":25,"max_players":32,"Bots":20,"server_type":"Dedicated","server_os":"Linux","password":true,"vac":true,"version":"7961495","steam_id":85568392925397850,"keywords":["alltalk","bots","danepve","increased_maxplayers","norespawntime","payload","uncletopia"],"game_id":440,"stv_port":0,"stv_name":"","players":[{"user_id":215,"name":"mannerin","steam_id":76561199037020761,"connected_time":2702000000000,"state":"active","ping":75},{"user_id":214,"name":"Rayco","steam_id":76561198048013129,"connected_time":3051000000000,"state":"active","ping":79},{"user_id":217,"name":"DarthDanny","steam_id":76561197997718926,"connected_time":2149000000000,"state":"active","ping":122},{"user_id":210,"name":"Limner.exe","steam_id":76561199200274345,"connected_time":4086000000000,"state":"active","ping":166},{"user_id":182,"name":"Estyle","steam_id":76561198157804700,"connected_time":4926000000000,"state":"active","ping":82}]},{"server_id":50,"name":"Uncletopia | Warsaw | 2 | One Thousand Uncles","name_short":"waw-2","host":"waw-1.pl.uncletopia.com","port":27025,"enabled":true,"region":"eu","cc":"pl","latitude":52.2297,"longitude":21.017532,"reserved":0,"last_update":"0001-01-01T00:00:00Z","name_a2s":"Uncletopia | Warsaw | 2 | One Thousand Uncles","protocol":17,"map":"pl_hoodoo_final","folder":"tf","game":"Team Fortress","app_id":440,"player_count":27,"max_players":32,"Bots":20,"server_type":"Dedicated","server_os":"Linux","password":true,"vac":true,"version":"7961495","steam_id":85568392925397851,"keywords":["alltalk","bots","danepve","increased_maxplayers","norespawntime","payload","uncletopia"],"game_id":440,"stv_port":0,"stv_name":"","players":[{"user_id":70,"name":"Xi Bingchilling","steam_id":76561198154310301,"connected_time":1005000000000,"state":"active","ping":65},{"user_id":91,"name":"Little Spy","steam_id":76561199238736286,"connected_time":811000000000,"state":"active","ping":70},{"user_id":94,"name":"LizardMilk_19","steam_id":76561199435002235,"connected_time":114000000000,"state":"active","ping":272},{"user_id":61,"name":"Fuiherik","steam_id":76561199122094683,"connected_time":3020000000000,"state":"active","ping":50},{"user_id":58,"name":"MC_Void_0","steam_id":76561199148827012,"connected_time":4282000000000,"state":"active","ping":220},{"user_id":55,"name":"海超人","steam_id":76561199169553351,"connected_time":4517000000000,"state":"active","ping":346},{"user_id":67,"name":"Waca_rel","steam_id":76561199020768213,"connected_time":1574000000000,"state":"active","ping":58}]},{"server_id":51,"name":"Uncletopia | Warsaw | 3 | All Maps","name_short":"waw-3","host":"waw-1.pl.uncletopia.com","port":27035,"enabled":true,"region":"eu","cc":"pl","latitude":52.2297,"longitude":21.017532,"reserved":0,"last_update":"0001-01-01T00:00:00Z","name_a2s":"Uncletopia | Warsaw | 3 | All Maps","protocol":17,"map":"koth_highpass","folder":"tf","game":"Team Fortress","app_id":440,"player_count":0,"max_players":24,"Bots":0,"server_type":"Dedicated","server_os":"Linux","password":true,"vac":true,"version":"7961495","steam_id":85568392925397852,"keywords":["cp","nocrits","nodmgspread","uncletopia"],"game_id":440,"stv_port":27036,"stv_name":"Uncletopia | Warsaw | 3 | All Maps | STV","players":null},{"server_id":52,"name":"Uncletopia | Warsaw | 4 | All Maps","name_short":"waw-4","host":"waw-1.pl.uncletopia.com","port":27045,"enabled":true,"region":"eu","cc":"pl","latitude":52.2297,"longitude":21.017532,"reserved":0,"last_update":"0001-01-01T00:00:00Z","name_a2s":"Uncletopia | Warsaw | 4 | All Maps","protocol":17,"map":"koth_highpass","folder":"tf","game":"Team Fortress","app_id":440,"player_count":0,"max_players":24,"Bots":0,"server_type":"Dedicated","server_os":"Linux","password":true,"vac":true,"version":"7961495","steam_id":85568392925397853,"keywords":["cp","nocrits","nodmgspread","uncletopia"],"game_id":440,"stv_port":27046,"stv_name":"Uncletopia | Warsaw | 4 | All Maps | STV","players":null},{"server_id":53,"name":"Uncletopia | Warsaw | 5 | Stopwatch","name_short":"waw-5","host":"waw-1.pl.uncletopia.com","port":27055,"enabled":true,"region":"eu","cc":"pl","latitude":52.2297,"longitude":21.017532,"reserved":0,"last_update":"0001-01-01T00:00:00Z","name_a2s":"Uncletopia | Warsaw | 5 | Stopwatch","protocol":17,"map":"workshop/koth_clearcut_b15.ugc2107050255","folder":"tf","game":"Team Fortress","app_id":440,"player_count":0,"max_players":24,"Bots":0,"server_type":"Dedicated","server_os":"Linux","password":true,"vac":true,"version":"7961495","steam_id":85568392925397854,"keywords":["cp","nocrits","nodmgspread","uncletopia"],"game_id":440,"stv_port":27056,"stv_name":"Uncletopia | Warsaw | 5 | Stopwatch | STV","players":null},{"server_id":54,"name":"Uncletopia | Warsaw | 6 | Community","name_short":"waw-6","host":"waw-1.pl.uncletopia.com","port":27065,"enabled":true,"region":"eu","cc":"pl","latitude":52.2297,"longitude":21.017532,"reserved":0,"last_update":"0001-01-01T00:00:00Z","name_a2s":"Uncletopia | Warsaw | 6 | Community","protocol":17,"map":"workshop/pl_highwood_b19.ugc1769496557","folder":"tf","game":"Team Fortress","app_id":440,"player_count":0,"max_players":24,"Bots":0,"server_type":"Dedicated","server_os":"Linux","password":true,"vac":true,"version":"7961495","steam_id":85568392925397856,"keywords":["nocrits","nodmgspread","payload","uncletopia"],"game_id":440,"stv_port":27066,"stv_name":"Uncletopia | Warsaw | 6 | Community | STV","players":null}]}