{"status":true,"message":"","result":[{"server_id":9,"name":"Uncletopia | Atlanta | 1 | All Maps","name_short":"atl-1","host":"atl-1.us.uncletopia.com","port":27015,"enabled":true,"region":"us-east","cc":"us","latitude":33.753746,"longitude":-84.38633,"reserved":0,"last_update":"0001-01-01T00:00:00Z","name_a2s":"Uncletopia | Atlanta | 1 | All Maps","protocol":17,"map":"pl_snowycoast","folder":"tf","game":"Team Fortress","app_id":440,"player_count":24,"max_players":24,"Bots":0,"server_type":"Dedicated","server_os":"Linux","password":true,"vac":true,"version":"7961495","steam_id":85568392924469982,"keywords":["nocrits","nodmgspread","payload","uncletopia"],"game_id":440,"stv_port":27016,"stv_name":"Uncletopia | Atlanta | 1 | All Maps | STV","players":[{"user_id":339,"name":"twitch.tv/kegaman_","steam_id":76561198043632775,"connected_time":328000000000,"state":"active","ping":114},{"user_id":337,"name":"lu","steam_id":76561198080731872,"connected_time":470000000000,"state":"active","ping":75},{"user_id":306,"name":"loot","steam_id":76561198069954956,"connected_time":3501000000000,"state":"active","ping":46},{"user_id":296,"name":"Nic0","steam_id":76561198305690218,"connected_time":4537000000000,"state":"active","ping":83},{"user_id":252,"name":"Sucsubot","steam_id":76561198106456128,"connected_time":7615000000000,"state":"active","ping":60},{"user_id":254,"name":"Zoratunictoon","steam_id":76561199475066871,"connected_time":7544000000000,"state":"active","ping":52},{"user_id":316,"name":"hyazz","steam_id":76561199100342013,"connected_time":2933000000000,"state":"active","ping":97},{"user_id":298,"name":"com lag","steam_id":76561198019019392,"connected_time":4275000000000,"state":"active","ping":61},{"user_id":287,"name":"kacks","steam_id":76561198069407519,"connected_time":4999000000000,"state":"active","ping":70},{"user_id":282,"name":"chiswola","steam_id":76561198046920142,"connected_time":5370000000000,"state":"active","ping":83},{"user_id":319,"name":"Chris Duo","steam_id":76561198312765677,"connected_time":2852000000000,"state":"active","ping":48},{"user_id":320,"name":"I hate red team","steam_id":76561198064127012,"connected_time":2790000000000,"state":"active","ping":50},{"user_id":325,"name":"Sinta","steam_id":76561198098398841,"connected_time":2428000000000,"state":"active","ping":60},{"user_id":265,"name":"Intro Bonito","steam_id":76561198119478838,"connected_time":6669000000000,"state":"active","ping":49},{"user_id":334,"name":"ash","steam_id":76561198127890645,"connected_time":476000000000,"state":"active","ping":66},{"user_id":213,"name":"ATL1 | cola","steam_id":76561198374390458,"connected_time":10675000000000,"state":"active","ping":55},{"user_id":344,"name":"Electroid","steam_id":76561199092263960,"connected_time":33000000000,"state":"active","ping":48},{"user_id":330,"name":"Thotimus Begonimus","steam_id":76561197970275938,"connected_time":817000000000,"state":"active","ping":46},{"user_id":318,"name":"Kc","steam_id":76561198210734407,"connected_time":2882000000000,"state":"active","ping":60},{"user_id":290,"name":"Grazzunk","steam_id":76561198290227691,"connected_time":4966000000000,"state":"active","ping":70},{"user_id":304,"name":"Le4n!!!","steam_id":76561198045522596,"connected_time":3529000000000,"state":"active","ping":71},{"user_id":321,"name":"Traceback","steam_id":76561197993212340,"connected_time":2685000000000,"state":"active","ping":86},{"user_id":328,"name":"NeptuneÀñ‚Å∫ÔΩ°Àö‚ãÜÀô‚ô•","steam_id":76561199054203198,"connected_time":2223000000000,"state":"active","ping":66},{"user_id":338,"name":"chrissweep","steam_id":76561198072826791,"connected_time":467000000000,"state":"active","ping":81}]},{"server_id":104,"name":"Uncletopia | Atlanta | 2 | All Maps","name_short":"atl-2","host":"atl-1.us.uncletopia.com","port":27025,"enabled":true,"region":"us-east","cc":"us","latitude":33.753746,"longitude":-84.38633,"reserved":0,"last_update":"0001-01-01T00:00:00Z","name_a2s":"Uncletopia | Atlanta | 2 | All Maps","protocol":17,"map":"pl_badwater","folder":"tf","game":"Team Fortress","app_id":440,"player_count":24,"max_players":24,"Bots":0,"server_type":"Dedicated","server_os":"Linux","password":true,"vac":true,"version":"7961495","steam_id":85568392924469983,"keywords":["nocrits","nodmgspread","payload","uncletopia"],"game_id":440,"stv_port":27026,"stv_name":"Uncletopia | Atlanta | 2 | All Maps | STV","players":[{"user_id":259,"name":"The Gentrified Urge","steam_id":76561198073314154,"connected_time":804000000000,"state":"active","ping":71},{"user_id":243,"name":"brains","steam_id":76561198197388678,"connected_time":1726000000000,"state":"active","ping":45},{"user_id":149,"name":"metalfan666","steam_id":76561198386344068,"connected_time":9364000000000,"state":"active","ping":75},{"user_id":212,"name":"dingle dongler","steam_id":76561198072986994,"connected_time":4605000000000,"state":"active","ping":62},{"user_id":202,"name":"ndvr (femboy (REAL))","steam_id":76561199379200102,"connected_time":5469000000000,"state":"active","ping":59},{"user_id":255,"name":"hayes","steam_id":76561198057101042,"connected_time":868000000000,"state":"active","ping":70},{"user_id":233,"name":"Egg","steam_id":76561199075359963,"connected_time":2907000000000,"state":"active","ping":75},{"user_id":252,"name":"PK","steam_id":76561198368722500,"connected_time":898000000000,"state":"active","ping":60},{"user_id":263,"name":"Bajookanese E Thug","steam_id":76561198067176829,"connected_time":132000000000,"state":"active","ping":96},{"user_id":198,"name":"El Bondin","steam_id":76561198820792434,"connected_time":6295000000000,"state":"active","ping":89},{"user_id":244,"name":"cc.BaconBlitz","steam_id":76561198079461770,"connected_time":1523000000000,"state":"active","ping":77},{"user_id":234,"name":"shitass | troutsupply.net","steam_id":76561198210572481,"connected_time":2579000000000,"state":"active","ping":81},{"user_id":260,"name":"1HandsomeLAD","steam_id":76561198807047496,"connected_time":793000000000,"state":"active","ping":60},{"user_id":249,"name":"Evasive‚òÜ","steam_id":76561199184818576,"connected_time":1066000000000,"state":"active","ping":116},{"user_id":254,"name":"ICanOnlySeeMyHands02","steam_id":76561199467713448,"connected_time":886000000000,"state":"active","ping":81},{"user_id":256,"name":"Uung","steam_id":76561198183956731,"connected_time":857000000000,"state":"active","ping":78},{"user_id":209,"name":"beats its 16:38","steam_id":76561199245717718,"connected_time":4693000000000,"state":"active","ping":75},{"user_id":227,"name":"J The Jounin","steam_id":76561198034583622,"connected_time":3423000000000,"state":"active","ping":49},{"user_id":261,"name":"The Grim Heaper","steam_id":76561197987759101,"connected_time":371000000000,"state":"active","ping":118},{"user_id":216,"name":"Notsocreative","steam_id":76561198236372202,"connected_time":4490000000000,"state":"active","ping":79},{"user_id":262,"name":"Ashe is Kiriko main","steam_id":76561198245775974,"connected_time":315000000000,"state":"active","ping":140},{"user_id":257,"name":"Soviet Person","steam_id":76561199217938111,"connected_time":854000000000,"state":"active","ping":90},{"user_id":258,"name":"Arrythmia","steam_id":76561198093748123,"connected_time":822000000000,"state":"active","ping":118},{"user_id":218,"name":"Nestor","steam_id":76561198070782619,"connected_time":4416000000000,"state":"active","ping":76}]},{"server_id":400,"name":"Uncletopia | Atlanta | 3 | Stopwatch","name_short":"atl-3","host":"atl-1.us.uncletopia.com","port":27035,"enabled":true,"region":"us-east","cc":"us","latitude":33.753746,"longitude":-84.38633,"reserved":0,"last_update":"0001-01-01T00:00:00Z","name_a2s":"Uncletopia | Atlanta | 3 | Stopwatch","protocol":17,"map":"workshop/koth_product_final.ugc454272353","folder":"tf","game":"Team Fortress","app_id":440,"player_count":0,"max_players":24,"Bots":0,"server_type":"Dedicated","server_os":"Linux","password":true,"vac":true,"version":"7961495","steam_id":85568392924515187,"keywords":["cp","nocrits","nodmgspread","uncletopia"],"game_id":440,"stv_port":27036,"stv_name":"Uncletopia | Atlanta | 3 | Stopwatch | STV","players":null},{"server_id":401,"name":"Uncletopia | Atlanta | 4 | Community","name_short":"atl-4","host":"atl-1.us.uncletopia.com","port":27045,"enabled":true,"region":"us-east","cc":"us","latitude":33.753746,"longitude":-84.38633,"reserved":0,"last_update":"0001-01-01T00:00:00Z","name_a2s":"Uncletopia | Atlanta | 4 | Community","protocol":17,"map":"workshop/pl_boundary_final1.ugc456799153","folder":"tf","game":"Team Fortress","app_id":440,"player_count":0,"max_players":24,"Bots":0,"server_type":"Dedicated","server_os":"Linux","password":true,"vac":true,"version":"7961495","steam_id":85568392924515188,"keywords":["nocrits","nodmgspread","payload","uncletopia"],"game_id":440,"stv_port":27046,"stv_name":"Uncletopia | Atlanta | 4 | Community | STV","players":null},{"server_id":2,"name":"Uncletopia | Chicago | 1 | All Maps","name_short":"chi-1","host":"chi-1.us.uncletopia.com","port":27015,"enabled":true,"region":"us-central","cc":"us","latitude":41.881832,"longitude":-87.62318,"reserved":0,"last_update":"0001-01-01T00:00:00Z","name_a2s":"Uncletopia | Chicago | 1 | All Maps","protocol":17,"map":"pl_barnblitz","folder":"tf","game":"Team Fortress","app_id":440,"player_count":24,"max_players":24,"Bots":0,"server_type":"Dedicated","server_os":"Linux","password":true,"vac":true,"version":"7961495","steam_id":85568392924469984,"keywords":["nocrits","nodmgspread","payload","uncletopia"],"game_id":440,"stv_port":27016,"stv_name":"Uncletopia | Chicago | 1 | All Maps | STV","players":[{"user_id":476,"name":"paypur -rng","steam_id":76561198214370515,"connected_time":754000000000,"state":"active","ping":100},{"user_id":477,"name":"maelis","steam_id":76561198008673282,"connected_time":737000000000,"state":"active","ping":71},{"user_id":472,"name":"Skudge Sister","steam_id":76561198041766766,"connected_time":1301000000000,"state":"active","ping":52},{"user_id":482,"name":"Chicken Nugget","steam_id":76561198082601232,"connected_time":154000000000,"state":"active","ping":62},{"user_id":483,"name":"leumas","steam_id":76561198240408540,"connected_time":149000000000,"state":"active","ping":73},{"user_id":484,"name":"cyclops","steam_id":76561197970370198,"connected_time":104000000000,"state":"active","ping":52},{"user_id":443,"name":"CrŒªf227","steam_id":76561198196211121,"connected_time":3428000000000,"state":"active","ping":90},{"user_id":445,"name":"Natsuki the Scunt","steam_id":76561199175922684,"connected_time":3396000000000,"state":"active","ping":116},{"user_id":485,"name":"Drapph","steam_id":76561199384213314,"connected_time":96000000000,"state":"active","ping":55},{"user_id":486,"name":"Mads Mikkelsen","steam_id":76561198083482001,"connected_time":92000000000,"state":"active","ping":135},{"user_id":368,"name":"Siz","steam_id":76561198072962154,"connected_time":9084000000000,"state":"active","ping":62},{"user_id":447,"name":"Jason","steam_id":76561198107058140,"connected_time":3380000000000,"state":"active","ping":60},{"user_id":487,"name":"Cool","steam_id":76561198396754263,"connected_time":70000000000,"state":"active","ping":179},{"user_id":470,"name":"Sentry Gun (American)","steam_id":76561198313770809,"connected_time":1360000000000,"state":"active","ping":52},{"user_id":474,"name":"the keebler","steam_id":76561199486326945,"connected_time":1249000000000,"state":"active","ping":85},{"user_id":454,"name":"Skab E¬≤r","steam_id":76561199126112357,"connected_time":3105000000000,"state":"active","ping":81},{"user_id":460,"name":"Strange Diplomat","steam_id":76561198428191920,"connected_time":2133000000000,"state":"active","ping":70},{"user_id":456,"name":"Local Eliksni Enjoyer","steam_id":76561198122725834,"connected_time":2326000000000,"state":"active","ping":57},{"user_id":488,"name":"Grill Skills","steam_id":76561198053575147,"connected_time":22000000000,"state":"active","ping":95},{"user_id":468,"name":"Sir Massacre","steam_id":76561198118007442,"connected_time":1648000000000,"state":"active","ping":64},{"user_id":449,"name":"ark","steam_id":76561198041066271,"connected_time":3374000000000,"state":"active","ping":80},{"user_id":418,"name":"pikasalt","steam_id":76561198060890973,"connected_time":4867000000000,"state":"active","ping":63},{"user_id":475,"name":"neil","steam_id":76561198122666918,"connected_time":1038000000000,"state":"active","ping":64},{"user_id":479,"name":"B.","steam_id":76561198040445907,"connected_time":713000000000,"state":"active","ping":76}]},{"server_id":106,"name":"Uncletopia | Chicago | 2 | All Maps","name_short":"chi-2","host":"chi-1.us.uncletopia.com","port":27025,"enabled":true,"region":"us-central","cc":"us","latitude":41.881832,"longitude":-87.62318,"reserved":0,"last_update":"0001-01-01T00:00:00Z","name_a2s":"Uncletopia | Chicago | 2 | All Maps","protocol":17,"map":"koth_suijin","folder":"tf","game":"Team Fortress","app_id":440,"player_count":23,"max_players":24,"Bots":0,"server_type":"Dedicated","server_os":"Linux","password":true,"vac":true,"version":"7961495","steam_id":85568392924469985,"keywords":["cp","nocrits","nodmgspread","uncletopia"],"game_id":440,"stv_port":27026,"stv_name":"Uncletopia | Chicago | 2 | All Maps | STV","players":[{"user_id":336,"name":"Shark Sandwich","steam_id":76561198025007938,"connected_time":1118000000000,"state":"active","ping":79},{"user_id":329,"name":"Cowabummer","steam_id":76561198272640432,"connected_time":1568000000000,"state":"active","ping":87},{"user_id":316,"name":"dave strider","steam_id":76561198065112186,"connected_time":2414000000000,"state":"active","ping":59},{"user_id":337,"name":"Anomalous Materials Scientist","steam_id":76561198092542997,"connected_time":1071000000000,"state":"active","ping":61},{"user_id":294,"name":"Scarecrow","steam_id":76561198045870511,"connected_time":3949000000000,"state":"active","ping":49},{"user_id":346,"name":"Blaze","steam_id":76561198043797702,"connected_time":921000000000,"state":"active","ping":49},{"user_id":311,"name":"Kirby.exe","steam_id":76561198242714582,"connected_time":2841000000000,"state":"active","ping":65},{"user_id":348,"name":"Oli B\u003eQS/BP/Bulk w/ 1.5k+ keys","steam_id":76561198140316312,"connected_time":655000000000,"state":"active","ping":47},{"user_id":268,"name":"loscemo","steam_id":76561197994884609,"connected_time":5049000000000,"state":"active","ping":57},{"user_id":341,"name":"People's_Hero","steam_id":76561198103255788,"connected_time":1041000000000,"state":"active","ping":60},{"user_id":352,"name":"Mix","steam_id":76561198835593895,"connected_time":177000000000,"state":"active","ping":55},{"user_id":277,"name":"runescape legend","steam_id":76561198077791373,"connected_time":4578000000000,"state":"active","ping":48},{"user_id":339,"name":"Im totally a hacker","steam_id":76561198888005736,"connected_time":1053000000000,"state":"active","ping":72},{"user_id":303,"name":"Chezaus","steam_id":76561198317397837,"connected_time":3324000000000,"state":"active","ping":54},{"user_id":324,"name":"you just got dyked on","steam_id":76561198018977723,"connected_time":1945000000000,"state":"active","ping":94},{"user_id":330,"name":"CheekiBreeki","steam_id":76561198008596138,"connected_time":1511000000000,"state":"active","ping":73},{"user_id":335,"name":"Gwuf","steam_id":76561198091503282,"connected_time":1225000000000,"state":"active","ping":118},{"user_id":342,"name":"V_","steam_id":76561198147577835,"connected_time":1031000000000,"state":"active","ping":76},{"user_id":353,"name":"TheRkey","steam_id":76561198989187114,"connected_time":109000000000,"state":"active","ping":77},{"user_id":308,"name":"Greg","steam_id":76561198803498467,"connected_time":3082000000000,"state":"active","ping":127},{"user_id":343,"name":"THEY DONT KNOWWWWWW","steam_id":76561198062991744,"connected_time":1014000000000,"state":"active","ping":67},{"user_id":344,"name":"Your Dad","steam_id":76561198159339442,"connected_time":992000000000,"state":"active","ping":79},{"user_id":347,"name":"undersea cucumber enjoyer","steam_id":76561199161546139,"connected_time":749000000000,"state":"active","ping":107}]},{"server_id":402,"name":"Uncletopia | Chicago | 3 | All Maps","name_short":"chi-3","host":"chi-1.us.uncletopia.com","port":27035,"enabled":true,"region":"us-central","cc":"us","latitude":41.881832,"longitude":-87.62318,"reserved":0,"last_update":"0001-01-01T00:00:00Z","name_a2s":"Uncletopia | Chicago | 3 | All Maps","protocol":17,"map":"koth_nucleus","folder":"tf","game":"Team Fortress","app_id":440,"player_count":17,"max_players":24,"Bots":0,"server_type":"Dedicated","server_os":"Linux","password":true,"vac":true,"version":"7961495","steam_id":85568392924515191,"keywords":["cp","nocrits","nodmgspread","uncletopia"],"game_id":440,"stv_port":27036,"stv_name":"Uncletopia | Chicago | 3 | All Maps | STV","players":[{"user_id":19,"name":"Wild_Rumpus","steam_id":76561198066393719,"connected_time":951000000000,"state":"active","ping":59},{"user_id":15,"name":"bane","steam_id":76561198196769297,"connected_time":1550000000000,"state":"active","ping":55},{"user_id":31,"name":"the sledgehammer train","steam_id":76561198053967778,"connected_time":455000000000,"state":"active","ping":57},{"user_id":18,"name":"grant.grunt1","steam_id":76561199250281308,"connected_time":1188000000000,"state":"active","ping":66},{"user_id":23,"name":"Death","steam_id":76561199056514770,"connected_time":742000000000,"state":"active","ping":90},{"user_id":24,"name":"Rat That Lives on 2Fort","steam_id":76561199146979767,"connected_time":664000000000,"state":"active","ping":65},{"user_id":25,"name":"dnasty","steam_id":76561199060575719,"connected_time":598000000000,"state":"active","ping":82},{"user_id":26,"name":"benjamator67","steam_id":76561198209002860,"connected_time":592000000000,"state":"active","ping":39},{"user_id":33,"name":"Lilgreen08","steam_id":76561198355516359,"connected_time":299000000000,"state":"active","ping":69},{"user_id":28,"name":"Wagemage","steam_id":76561198013625580,"connected_time":576000000000,"state":"active","ping":62},{"user_id":38,"name":"CF-TF2","steam_id":76561198145893044,"connected_time":75000000000,"state":"active","ping":64},{"user_id":34,"name":"The_Incredibadger","steam_id":76561198418968116,"connected_time":284000000000,"state":"active","ping":79},{"user_id":35,"name":"Someguu","steam_id":76561199029835350,"connected_time":209000000000,"state":"active","ping":83},{"user_id":36,"name":"soop","steam_id":76561199486461335,"connected_time":122000000000,"state":"active","ping":58},{"user_id":37,"name":"2bcoffee","steam_id":76561198810469767,"connected_time":114000000000,"state":"active","ping":77},{"user_id":39,"name":"knucklehead","steam_id":76561198189869635,"connected_time":21000000000,"state":"active","ping":71},{"user_id":40,"name":"Passionate Map Researcher","steam_id":76561199490508357,"connected_time":19000000000,"state":"active","ping":58}]},{"server_id":403,"name":"Uncletopia | Chicago | 4 | All Maps","name_short":"chi-4","host":"chi-1.us.uncletopia.com","port":27045,"enabled":true,"region":"us-central","cc":"us","latitude":41.881832,"longitude":-87.62318,"reserved":0,"last_update":"0001-01-01T00:00:00Z","name_a2s":"Uncletopia | Chicago | 4 | All Maps","protocol":17,"map":"pl_goldrush","folder":"tf","game":"Team Fortress","app_id":440,"player_count":24,"max_players":24,"Bots":0,"server_type":"Dedicated","server_os":"Linux","password":true,"vac":true,"version":"7961495","steam_id":85568392924515193,"keywords":["nocrits","nodmgspread","payload","uncletopia"],"game_id":440,"stv_port":27046,"stv_name":"Uncletopia | Chicago | 4 | All Maps | STV","players":[{"user_id":233,"name":"ShaqtusHD(She/Her)","steam_id":76561199138286233,"connected_time":3254000000000,"state":"active","ping":56},{"user_id":228,"name":"SpycyNoodles","steam_id":76561198309439750,"connected_time":3526000000000,"state":"active","ping":51},{"user_id":285,"name":"Chadmander","steam_id":76561197974136337,"connected_time":140000000000,"state":"active","ping":42},{"user_id":271,"name":"nick","steam_id":76561198090776040,"connected_time":903000000000,"state":"active","ping":75},{"user_id":281,"name":"SPYCHECK ME","steam_id":76561198980994364,"connected_time":697000000000,"state":"active","ping":84},{"user_id":255,"name":"mr ploobmeister","steam_id":76561198128908529,"connected_time":1938000000000,"state":"active","ping":82},{"user_id":241,"name":"Piyono","steam_id":76561197962188504,"connected_time":2604000000000,"state":"active","ping":55},{"user_id":284,"name":"Unfortunate Son","steam_id":76561199123285878,"connected_time":179000000000,"state":"active","ping":82},{"user_id":273,"name":"mkl","steam_id":76561197986401685,"connected_time":898000000000,"state":"active","ping":86},{"user_id":283,"name":"Provocator","steam_id":76561197961830410,"connected_time":315000000000,"state":"active","ping":65},{"user_id":257,"name":"RyInc","steam_id":76561198874261643,"connected_time":1923000000000,"state":"active","ping":46},{"user_id":156,"name":"Newborn In wet paper bag","steam_id":76561199043933182,"connected_time":7725000000000,"state":"active","ping":60},{"user_id":274,"name":"Slepii","steam_id":76561198881786224,"connected_time":865000000000,"state":"active","ping":75},{"user_id":279,"name":"YAMATO!","steam_id":76561199072831740,"connected_time":745000000000,"state":"active","ping":63},{"user_id":191,"name":"T√ñZI","steam_id":76561198045268695,"connected_time":5642000000000,"state":"active","ping":69},{"user_id":231,"name":"mrpineapple070","steam_id":76561199088278757,"connected_time":3441000000000,"state":"active","ping":91},{"user_id":276,"name":"HeidiBTW","steam_id":76561198889596543,"connected_time":824000000000,"state":"active","ping":63},{"user_id":277,"name":"THOTDADDY","steam_id":76561198069868942,"connected_time":807000000000,"state":"active","ping":69},{"user_id":246,"name":"KunveX","steam_id":76561197978022896,"connected_time":2278000000000,"state":"active","ping":57},{"user_id":278,"name":"Brandino!","steam_id":76561198000446932,"connected_time":800000000000,"state":"active","ping":78},{"user_id":267,"name":"Jessicamustdie","steam_id":76561198045230921,"connected_time":1510000000000,"state":"active","ping":64},{"user_id":266,"name":"3ggsalad3","steam_id":76561199386969191,"connected_time":1635000000000,"state":"active","ping":59},{"user_id":280,"name":"PhantaZm","steam_id":76561198049362351,"connected_time":721000000000,"state":"active","ping":91}]},{"server_id":36,"name":"Uncletopia | Chicago | 5 | All Maps","name_short":"chi-5","host":"chi-2.us.uncletopia.com","port":27015,"enabled":true,"region":"us-central","cc":"us","latitude":41.881832,"longitude":-87.62318,"reserved":0,"last_update":"0001-01-01T00:00:00Z","name_a2s":"Uncletopia | Chicago | 5 | All Maps","protocol":17,"map":"cp_process_final","folder":"tf","game":"Team Fortress","app_id":440,"player_count":23,"max_players":24,"Bots":0,"server_type":"Dedicated","server_os":"Linux","password":true,"vac":true,"version":"7961495","steam_id":85568392924866362,"keywords":["cp","nocrits","nodmgspread","uncletopia"],"game_id":440,"stv_port":27016,"stv_name":"Uncletopia | Chicago | 5 | All Maps | STV","players":[{"user_id":207,"name":"harambe 101","steam_id":76561198366850003,"connected_time":186000000000,"state":"active","ping":105},{"user_id":202,"name":"Cosmic Torgue","steam_id":76561198828724945,"connected_time":697000000000,"state":"active","ping":69},{"user_id":187,"name":"Salt Baron","steam_id":76561198073417386,"connected_time":2541000000000,"state":"active","ping":100},{"user_id":158,"name":"deity main","steam_id":76561199251639888,"connected_time":4571000000000,"state":"active","ping":57},{"user_id":208,"name":"otwtomarsoffdabars(spacecore)","steam_id":76561199085974120,"connected_time":120000000000,"state":"active","ping":60},{"user_id":174,"name":"MOB101","steam_id":76561198360491038,"connected_time":3013000000000,"state":"active","ping":66},{"user_id":205,"name":"Interrobang","steam_id":76561198385044529,"connected_time":495000000000,"state":"active","ping":153},{"user_id":157,"name":"vom","steam_id":76561198070311363,"connected_time":4585000000000,"state":"active","ping":58},{"user_id":195,"name":"Kohuh","steam_id":76561198861737544,"connected_time":1215000000000,"state":"active","ping":56},{"user_id":192,"name":"Draco6257","steam_id":76561199147322448,"connected_time":1621000000000,"state":"active","ping":58},{"user_id":176,"name":"Chai","steam_id":76561198044327873,"connected_time":2944000000000,"state":"active","ping":59},{"user_id":194,"name":"Nyriss","steam_id":76561198098631397,"connected_time":1283000000000,"state":"active","ping":53},{"user_id":201,"name":"ZonedIn","steam_id":76561198042395286,"connected_time":936000000000,"state":"active","ping":97},{"user_id":206,"name":"Wey","steam_id":76561198089235065,"connected_time":459000000000,"state":"active","ping":84},{"user_id":203,"name":"Owl Pacino","steam_id":76561197979970666,"connected_time":677000000000,"state":"active","ping":59},{"user_id":191,"name":"Lost CS2 player","steam_id":76561198892387723,"connected_time":2040000000000,"state":"active","ping":68},{"user_id":197,"name":"Stupid","steam_id":76561198127348089,"connected_time":1156000000000,"state":"active","ping":74},{"user_id":184,"name":"tigermouse1939","steam_id":76561199078976251,"connected_time":2851000000000,"state":"active","ping":103},{"user_id":204,"name":"Volteer","steam_id":76561198069395024,"connected_time":652000000000,"state":"active","ping":79},{"user_id":186,"name":"tack","steam_id":76561198408477421,"connected_time":2833000000000,"state":"active","ping":75},{"user_id":159,"name":"Ditto","steam_id":76561198259871363,"connected_time":4569000000000,"state":"active","ping":101},{"user_id":139,"name":"Harry S. Truman","steam_id":76561197993339757,"connected_time":6046000000000,"state":"active","ping":74},{"user_id":199,"name":"The jesus guy (FRNK)","steam_id":76561198237997622,"connected_time":1132000000000,"state":"active","ping":170}]},{"server_id":37,"name":"Uncletopia | Chicago | 6 | All Maps","name_short":"chi-6","host":"chi-2.us.uncletopia.com","port":27025,"enabled":true,"region":"us-central","cc":"us","latitude":41.881832,"longitude":-87.62318,"reserved":0,"last_update":"0001-01-01T00:00:00Z","name_a2s":"Uncletopia | Chicago | 6 | All Maps","protocol":17,"map":"cp_snakewater_final1","folder":"tf","game":"Team Fortress","app_id":440,"player_count":17,"max_players":24,"Bots":0,"server_type":"Dedicated","server_os":"Linux","password":true,"vac":true,"version":"7961495","steam_id":85568392924866363,"keywords":["cp","nocrits","nodmgspread","uncletopia"],"game_id":440,"stv_port":27026,"stv_name":"Uncletopia | Chicago | 6 | All Maps | STV","players":[{"user_id":101,"name":"Notorious B","steam_id":76561198176966911,"connected_time":78000000000,"state":"active","ping":143},{"user_id":50,"name":"Sire Salty","steam_id":76561198079639072,"connected_time":3145000000000,"state":"active","ping":59},{"user_id":66,"name":"shnowshner","steam_id":76561198066450438,"connected_time":1145000000000,"state":"active","ping":73},{"user_id":56,"name":"sourrageous","steam_id":76561199454196717,"connected_time":2935000000000,"state":"active","ping":52},{"user_id":102,"name":"IlikeChowMien","steam_id":76561199466131782,"connected_time":78000000000,"state":"active","ping":70},{"user_id":103,"name":"Evie","steam_id":76561198967313085,"connected_time":20000000000,"state":"spawning","ping":103},{"user_id":99,"name":"Magma","steam_id":76561198108261173,"connected_time":127000000000,"state":"active","ping":58},{"user_id":68,"name":"james_bondage","steam_id":76561199476062624,"connected_time":1131000000000,"state":"active","ping":57},{"user_id":77,"name":"Dr. Eduardo","steam_id":76561198865808161,"connected_time":864000000000,"state":"active","ping":84},{"user_id":27,"name":"Overduecat","steam_id":76561198092452824,"connected_time":5076000000000,"state":"active","ping":55},{"user_id":57,"name":"corntent","steam_id":76561198824847948,"connected_time":2670000000000,"state":"active","ping":56},{"user_id":59,"name":"Mint Jelly","steam_id":76561197991286751,"connected_time":2095000000000,"state":"active","ping":49},{"user_id":84,"name":"Pacts Gornax","steam_id":76561198066256419,"connected_time":644000000000,"state":"active","ping":86},{"user_id":73,"name":"goblin","steam_id":76561199004451589,"connected_time":1055000000000,"state":"active","ping":67},{"user_id":75,"name":"The Devious DOOBIE Doer","steam_id":76561199263588898,"connected_time":1002000000000,"state":"active","ping":96},{"user_id":85,"name":"Glossophobial","steam_id":76561199013733143,"connected_time":624000000000,"state":"active","ping":62},{"user_id":42,"name":"hey thanks my friend","steam_id":76561199195104977,"connected_time":4738000000000,"state":"active","ping":69}]},{"server_id":38,"name":"Uncletopia | Chicago | 7 | Stopwatch","name_short":"chi-7","host":"chi-2.us.uncletopia.com","port":27035,"enabled":true,"region":"us-central","cc":"us","latitude":41.881832,"longitude":-87.62318,"reserved":0,"last_update":"0001-01-01T00:00:00Z","name_a2s":"Uncletopia | Chicago | 7 | Stopwatch","protocol":17,"map":"workshop/cp_process_f12.ugc2302948105","folder":"tf","game":"Team Fortress","app_id":440,"player_count":18,"max_players":24,"Bots":0,"server_type":"Dedicated","server_os":"Linux","password":true,"vac":true,"version":"7961495","steam_id":85568392924866364,"keywords":["cp","nocrits","nodmgspread","uncletopia"],"game_id":440,"stv_port":27036,"stv_name":"Uncletopia | Chicago | 7 | Stopwatch | STV","players":[{"user_id":56,"name":"dP | I'm in a Wookie Suit","steam_id":76561198083307644,"connected_time":1038000000000,"state":"active","ping":90},{"user_id":74,"name":"spicyninja","steam_id":76561199406641621,"connected_time":452000000000,"state":"active","ping":119},{"user_id":57,"name":"Stroodle","steam_id":76561198175533691,"connected_time":988000000000,"state":"active","ping":101},{"user_id":78,"name":"Locarpus","steam_id":76561198848384851,"connected_time":175000000000,"state":"active","ping":67},{"user_id":61,"name":"ZombeeNinja","steam_id":76561198122038563,"connected_time":762000000000,"state":"active","ping":116},{"user_id":51,"name":"raymond","steam_id":76561198046689829,"connected_time":1229000000000,"state":"active","ping":43},{"user_id":79,"name":"GRONT","steam_id":76561198040464533,"connected_time":20000000000,"state":"active","ping":60},{"user_id":52,"name":"VenANON","steam_id":76561198055676240,"connected_time":1218000000000,"state":"active","ping":67},{"user_id":62,"name":"kevin_minion","steam_id":76561198801147541,"connected_time":743000000000,"state":"active","ping":72},{"user_id":53,"name":"Olitude","steam_id":76561199238964574,"connected_time":1202000000000,"state":"active","ping":74},{"user_id":47,"name":"Smellfeast","steam_id":76561198418165673,"connected_time":1351000000000,"state":"active","ping":47},{"user_id":76,"name":"BK (King Buford)","steam_id":76561198272057200,"connected_time":360000000000,"state":"active","ping":93},{"user_id":30,"name":"cran","steam_id":76561198178840075,"connected_time":2145000000000,"state":"active","ping":65},{"user_id":31,"name":"Dabloon Cat","steam_id":76561198929533193,"connected_time":2140000000000,"state":"active","ping":68},{"user_id":59,"name":"Sylvain","steam_id":76561198113385271,"connected_time":954000000000,"state":"active","ping":78},{"user_id":42,"name":"‡ºò ‚ãÜÀöüéßCaffeine‚òï*Àñ¬∞","steam_id":76561199259309294,"connected_time":1615000000000,"state":"active","ping":56},{"user_id":37,"name":"Breve","steam_id":76561198065141099,"connected_time":1951000000000,"state":"active","ping":72},{"user_id":64,"name":"rgl banned for vandalism","steam_id":76561198194471251,"connected_time":725000000000,"state":"active","ping":60}]},{"server_id":39,"name":"Uncletopia | Chicago | 8 | Community","name_short":"chi-8","host":"chi-2.us.uncletopia.com","port":27045,"enabled":true,"region":"us-central","cc":"us","latitude":41.881832,"longitude":-87.62318,"reserved":0,"last_update":"0001-01-01T00:00:00Z","name_a2s":"Uncletopia | Chicago | 8 | Community","protocol":17,"map":"workshop/koth_slaughter_rc1.ugc1712845210","folder":"tf","game":"Team Fortress","app_id":440,"player_count":2,"max_players":24,"Bots":0,"server_type":"Dedicated","server_os":"Linux","password":true,"vac":true,"version":"7961495","steam_id":85568392924866365,"keywords":["cp","nocrits","nodmgspread","uncletopia"],"game_id":440,"stv_port":27046,"stv_name":"Uncletopia | Chicago | 8 | Community | STV","players":[{"user_id":9,"name":"kicks","steam_id":76561199228854923,"connected_time":214000000000,"state":"active","ping":45},{"user_id":11,"name":"jam ice cream","steam_id":76561198253709930,"connected_time":99000000000,"state":"active","ping":225}]},{"server_id":8,"name":"Uncletopia | Dallas | 1 | All Maps","name_short":"dal-1","host":"dal-1.us.uncletopia.com","port":27015,"enabled":true,"region":"us-central","cc":"us","latitude":32.779167,"longitude":-96.80889,"reserved":0,"last_update":"0001-01-01T00:00:00Z","name_a2s":"Uncletopia | Dallas | 1 | All Maps","protocol":17,"map":"koth_lakeside_final","folder":"tf","game":"Team Fortress","app_id":440,"player_count":0,"max_players":24,"Bots":0,"server_type":"Dedicated","server_os":"Linux","password":true,"vac":true,"version":"7961495","steam_id":85568392924469986,"keywords":["cp","nocrits","nodmgspread","uncletopia"],"game_id":440,"stv_port":27016,"stv_name":"Uncletopia | Dallas | 1 | All Maps | STV","players":null},{"server_id":108,"name":"Uncletopia | Dallas | 2 | All Maps","name_short":"dal-2","host":"dal-1.us.uncletopia.com","port":27025,"enabled":true,"region":"us-central","cc":"us","latitude":32.779167,"longitude":-96.80889,"reserved":0,"last_update":"0001-01-01T00:00:00Z","name_a2s":"Uncletopia | Dallas | 2 | All Maps","protocol":17,"map":"pl_barnblitz","folder":"tf","game":"Team Fortress","app_id":440,"player_count":23,"max_players":24,"Bots":0,"server_type":"Dedicated","server_os":"Linux","password":true,"vac":true,"version":"7961495","steam_id":85568392924469988,"keywords":["nocrits","nodmgspread","payload","uncletopia"],"game_id":440,"stv_port":27026,"stv_name":"Uncletopia | Dallas | 2 | All Maps | STV","players":[{"user_id":163,"name":"Skiddy","steam_id":76561198125942665,"connected_time":273000000000,"state":"active","ping":92},{"user_id":121,"name":"Tmiracle","steam_id":76561198052375275,"connected_time":3290000000000,"state":"active","ping":81},{"user_id":155,"name":"Coolcat","steam_id":76561198180933957,"connected_time":533000000000,"state":"active","ping":46},{"user_id":156,"name":"Twinkus","steam_id":76561198209306929,"connected_time":526000000000,"state":"active","ping":75},{"user_id":152,"name":"Ali-B","steam_id":76561198274455701,"connected_time":909000000000,"state":"active","ping":90},{"user_id":168,"name":"Tomoscones","steam_id":76561198813586588,"connected_time":101000000000,"state":"active","ping":83},{"user_id":164,"name":"MiniatureTrumpet","steam_id":76561198807533157,"connected_time":271000000000,"state":"active","ping":75},{"user_id":159,"name":"BrewerBomb","steam_id":76561198194859558,"connected_time":468000000000,"state":"active","ping":64},{"user_id":169,"name":"StretchySnail59","steam_id":76561198073535005,"connected_time":95000000000,"state":"active","ping":75},{"user_id":166,"name":"Penrose42","steam_id":76561198288577396,"connected_time":251000000000,"state":"active","ping":84},{"user_id":135,"name":"TacoMan4Life","steam_id":76561198832562728,"connected_time":1863000000000,"state":"active","ping":82},{"user_id":108,"name":"V. G. Sunderland","steam_id":76561198161839980,"connected_time":4535000000000,"state":"active","ping":88},{"user_id":162,"name":"Max_Attack","steam_id":76561198944028607,"connected_time":318000000000,"state":"active","ping":90},{"user_id":88,"name":"Bond","steam_id":76561198089262776,"connected_time":5968000000000,"state":"active","ping":44},{"user_id":158,"name":"Doctor Yiff","steam_id":76561199069629037,"connected_time":515000000000,"state":"active","ping":90},{"user_id":126,"name":"Certified Hood Classic","steam_id":76561199086159354,"connected_time":2784000000000,"state":"active","ping":49},{"user_id":118,"name":"N√º√æ","steam_id":76561198043956703,"connected_time":3456000000000,"state":"active","ping":79},{"user_id":117,"name":"North","steam_id":76561198814844969,"connected_time":3487000000000,"state":"active","ping":70},{"user_id":160,"name":"Draekonik","steam_id":76561198327492856,"connected_time":467000000000,"state":"active","ping":90},{"user_id":109,"name":"selvhat","steam_id":76561198114225509,"connected_time":4526000000000,"state":"active","ping":75},{"user_id":141,"name":"Cyxzar","steam_id":76561198214066477,"connected_time":1730000000000,"state":"active","ping":51},{"user_id":120,"name":"Elias","steam_id":76561198106431732,"connected_time":3313000000000,"state":"active","ping":88},{"user_id":127,"name":"Smoothpolishness","steam_id":76561198029084002,"connected_time":2768000000000,"state":"active","ping":67}]},{"server_id":404,"name":"Uncletopia | Dallas | 3 | All Maps","name_short":"dal-3","host":"dal-1.us.uncletopia.com","port":27035,"enabled":true,"region":"us-central","cc":"us","latitude":32.779167,"longitude":-96.80889,"reserved":0,"last_update":"0001-01-01T00:00:00Z","name_a2s":"Uncletopia | Dallas | 3 | All Maps","protocol":17,"map":"pl_upward","folder":"tf","game":"Team Fortress","app_id":440,"player_count":0,"max_players":24,"Bots":0,"server_type":"Dedicated","server_os":"Linux","password":true,"vac":true,"version":"7961495","steam_id":85568392924515219,"keywords":["nocrits","nodmgspread","payload","uncletopia"],"game_id":440,"stv_port":27036,"stv_name":"Uncletopia | Dallas | 3 | All Maps | STV","players":null},{"server_id":405,"name":"Uncletopia | Dallas | 4 | Community","name_short":"dal-4","host":"dal-1.us.uncletopia.com","port":27045,"enabled":true,"region":"us-central","cc":"us","latitude":32.779167,"longitude":-96.80889,"reserved":0,"last_update":"0001-01-01T00:00:00Z","name_a2s":"Uncletopia | Dallas | 4 | Community","protocol":17,"map":"workshop/koth_product_final.ugc454272353","folder":"tf","game":"Team Fortress","app_id":440,"player_count":0,"max_players":24,"Bots":0,"server_type":"Dedicated","server_os":"Linux","password":true,"vac":true,"version":"7961495","steam_id":85568392924515220,"keywords":["cp","nocrits","nodmgspread","uncletopia"],"game_id":440,"stv_port":27046,"stv_name":"Uncletopia | Dallas | 4 | Community | STV","players":null},{"server_id":5,"name":"Uncletopia | Frankfurt | 1 | All Maps","name_short":"frk-1","host":"frk-1.de.uncletopia.com","port":27015,"enabled":true,"region":"eu","cc":"de","latitude":50.110924,"longitude":8.682127,"reserved":0,"last_update":"0001-01-01T00:00:00Z","name_a2s":"Uncletopia | Frankfurt | 1 | All Maps","protocol":17,"map":"pl_borneo","folder":"tf","game":"Team Fortress","app_id":440,"player_count":14,"max_players":24,"Bots":0,"server_type":"Dedicated","server_os":"Linux","password":true,"vac":true,"version":"7961495","steam_id":85568392924469989,"keywords":["nocrits","nodmgspread","payload","uncletopia"],"game_id":440,"stv_port":27016,"stv_name":"Uncletopia | Frankfurt | 1 | All Maps | STV","players":[{"user_id":522,"name":"Picolas Cage","steam_id":76561199013233409,"connected_time":2274000000000,"state":"active","ping":71},{"user_id":546,"name":"√Çrrog√¢nt","steam_id":76561198134067528,"connected_time":861000000000,"state":"active","ping":58},{"user_id":517,"name":"wG silentes","steam_id":76561197999595616,"connected_time":2514000000000,"state":"active","ping":57},{"user_id":552,"name":"Team Fortress","steam_id":76561198058722801,"connected_time":402000000000,"state":"active","ping":52},{"user_id":548,"name":"Khrinde","steam_id":76561198036744526,"connected_time":753000000000,"state":"active","ping":103},{"user_id":554,"name":"GogsCrunchyNuts","steam_id":76561198150599213,"connected_time":220000000000,"state":"spawning","ping":83},{"user_id":488,"name":"max","steam_id":76561198039534890,"connected_time":3591000000000,"state":"active","ping":49},{"user_id":550,"name":"[503. ]captain swiftfingers","steam_id":76561198043684517,"connected_time":495000000000,"state":"active","ping":67},{"user_id":515,"name":"‚òÜ Shuck ‚òÜ","steam_id":76561198052478490,"connected_time":2669000000000,"state":"active","ping":47},{"user_id":551,"name":"dzirau","steam_id":76561198068680178,"connected_time":442000000000,"state":"active","ping":47},{"user_id":549,"name":"S ü…™·¥òE…¥O Ä","steam_id":76561197967931911,"connected_time":546000000000,"state":"active","ping":73},{"user_id":508,"name":"katana on the trains","steam_id":76561198202464032,"connected_time":2979000000000,"state":"active","ping":71},{"user_id":553,"name":"Bebol_420","steam_id":76561198074604296,"connected_time":386000000000,"state":"active","ping":47},{"user_id":521,"name":"Saucisse","steam_id":76561198119955969,"connected_time":2394000000000,"state":"active","ping":46}]},{"server_id":110,"name":"Uncletopia | Frankfurt | 2 | All Maps","name_short":"frk-2","host":"frk-1.de.uncletopia.com","port":27025,"enabled":true,"region":"eu","cc":"de","latitude":50.110924,"longitude":8.682127,"reserved":0,"last_update":"0001-01-01T00:00:00Z","name_a2s":"Uncletopia | Frankfurt | 2 | All Maps","protocol":17,"map":"koth_cascade","folder":"tf","game":"Team Fortress","app_id":440,"player_count":0,"max_players":24,"Bots":0,"server_type":"Dedicated","server_os":"Linux","password":true,"vac":true,"version":"7961495","steam_id":85568392924469990,"keywords":["cp","nocrits","nodmgspread","uncletopia"],"game_id":440,"stv_port":27026,"stv_name":"Uncletopia | Frankfurt | 2 | All Maps | STV","players":null},{"server_id":308,"name":"Uncletopia | Frankfurt | 3 | All Maps","name_short":"frk-3","host":"frk-1.de.uncletopia.com","port":27035,"enabled":true,"region":"eu","cc":"de","latitude":50.110924,"longitude":8.682127,"reserved":0,"last_update":"0001-01-01T00:00:00Z","name_a2s":"Uncletopia | Frankfurt | 3 | All Maps","protocol":17,"map":"cp_gullywash_final1","folder":"tf","game":"Team Fortress","app_id":440,"player_count":18,"max_players":24,"Bots":0,"server_type":"Dedicated","server_os":"Linux","password":true,"vac":true,"version":"7961495","steam_id":85568392924504274,"keywords":["cp","nocrits","nodmgspread","uncletopia"],"game_id":440,"stv_port":27036,"stv_name":"Uncletopia | Frankfurt | 3 | All Maps | STV","players":[{"user_id":431,"name":"Laki","steam_id":76561198126078953,"connected_time":620000000000,"state":"active","ping":86},{"user_id":432,"name":"goop","steam_id":76561198190073005,"connected_time":616000000000,"state":"active","ping":48},{"user_id":433,"name":"Boi","steam_id":76561198387049078,"connected_time":596000000000,"state":"active","ping":80},{"user_id":421,"name":"Bobirulez","steam_id":76561198009125458,"connected_time":1930000000000,"state":"active","ping":75},{"user_id":434,"name":"Subterranean","steam_id":76561198106684566,"connected_time":380000000000,"state":"active","ping":74},{"user_id":430,"name":"xavier","steam_id":76561198076494034,"connected_time":628000000000,"state":"active","ping":54},{"user_id":438,"name":"da accident","steam_id":76561198169798649,"connected_time":50000000000,"state":"active","ping":83},{"user_id":416,"name":"REN","steam_id":76561198000596385,"connected_time":2037000000000,"state":"active","ping":51},{"user_id":436,"name":"Carol Olston","steam_id":76561198080257273,"connected_time":114000000000,"state":"active","ping":50},{"user_id":429,"name":"Vershal Smershal","steam_id":76561198116223995,"connected_time":958000000000,"state":"active","ping":58},{"user_id":437,"name":"Chiers","steam_id":76561198073461642,"connected_time":89000000000,"state":"active","ping":45},{"user_id":418,"name":"Spectator","steam_id":76561198158608309,"connected_time":2008000000000,"state":"active","ping":72},{"user_id":439,"name":"SPONGE","steam_id":76561198040933472,"connected_time":16000000000,"state":"active","ping":64},{"user_id":427,"name":"_Starlight_","steam_id":76561197993885738,"connected_time":1405000000000,"state":"active","ping":72},{"user_id":415,"name":"Bajas","steam_id":76561198179339326,"connected_time":2051000000000,"state":"active","ping":78},{"user_id":308,"name":"Efeca","steam_id":76561198018923829,"connected_time":10814000000000,"state":"active","ping":62},{"user_id":408,"name":"habibi69","steam_id":76561198141989573,"connected_time":2636000000000,"state":"active","ping":62},{"user_id":420,"name":"Udinese Dion","steam_id":76561198067931573,"connected_time":1997000000000,"state":"active","ping":55}]},{"server_id":309,"name":"Uncletopia | Frankfurt | 4 | All Maps","name_short":"frk-4","host":"frk-1.de.uncletopia.com","port":27045,"enabled":true,"region":"eu","cc":"de","latitude":50.110924,"longitude":8.682127,"reserved":0,"last_update":"0001-01-01T00:00:00Z","name_a2s":"Uncletopia | Frankfurt | 4 | All Maps","protocol":17,"map":"pl_snowycoast","folder":"tf","game":"Team Fortress","app_id":440,"player_count":21,"max_players":24,"Bots":0,"server_type":"Dedicated","server_os":"Linux","password":true,"vac":true,"version":"7961495","steam_id":85568392924504275,"keywords":["nocrits","nodmgspread","payload","uncletopia"],"game_id":440,"stv_port":27046,"stv_name":"Uncletopia | Frankfurt | 4 | All Maps | STV","players":[{"user_id":334,"name":"Reihenhausbewohner","steam_id":76561198049820307,"connected_time":110000000000,"state":"active","ping":48},{"user_id":302,"name":"ChesseKnight","steam_id":76561198102476339,"connected_time":1499000000000,"state":"active","ping":69},{"user_id":322,"name":"MGE King","steam_id":76561198099259340,"connected_time":738000000000,"state":"active","ping":74},{"user_id":248,"name":"Underage Undertaker","steam_id":76561198130328543,"connected_time":5462000000000,"state":"active","ping":127},{"user_id":296,"name":"Springfield Crack","steam_id":76561198044818161,"connected_time":1811000000000,"state":"active","ping":92},{"user_id":291,"name":"–ê—Å—è'–ú–µ–Ω–∏—Ç–µ–ª—å \u003c3","steam_id":76561198000267173,"connected_time":2540000000000,"state":"active","ping":75},{"user_id":234,"name":"Coac","steam_id":76561198085265740,"connected_time":6349000000000,"state":"active","ping":59},{"user_id":280,"name":"Qwerty","steam_id":76561198023525894,"connected_time":3380000000000,"state":"active","ping":85},{"user_id":286,"name":"Henry","steam_id":76561198108018305,"connected_time":2847000000000,"state":"active","ping":70},{"user_id":297,"name":"Awe","steam_id":76561198040767091,"connected_time":1804000000000,"state":"active","ping":74},{"user_id":329,"name":"Frazzle","steam_id":76561198262577951,"connected_time":213000000000,"state":"active","ping":66},{"user_id":333,"name":"Davido01","steam_id":76561198089406245,"connected_time":136000000000,"state":"active","ping":57},{"user_id":335,"name":"finbar","steam_id":76561198056812396,"connected_time":91000000000,"state":"active","ping":76},{"user_id":336,"name":"Krefa12","steam_id":76561198268375393,"connected_time":35000000000,"state":"active","ping":86},{"user_id":303,"name":"Blake","steam_id":76561198034050682,"connected_time":1489000000000,"state":"active","ping":68},{"user_id":310,"name":"Skyrider of Spaceways","steam_id":76561197991678236,"connected_time":1306000000000,"state":"active","ping":134},{"user_id":314,"name":"Joey Sexbang","steam_id":76561198001514139,"connected_time":1171000000000,"state":"active","ping":46},{"user_id":316,"name":"Uncle Ben","steam_id":76561198032568298,"connected_time":1164000000000,"state":"active","ping":73},{"user_id":327,"name":"Smol","steam_id":76561198805163740,"connected_time":489000000000,"state":"active","ping":72},{"user_id":324,"name":"Grok_Squat","steam_id":76561198007713940,"connected_time":658000000000,"state":"active","ping":62},{"user_id":326,"name":"Agama","steam_id":76561198867921159,"connected_time":577000000000,"state":"active","ping":91}]},{"server_id":310,"name":"Uncletopia | Frankfurt | 5 | All Maps","name_short":"frk-5","host":"frk-1.de.uncletopia.com","port":27055,"enabled":true,"region":"eu","cc":"de","latitude":50.110924,"longitude":8.682127,"reserved":0,"last_update":"0001-01-01T00:00:00Z","name_a2s":"Uncletopia | Frankfurt | 5 | All Maps","protocol":17,"map":"pl_frontier_final","folder":"tf","game":"Team Fortress","app_id":440,"player_count":2,"max_players":24,"Bots":0,"server_type":"Dedicated","server_os":"Linux","password":true,"vac":true,"version":"7961495","steam_id":85568392924504277,"keywords":["nocrits","nodmgspread","payload","uncletopia"],"game_id":440,"stv_port":27056,"stv_name":"Uncletopia | Frankfurt | 5 | All Maps | STV","players":[{"user_id":169,"name":"‚òÖLily","steam_id":76561198014774371,"connected_time":643000000000,"state":"active","ping":48},{"user_id":171,"name":"nakedpee","steam_id":76561198064345980,"connected_time":283000000000,"state":"active","ping":74}]},{"server_id":311,"name":"Uncletopia | Frankfurt | 6 | All Maps","name_short":"frk-6","host":"frk-1.de.uncletopia.com","port":27065,"enabled":true,"region":"eu","cc":"de","latitude":50.110924,"longitude":8.682127,"reserved":0,"last_update":"0001-01-01T00:00:00Z","name_a2s":"Uncletopia | Frankfurt | 6 | All Maps","protocol":17,"map":"koth_lakeside_final","folder":"tf","game":"Team Fortress","app_id":440,"player_count":2,"max_players":24,"Bots":0,"server_type":"Dedicated","server_os":"Linux","password":true,"vac":true,"version":"7961495","steam_id":85568392924504278,"keywords":["cp","nocrits","nodmgspread","uncletopia"],"game_id":440,"stv_port":27066,"stv_name":"Uncletopia | Frankfurt | 6 | All Maps | STV","players":[{"user_id":25,"name":"Happy Di Piero","steam_id":76561199206603810,"connected_time":1839000000000,"state":"active","ping":80},{"user_id":19,"name":"A_GingerIdiot","steam_id":76561198313306026,"connected_time":4050000000000,"state":"active","ping":56}]},{"server_id":23,"name":"Uncletopia | Frankfurt | 7 | Stopwatch","name_short":"frk-7","host":"frk-1.de.uncletopia.com","port":27075,"enabled":true,"region":"eu","cc":"de","latitude":50.110924,"longitude":8.682127,"reserved":0,"last_update":"0001-01-01T00:00:00Z","name_a2s":"Uncletopia | Frankfurt | 7 | Stopwatch","protocol":17,"map":"workshop/koth_product_final.ugc454272353","folder":"tf","game":"Team Fortress","app_id":440,"player_count":15,"max_players":24,"Bots":0,"server_type":"Dedicated","server_os":"Linux","password":true,"vac":true,"version":"7961495","steam_id":85568392924742827,"keywords":["cp","nocrits","nodmgspread","uncletopia"],"game_id":440,"stv_port":27076,"stv_name":"Uncletopia | Frankfurt | 7 | Stopwatch | STV","players":[{"user_id":589,"name":"un puie","steam_id":76561198084056439,"connected_time":1487000000000,"state":"active","ping":39},{"user_id":604,"name":"WolfNinja","steam_id":76561199218099629,"connected_time":587000000000,"state":"active","ping":149},{"user_id":579,"name":"Dr Crow","steam_id":76561198138444201,"connected_time":1844000000000,"state":"active","ping":62},{"user_id":601,"name":"sloppy transgirl toppy","steam_id":76561198057092208,"connected_time":971000000000,"state":"active","ping":59},{"user_id":574,"name":"God's Goofiest Goober","steam_id":76561198103175187,"connected_time":2303000000000,"state":"active","ping":58},{"user_id":605,"name":"cuddles","steam_id":76561198805181599,"connected_time":375000000000,"state":"active","ping":67},{"user_id":606,"name":"Villiger","steam_id":76561199009560517,"connected_time":138000000000,"state":"active","ping":46},{"user_id":572,"name":"tapeworms!","steam_id":76561198069649097,"connected_time":2688000000000,"state":"active","ping":60},{"user_id":580,"name":"ZeroxyZXE","steam_id":76561198113710681,"connected_time":1825000000000,"state":"active","ping":93},{"user_id":585,"name":"BL4Z3RU22ER","steam_id":76561199495737715,"connected_time":1689000000000,"state":"active","ping":140},{"user_id":603,"name":"Brisket \u003c3","steam_id":76561198047291354,"connected_time":867000000000,"state":"active","ping":134},{"user_id":531,"name":"KingPotatoChips","steam_id":76561198035156465,"connected_time":5497000000000,"state":"active","ping":50},{"user_id":592,"name":"CiVillain","steam_id":76561198059617732,"connected_time":1335000000000,"state":"active","ping":56},{"user_id":594,"name":"Tispy","steam_id":76561199207410049,"connected_time":1200000000000,"state":"active","ping":92},{"user_id":517,"name":"Skatnaset","steam_id":76561198298457353,"connected_time":6780000000000,"state":"active","ping":60}]},{"server_id":24,"name":"Uncletopia | Frankfurt | 8 | Community","name_short":"frk-8","host":"frk-1.de.uncletopia.com","port":27085,"enabled":true,"region":"eu","cc":"de","latitude":50.110924,"longitude":8.682127,"reserved":0,"last_update":"0001-01-01T00:00:00Z","name_a2s":"Uncletopia | Frankfurt | 8 | Community","protocol":17,"map":"workshop/koth_trenchfoot_ab1.ugc731436616","folder":"tf","game":"Team Fortress","app_id":440,"player_count":0,"max_players":24,"Bots":0,"server_type":"Dedicated","server_os":"Linux","password":true,"vac":true,"version":"7961495","steam_id":85568392924742828,"keywords":["cp","nocrits","nodmgspread","uncletopia"],"game_id":440,"stv_port":27086,"stv_name":"Uncletopia | Frankfurt | 8 | Community | STV","players":null},{"server_id":202,"name":"Uncletopia | Hong Kong | 1 | All Maps","name_short":"hgk-1","host":"hgk-1.hk.uncletopia.com","port":27015,"enabled":true,"region":"asia","cc":"hk","latitude":22.302711,"longitude":114.177216,"reserved":0,"last_update":"0001-01-01T00:00:00Z","name_a2s":"Uncletopia | Hong Kong | 1 | All Maps","protocol":17,"map":"pl_rumford_event","folder":"tf","game":"Team Fortress","app_id":440,"player_count":0,"max_players":24,"Bots":0,"server_type":"Dedicated","server_os":"Linux","password":true,"vac":true,"version":"7961495","steam_id":85568392924494504,"keywords":["nocrits","nodmgspread","payload","uncletopia"],"game_id":440,"stv_port":27016,"stv_name":"Uncletopia | Hong Kong | 1 | All Maps | STV","players":null},{"server_id":1,"name":"Uncletopia | Los Angeles | 1 | All Maps","name_short":"lax-1","host":"lax-1.us.uncletopia.com","port":27015,"enabled":true,"region":"us-west","cc":"us","latitude":33.94279,"longitude":-118.41004,"reserved":0,"last_update":"0001-01-01T00:00:00Z","name_a2s":"Uncletopia | Los Angeles | 1 | All Maps","protocol":17,"map":"koth_viaduct","folder":"tf","game":"Team Fortress","app_id":440,"player_count":0,"max_players":24,"Bots":0,"server_type":"Dedicated","server_os":"Linux","password":true,"vac":true,"version":"7961495","steam_id":85568392924469991,"keywords":["cp","nocrits","nodmgspread","uncletopia"],"game_id":440,"stv_port":27016,"stv_name":"Uncletopia | Los Angeles | 1 | All Maps | STV","players":null},{"server_id":112,"name":"Uncletopia | Los Angeles | 2 | All Maps","name_short":"lax-2","host":"lax-1.us.uncletopia.com","port":27025,"enabled":true,"region":"us-west","cc":"us","latitude":33.94279,"longitude":-118.41004,"reserved":0,"last_update":"0001-01-01T00:00:00Z","name_a2s":"Uncletopia | Los Angeles | 2 | All Maps","protocol":17,"map":"koth_cascade","folder":"tf","game":"Team Fortress","app_id":440,"player_count":0,"max_players":24,"Bots":0,"server_type":"Dedicated","server_os":"Linux","password":true,"vac":true,"version":"7961495","steam_id":85568392924469992,"keywords":["cp","nocrits","nodmgspread","uncletopia"],"game_id":440,"stv_port":27026,"stv_name":"Uncletopia | Los Angeles | 2 | All Maps | STV","players":null},{"server_id":324,"name":"Uncletopia | Los Angeles | 3 | All Maps","name_short":"lax-3","host":"lax-1.us.uncletopia.com","port":27035,"enabled":true,"region":"us-west","cc":"us","latitude":33.94279,"longitude":-118.41004,"reserved":0,"last_update":"0001-01-01T00:00:00Z","name_a2s":"Uncletopia | Los Angeles | 3 | All Maps","protocol":17,"map":"cp_snakewater_final1","folder":"tf","game":"Team Fortress","app_id":440,"player_count":0,"max_players":24,"Bots":0,"server_type":"Dedicated","server_os":"Linux","password":true,"vac":true,"version":"7961495","steam_id":85568392924510198,"keywords":["cp","nocrits","nodmgspread","uncletopia"],"game_id":440,"stv_port":27036,"stv_name":"Uncletopia | Los Angeles | 3 | All Maps | STV","players":null},{"server_id":25,"name":"Uncletopia | Los Angeles | 4 | Stopwatch","name_short":"lax-4","host":"lax-1.us.uncletopia.com","port":27045,"enabled":true,"region":"us-west","cc":"us","latitude":33.94279,"longitude":-118.41004,"reserved":0,"last_update":"0001-01-01T00:00:00Z","name_a2s":"Uncletopia | Los Angeles | 4 | Stopwatch","protocol":17,"map":"koth_highpass","folder":"tf","game":"Team Fortress","app_id":440,"player_count":0,"max_players":24,"Bots":0,"server_type":"Dedicated","server_os":"Linux","password":true,"vac":true,"version":"7961495","steam_id":85568392924510199,"keywords":["cp","nocrits","nodmgspread","uncletopia"],"game_id":440,"stv_port":27046,"stv_name":"Uncletopia | Los Angeles | 4 | Stopwatch | STV","players":null},{"server_id":11,"name":"Uncletopia | London | 1 | All Maps","name_short":"lon-1","host":"lon-1.uk.uncletopia.com","port":27015,"enabled":true,"region":"eu","cc":"gb","latitude":51.509865,"longitude":-0.118092,"reserved":0,"last_update":"0001-01-01T00:00:00Z","name_a2s":"Uncletopia | London | 1 | All Maps","protocol":17,"map":"koth_harvest_final","folder":"tf","game":"Team Fortress","app_id":440,"player_count":22,"max_players":24,"Bots":0,"server_type":"Dedicated","server_os":"Linux","password":true,"vac":true,"version":"7961495","steam_id":85568392924367362,"keywords":["cp","nocrits","nodmgspread","uncletopia"],"game_id":440,"stv_port":27016,"stv_name":"Uncletopia | London | 1 | All Maps | STV","players":[{"user_id":1113,"name":"bid","steam_id":76561198083863043,"connected_time":106000000000,"state":"active","ping":38},{"user_id":1098,"name":"James","steam_id":76561198168882012,"connected_time":1914000000000,"state":"active","ping":40},{"user_id":1115,"name":"drago_tinkette","steam_id":76561198031229413,"connected_time":89000000000,"state":"active","ping":66},{"user_id":1090,"name":"Alpha","steam_id":76561199482290132,"connected_time":2207000000000,"state":"active","ping":113},{"user_id":1118,"name":"Sang","steam_id":76561198008510868,"connected_time":20000000000,"state":"active","ping":69},{"user_id":1105,"name":"sel","steam_id":76561198049891411,"connected_time":1529000000000,"state":"active","ping":45},{"user_id":1074,"name":"magÃ∂pÃ∂iÃ∂e ‚úø","steam_id":76561198797266244,"connected_time":3125000000000,"state":"active","ping":67},{"user_id":1072,"name":"No Status","steam_id":76561198119526557,"connected_time":3177000000000,"state":"active","ping":43},{"user_id":807,"name":"whimsy. (live)","steam_id":76561198878171763,"connected_time":8345000000000,"state":"active","ping":51},{"user_id":1116,"name":"Yelowchy","steam_id":76561198199416121,"connected_time":50000000000,"state":"active","ping":74},{"user_id":1117,"name":"comic_sans","steam_id":76561198845309519,"connected_time":35000000000,"state":"active","ping":68},{"user_id":1096,"name":"Qwertuss","steam_id":76561198026305366,"connected_time":1999000000000,"state":"active","ping":44},{"user_id":1076,"name":"Maximalsound","steam_id":76561198068246502,"connected_time":2790000000000,"state":"active","ping":47},{"user_id":1120,"name":"mr young bold and beautiful","steam_id":76561198119449463,"connected_time":6000000000,"state":"spawning","ping":48},{"user_id":1086,"name":"Mafew","steam_id":76561198119993886,"connected_time":2317000000000,"state":"active","ping":60},{"user_id":1058,"name":"ber.","steam_id":76561197993892057,"connected_time":4211000000000,"state":"active","ping":90},{"user_id":1109,"name":"toki","steam_id":76561198963599425,"connected_time":770000000000,"state":"active","ping":67},{"user_id":1108,"name":"r","steam_id":76561198239927434,"connected_time":1121000000000,"state":"active","ping":60},{"user_id":1106,"name":"nappo","steam_id":76561198060105180,"connected_time":1183000000000,"state":"active","ping":75},{"user_id":1059,"name":"irritable vowel syndrome","steam_id":76561198117033273,"connected_time":3866000000000,"state":"active","ping":48},{"user_id":1092,"name":"Th3Celestial","steam_id":76561198353312252,"connected_time":2107000000000,"state":"active","ping":42},{"user_id":1111,"name":"Huskai","steam_id":76561198141512362,"connected_time":452000000000,"state":"active","ping":42}]},{"server_id":114,"name":"Uncletopia | London | 2 | All Maps","name_short":"lon-2","host":"lon-1.uk.uncletopia.com","port":27025,"enabled":true,"region":"eu","cc":"gb","latitude":51.509865,"longitude":-0.118092,"reserved":0,"last_update":"0001-01-01T00:00:00Z","name_a2s":"Uncletopia | London | 2 | All Maps","protocol":17,"map":"pl_upward","folder":"tf","game":"Team Fortress","app_id":440,"player_count":24,"max_players":24,"Bots":0,"server_type":"Dedicated","server_os":"Linux","password":true,"vac":true,"version":"7961495","steam_id":85568392924470941,"keywords":["nocrits","nodmgspread","payload","uncletopia"],"game_id":440,"stv_port":27026,"stv_name":"Uncletopia | London | 2 | All Maps | STV","players":[{"user_id":334,"name":"only1indigo","steam_id":76561198380193071,"connected_time":6099000000000,"state":"active","ping":72},{"user_id":414,"name":"Ritmic Mortal","steam_id":76561198352862033,"connected_time":335000000000,"state":"active","ping":99},{"user_id":399,"name":"ILoveKey2","steam_id":76561198814559564,"connected_time":2775000000000,"state":"active","ping":75},{"user_id":411,"name":"Fizz","steam_id":76561197994814990,"connected_time":872000000000,"state":"active","ping":58},{"user_id":335,"name":"Coby","steam_id":76561198060876389,"connected_time":6068000000000,"state":"active","ping":79},{"user_id":423,"name":"Dr Bondus Bolongus Dongus","steam_id":76561198378657692,"connected_time":99000000000,"state":"active","ping":46},{"user_id":374,"name":"EXCELdotEXE","steam_id":76561198977594319,"connected_time":4497000000000,"state":"active","ping":71},{"user_id":415,"name":"ImStillAVergil","steam_id":76561199248763115,"connected_time":300000000000,"state":"active","ping":44},{"user_id":408,"name":"sokige","steam_id":76561198167112371,"connected_time":1806000000000,"state":"active","ping":99},{"user_id":416,"name":"ThatSiegeKid","steam_id":76561198368037656,"connected_time":225000000000,"state":"active","ping":39},{"user_id":413,"name":"UltimateAura","steam_id":76561198338361324,"connected_time":395000000000,"state":"active","ping":44},{"user_id":401,"name":"Ady P√°dlo","steam_id":76561198263104437,"connected_time":2502000000000,"state":"active","ping":69},{"user_id":417,"name":"dantheman","steam_id":76561199486390813,"connected_time":218000000000,"state":"active","ping":176},{"user_id":308,"name":"(MAC) [BN] Crazyking","steam_id":76561198001668616,"connected_time":7766000000000,"state":"active","ping":49},{"user_id":418,"name":"skorsch detf2pickup","steam_id":76561198044391172,"connected_time":203000000000,"state":"active","ping":65},{"user_id":394,"name":"HoneyBe_","steam_id":76561198288930154,"connected_time":3001000000000,"state":"active","ping":54},{"user_id":420,"name":"bowchika wowa #SlavaUkraine","steam_id":76561198159564550,"connected_time":169000000000,"state":"active","ping":63},{"user_id":421,"name":"kevinus","steam_id":76561198059722457,"connected_time":162000000000,"state":"active","ping":56},{"user_id":400,"name":"Bouuuulic","steam_id":76561198053731110,"connected_time":2683000000000,"state":"active","ping":59},{"user_id":396,"name":"Cosmic Gamer","steam_id":76561198027357981,"connected_time":2978000000000,"state":"active","ping":89},{"user_id":422,"name":"Maximilian1359","steam_id":76561198152439608,"connected_time":141000000000,"state":"active","ping":51},{"user_id":397,"name":"Sad Potato","steam_id":76561198239654762,"connected_time":2975000000000,"state":"active","ping":44},{"user_id":398,"name":"SpicyBoi","steam_id":76561198137845321,"connected_time":2966000000000,"state":"active","ping":48},{"user_id":403,"name":"XFAX","steam_id":76561197973627932,"connected_time":1957000000000,"state":"active","ping":74}]},{"server_id":320,"name":"Uncletopia | London | 3 | All Maps","name_short":"lon-3","host":"lon-1.uk.uncletopia.com","port":27035,"enabled":true,"region":"eu","cc":"gb","latitude":51.509865,"longitude":-0.118092,"reserved":0,"last_update":"0001-01-01T00:00:00Z","name_a2s":"Uncletopia | London | 3 | All Maps","protocol":17,"map":"pl_borneo","folder":"tf","game":"Team Fortress","app_id":440,"player_count":24,"max_players":24,"Bots":0,"server_type":"Dedicated","server_os":"Linux","password":true,"vac":true,"version":"7961495","steam_id":85568392924510192,"keywords":["nocrits","nodmgspread","payload","uncletopia"],"game_id":440,"stv_port":27036,"stv_name":"Uncletopia | London | 3 | All Maps | STV","players":[{"user_id":272,"name":"Larkos","steam_id":76561198070849213,"connected_time":1869000000000,"state":"active","ping":52},{"user_id":296,"name":"ChPerette üéÆ","steam_id":76561198060004887,"connected_time":626000000000,"state":"active","ping":43},{"user_id":280,"name":"fence_","steam_id":76561198150386379,"connected_time":1572000000000,"state":"active","ping":47},{"user_id":294,"name":"VolcanicArts","steam_id":76561198063453246,"connected_time":762000000000,"state":"active","ping":47},{"user_id":301,"name":"joachym","steam_id":76561198428579761,"connected_time":333000000000,"state":"active","ping":59},{"user_id":221,"name":"birchy","steam_id":76561198166697295,"connected_time":4435000000000,"state":"active","ping":37},{"user_id":285,"name":"yandere tomboy enthusiast (f2p)","steam_id":76561198403449689,"connected_time":1467000000000,"state":"active","ping":155},{"user_id":279,"name":"Gnarville","steam_id":76561198006373329,"connected_time":1692000000000,"state":"active","ping":45},{"user_id":291,"name":"Wattseyy","steam_id":76561198248567360,"connected_time":868000000000,"state":"active","ping":37},{"user_id":295,"name":"hench frog","steam_id":76561198445120460,"connected_time":702000000000,"state":"active","ping":54},{"user_id":224,"name":"C.I.","steam_id":76561197972438196,"connected_time":4341000000000,"state":"active","ping":41},{"user_id":288,"name":"Endi","steam_id":76561198914938199,"connected_time":1063000000000,"state":"active","ping":89},{"user_id":265,"name":"RoosterPie","steam_id":76561198153810367,"connected_time":2257000000000,"state":"active","ping":74},{"user_id":211,"name":"LuckyHappyGuy","steam_id":76561198353023996,"connected_time":5250000000000,"state":"active","ping":74},{"user_id":298,"name":"FreyjaBreadWitch","steam_id":76561199211405367,"connected_time":577000000000,"state":"active","ping":91},{"user_id":302,"name":"Edsuedi","steam_id":76561198074722832,"connected_time":169000000000,"state":"active","ping":59},{"user_id":304,"name":"MIKA","steam_id":76561198312451814,"connected_time":42000000000,"state":"active","ping":60},{"user_id":258,"name":"Scotaborg","steam_id":76561198080764719,"connected_time":2490000000000,"state":"active","ping":48},{"user_id":305,"name":"The Lady","steam_id":76561198029895809,"connected_time":27000000000,"state":"active","ping":88},{"user_id":284,"name":"Gibbo","steam_id":76561198021814576,"connected_time":1510000000000,"state":"active","ping":42},{"user_id":287,"name":"COW","steam_id":76561198149003050,"connected_time":1382000000000,"state":"active","ping":120},{"user_id":303,"name":"puncake4you","steam_id":76561198366512937,"connected_time":137000000000,"state":"active","ping":49},{"user_id":145,"name":"soil.dirt.earth","steam_id":76561198014377623,"connected_time":9084000000000,"state":"active","ping":30},{"user_id":300,"name":"Sputnik","steam_id":76561198138660241,"connected_time":567000000000,"state":"active","ping":48}]},{"server_id":321,"name":"Uncletopia | London | 4 | All Maps","name_short":"lon-4","host":"lon-1.uk.uncletopia.com","port":27045,"enabled":true,"region":"eu","cc":"gb","latitude":51.509865,"longitude":-0.118092,"reserved":0,"last_update":"0001-01-01T00:00:00Z","name_a2s":"Uncletopia | London | 4 | All Maps","protocol":17,"map":"pl_frontier_final","folder":"tf","game":"Team Fortress","app_id":440,"player_count":22,"max_players":24,"Bots":0,"server_type":"Dedicated","server_os":"Linux","password":true,"vac":true,"version":"7961495","steam_id":85568392924510193,"keywords":["nocrits","nodmgspread","payload","uncletopia"],"game_id":440,"stv_port":27046,"stv_name":"Uncletopia | London | 4 | All Maps | STV","players":[{"user_id":381,"name":"Laru","steam_id":76561197998838438,"connected_time":175000000000,"state":"active","ping":89},{"user_id":353,"name":"Personano","steam_id":76561198994355577,"connected_time":1402000000000,"state":"active","ping":45},{"user_id":309,"name":"Lux","steam_id":76561198060417740,"connected_time":5336000000000,"state":"active","ping":45},{"user_id":342,"name":"Beanie","steam_id":76561198173882658,"connected_time":2181000000000,"state":"active","ping":49},{"user_id":378,"name":"·≤ºUTCN","steam_id":76561198141334389,"connected_time":406000000000,"state":"active","ping":81},{"user_id":318,"name":"your personal medic","steam_id":76561197961707932,"connected_time":3840000000000,"state":"active","ping":59},{"user_id":321,"name":"5UP3R TH30 B4G","steam_id":76561198852348375,"connected_time":3345000000000,"state":"active","ping":47},{"user_id":348,"name":"Name","steam_id":76561197990757157,"connected_time":1899000000000,"state":"active","ping":75},{"user_id":361,"name":"Exploding Sixes","steam_id":76561198042793723,"connected_time":970000000000,"state":"active","ping":40},{"user_id":379,"name":"‚õß AlphaSatanOmega ‚õß","steam_id":76561198035125511,"connected_time":406000000000,"state":"active","ping":120},{"user_id":368,"name":"Arc","steam_id":76561198805049375,"connected_time":843000000000,"state":"active","ping":50},{"user_id":316,"name":"skittish maiden","steam_id":76561198096856475,"connected_time":3953000000000,"state":"active","ping":52},{"user_id":369,"name":"Lubrsi","steam_id":76561198040208195,"connected_time":838000000000,"state":"active","ping":53},{"user_id":372,"name":"lilbigman","steam_id":76561199094216585,"connected_time":624000000000,"state":"active","ping":130},{"user_id":373,"name":"Lemon","steam_id":76561198188535947,"connected_time":612000000000,"state":"active","ping":71},{"user_id":304,"name":"Fran","steam_id":76561199070516960,"connected_time":5540000000000,"state":"active","ping":75},{"user_id":343,"name":"kana munn","steam_id":76561198059762111,"connected_time":2060000000000,"state":"active","ping":77},{"user_id":306,"name":"rob","steam_id":76561198122211848,"connected_time":5525000000000,"state":"active","ping":88},{"user_id":330,"name":"highest noon","steam_id":76561199103959197,"connected_time":3191000000000,"state":"active","ping":90},{"user_id":374,"name":"D_Ink","steam_id":76561198267716662,"connected_time":612000000000,"state":"active","ping":44},{"user_id":331,"name":"fernandobmwm355555","steam_id":76561198086609447,"connected_time":3163000000000,"state":"active","ping":60},{"user_id":380,"name":"criggidycroo","steam_id":76561198095304635,"connected_time":295000000000,"state":"active","ping":37}]},{"server_id":21,"name":"Uncletopia | London | 5 | All Maps","name_short":"lon-5","host":"lon-1.uk.uncletopia.com","port":27055,"enabled":true,"region":"eu","cc":"gb","latitude":51.509865,"longitude":-0.118092,"reserved":0,"last_update":"0001-01-01T00:00:00Z","name_a2s":"Uncletopia | London | 5 | All Maps","protocol":17,"map":"pl_borneo","folder":"tf","game":"Team Fortress","app_id":440,"player_count":10,"max_players":24,"Bots":0,"server_type":"Dedicated","server_os":"Linux","password":true,"vac":true,"version":"7961495","steam_id":85568392924742829,"keywords":["nocrits","nodmgspread","payload","uncletopia"],"game_id":440,"stv_port":27056,"stv_name":"Uncletopia | London | 5 | All Maps | STV","players":[{"user_id":426,"name":"Jimmy Poppadopolos","steam_id":76561198044825612,"connected_time":1106000000000,"state":"active","ping":45},{"user_id":401,"name":"minuscule portions of clowning","steam_id":76561198059535856,"connected_time":3073000000000,"state":"active","ping":165},{"user_id":337,"name":"alpha","steam_id":76561198250491640,"connected_time":7252000000000,"state":"active","ping":33},{"user_id":387,"name":"cisgender clown","steam_id":76561199469909295,"connected_time":3621000000000,"state":"active","ping":53},{"user_id":435,"name":"Razef","steam_id":76561198030309484,"connected_time":483000000000,"state":"active","ping":46},{"user_id":391,"name":"I I | #SaveTF2","steam_id":76561199101935057,"connected_time":3524000000000,"state":"active","ping":87},{"user_id":423,"name":"User (Real)","steam_id":76561198302710873,"connected_time":1385000000000,"state":"active","ping":66},{"user_id":414,"name":"Prox","steam_id":76561198351490981,"connected_time":2206000000000,"state":"active","ping":30},{"user_id":340,"name":"Nick","steam_id":76561198036109469,"connected_time":7167000000000,"state":"active","ping":75},{"user_id":381,"name":"husk scrambled eggs when","steam_id":76561198173218318,"connected_time":4454000000000,"state":"active","ping":58}]},{"server_id":22,"name":"Uncletopia | London | 6 | All Maps","name_short":"lon-6","host":"lon-1.uk.uncletopia.com","port":27065,"enabled":true,"region":"eu","cc":"gb","latitude":51.509865,"longitude":-0.118092,"reserved":0,"last_update":"0001-01-01T00:00:00Z","name_a2s":"Uncletopia | London | 6 | All Maps","protocol":17,"map":"pl_borneo","folder":"tf","game":"Team Fortress","app_id":440,"player_count":23,"max_players":24,"Bots":0,"server_type":"Dedicated","server_os":"Linux","password":true,"vac":true,"version":"7961495","steam_id":85568392924742830,"keywords":["nocrits","nodmgspread","payload","uncletopia"],"game_id":440,"stv_port":27066,"stv_name":"Uncletopia | London | 6 | All Maps | STV","players":[{"user_id":194,"name":"Pong Lenis","steam_id":76561198039251333,"connected_time":3594000000000,"state":"active","ping":106},{"user_id":241,"name":"ShadowTwin","steam_id":76561198046658200,"connected_time":819000000000,"state":"active","ping":41},{"user_id":236,"name":"compus","steam_id":76561199134152606,"connected_time":1037000000000,"state":"active","ping":57},{"user_id":204,"name":"Grumtsior","steam_id":76561198043563111,"connected_time":3044000000000,"state":"active","ping":77},{"user_id":180,"name":"LSKi","steam_id":76561198215470228,"connected_time":4044000000000,"state":"active","ping":44},{"user_id":164,"name":"Paint","steam_id":76561198166823873,"connected_time":4640000000000,"state":"active","ping":45},{"user_id":237,"name":"tralalaOuiOui","steam_id":76561197963471507,"connected_time":987000000000,"state":"active","ping":44},{"user_id":244,"name":"Piki Jo","steam_id":76561198120368776,"connected_time":309000000000,"state":"active","ping":116},{"user_id":230,"name":"Ninjeg","steam_id":76561197995307947,"connected_time":1281000000000,"state":"active","ping":47},{"user_id":171,"name":"‚ú™ m_br3","steam_id":76561198044981990,"connected_time":4261000000000,"state":"active","ping":75},{"user_id":238,"name":"Vytuzas","steam_id":76561198012868436,"connected_time":967000000000,"state":"active","ping":78},{"user_id":242,"name":"Jackal","steam_id":76561198263001231,"connected_time":677000000000,"state":"active","ping":38},{"user_id":245,"name":"Black Corvette","steam_id":76561198856943897,"connected_time":241000000000,"state":"active","ping":90},{"user_id":239,"name":"Locke","steam_id":76561198339408300,"connected_time":942000000000,"state":"active","ping":57},{"user_id":206,"name":"Houlles","steam_id":76561198095277383,"connected_time":2982000000000,"state":"active","ping":52},{"user_id":225,"name":"Baba Foss","steam_id":76561198002302019,"connected_time":1510000000000,"state":"active","ping":59},{"user_id":246,"name":"randompixel","steam_id":76561198003941207,"connected_time":202000000000,"state":"active","ping":48},{"user_id":228,"name":"MustangCricket","steam_id":76561197963408317,"connected_time":1419000000000,"state":"active","ping":46},{"user_id":240,"name":"Mega Man Legends 3","steam_id":76561198014110199,"connected_time":930000000000,"state":"active","ping":42},{"user_id":248,"name":"Logern","steam_id":76561198085243794,"connected_time":18000000000,"state":"active","ping":48},{"user_id":247,"name":"Dragoneyes17","steam_id":76561199080578315,"connected_time":165000000000,"state":"active","ping":88},{"user_id":232,"name":"_Context_","steam_id":76561199163359312,"connected_time":1211000000000,"state":"active","ping":40},{"user_id":218,"name":"b0g","steam_id":76561198051124946,"connected_time":2081000000000,"state":"active","ping":53}]},{"server_id":40,"name":"Uncletopia | London | 7 | Stopwatch","name_short":"lon-7","host":"lon-1.uk.uncletopia.com","port":27075,"enabled":true,"region":"eu","cc":"gb","latitude":51.509865,"longitude":-0.118092,"reserved":0,"last_update":"0001-01-01T00:00:00Z","name_a2s":"Uncletopia | London | 7 | Stopwatch","protocol":17,"map":"workshop/koth_clearcut_b15.ugc2107050255","folder":"tf","game":"Team Fortress","app_id":440,"player_count":2,"max_players":24,"Bots":0,"server_type":"Dedicated","server_os":"Linux","password":true,"vac":true,"version":"7961495","steam_id":85568392924964314,"keywords":["cp","nocrits","nodmgspread","uncletopia"],"game_id":440,"stv_port":27076,"stv_name":"Uncletopia | London | 7 | Stopwatch | STV","players":[{"user_id":15,"name":"Domberry","steam_id":76561199346712175,"connected_time":1273000000000,"state":"active","ping":90},{"user_id":16,"name":"The Man with the Golden Gunk","steam_id":76561198212427715,"connected_time":993000000000,"state":"active","ping":50}]},{"server_id":41,"name":"Uncletopia | London | 8 | Community","name_short":"lon-8","host":"lon-1.uk.uncletopia.com","port":27085,"enabled":true,"region":"eu","cc":"gb","latitude":51.509865,"longitude":-0.118092,"reserved":0,"last_update":"0001-01-01T00:00:00Z","name_a2s":"Uncletopia | London | 8 | Community","protocol":17,"map":"workshop/pl_boundary_final1.ugc456799153","folder":"tf","game":"Team Fortress","app_id":440,"player_count":1,"max_players":24,"Bots":0,"server_type":"Dedicated","server_os":"Linux","password":true,"vac":true,"version":"7961495","steam_id":85568392924964315,"keywords":["nocrits","nodmgspread","payload","uncletopia"],"game_id":440,"stv_port":27086,"stv_name":"Uncletopia | London | 8 | Community | STV","players":null},{"server_id":300,"name":"Uncletopia | Montr√©al | 1 | One Thousand Uncles","name_short":"mtl-1","host":"mtl-1.ca.uncletopia.com","port":27015,"enabled":true,"region":"us-east","cc":"ca","latitude":45.50889,"longitude":-73.56167,"reserved":0,"last_update":"0001-01-01T00:00:00Z","name_a2s":"Uncletopia | Montr√©al | 1 | One Thousand Uncles","protocol":17,"map":"pl_pier","folder":"tf","game":"Team Fortress","app_id":440,"player_count":24,"max_players":32,"Bots":16,"server_type":"Dedicated","server_os":"Linux","password":true,"vac":true,"version":"7961495","steam_id":85568392924500087,"keywords":["alltalk","bots","danepve","increased_maxplayers","norespawntime","payload","uncletopia"],"game_id":440,"stv_port":0,"stv_name":"","players":[{"user_id":117,"name":"Ze Healing","steam_id":76561198292152075,"connected_time":3261000000000,"state":"active","ping":45},{"user_id":119,"name":"Im Groot","steam_id":76561198294943420,"connected_time":2966000000000,"state":"active","ping":76},{"user_id":129,"name":"melon soda","steam_id":76561198066748230,"connected_time":1741000000000,"state":"active","ping":72},{"user_id":83,"name":"Ben Mantƒ±mƒ±yƒ±m?","steam_id":76561199176172946,"connected_time":5104000000000,"state":"active","ping":165},{"user_id":152,"name":"blonk-182","steam_id":76561198035304483,"connected_time":1536000000000,"state":"active","ping":65},{"user_id":121,"name":"biden cart 15 dollars","steam_id":76561198253731826,"connected_time":2770000000000,"state":"active","ping":75},{"user_id":156,"name":"Dr Livesey","steam_id":76561198273609992,"connected_time":959000000000,"state":"active","ping":64},{"user_id":125,"name":"gamingontoast","steam_id":76561199128807583,"connected_time":2336000000000,"state":"active","ping":77}]},{"server_id":301,"name":"Uncletopia | Montr√©al | 2 | One Thousand Uncles","name_short":"mtl-2","host":"mtl-1.ca.uncletopia.com","port":27025,"enabled":true,"region":"us-east","cc":"ca","latitude":45.50889,"longitude":-73.56167,"reserved":0,"last_update":"0001-01-01T00:00:00Z","name_a2s":"Uncletopia | Montr√©al | 2 | One Thousand Uncles","protocol":17,"map":"pl_chilly","folder":"tf","game":"Team Fortress","app_id":440,"player_count":0,"max_players":32,"Bots":0,"server_type":"Dedicated","server_os":"Linux","password":true,"vac":true,"version":"7961495","steam_id":85568392924500088,"keywords":["alltalk","danepve","increased_maxplayers","norespawntime","payload","uncletopia"],"game_id":440,"stv_port":0,"stv_name":"","players":null},{"server_id":302,"name":"Uncletopia | Montr√©al | 3 | One Thousand Uncles","name_short":"mtl-3","host":"mtl-1.ca.uncletopia.com","port":27035,"enabled":true,"region":"us-east","cc":"ca","latitude":45.50889,"longitude":-73.56167,"reserved":0,"last_update":"0001-01-01T00:00:00Z","name_a2s":"Uncletopia | Montr√©al | 3 | One Thousand Uncles","protocol":17,"map":"pl_upward","folder":"tf","game":"Team Fortress","app_id":440,"player_count":18,"max_players":32,"Bots":16,"server_type":"Dedicated","server_os":"Linux","password":true,"vac":true,"version":"7961495","steam_id":85568392924500089,"keywords":["alltalk","bots","danepve","increased_maxplayers","norespawntime","payload","uncletopia"],"game_id":440,"stv_port":0,"stv_name":"","players":[{"user_id":123,"name":"Sindri","steam_id":76561199082381766,"connected_time":841000000000,"state":"active","ping":92},{"user_id":142,"name":"C Papi","steam_id":76561198027779564,"connected_time":427000000000,"state":"active","ping":61}]},{"server_id":13,"name":"Uncletopia | New York City | 1 | All Maps","name_short":"nyc-1","host":"nyc-1.us.uncletopia.com","port":27015,"enabled":true,"region":"us-east","cc":"us","latitude":40.73061,"longitude":-73.93524,"reserved":0,"last_update":"0001-01-01T00:00:00Z","name_a2s":"Uncletopia | New York City | 1 | All Maps","protocol":17,"map":"koth_brazil","folder":"tf","game":"Team Fortress","app_id":440,"player_count":0,"max_players":24,"Bots":0,"server_type":"Dedicated","server_os":"Linux","password":true,"vac":true,"version":"7961495","steam_id":85568392924469993,"keywords":["cp","nocrits","nodmgspread","uncletopia"],"game_id":440,"stv_port":27016,"stv_name":"Uncletopia | New York City | 1 | All Maps | STV","players":null},{"server_id":14,"name":"Uncletopia | New York City | 2 | All Maps","name_short":"nyc-2","host":"nyc-1.us.uncletopia.com","port":27025,"enabled":true,"region":"us-east","cc":"us","latitude":40.73061,"longitude":-73.93524,"reserved":0,"last_update":"0001-01-01T00:00:00Z","name_a2s":"Uncletopia | New York City | 2 | All Maps","protocol":17,"map":"cp_mountainlab","folder":"tf","game":"Team Fortress","app_id":440,"player_count":2,"max_players":24,"Bots":0,"server_type":"Dedicated","server_os":"Linux","password":true,"vac":true,"version":"7961495","steam_id":85568392924469994,"keywords":["cp","nocrits","nodmgspread","uncletopia"],"game_id":440,"stv_port":27026,"stv_name":"Uncletopia | New York City | 2 | All Maps | STV","players":[{"user_id":15,"name":"Pau Gasol Gaming","steam_id":76561198190323610,"connected_time":863000000000,"state":"active","ping":72},{"user_id":16,"name":"Zenabie","steam_id":76561198088372680,"connected_time":857000000000,"state":"active","ping":79}]},{"server_id":15,"name":"Uncletopia | New York City | 3 | Stopwatch","name_short":"nyc-3","host":"nyc-1.us.uncletopia.com","port":27035,"enabled":true,"region":"us-east","cc":"us","latitude":40.73061,"longitude":-73.93524,"reserved":0,"last_update":"0001-01-01T00:00:00Z","name_a2s":"Uncletopia | New York City | 3 | Stopwatch","protocol":17,"map":"workshop/cp_reckoner_rc6.ugc674719999","folder":"tf","game":"Team Fortress","app_id":440,"player_count":0,"max_players":24,"Bots":0,"server_type":"Dedicated","server_os":"Linux","password":true,"vac":true,"version":"7961495","steam_id":85568392924742820,"keywords":["cp","nocrits","nodmgspread","uncletopia"],"game_id":440,"stv_port":27036,"stv_name":"Uncletopia | New York City | 3 | Stopwatch | STV","players":null},{"server_id":16,"name":"Uncletopia | New York City | 4 | Community","name_short":"nyc-4","host":"nyc-1.us.uncletopia.com","port":27045,"enabled":true,"region":"us-east","cc":"us","latitude":40.73061,"longitude":-73.93524,"reserved":0,"last_update":"0001-01-01T00:00:00Z","name_a2s":"Uncletopia | New York City | 4 | Community","protocol":17,"map":"workshop/cp_indulge.ugc528106646","folder":"tf","game":"Team Fortress","app_id":440,"player_count":0,"max_players":24,"Bots":0,"server_type":"Dedicated","server_os":"Linux","password":true,"vac":true,"version":"7961495","steam_id":85568392924742821,"keywords":["cp","nocrits","nodmgspread","uncletopia"],"game_id":440,"stv_port":27046,"stv_name":"Uncletopia | New York City | 4 | Community | STV","players":null},{"server_id":142,"name":"Uncletopia | S√£o Paulo | 1 | All Maps","name_short":"sao-1","host":"sao-1.br.uncletopia.com","port":27015,"enabled":true,"region":"sa","cc":"br","latitude":-23.533773,"longitude":-46.62529,"reserved":0,"last_update":"0001-01-01T00:00:00Z","name_a2s":"Uncletopia | S√£o Paulo | 1 | All Maps","protocol":17,"map":"cp_granary","folder":"tf","game":"Team Fortress","app_id":440,"player_count":0,"max_players":24,"Bots":0,"server_type":"Dedicated","server_os":"Linux","password":true,"vac":true,"version":"7961495","steam_id":85568392924469996,"keywords":["cp","nocrits","nodmgspread","uncletopia"],"game_id":440,"stv_port":27016,"stv_name":"Uncletopia | S√£o Paulo | 1 | All Maps | STV","players":null},{"server_id":143,"name":"Uncletopia | S√£o Paulo | 2 | Community","name_short":"sao-2","host":"sao-2.br.uncletopia.com","port":27015,"enabled":true,"region":"sa","cc":"br","latitude":-23.533773,"longitude":-46.62529,"reserved":0,"last_update":"0001-01-01T00:00:00Z","name_a2s":"Uncletopia | S√£o Paulo | 2 | Community","protocol":17,"map":"workshop/koth_product_final.ugc454272353","folder":"tf","game":"Team Fortress","app_id":440,"player_count":0,"max_players":24,"Bots":0,"server_type":"Dedicated","server_os":"Linux","password":true,"vac":true,"version":"7961495","steam_id":85568392924485349,"keywords":["cp","nocrits","nodmgspread","uncletopia"],"game_id":440,"stv_port":27016,"stv_name":"Uncletopia | S√£o Paulo | 2 | Community | STV","players":null},{"server_id":7,"name":"Uncletopia | Seattle | 1 | All Maps","name_short":"sea-1","host":"sea-1.us.uncletopia.com","port":27015,"enabled":true,"region":"us-west","cc":"us","latitude":47.608013,"longitude":-122.33517,"reserved":0,"last_update":"0001-01-01T00:00:00Z","name_a2s":"Uncletopia | Seattle | 1 | All Maps","protocol":17,"map":"pl_pier","folder":"tf","game":"Team Fortress","app_id":440,"player_count":24,"max_players":24,"Bots":0,"server_type":"Dedicated","server_os":"Linux","password":true,"vac":true,"version":"7961495","steam_id":85568392924469997,"keywords":["nocrits","nodmgspread","payload","uncletopia"],"game_id":440,"stv_port":27016,"stv_name":"Uncletopia | Seattle | 1 | All Maps | STV","players":[{"user_id":394,"name":"Eden","steam_id":76561198081284664,"connected_time":296000000000,"state":"active","ping":77},{"user_id":363,"name":"too many fives","steam_id":76561198128465482,"connected_time":2561000000000,"state":"active","ping":64},{"user_id":370,"name":"The Grungler","steam_id":76561198126561438,"connected_time":1953000000000,"state":"active","ping":75},{"user_id":386,"name":"Clagger","steam_id":76561198066701092,"connected_time":661000000000,"state":"active","ping":43},{"user_id":371,"name":"Gorp!","steam_id":76561198121671793,"connected_time":1932000000000,"state":"active","ping":46},{"user_id":395,"name":"Kronk","steam_id":76561198063092125,"connected_time":256000000000,"state":"active","ping":120},{"user_id":396,"name":"Smashy","steam_id":76561198030704307,"connected_time":224000000000,"state":"active","ping":61},{"user_id":373,"name":"Mexican Elvis","steam_id":76561198165100210,"connected_time":1871000000000,"state":"active","ping":83},{"user_id":367,"name":"Just a Good Friend","steam_id":76561198140052403,"connected_time":2395000000000,"state":"active","ping":61},{"user_id":374,"name":"MineOpal","steam_id":76561198044716407,"connected_time":1869000000000,"state":"active","ping":67},{"user_id":330,"name":"lukamine","steam_id":76561198166827208,"connected_time":5729000000000,"state":"active","ping":45},{"user_id":397,"name":"Antikythera","steam_id":76561198045923020,"connected_time":180000000000,"state":"active","ping":84},{"user_id":375,"name":"thastephen","steam_id":76561198080289775,"connected_time":1850000000000,"state":"active","ping":64},{"user_id":398,"name":"Sheev Palpatine","steam_id":76561198252332430,"connected_time":155000000000,"state":"active","ping":88},{"user_id":323,"name":"tmm (theManMan)","steam_id":76561199488457138,"connected_time":6398000000000,"state":"active","ping":58},{"user_id":384,"name":"Bowl of Cereal Gaming","steam_id":76561199042252292,"connected_time":1178000000000,"state":"active","ping":99},{"user_id":336,"name":"Katie XXII","steam_id":76561198135534297,"connected_time":4891000000000,"state":"active","ping":48},{"user_id":379,"name":"Ginnunga","steam_id":76561198000320083,"connected_time":1572000000000,"state":"active","ping":91},{"user_id":392,"name":"a","steam_id":76561198074209737,"connected_time":327000000000,"state":"active","ping":95},{"user_id":385,"name":"trackpad gaming | f2p","steam_id":76561198840414371,"connected_time":797000000000,"state":"active","ping":57},{"user_id":389,"name":"level 7 firemancer","steam_id":76561198209571677,"connected_time":516000000000,"state":"active","ping":128},{"user_id":369,"name":"Thexx she/they","steam_id":76561198113823050,"connected_time":2132000000000,"state":"active","ping":58},{"user_id":354,"name":"rad killl raccoon","steam_id":76561198980975595,"connected_time":3557000000000,"state":"active","ping":59},{"user_id":393,"name":"Robogineer","steam_id":76561198026994739,"connected_time":324000000000,"state":"active","ping":82}]},{"server_id":119,"name":"Uncletopia | Seattle | 2 | All Maps","name_short":"sea-2","host":"sea-1.us.uncletopia.com","port":27025,"enabled":true,"region":"us-west","cc":"us","latitude":47.608013,"longitude":-122.33517,"reserved":0,"last_update":"0001-01-01T00:00:00Z","name_a2s":"Uncletopia | Seattle | 2 | All Maps","protocol":17,"map":"koth_lakeside_final","folder":"tf","game":"Team Fortress","app_id":440,"player_count":2,"max_players":24,"Bots":0,"server_type":"Dedicated","server_os":"Linux","password":true,"vac":true,"version":"7961495","steam_id":85568392924469998,"keywords":["cp","nocrits","nodmgspread","uncletopia"],"game_id":440,"stv_port":27026,"stv_name":"Uncletopia | Seattle | 2 | All Maps | STV","players":[{"user_id":9,"name":"·µê·µâ·µí ∑","steam_id":76561199200969139,"connected_time":222000000000,"state":"active","ping":56},{"user_id":10,"name":"‚úß.*Remzy‚úß.*","steam_id":76561199239412094,"connected_time":155000000000,"state":"active","ping":194}]},{"server_id":406,"name":"Uncletopia | Seattle | 3 | Stopwatch","name_short":"sea-3","host":"sea-1.us.uncletopia.com","port":27035,"enabled":true,"region":"us-west","cc":"us","latitude":47.608013,"longitude":-122.33517,"reserved":0,"last_update":"0001-01-01T00:00:00Z","name_a2s":"Uncletopia | Seattle | 3 | Stopwatch","protocol":17,"map":"workshop/koth_jamram_rc1a.ugc2964065613","folder":"tf","game":"Team Fortress","app_id":440,"player_count":0,"max_players":24,"Bots":0,"server_type":"Dedicated","server_os":"Linux","password":true,"vac":true,"version":"7961495","steam_id":85568392924515217,"keywords":["cp","nocrits","nodmgspread","uncletopia"],"game_id":440,"stv_port":27036,"stv_name":"Uncletopia | Seattle | 3 | Stopwatch | STV","players":null},{"server_id":17,"name":"Uncletopia | San Francisco | 1 | All Maps","name_short":"sfo-1","host":"sfo-1.us.uncletopia.com","port":27015,"enabled":true,"region":"us-west","cc":"us","latitude":37.77397,"longitude":-122.4313,"reserved":0,"last_update":"0001-01-01T00:00:00Z","name_a2s":"Uncletopia | San Francisco | 1 | All Maps","protocol":17,"map":"koth_highpass","folder":"tf","game":"Team Fortress","app_id":440,"player_count":0,"max_players":24,"Bots":0,"server_type":"Dedicated","server_os":"Linux","password":true,"vac":true,"version":"7961495","steam_id":85568392924469999,"keywords":["cp","nocrits","nodmgspread","uncletopia"],"game_id":440,"stv_port":27016,"stv_name":"Uncletopia | San Francisco | 1 | All Maps | STV","players":null},{"server_id":18,"name":"Uncletopia | San Francisco | 2 | All Maps","name_short":"sfo-2","host":"sfo-1.us.uncletopia.com","port":27025,"enabled":true,"region":"us-west","cc":"us","latitude":37.77397,"longitude":-122.4313,"reserved":0,"last_update":"0001-01-01T00:00:00Z","name_a2s":"Uncletopia | San Francisco | 2 | All Maps","protocol":17,"map":"koth_cascade","folder":"tf","game":"Team Fortress","app_id":440,"player_count":0,"max_players":24,"Bots":0,"server_type":"Dedicated","server_os":"Linux","password":true,"vac":true,"version":"7961495","steam_id":85568392924470000,"keywords":["cp","nocrits","nodmgspread","uncletopia"],"game_id":440,"stv_port":27026,"stv_name":"Uncletopia | San Francisco | 2 | All Maps | STV","players":null},{"server_id":19,"name":"Uncletopia | San Francisco | 3 | Stopwatch","name_short":"sfo-3","host":"sfo-1.us.uncletopia.com","port":27035,"enabled":true,"region":"us-west","cc":"us","latitude":37.77397,"longitude":-122.4313,"reserved":0,"last_update":"0001-01-01T00:00:00Z","name_a2s":"Uncletopia | San Francisco | 3 | Stopwatch","protocol":17,"map":"pl_swiftwater_final1","folder":"tf","game":"Team Fortress","app_id":440,"player_count":0,"max_players":24,"Bots":0,"server_type":"Dedicated","server_os":"Linux","password":true,"vac":true,"version":"7961495","steam_id":85568392924742824,"keywords":["nocrits","nodmgspread","payload","uncletopia"],"game_id":440,"stv_port":27036,"stv_name":"Uncletopia | San Francisco | 3 | Stopwatch | STV","players":null},{"server_id":20,"name":"Uncletopia | San Francisco | 4 | Community","name_short":"sfo-4","host":"sfo-1.us.uncletopia.com","port":27045,"enabled":true,"region":"us-west","cc":"us","latitude":37.77397,"longitude":-122.4313,"reserved":0,"last_update":"0001-01-01T00:00:00Z","name_a2s":"Uncletopia | San Francisco | 4 | Community","protocol":17,"map":"workshop/pl_shoreleave_rc2.ugc1238849347","folder":"tf","game":"Team Fortress","app_id":440,"player_count":0,"max_players":24,"Bots":0,"server_type":"Dedicated","server_os":"Linux","password":true,"vac":true,"version":"7961495","steam_id":85568392924742826,"keywords":["nocrits","nodmgspread","payload","uncletopia"],"game_id":440,"stv_port":27046,"stv_name":"Uncletopia | San Francisco | 4 | Community | STV","players":null},{"server_id":141,"name":"Uncletopia | Sydney | 1 | All Maps","name_short":"syd-1","host":"syd-1.au.uncletopia.com","port":27015,"enabled":true,"region":"au","cc":"au","latitude":-33.865143,"longitude":151.2099,"reserved":0,"last_update":"0001-01-01T00:00:00Z","name_a2s":"Uncletopia | Sydney | 1 | All Maps","protocol":17,"map":"koth_nucleus","folder":"tf","game":"Team Fortress","app_id":440,"player_count":0,"max_players":24,"Bots":0,"server_type":"Dedicated","server_os":"Linux","password":true,"vac":true,"version":"7961495","steam_id":85568392924470001,"keywords":["cp","nocrits","nodmgspread","uncletopia"],"game_id":440,"stv_port":27016,"stv_name":"Uncletopia | Sydney | 1 | All Maps | STV","players":null},{"server_id":123,"name":"Uncletopia | Sydney | 2 | All Maps","name_short":"syd-2","host":"syd-1.au.uncletopia.com","port":27025,"enabled":true,"region":"au","cc":"au","latitude":-33.865143,"longitude":151.2099,"reserved":0,"last_update":"0001-01-01T00:00:00Z","name_a2s":"Uncletopia | Sydney | 2 | All Maps","protocol":17,"map":"cp_fastlane","folder":"tf","game":"Team Fortress","app_id":440,"player_count":0,"max_players":24,"Bots":0,"server_type":"Dedicated","server_os":"Linux","password":true,"vac":true,"version":"7961495","steam_id":85568392924470002,"keywords":["cp","nocrits","nodmgspread","uncletopia"],"game_id":440,"stv_port":27026,"stv_name":"Uncletopia | Sydney | 2 | All Maps | STV","players":null},{"server_id":395,"name":"Uncletopia | Sydney | 3 | All Maps","name_short":"syd-3","host":"syd-1.au.uncletopia.com","port":27035,"enabled":true,"region":"au","cc":"au","latitude":-33.865143,"longitude":151.2099,"reserved":0,"last_update":"0001-01-01T00:00:00Z","name_a2s":"Uncletopia | Sydney | 3 | All Maps","protocol":17,"map":"cp_metalworks","folder":"tf","game":"Team Fortress","app_id":440,"player_count":0,"max_players":24,"Bots":0,"server_type":"Dedicated","server_os":"Linux","password":true,"vac":true,"version":"7961495","steam_id":85568392925194467,"keywords":["cp","nocrits","nodmgspread","uncletopia"],"game_id":440,"stv_port":27036,"stv_name":"Uncletopia | Sydney | 3 | All Maps | STV","players":null},{"server_id":396,"name":"Uncletopia | Sydney | 4 | All Maps","name_short":"syd-4","host":"syd-1.au.uncletopia.com","port":27045,"enabled":true,"region":"au","cc":"au","latitude":-33.865143,"longitude":151.2099,"reserved":0,"last_update":"0001-01-01T00:00:00Z","name_a2s":"Uncletopia | Sydney | 4 | All Maps","protocol":17,"map":"koth_cascade","folder":"tf","game":"Team Fortress","app_id":440,"player_count":0,"max_players":24,"Bots":0,"server_type":"Dedicated","server_os":"Linux","password":true,"vac":true,"version":"7961495","steam_id":85568392925397958,"keywords":["cp","nocrits","nodmgspread","uncletopia"],"game_id":440,"stv_port":27046,"stv_name":"Uncletopia | Sydney | 4 | All Maps | STV","players":null},{"server_id":58,"name":"Uncletopia | Sydney | 5 | Stopwatch","name_short":"syd-5","host":"syd-1.au.uncletopia.com","port":27055,"enabled":true,"region":"au","cc":"au","latitude":-33.865143,"longitude":151.2099,"reserved":0,"last_update":"0001-01-01T00:00:00Z","name_a2s":"Uncletopia | Sydney | 5 | Stopwatch","protocol":17,"map":"workshop/koth_product_final.ugc454272353","folder":"tf","game":"Team Fortress","app_id":440,"player_count":0,"max_players":24,"Bots":0,"server_type":"Dedicated","server_os":"Linux","password":true,"vac":true,"version":"7961495","steam_id":85568392925397959,"keywords":["cp","nocrits","nodmgspread","uncletopia"],"game_id":440,"stv_port":27056,"stv_name":"Uncletopia | Sydney | 5 | Stopwatch | STV","players":null},{"server_id":59,"name":"Uncletopia | Sydney | 6 | Community","name_short":"syd-6","host":"syd-1.au.uncletopia.com","port":27065,"enabled":true,"region":"au","cc":"au","latitude":-33.865143,"longitude":151.2099,"reserved":0,"last_update":"0001-01-01T00:00:00Z","name_a2s":"Uncletopia | Sydney | 6 | Community","protocol":17,"map":"workshop/koth_trenchfoot_ab1.ugc731436616","folder":"tf","game":"Team Fortress","app_id":440,"player_count":0,"max_players":24,"Bots":0,"server_type":"Dedicated","server_os":"Linux","password":true,"vac":true,"version":"7961495","steam_id":85568392925397960,"keywords":["cp","nocrits","nodmgspread","uncletopia"],"game_id":440,"stv_port":27066,"stv_name":"Uncletopia | Sydney | 6 | Community | STV","players":null},{"server_id":49,"name":"Uncletopia | Warsaw | 1 | One Thousand Uncles","name_short":"waw-1","host":"waw-1.pl.uncletopia.com","port":27015,"enabled":true,"region":"eu","cc":"pl","latitude":52.2297,"longitude":21.017532,"reserved":0,"last_update":"0001-01-01T00:00:00Z","name_a2s":"Uncletopia | Warsaw | 1 | One Thousand Uncles","protocol":17,"map":"cp_dustbowl","folder":"tf","game":"Team Fortress","app_id":440,"player_count":28,"max_players":32,"Bots":16,"server_type":"Dedicated","server_os":"Linux","password":true,"vac":true,"version":"7961495","steam_id":85568392925397850,"keywords":["alltalk","bots","cp","danepve","increased_maxplayers","norespawntime","uncletopia"],"game_id":440,"stv_port":0,"stv_name":"","players":[{"user_id":624,"name":"[HK]Êàë‰øÇÈ¶ôÊ∏Ø‰∫∫","steam_id":76561198165376815,"connected_time":5125000000000,"state":"active","ping":74},{"user_id":638,"name":"Cheshireycat","steam_id":76561198067204908,"connected_time":3150000000000,"state":"active","ping":78},{"user_id":466,"name":"Senpai„ÉÑ","steam_id":76561198857611627,"connected_time":17688000000000,"state":"active","ping":75},{"user_id":625,"name":"0scr_","steam_id":76561198042631352,"connected_time":5040000000000,"state":"active","ping":80},{"user_id":656,"name":"Mersy Said","steam_id":76561198072826812,"connected_time":2700000000000,"state":"active","ping":72},{"user_id":626,"name":"7","steam_id":76561198086304421,"connected_time":4968000000000,"state":"active","ping":85},{"user_id":615,"name":"Sigma","steam_id":76561198086510020,"connected_time":7581000000000,"state":"active","ping":158},{"user_id":616,"name":"Le Juge","steam_id":76561199196283622,"connected_time":7529000000000,"state":"active","ping":185},{"user_id":629,"name":"BigBakedpotato","steam_id":76561199455683923,"connected_time":4655000000000,"state":"active","ping":169},{"user_id":655,"name":"BaleBlast","steam_id":76561198116569443,"connected_time":3017000000000,"state":"active","ping":69},{"user_id":636,"name":"monke","steam_id":76561199095477435,"connected_time":3675000000000,"state":"active","ping":71},{"user_id":681,"name":"Marcus","steam_id":76561198086814162,"connected_time":1026000000000,"state":"active","ping":62}]},{"server_id":50,"name":"Uncletopia | Warsaw | 2 | One Thousand Uncles","name_short":"waw-2","host":"waw-1.pl.uncletopia.com","port":27025,"enabled":true,"region":"eu","cc":"pl","latitude":52.2297,"longitude":21.017532,"reserved":0,"last_update":"0001-01-01T00:00:00Z","name_a2s":"Uncletopia | Warsaw | 2 | One Thousand Uncles","protocol":17,"map":"pl_pier","folder":"tf","game":"Team Fortress","app_id":440,"player_count":23,"max_players":32,"Bots":16,"server_type":"Dedicated","server_os":"Linux","password":true,"vac":true,"version":"7961495","steam_id":85568392925397851,"keywords":["alltalk","bots","danepve","increased_maxplayers","norespawntime","payload","uncletopia"],"game_id":440,"stv_port":0,"stv_name":"","players":[{"user_id":274,"name":"stojanovmilan9","steam_id":76561199224695297,"connected_time":2991000000000,"state":"active","ping":61},{"user_id":278,"name":"derex129","steam_id":76561199250907981,"connected_time":2185000000000,"state":"active","ping":211},{"user_id":279,"name":"Tymonose","steam_id":76561199106354265,"connected_time":1666000000000,"state":"active","ping":41},{"user_id":282,"name":"Oreo Principle","steam_id":76561198063929217,"connected_time":251000000000,"state":"active","ping":42},{"user_id":281,"name":"Voxiit","steam_id":76561198060319116,"connected_time":598000000000,"state":"active","ping":68},{"user_id":244,"name":"FilipeLuk","steam_id":76561198150675438,"connected_time":5341000000000,"state":"active","ping":79},{"user_id":224,"name":"vk rat makes me erect","steam_id":76561198355965587,"connected_time":5910000000000,"state":"active","ping":88}]},{"server_id":51,"name":"Uncletopia | Warsaw | 3 | All Maps","name_short":"waw-3","host":"waw-1.pl.uncletopia.com","port":27035,"enabled":true,"region":"eu","cc":"pl","latitude":52.2297,"longitude":21.017532,"reserved":0,"last_update":"0001-01-01T00:00:00Z","name_a2s":"Uncletopia | Warsaw | 3 | All Maps","protocol":17,"map":"koth_viaduct","folder":"tf","game":"Team Fortress","app_id":440,"player_count":0,"max_players":24,"Bots":0,"server_type":"Dedicated","server_os":"Linux","password":true,"vac":true,"version":"7961495","steam_id":85568392925397852,"keywords":["cp","nocrits","nodmgspread","uncletopia"],"game_id":440,"stv_port":27036,"stv_name":"Uncletopia | Warsaw | 3 | All Maps | STV","players":null},{"server_id":52,"name":"Uncletopia | Warsaw | 4 | All Maps","name_short":"waw-4","host":"waw-1.pl.uncletopia.com","port":27045,"enabled":true,"region":"eu","cc":"pl","latitude":52.2297,"longitude":21.017532,"reserved":0,"last_update":"0001-01-01T00:00:00Z","name_a2s":"Uncletopia | Warsaw | 4 | All Maps","protocol":17,"map":"koth_cascade","folder":"tf","game":"Team Fortress","app_id":440,"player_count":0,"max_players":24,"Bots":0,"server_type":"Dedicated","server_os":"Linux","password":true,"vac":true,"version":"7961495","steam_id":85568392925397853,"keywords":["cp","nocrits","nodmgspread","uncletopia"],"game_id":440,"stv_port":27046,"stv_name":"Uncletopia | Warsaw | 4 | All Maps | STV","players":null},{"server_id":53,"name":"Uncletopia | Warsaw | 5 | Stopwatch","name_short":"waw-5","host":"waw-1.pl.uncletopia.com","port":27055,"enabled":true,"region":"eu","cc":"pl","latitude":52.2297,"longitude":21.017532,"reserved":0,"last_update":"0001-01-01T00:00:00Z","name_a2s":"Uncletopia | Warsaw | 5 | Stopwatch","protocol":17,"map":"koth_highpass","folder":"tf","game":"Team Fortress","app_id":440,"player_count":0,"max_players":24,"Bots":0,"server_type":"Dedicated","server_os":"Linux","password":true,"vac":true,"version":"7961495","steam_id":85568392925397854,"keywords":["cp","nocrits","nodmgspread","uncletopia"],"game_id":440,"stv_port":27056,"stv_name":"Uncletopia | Warsaw | 5 | Stopwatch | STV","players":null},{"server_id":54,"name":"Uncletopia | Warsaw | 6 | Community","name_short":"waw-6","host":"waw-1.pl.uncletopia.com","port":27065,"enabled":true,"region":"eu","cc":"pl","latitude":52.2297,"longitude":21.017532,"reserved":0,"last_update":"0001-01-01T00:00:00Z","name_a2s":"Uncletopia | Warsaw | 6 | Community","protocol":17,"map":"workshop/cp_overgrown_rc8.ugc503939302","folder":"tf","game":"Team Fortress","app_id":440,"player_count":0,"max_players":24,"Bots":0,"server_type":"Dedicated","server_os":"Linux","password":true,"vac":true,"version":"7961495","steam_id":85568392925397856,"keywords":["cp","nocrits","nodmgspread","uncletopia"],"game_id":440,"stv_port":27066,"stv_name":"Uncletopia | Warsaw | 6 | Community | STV","players":null}]}