{"status":true,"message":"","result":[{"server_id":9,"name":"Uncletopia | Atlanta | 1 | All Maps","name_short":"atl-1","host":"atl-1.us.uncletopia.com","port":27015,"enabled":true,"region":"us-east","cc":"us","latitude":33.753746,"longitude":-84.38633,"reserved":0,"last_update":"0001-01-01T00:00:00Z","name_a2s":"Uncletopia | Atlanta | 1 | All Maps","protocol":17,"map":"koth_harvest_final","folder":"tf","game":"Team Fortress","app_id":440,"player_count":24,"max_players":24,"Bots":0,"server_type":"Dedicated","server_os":"Linux","password":true,"vac":true,"version":"7757534","steam_id":85568392924469982,"keywords":["cp","nocrits","nodmgspread","uncletopia"],"game_id":440,"stv_port":27016,"stv_name":"Uncletopia | Atlanta | 1 | All Maps | STV","players":[{"user_id":4,"name":"Cidio Irion","steam_id":76561198176885019,"connected_time":3674000000000,"state":"active","ping":105},{"user_id":49,"name":"[DEEP] Roz257","steam_id":76561198842844532,"connected_time":824000000000,"state":"active","ping":84},{"user_id":6,"name":"300000 rabid Chihuahuas in Ohio","steam_id":76561198130772096,"connected_time":3080000000000,"state":"active","ping":46},{"user_id":50,"name":"qjkxkcd","steam_id":76561198035922283,"connected_time":763000000000,"state":"active","ping":72},{"user_id":8,"name":"HemoGlobbin","steam_id":76561198172431333,"connected_time":2967000000000,"state":"active","ping":65},{"user_id":14,"name":"Vapor","steam_id":76561198850475407,"connected_time":2353000000000,"state":"active","ping":83},{"user_id":47,"name":"Mads","steam_id":76561198126137797,"connected_time":963000000000,"state":"active","ping":121},{"user_id":18,"name":"dysesthesia","steam_id":76561198027159018,"connected_time":1941000000000,"state":"active","ping":67},{"user_id":19,"name":"Randomguy","steam_id":76561198207058079,"connected_time":1852000000000,"state":"active","ping":70},{"user_id":48,"name":"AroundlyLily","steam_id":76561198061752754,"connected_time":896000000000,"state":"active","ping":94},{"user_id":51,"name":"Sloothman","steam_id":76561198081703122,"connected_time":691000000000,"state":"active","ping":72},{"user_id":41,"name":"XXXgun_spy_mainXXX","steam_id":76561199163489550,"connected_time":1105000000000,"state":"active","ping":87},{"user_id":40,"name":"BNTF","steam_id":76561198062740087,"connected_time":1239000000000,"state":"active","ping":61},{"user_id":52,"name":"Lanky Kong","steam_id":76561198142455488,"connected_time":678000000000,"state":"active","ping":60},{"user_id":60,"name":"the rail of life","steam_id":76561198328109873,"connected_time":159000000000,"state":"active","ping":71},{"user_id":54,"name":"plastiq","steam_id":76561198008721198,"connected_time":640000000000,"state":"active","ping":48},{"user_id":29,"name":"TheGuy101","steam_id":76561199201772624,"connected_time":1595000000000,"state":"active","ping":117},{"user_id":43,"name":"Polygunner","steam_id":76561199165741650,"connected_time":1096000000000,"state":"active","ping":82},{"user_id":58,"name":"Messy_","steam_id":76561199095580664,"connected_time":325000000000,"state":"active","ping":121},{"user_id":56,"name":"Bastee1021","steam_id":76561199456141163,"connected_time":575000000000,"state":"active","ping":134},{"user_id":59,"name":"El Chapo","steam_id":76561198018182763,"connected_time":181000000000,"state":"active","ping":86},{"user_id":36,"name":"Birds1Ω6","steam_id":76561198819495676,"connected_time":1423000000000,"state":"active","ping":95},{"user_id":37,"name":"Mr_Frosty","steam_id":76561199380389079,"connected_time":1405000000000,"state":"active","ping":75},{"user_id":38,"name":"Jailbreak","steam_id":76561198802085218,"connected_time":1393000000000,"state":"active","ping":85}]},{"server_id":400,"name":"Uncletopia | Atlanta | 3 | Community","name_short":"atl-3","host":"atl-1.us.uncletopia.com","port":27035,"enabled":true,"region":"us-east","cc":"us","latitude":33.753746,"longitude":-84.38633,"reserved":0,"last_update":"0001-01-01T00:00:00Z","name_a2s":"Uncletopia | Atlanta | 3 | Community","protocol":17,"map":"workshop/cp_snowbase_b18.ugc2081770490","folder":"tf","game":"Team Fortress","app_id":440,"player_count":0,"max_players":32,"Bots":0,"server_type":"Dedicated","server_os":"Linux","password":true,"vac":true,"version":"7757534","steam_id":85568392924515187,"keywords":["cp","increased_maxplayers","nocrits","nodmgspread","uncletopia"],"game_id":440,"stv_port":27036,"stv_name":"Uncletopia | Atlanta | 3 | Community | STV","players":null},{"server_id":401,"name":"Uncletopia | Atlanta | 4 | No Payload","name_short":"atl-4","host":"atl-1.us.uncletopia.com","port":27045,"enabled":true,"region":"us-east","cc":"us","latitude":33.753746,"longitude":-84.38633,"reserved":0,"last_update":"0001-01-01T00:00:00Z","name_a2s":"","protocol":0,"map":"","folder":"","game":"","app_id":0,"player_count":0,"max_players":0,"Bots":0,"server_type":"","server_os":"","password":false,"vac":false,"version":"","steam_id":0,"keywords":null,"game_id":0,"stv_port":0,"stv_name":"","players":null},{"server_id":2,"name":"Uncletopia | Chicago | 1 | All Maps","name_short":"chi-1","host":"chi-1.us.uncletopia.com","port":27015,"enabled":true,"region":"us-central","cc":"us","latitude":41.881832,"longitude":-87.62318,"reserved":0,"last_update":"0001-01-01T00:00:00Z","name_a2s":"Uncletopia | Chicago | 1 | All Maps","protocol":17,"map":"pl_swiftwater_final1","folder":"tf","game":"Team Fortress","app_id":440,"player_count":0,"max_players":24,"Bots":0,"server_type":"Dedicated","server_os":"Linux","password":true,"vac":true,"version":"7757534","steam_id":85568392924469984,"keywords":["nocrits","nodmgspread","payload","uncletopia"],"game_id":440,"stv_port":27016,"stv_name":"Uncletopia | Chicago | 1 | All Maps | STV","players":null},{"server_id":106,"name":"Uncletopia | Chicago | 2 | All Maps","name_short":"chi-2","host":"chi-1.us.uncletopia.com","port":27025,"enabled":true,"region":"us-central","cc":"us","latitude":41.881832,"longitude":-87.62318,"reserved":0,"last_update":"0001-01-01T00:00:00Z","name_a2s":"Uncletopia | Chicago | 2 | All Maps","protocol":17,"map":"pl_borneo","folder":"tf","game":"Team Fortress","app_id":440,"player_count":24,"max_players":24,"Bots":0,"server_type":"Dedicated","server_os":"Linux","password":true,"vac":true,"version":"7757534","steam_id":85568392924469985,"keywords":["nocrits","nodmgspread","payload","uncletopia"],"game_id":440,"stv_port":27026,"stv_name":"Uncletopia | Chicago | 2 | All Maps | STV","players":[{"user_id":182,"name":"Zombiehunter11","steam_id":76561198237517830,"connected_time":557000000000,"state":"active","ping":76},{"user_id":153,"name":"P I S S","steam_id":76561199197497757,"connected_time":3203000000000,"state":"active","ping":50},{"user_id":188,"name":"Ann1ck","steam_id":76561198361129190,"connected_time":247000000000,"state":"active","ping":74},{"user_id":192,"name":"Gumit","steam_id":76561198208126512,"connected_time":156000000000,"state":"active","ping":69},{"user_id":160,"name":"ikola","steam_id":76561198841721149,"connected_time":2251000000000,"state":"active","ping":100},{"user_id":131,"name":"D0VE","steam_id":76561198151618566,"connected_time":3894000000000,"state":"active","ping":96},{"user_id":190,"name":"creeeeeee","steam_id":76561198392539722,"connected_time":190000000000,"state":"active","ping":79},{"user_id":174,"name":"MrrPamplemousse","steam_id":76561198072241333,"connected_time":1463000000000,"state":"active","ping":71},{"user_id":193,"name":"j1mmy","steam_id":76561198098554331,"connected_time":137000000000,"state":"active","ping":92},{"user_id":189,"name":"1 pirate metal fan","steam_id":76561198202273263,"connected_time":201000000000,"state":"active","ping":45},{"user_id":134,"name":"the glizzard","steam_id":76561198121633820,"connected_time":3892000000000,"state":"active","ping":100},{"user_id":167,"name":"richard clock","steam_id":76561198048455671,"connected_time":2055000000000,"state":"active","ping":60},{"user_id":161,"name":"Big Phony","steam_id":76561199092395311,"connected_time":2235000000000,"state":"active","ping":66},{"user_id":191,"name":"ThingWithaK","steam_id":76561198317602350,"connected_time":161000000000,"state":"active","ping":115},{"user_id":178,"name":"Mattron1","steam_id":76561198012270524,"connected_time":1065000000000,"state":"active","ping":85},{"user_id":179,"name":"chen","steam_id":76561198278879575,"connected_time":1065000000000,"state":"active","ping":62},{"user_id":184,"name":"EmeraldCola","steam_id":76561198066663687,"connected_time":523000000000,"state":"active","ping":70},{"user_id":162,"name":"Biome","steam_id":76561198133485826,"connected_time":2125000000000,"state":"active","ping":70},{"user_id":187,"name":"ṽ⧉  hank","steam_id":76561197977182378,"connected_time":310000000000,"state":"active","ping":47},{"user_id":181,"name":"LuciD","steam_id":76561198242842394,"connected_time":569000000000,"state":"active","ping":112},{"user_id":186,"name":"FairlyFatFungus","steam_id":76561199152828854,"connected_time":350000000000,"state":"active","ping":143},{"user_id":170,"name":"BetoelAff es","steam_id":76561198377842585,"connected_time":1983000000000,"state":"active","ping":121},{"user_id":185,"name":"loudpisser","steam_id":76561198078802110,"connected_time":382000000000,"state":"active","ping":73}]},{"server_id":402,"name":"Uncletopia | Chicago | 3 | All Maps","name_short":"chi-3","host":"chi-1.us.uncletopia.com","port":27035,"enabled":true,"region":"us-central","cc":"us","latitude":41.881832,"longitude":-87.62318,"reserved":0,"last_update":"0001-01-01T00:00:00Z","name_a2s":"Uncletopia | Chicago | 3 | All Maps","protocol":17,"map":"koth_lakeside_final","folder":"tf","game":"Team Fortress","app_id":440,"player_count":0,"max_players":24,"Bots":0,"server_type":"Dedicated","server_os":"Linux","password":true,"vac":true,"version":"7757534","steam_id":85568392924515191,"keywords":["cp","nocrits","nodmgspread","uncletopia"],"game_id":440,"stv_port":27036,"stv_name":"Uncletopia | Chicago | 3 | All Maps | STV","players":null},{"server_id":403,"name":"Uncletopia | Chicago | 4 | All Maps","name_short":"chi-4","host":"chi-1.us.uncletopia.com","port":27045,"enabled":true,"region":"us-central","cc":"us","latitude":41.881832,"longitude":-87.62318,"reserved":0,"last_update":"0001-01-01T00:00:00Z","name_a2s":"Uncletopia | Chicago | 4 | All Maps","protocol":17,"map":"pl_upward","folder":"tf","game":"Team Fortress","app_id":440,"player_count":24,"max_players":24,"Bots":0,"server_type":"Dedicated","server_os":"Linux","password":true,"vac":true,"version":"7757534","steam_id":85568392924515193,"keywords":["nocrits","nodmgspread","payload","uncletopia"],"game_id":440,"stv_port":27046,"stv_name":"Uncletopia | Chicago | 4 | All Maps | STV","players":[{"user_id":4,"name":"scotty","steam_id":76561198303996732,"connected_time":2135000000000,"state":"active","ping":67},{"user_id":5,"name":"chromatic","steam_id":76561198119157489,"connected_time":2115000000000,"state":"active","ping":77},{"user_id":49,"name":"Man in the sewers","steam_id":76561199237973099,"connected_time":354000000000,"state":"active","ping":105},{"user_id":9,"name":"el penis","steam_id":76561199389283507,"connected_time":1734000000000,"state":"active","ping":85},{"user_id":11,"name":"Scent Tree","steam_id":76561198444371121,"connected_time":1353000000000,"state":"active","ping":88},{"user_id":27,"name":"Neoplix","steam_id":76561199012756422,"connected_time":974000000000,"state":"active","ping":70},{"user_id":13,"name":"Atomic Waffles","steam_id":76561197970935570,"connected_time":1315000000000,"state":"active","ping":72},{"user_id":29,"name":"judesro","steam_id":76561198352244888,"connected_time":898000000000,"state":"active","ping":70},{"user_id":41,"name":"cokersworld","steam_id":76561198039731344,"connected_time":453000000000,"state":"active","ping":90},{"user_id":16,"name":"Chafn","steam_id":76561197969386702,"connected_time":1240000000000,"state":"active","ping":92},{"user_id":32,"name":"Fuzzy Toast","steam_id":76561198028067781,"connected_time":800000000000,"state":"active","ping":44},{"user_id":33,"name":"Lord Scrubling","steam_id":76561198263744445,"connected_time":794000000000,"state":"active","ping":73},{"user_id":20,"name":"themankeys","steam_id":76561198149339536,"connected_time":1131000000000,"state":"active","ping":68},{"user_id":42,"name":"Spiderfight1","steam_id":76561199189991528,"connected_time":446000000000,"state":"active","ping":90},{"user_id":22,"name":"SPICE!","steam_id":76561198191345389,"connected_time":1080000000000,"state":"active","ping":182},{"user_id":23,"name":"nastypass","steam_id":76561198002601054,"connected_time":1071000000000,"state":"active","ping":62},{"user_id":24,"name":"I'm Dizzy","steam_id":76561198442203932,"connected_time":1055000000000,"state":"active","ping":99},{"user_id":45,"name":"bunny and the camie","steam_id":76561199225405261,"connected_time":424000000000,"state":"active","ping":85},{"user_id":39,"name":"Cat in Your Backyard","steam_id":76561197979078330,"connected_time":464000000000,"state":"active","ping":61},{"user_id":34,"name":"TheChickenChuck","steam_id":76561199192686708,"connected_time":790000000000,"state":"active","ping":103},{"user_id":35,"name":"=PB=","steam_id":76561197999146612,"connected_time":763000000000,"state":"active","ping":122},{"user_id":48,"name":"smocc","steam_id":76561197993726746,"connected_time":377000000000,"state":"active","ping":62},{"user_id":37,"name":"Dad 2","steam_id":76561198138546187,"connected_time":746000000000,"state":"active","ping":74},{"user_id":40,"name":"JacripspyVulcano","steam_id":76561198966980576,"connected_time":464000000000,"state":"active","ping":67}]},{"server_id":36,"name":"Uncletopia | Chicago | 5 | All Maps","name_short":"chi-5","host":"chi-2.us.uncletopia.com","port":27015,"enabled":true,"region":"us-central","cc":"us","latitude":41.881832,"longitude":-87.62318,"reserved":0,"last_update":"0001-01-01T00:00:00Z","name_a2s":"Uncletopia | Chicago | 5 | All Maps","protocol":17,"map":"koth_cascade","folder":"tf","game":"Team Fortress","app_id":440,"player_count":0,"max_players":24,"Bots":0,"server_type":"Dedicated","server_os":"Linux","password":true,"vac":true,"version":"7757534","steam_id":85568392924866362,"keywords":["cp","nocrits","nodmgspread","uncletopia"],"game_id":440,"stv_port":27016,"stv_name":"Uncletopia | Chicago | 5 | All Maps | STV","players":null},{"server_id":37,"name":"Uncletopia | Chicago | 6 | All Maps","name_short":"chi-6","host":"chi-2.us.uncletopia.com","port":27025,"enabled":true,"region":"us-central","cc":"us","latitude":41.881832,"longitude":-87.62318,"reserved":0,"last_update":"0001-01-01T00:00:00Z","name_a2s":"Uncletopia | Chicago | 6 | All Maps","protocol":17,"map":"koth_cascade","folder":"tf","game":"Team Fortress","app_id":440,"player_count":0,"max_players":24,"Bots":0,"server_type":"Dedicated","server_os":"Linux","password":true,"vac":true,"version":"7757534","steam_id":85568392924866363,"keywords":["cp","nocrits","nodmgspread","uncletopia"],"game_id":440,"stv_port":27026,"stv_name":"Uncletopia | Chicago | 6 | All Maps | STV","players":null},{"server_id":38,"name":"Uncletopia | Chicago | 7 | Stopwatch Beta","name_short":"chi-7","host":"chi-2.us.uncletopia.com","port":27035,"enabled":true,"region":"us-central","cc":"us","latitude":41.881832,"longitude":-87.62318,"reserved":0,"last_update":"0001-01-01T00:00:00Z","name_a2s":"Uncletopia | Chicago | 7 | Stopwatch Beta","protocol":17,"map":"pl_upward","folder":"tf","game":"Team Fortress","app_id":440,"player_count":0,"max_players":24,"Bots":0,"server_type":"Dedicated","server_os":"Linux","password":true,"vac":true,"version":"7757534","steam_id":85568392924866364,"keywords":["nocrits","nodmgspread","payload","uncletopia"],"game_id":440,"stv_port":27036,"stv_name":"Uncletopia | Chicago | 7 | Stopwatch Beta | STV","players":null},{"server_id":39,"name":"Uncletopia | Chicago | 8 | Community","name_short":"chi-8","host":"chi-2.us.uncletopia.com","port":27045,"enabled":true,"region":"us-central","cc":"us","latitude":41.881832,"longitude":-87.62318,"reserved":0,"last_update":"0001-01-01T00:00:00Z","name_a2s":"Uncletopia | Chicago | 8 | Community","protocol":17,"map":"pl_barnblitz","folder":"tf","game":"Team Fortress","app_id":440,"player_count":0,"max_players":24,"Bots":0,"server_type":"Dedicated","server_os":"Linux","password":true,"vac":true,"version":"7757534","steam_id":85568392924866365,"keywords":["nocrits","nodmgspread","payload","uncletopia"],"game_id":440,"stv_port":27046,"stv_name":"Uncletopia | Chicago | 8 | Community | STV","players":null},{"server_id":8,"name":"Uncletopia | Dallas | 1 | All Maps","name_short":"dal-1","host":"dal-1.us.uncletopia.com","port":27015,"enabled":true,"region":"us-central","cc":"us","latitude":32.779167,"longitude":-96.80889,"reserved":0,"last_update":"0001-01-01T00:00:00Z","name_a2s":"Uncletopia | Dallas | 1 | All Maps","protocol":17,"map":"pl_swiftwater_final1","folder":"tf","game":"Team Fortress","app_id":440,"player_count":24,"max_players":24,"Bots":0,"server_type":"Dedicated","server_os":"Linux","password":true,"vac":true,"version":"7757534","steam_id":85568392924469986,"keywords":["nocrits","nodmgspread","payload","uncletopia"],"game_id":440,"stv_port":27016,"stv_name":"Uncletopia | Dallas | 1 | All Maps | STV","players":[{"user_id":11,"name":"Bing Chilling","steam_id":76561198140651185,"connected_time":7056000000000,"state":"active","ping":63},{"user_id":124,"name":"Arachna.cadabra","steam_id":76561198039437427,"connected_time":1281000000000,"state":"active","ping":100},{"user_id":13,"name":"High Medic","steam_id":76561198082405984,"connected_time":6228000000000,"state":"active","ping":83},{"user_id":107,"name":"The Horseless Headless Horseman","steam_id":76561198384098648,"connected_time":2330000000000,"state":"active","ping":86},{"user_id":121,"name":"HE’S IN THE GODDAMN WALLS","steam_id":76561198363267009,"connected_time":1718000000000,"state":"active","ping":45},{"user_id":112,"name":"Ġ1 ♦ Synth","steam_id":76561198058660228,"connected_time":2185000000000,"state":"active","ping":55},{"user_id":108,"name":"yllen","steam_id":76561199061380038,"connected_time":2312000000000,"state":"active","ping":150},{"user_id":125,"name":"Hoogidaba","steam_id":76561198069299219,"connected_time":1253000000000,"state":"active","ping":97},{"user_id":135,"name":"prdxninja","steam_id":76561198170081774,"connected_time":557000000000,"state":"active","ping":59},{"user_id":59,"name":"TransWomanGaming","steam_id":76561198809645656,"connected_time":4002000000000,"state":"active","ping":81},{"user_id":123,"name":"The Drunk Clown","steam_id":76561197986850426,"connected_time":1304000000000,"state":"active","ping":92},{"user_id":134,"name":"M@verick","steam_id":76561198006363519,"connected_time":582000000000,"state":"active","ping":93},{"user_id":118,"name":"Mury","steam_id":76561198069743049,"connected_time":1953000000000,"state":"active","ping":109},{"user_id":31,"name":"John Calibur","steam_id":76561197999986606,"connected_time":5082000000000,"state":"active","ping":75},{"user_id":127,"name":"Hong","steam_id":76561198317684125,"connected_time":1188000000000,"state":"active","ping":95},{"user_id":131,"name":"corporation","steam_id":76561198281612642,"connected_time":1006000000000,"state":"active","ping":99},{"user_id":105,"name":"nnobi","steam_id":76561198878729277,"connected_time":2352000000000,"state":"active","ping":75},{"user_id":38,"name":"endo","steam_id":76561197995204381,"connected_time":4769000000000,"state":"active","ping":75},{"user_id":33,"name":"Greenpikmin","steam_id":76561198137310107,"connected_time":4933000000000,"state":"active","ping":82},{"user_id":129,"name":"SCARY MONSTERS","steam_id":76561198042034176,"connected_time":1121000000000,"state":"active","ping":64},{"user_id":130,"name":"THERE'S NO FENCE ON THIS FENCE!","steam_id":76561198105359319,"connected_time":1053000000000,"state":"active","ping":75},{"user_id":136,"name":"De_pressed","steam_id":76561198154619174,"connected_time":543000000000,"state":"active","ping":97},{"user_id":39,"name":"THE CUMEST LORD","steam_id":76561198061412592,"connected_time":4733000000000,"state":"active","ping":87},{"user_id":137,"name":"WORLIII","steam_id":76561198860027061,"connected_time":535000000000,"state":"active","ping":169}]},{"server_id":108,"name":"Uncletopia | Dallas | 2 | All Maps","name_short":"dal-2","host":"dal-1.us.uncletopia.com","port":27025,"enabled":true,"region":"us-central","cc":"us","latitude":32.779167,"longitude":-96.80889,"reserved":0,"last_update":"0001-01-01T00:00:00Z","name_a2s":"Uncletopia | Dallas | 2 | All Maps","protocol":17,"map":"cp_altitude","folder":"tf","game":"Team Fortress","app_id":440,"player_count":0,"max_players":24,"Bots":0,"server_type":"Dedicated","server_os":"Linux","password":true,"vac":true,"version":"7757534","steam_id":85568392924469988,"keywords":["cp","nocrits","nodmgspread","uncletopia"],"game_id":440,"stv_port":27026,"stv_name":"Uncletopia | Dallas | 2 | All Maps | STV","players":null},{"server_id":5,"name":"Uncletopia | Frankfurt | 1 | All Maps","name_short":"frk-1","host":"frk-1.de.uncletopia.com","port":27015,"enabled":true,"region":"eu","cc":"de","latitude":50.110924,"longitude":8.682127,"reserved":0,"last_update":"0001-01-01T00:00:00Z","name_a2s":"Uncletopia | Frankfurt | 1 | All Maps","protocol":17,"map":"plr_bananabay","folder":"tf","game":"Team Fortress","app_id":440,"player_count":0,"max_players":24,"Bots":0,"server_type":"Dedicated","server_os":"Linux","password":true,"vac":true,"version":"7757534","steam_id":85568392924469989,"keywords":["nocrits","nodmgspread","payload","uncletopia"],"game_id":440,"stv_port":27016,"stv_name":"Uncletopia | Frankfurt | 1 | All Maps | STV","players":null},{"server_id":110,"name":"Uncletopia | Frankfurt | 2 | All Maps","name_short":"frk-2","host":"frk-1.de.uncletopia.com","port":27025,"enabled":true,"region":"eu","cc":"de","latitude":50.110924,"longitude":8.682127,"reserved":0,"last_update":"0001-01-01T00:00:00Z","name_a2s":"Uncletopia | Frankfurt | 2 | All Maps","protocol":17,"map":"pl_borneo","folder":"tf","game":"Team Fortress","app_id":440,"player_count":24,"max_players":24,"Bots":0,"server_type":"Dedicated","server_os":"Linux","password":true,"vac":true,"version":"7757534","steam_id":85568392924469990,"keywords":["nocrits","nodmgspread","payload","uncletopia"],"game_id":440,"stv_port":27026,"stv_name":"Uncletopia | Frankfurt | 2 | All Maps | STV","players":[{"user_id":81,"name":"System","steam_id":76561199442503973,"connected_time":255000000000,"state":"active","ping":47},{"user_id":20,"name":"Zoldatnov","steam_id":76561198093269694,"connected_time":5568000000000,"state":"active","ping":132},{"user_id":21,"name":"Jacket","steam_id":76561198929449416,"connected_time":5530000000000,"state":"active","ping":89},{"user_id":84,"name":"Hamakaze","steam_id":76561198151906547,"connected_time":209000000000,"state":"active","ping":103},{"user_id":80,"name":"Wardruna96","steam_id":76561199057083828,"connected_time":298000000000,"state":"active","ping":70},{"user_id":58,"name":"Bodeine Brazy","steam_id":76561198122181176,"connected_time":3488000000000,"state":"active","ping":49},{"user_id":25,"name":"alyonamdst","steam_id":76561199060538617,"connected_time":5250000000000,"state":"active","ping":133},{"user_id":82,"name":"☁ Lou1smeister ☁","steam_id":76561198004032968,"connected_time":212000000000,"state":"active","ping":74},{"user_id":28,"name":"♥ Dynie - Dark Angel ♥","steam_id":76561198330728659,"connected_time":5038000000000,"state":"active","ping":47},{"user_id":83,"name":"SocialistBacon","steam_id":76561198055872267,"connected_time":211000000000,"state":"active","ping":61},{"user_id":71,"name":".erik (real)","steam_id":76561197962112424,"connected_time":1012000000000,"state":"active","ping":66},{"user_id":86,"name":"Cotton Eye Joe","steam_id":76561198080594207,"connected_time":134000000000,"state":"active","ping":62},{"user_id":85,"name":"hud_saytext_time 0","steam_id":76561198010327228,"connected_time":181000000000,"state":"active","ping":48},{"user_id":64,"name":"_3tHeR_","steam_id":76561199109870743,"connected_time":2055000000000,"state":"active","ping":60},{"user_id":52,"name":"Hoks","steam_id":76561198126442242,"connected_time":3559000000000,"state":"active","ping":109},{"user_id":76,"name":"Miatthew","steam_id":76561198034102895,"connected_time":748000000000,"state":"active","ping":62},{"user_id":54,"name":"I was good before.","steam_id":76561198187045217,"connected_time":3550000000000,"state":"active","ping":79},{"user_id":73,"name":"boxa","steam_id":76561198118315232,"connected_time":978000000000,"state":"active","ping":53},{"user_id":40,"name":"subway vergil","steam_id":76561199110064166,"connected_time":4256000000000,"state":"active","ping":76},{"user_id":74,"name":"Reisen","steam_id":76561199174579733,"connected_time":915000000000,"state":"active","ping":138},{"user_id":50,"name":"twitch.tv/red_naxela","steam_id":76561197998803950,"connected_time":4077000000000,"state":"active","ping":47},{"user_id":70,"name":"Andy","steam_id":76561198136364381,"connected_time":1239000000000,"state":"active","ping":67},{"user_id":61,"name":"M.L.JEW","steam_id":76561198997375055,"connected_time":2786000000000,"state":"active","ping":178},{"user_id":78,"name":"wuwek","steam_id":76561198054296190,"connected_time":654000000000,"state":"active","ping":72}]},{"server_id":308,"name":"Uncletopia | Frankfurt | 3 | All Maps","name_short":"frk-3","host":"frk-1.de.uncletopia.com","port":27035,"enabled":true,"region":"eu","cc":"de","latitude":50.110924,"longitude":8.682127,"reserved":0,"last_update":"0001-01-01T00:00:00Z","name_a2s":"Uncletopia | Frankfurt | 3 | All Maps","protocol":17,"map":"pl_badwater","folder":"tf","game":"Team Fortress","app_id":440,"player_count":24,"max_players":24,"Bots":0,"server_type":"Dedicated","server_os":"Linux","password":true,"vac":true,"version":"7757534","steam_id":85568392924504274,"keywords":["nocrits","nodmgspread","payload","uncletopia"],"game_id":440,"stv_port":27036,"stv_name":"Uncletopia | Frankfurt | 3 | All Maps | STV","players":[{"user_id":398,"name":"-rikeOo-","steam_id":76561198303995379,"connected_time":917000000000,"state":"active","ping":69},{"user_id":397,"name":"Peter Pats","steam_id":76561198418538887,"connected_time":940000000000,"state":"active","ping":97},{"user_id":395,"name":"wicc","steam_id":76561198893915644,"connected_time":956000000000,"state":"active","ping":73},{"user_id":404,"name":"Dithmarschen","steam_id":76561198068917140,"connected_time":338000000000,"state":"active","ping":99},{"user_id":405,"name":"drew","steam_id":76561198012304706,"connected_time":63000000000,"state":"active","ping":104},{"user_id":335,"name":"fat cunt","steam_id":76561198845550388,"connected_time":4443000000000,"state":"active","ping":111},{"user_id":349,"name":"Friendly Neighborhood Femboy","steam_id":76561198362116755,"connected_time":4039000000000,"state":"active","ping":135},{"user_id":336,"name":"Puzzles","steam_id":76561198137106459,"connected_time":4428000000000,"state":"active","ping":64},{"user_id":402,"name":"nachtraaf","steam_id":76561197960473205,"connected_time":782000000000,"state":"active","ping":59},{"user_id":390,"name":"Mata_FM","steam_id":76561198044824504,"connected_time":1343000000000,"state":"active","ping":60},{"user_id":372,"name":"MRLOLENO","steam_id":76561198450911838,"connected_time":2158000000000,"state":"active","ping":69},{"user_id":378,"name":"After8","steam_id":76561198090750865,"connected_time":1885000000000,"state":"active","ping":61},{"user_id":400,"name":"Ampiong99","steam_id":76561199245197481,"connected_time":884000000000,"state":"active","ping":72},{"user_id":394,"name":"mei","steam_id":76561198028078806,"connected_time":964000000000,"state":"active","ping":55},{"user_id":393,"name":"generic alias","steam_id":76561198271607226,"connected_time":1137000000000,"state":"active","ping":96},{"user_id":353,"name":"Animatic","steam_id":76561198186421601,"connected_time":3635000000000,"state":"active","ping":173},{"user_id":391,"name":"Laki","steam_id":76561198126078953,"connected_time":1270000000000,"state":"active","ping":104},{"user_id":406,"name":"Ghost11","steam_id":76561198068892992,"connected_time":54000000000,"state":"active","ping":109},{"user_id":343,"name":"AudioTrope","steam_id":76561198084116909,"connected_time":4194000000000,"state":"active","ping":122},{"user_id":380,"name":"CosminSL","steam_id":76561198055827684,"connected_time":1824000000000,"state":"active","ping":78},{"user_id":386,"name":"wolfenstein03","steam_id":76561198147173457,"connected_time":1515000000000,"state":"active","ping":62},{"user_id":407,"name":"kpn","steam_id":76561198063512694,"connected_time":48000000000,"state":"active","ping":194},{"user_id":371,"name":"Utvar","steam_id":76561198131838460,"connected_time":2190000000000,"state":"active","ping":52},{"user_id":389,"name":"Wattseyy","steam_id":76561198248567360,"connected_time":1453000000000,"state":"active","ping":55}]},{"server_id":309,"name":"Uncletopia | Frankfurt | 4 | All Maps","name_short":"frk-4","host":"frk-1.de.uncletopia.com","port":27045,"enabled":true,"region":"eu","cc":"de","latitude":50.110924,"longitude":8.682127,"reserved":0,"last_update":"0001-01-01T00:00:00Z","name_a2s":"Uncletopia | Frankfurt | 4 | All Maps","protocol":17,"map":"pl_snowycoast","folder":"tf","game":"Team Fortress","app_id":440,"player_count":24,"max_players":24,"Bots":0,"server_type":"Dedicated","server_os":"Linux","password":true,"vac":true,"version":"7757534","steam_id":85568392924504275,"keywords":["nocrits","nodmgspread","payload","uncletopia"],"game_id":440,"stv_port":27046,"stv_name":"Uncletopia | Frankfurt | 4 | All Maps | STV","players":[{"user_id":24,"name":"Balls","steam_id":76561198086400484,"connected_time":5389000000000,"state":"active","ping":87},{"user_id":102,"name":"walluu","steam_id":76561198121830870,"connected_time":295000000000,"state":"active","ping":71},{"user_id":84,"name":"Farmer","steam_id":76561199247450043,"connected_time":2526000000000,"state":"active","ping":61},{"user_id":82,"name":"Healix","steam_id":76561198130270161,"connected_time":2559000000000,"state":"active","ping":54},{"user_id":94,"name":"Fat Pigeon","steam_id":76561198817940142,"connected_time":1096000000000,"state":"active","ping":48},{"user_id":91,"name":"luma","steam_id":76561198081649669,"connected_time":1108000000000,"state":"active","ping":61},{"user_id":100,"name":"caucasian male","steam_id":76561198062107879,"connected_time":431000000000,"state":"active","ping":75},{"user_id":62,"name":"Andrew","steam_id":76561198971073720,"connected_time":2999000000000,"state":"active","ping":72},{"user_id":73,"name":"osama","steam_id":76561199143737200,"connected_time":2851000000000,"state":"active","ping":84},{"user_id":30,"name":"Penis Contortionist","steam_id":76561198073663784,"connected_time":5286000000000,"state":"active","ping":48},{"user_id":64,"name":"w33d that makes u go hii ^_^","steam_id":76561198081559669,"connected_time":2945000000000,"state":"active","ping":85},{"user_id":96,"name":"-makina","steam_id":76561198273042780,"connected_time":1075000000000,"state":"active","ping":70},{"user_id":66,"name":"sdgfasdgasdgas","steam_id":76561198079277466,"connected_time":2910000000000,"state":"active","ping":58},{"user_id":97,"name":"drinking","steam_id":76561198126398022,"connected_time":654000000000,"state":"active","ping":74},{"user_id":103,"name":"astralscr","steam_id":76561199090360946,"connected_time":70000000000,"state":"active","ping":64},{"user_id":83,"name":"Raufaser","steam_id":76561199266632227,"connected_time":2554000000000,"state":"active","ping":62},{"user_id":95,"name":"stonebum","steam_id":76561198057004606,"connected_time":1092000000000,"state":"active","ping":67},{"user_id":98,"name":"gta_sa","steam_id":76561199433578516,"connected_time":609000000000,"state":"active","ping":76},{"user_id":72,"name":"robsan","steam_id":76561198137375391,"connected_time":2862000000000,"state":"active","ping":76},{"user_id":75,"name":"Welder","steam_id":76561198355300561,"connected_time":2805000000000,"state":"active","ping":70},{"user_id":85,"name":".Fourbee (4b)","steam_id":76561198249832770,"connected_time":2502000000000,"state":"active","ping":63},{"user_id":79,"name":"Derp","steam_id":76561198197901062,"connected_time":2669000000000,"state":"active","ping":52},{"user_id":88,"name":"XPullaHiiri","steam_id":76561198031652375,"connected_time":1140000000000,"state":"active","ping":89},{"user_id":90,"name":"southsidesuicide","steam_id":76561199062818404,"connected_time":1134000000000,"state":"active","ping":55}]},{"server_id":310,"name":"Uncletopia | Frankfurt | 5 | All Maps","name_short":"frk-5","host":"frk-1.de.uncletopia.com","port":27055,"enabled":true,"region":"eu","cc":"de","latitude":50.110924,"longitude":8.682127,"reserved":0,"last_update":"0001-01-01T00:00:00Z","name_a2s":"Uncletopia | Frankfurt | 5 | All Maps","protocol":17,"map":"pl_frontier_final","folder":"tf","game":"Team Fortress","app_id":440,"player_count":20,"max_players":24,"Bots":0,"server_type":"Dedicated","server_os":"Linux","password":true,"vac":true,"version":"7757534","steam_id":85568392924504277,"keywords":["nocrits","nodmgspread","payload","uncletopia"],"game_id":440,"stv_port":27056,"stv_name":"Uncletopia | Frankfurt | 5 | All Maps | STV","players":[{"user_id":180,"name":"σsiris","steam_id":76561198050791602,"connected_time":1470000000000,"state":"active","ping":45},{"user_id":193,"name":"blurst of times","steam_id":76561197972325640,"connected_time":907000000000,"state":"active","ping":45},{"user_id":195,"name":"Negurescu","steam_id":76561198128777349,"connected_time":362000000000,"state":"active","ping":90},{"user_id":178,"name":"rat performance","steam_id":76561198065854668,"connected_time":1542000000000,"state":"active","ping":46},{"user_id":168,"name":"Breadcrab","steam_id":76561198015924039,"connected_time":2336000000000,"state":"active","ping":69},{"user_id":198,"name":"Daniel Day-Lewis","steam_id":76561198147249160,"connected_time":25000000000,"state":"active","ping":104},{"user_id":187,"name":"cinny","steam_id":76561198832112629,"connected_time":1288000000000,"state":"active","ping":69},{"user_id":60,"name":"YHO","steam_id":76561198339976286,"connected_time":8077000000000,"state":"active","ping":47},{"user_id":191,"name":"Blo","steam_id":76561198161651469,"connected_time":988000000000,"state":"active","ping":57},{"user_id":194,"name":"Louki","steam_id":76561198150080041,"connected_time":425000000000,"state":"active","ping":48},{"user_id":163,"name":"FLAIR","steam_id":76561198112588005,"connected_time":2618000000000,"state":"active","ping":52},{"user_id":190,"name":"Platform666","steam_id":76561198314266851,"connected_time":1022000000000,"state":"active","ping":90},{"user_id":142,"name":"BAD BALD \u0026 BEYOND","steam_id":76561198029873185,"connected_time":3910000000000,"state":"active","ping":45},{"user_id":183,"name":"Daniele Antox","steam_id":76561198323879930,"connected_time":1351000000000,"state":"active","ping":46},{"user_id":184,"name":"creepe","steam_id":76561198372891738,"connected_time":1350000000000,"state":"active","ping":73},{"user_id":118,"name":"Vekkuli","steam_id":76561198107618679,"connected_time":4894000000000,"state":"active","ping":80},{"user_id":171,"name":"いかすぜ","steam_id":76561198138648424,"connected_time":2210000000000,"state":"active","ping":125},{"user_id":196,"name":"garry","steam_id":76561198019078145,"connected_time":274000000000,"state":"active","ping":77},{"user_id":192,"name":"MGE NLY","steam_id":76561198815271970,"connected_time":967000000000,"state":"active","ping":59},{"user_id":188,"name":"HOTEL LOBBY","steam_id":76561198048250715,"connected_time":1278000000000,"state":"active","ping":38}]},{"server_id":311,"name":"Uncletopia | Frankfurt | 6 | All Maps","name_short":"frk-6","host":"frk-1.de.uncletopia.com","port":27065,"enabled":true,"region":"eu","cc":"de","latitude":50.110924,"longitude":8.682127,"reserved":0,"last_update":"0001-01-01T00:00:00Z","name_a2s":"Uncletopia | Frankfurt | 6 | All Maps","protocol":17,"map":"koth_highpass","folder":"tf","game":"Team Fortress","app_id":440,"player_count":10,"max_players":24,"Bots":0,"server_type":"Dedicated","server_os":"Linux","password":true,"vac":true,"version":"7757534","steam_id":85568392924504278,"keywords":["cp","nocrits","nodmgspread","uncletopia"],"game_id":440,"stv_port":27066,"stv_name":"Uncletopia | Frankfurt | 6 | All Maps | STV","players":[{"user_id":25,"name":"justin_ (f2p) (real)","steam_id":76561198839843428,"connected_time":493000000000,"state":"active","ping":121},{"user_id":24,"name":"ran is running","steam_id":76561199443185667,"connected_time":541000000000,"state":"active","ping":138},{"user_id":27,"name":"Fratm_Wolf","steam_id":76561199100512277,"connected_time":354000000000,"state":"active","ping":59},{"user_id":28,"name":"toe eater","steam_id":76561199272782484,"connected_time":339000000000,"state":"active","ping":94},{"user_id":29,"name":"Mike Rizzowski","steam_id":76561198798657045,"connected_time":330000000000,"state":"active","ping":59},{"user_id":34,"name":"KingDozer","steam_id":76561198088491018,"connected_time":129000000000,"state":"active","ping":60},{"user_id":37,"name":"No,Why?","steam_id":76561198888755969,"connected_time":46000000000,"state":"active","ping":85},{"user_id":32,"name":"Matring","steam_id":76561198142068926,"connected_time":168000000000,"state":"active","ping":95},{"user_id":33,"name":"Norram","steam_id":76561198300844758,"connected_time":154000000000,"state":"active","ping":89},{"user_id":35,"name":"Unsalted Butter","steam_id":76561198053118190,"connected_time":120000000000,"state":"active","ping":47}]},{"server_id":23,"name":"Uncletopia | Frankfurt | 7 | Stopwatch Beta","name_short":"frk-7","host":"frk-1.de.uncletopia.com","port":27075,"enabled":true,"region":"eu","cc":"de","latitude":50.110924,"longitude":8.682127,"reserved":0,"last_update":"0001-01-01T00:00:00Z","name_a2s":"Uncletopia | Frankfurt | 7 | Stopwatch Beta","protocol":17,"map":"workshop/koth_bagel_rc6.ugc2514036946","folder":"tf","game":"Team Fortress","app_id":440,"player_count":2,"max_players":24,"Bots":0,"server_type":"Dedicated","server_os":"Linux","password":true,"vac":true,"version":"7757534","steam_id":85568392924742827,"keywords":["cp","nocrits","nodmgspread","uncletopia"],"game_id":440,"stv_port":27076,"stv_name":"Uncletopia | Frankfurt | 7 | Stopwatch Beta | STV","players":[{"user_id":6,"name":"Truegr","steam_id":76561198811912339,"connected_time":2336000000000,"state":"active","ping":69},{"user_id":7,"name":"noodles19","steam_id":76561198965900071,"connected_time":2024000000000,"state":"active","ping":86}]},{"server_id":24,"name":"Uncletopia | Frankfurt | 8 | Community","name_short":"frk-8","host":"frk-1.de.uncletopia.com","port":27085,"enabled":true,"region":"eu","cc":"de","latitude":50.110924,"longitude":8.682127,"reserved":0,"last_update":"0001-01-01T00:00:00Z","name_a2s":"Uncletopia | Frankfurt | 8 | Community","protocol":17,"map":"workshop/pl_emerge_rc2.ugc888027758","folder":"tf","game":"Team Fortress","app_id":440,"player_count":24,"max_players":24,"Bots":0,"server_type":"Dedicated","server_os":"Linux","password":true,"vac":true,"version":"7757534","steam_id":85568392924742828,"keywords":["nocrits","nodmgspread","payload","uncletopia"],"game_id":440,"stv_port":27086,"stv_name":"Uncletopia | Frankfurt | 8 | Community | STV","players":[{"user_id":471,"name":"Speedyjoestar","steam_id":76561198907130963,"connected_time":17000000000,"state":"active","ping":98},{"user_id":432,"name":"Somei","steam_id":76561198040938864,"connected_time":1877000000000,"state":"active","ping":45},{"user_id":441,"name":"Fus in Boots","steam_id":76561198053897722,"connected_time":1326000000000,"state":"spawning","ping":189},{"user_id":447,"name":"Ork","steam_id":76561197968575924,"connected_time":1105000000000,"state":"active","ping":66},{"user_id":434,"name":"Spootnak","steam_id":76561198049052518,"connected_time":1656000000000,"state":"active","ping":73},{"user_id":357,"name":"Piquesque","steam_id":76561198286763046,"connected_time":6192000000000,"state":"active","ping":107},{"user_id":442,"name":"ddchdrn","steam_id":76561198024358566,"connected_time":1274000000000,"state":"active","ping":60},{"user_id":453,"name":"mouse","steam_id":76561198349648942,"connected_time":905000000000,"state":"active","ping":87},{"user_id":459,"name":"Pink Cheese","steam_id":76561198972186436,"connected_time":589000000000,"state":"active","ping":70},{"user_id":446,"name":"dotdotdot","steam_id":76561198057628751,"connected_time":1182000000000,"state":"active","ping":60},{"user_id":437,"name":"Tortoise Guy","steam_id":76561199047825610,"connected_time":1486000000000,"state":"active","ping":81},{"user_id":465,"name":"Nice!","steam_id":76561199230709660,"connected_time":390000000000,"state":"active","ping":46},{"user_id":438,"name":"Dark Wizart","steam_id":76561198377689439,"connected_time":1480000000000,"state":"active","ping":69},{"user_id":466,"name":"STANISLAV","steam_id":76561198007394937,"connected_time":370000000000,"state":"active","ping":81},{"user_id":469,"name":"Mat","steam_id":76561198444867531,"connected_time":108000000000,"state":"active","ping":95},{"user_id":449,"name":"average cpp programmer","steam_id":76561198259249173,"connected_time":1015000000000,"state":"active","ping":54},{"user_id":444,"name":"mcdonaldburger54@yahoo.com","steam_id":76561198846982793,"connected_time":1217000000000,"state":"active","ping":58},{"user_id":470,"name":"Xx_えななんxX69","steam_id":76561199427679148,"connected_time":48000000000,"state":"active","ping":61},{"user_id":452,"name":"nouse","steam_id":76561197994492154,"connected_time":912000000000,"state":"active","ping":60},{"user_id":462,"name":"Salad Flingué [FR]","steam_id":76561198965211894,"connected_time":531000000000,"state":"active","ping":65},{"user_id":463,"name":"kirayuk","steam_id":76561199386467159,"connected_time":528000000000,"state":"spawning","ping":176},{"user_id":414,"name":"zSleep_Walker","steam_id":76561198111694017,"connected_time":3349000000000,"state":"active","ping":57},{"user_id":415,"name":"Lustyc Viper [FR]","steam_id":76561198079443655,"connected_time":3303000000000,"state":"active","ping":72},{"user_id":464,"name":"WingRat","steam_id":76561198066288315,"connected_time":528000000000,"state":"active","ping":57}]},{"server_id":202,"name":"Uncletopia | Hong Kong | 1 | All Maps","name_short":"hgk-1","host":"hgk-1.hk.uncletopia.com","port":27015,"enabled":true,"region":"asia","cc":"hk","latitude":22.302711,"longitude":114.177216,"reserved":0,"last_update":"0001-01-01T00:00:00Z","name_a2s":"Uncletopia | Hong Kong | 1 | All Maps","protocol":17,"map":"pl_upward","folder":"tf","game":"Team Fortress","app_id":440,"player_count":16,"max_players":24,"Bots":0,"server_type":"Dedicated","server_os":"Linux","password":true,"vac":true,"version":"7757534","steam_id":85568392924494504,"keywords":["nocrits","nodmgspread","payload","uncletopia"],"game_id":440,"stv_port":27016,"stv_name":"Uncletopia | Hong Kong | 1 | All Maps | STV","players":[{"user_id":1487,"name":"Elgojo","steam_id":76561199215816227,"connected_time":150000000000,"state":"active","ping":95},{"user_id":1483,"name":"Cod0fDuty","steam_id":76561198958062892,"connected_time":1025000000000,"state":"active","ping":47},{"user_id":1429,"name":"how 2 nijika tutorial","steam_id":76561199146847474,"connected_time":6251000000000,"state":"active","ping":54},{"user_id":1467,"name":"loid forgor","steam_id":76561198811532659,"connected_time":2212000000000,"state":"active","ping":90},{"user_id":1423,"name":"uptriste","steam_id":76561198158666692,"connected_time":6995000000000,"state":"active","ping":41},{"user_id":1457,"name":"煙海 | Enkai","steam_id":76561198050460825,"connected_time":2849000000000,"state":"active","ping":75},{"user_id":1485,"name":"AmaiToxic","steam_id":76561199122491157,"connected_time":245000000000,"state":"active","ping":78},{"user_id":1486,"name":"killman47","steam_id":76561198348487408,"connected_time":213000000000,"state":"active","ping":39},{"user_id":1481,"name":"Banana Milk","steam_id":76561198005156257,"connected_time":1146000000000,"state":"active","ping":130},{"user_id":1462,"name":"gilsomnia","steam_id":76561198830813639,"connected_time":2632000000000,"state":"active","ping":67},{"user_id":1461,"name":"old chunk of coal","steam_id":76561197990537324,"connected_time":2723000000000,"state":"active","ping":139},{"user_id":1434,"name":"母の肉団子@hao123.com","steam_id":76561198069561896,"connected_time":5903000000000,"state":"active","ping":44},{"user_id":1477,"name":"Turbo.RF4 (Freestate In a State","steam_id":76561199061012484,"connected_time":1439000000000,"state":"active","ping":61},{"user_id":1474,"name":"Floating Blocks of Death","steam_id":76561198179320563,"connected_time":1801000000000,"state":"active","ping":126},{"user_id":1350,"name":"Pillboi","steam_id":76561198011172886,"connected_time":14043000000000,"state":"active","ping":41},{"user_id":1480,"name":"Batbob","steam_id":76561198999413123,"connected_time":1318000000000,"state":"active","ping":78}]},{"server_id":1,"name":"Uncletopia | Los Angeles | 1 | All Maps","name_short":"lax-1","host":"lax-1.us.uncletopia.com","port":27015,"enabled":true,"region":"us-west","cc":"us","latitude":33.94279,"longitude":-118.41004,"reserved":0,"last_update":"0001-01-01T00:00:00Z","name_a2s":"Uncletopia | Los Angeles | 1 | All Maps","protocol":17,"map":"pl_borneo","folder":"tf","game":"Team Fortress","app_id":440,"player_count":0,"max_players":24,"Bots":0,"server_type":"Dedicated","server_os":"Linux","password":true,"vac":true,"version":"7757534","steam_id":85568392924469991,"keywords":["nocrits","nodmgspread","payload","uncletopia"],"game_id":440,"stv_port":27016,"stv_name":"Uncletopia | Los Angeles | 1 | All Maps | STV","players":null},{"server_id":112,"name":"Uncletopia | Los Angeles | 2 | All Maps","name_short":"lax-2","host":"lax-1.us.uncletopia.com","port":27025,"enabled":true,"region":"us-west","cc":"us","latitude":33.94279,"longitude":-118.41004,"reserved":0,"last_update":"0001-01-01T00:00:00Z","name_a2s":"Uncletopia | Los Angeles | 2 | All Maps","protocol":17,"map":"koth_cascade","folder":"tf","game":"Team Fortress","app_id":440,"player_count":0,"max_players":24,"Bots":0,"server_type":"Dedicated","server_os":"Linux","password":true,"vac":true,"version":"7757534","steam_id":85568392924469992,"keywords":["cp","nocrits","nodmgspread","uncletopia"],"game_id":440,"stv_port":27026,"stv_name":"Uncletopia | Los Angeles | 2 | All Maps | STV","players":null},{"server_id":324,"name":"Uncletopia | Los Angeles | 3 | All Maps","name_short":"lax-3","host":"lax-1.us.uncletopia.com","port":27035,"enabled":true,"region":"us-west","cc":"us","latitude":33.94279,"longitude":-118.41004,"reserved":0,"last_update":"0001-01-01T00:00:00Z","name_a2s":"Uncletopia | Los Angeles | 3 | All Maps","protocol":17,"map":"pl_pier","folder":"tf","game":"Team Fortress","app_id":440,"player_count":0,"max_players":24,"Bots":0,"server_type":"Dedicated","server_os":"Linux","password":true,"vac":true,"version":"7757534","steam_id":85568392924510198,"keywords":["nocrits","nodmgspread","payload","uncletopia"],"game_id":440,"stv_port":27036,"stv_name":"Uncletopia | Los Angeles | 3 | All Maps | STV","players":null},{"server_id":25,"name":"Uncletopia | Los Angeles | 4 | Stopwatch Beta","name_short":"lax-4","host":"lax-1.us.uncletopia.com","port":27045,"enabled":true,"region":"us-west","cc":"us","latitude":33.94279,"longitude":-118.41004,"reserved":0,"last_update":"0001-01-01T00:00:00Z","name_a2s":"Uncletopia | Los Angeles | 4 | Stopwatch Beta","protocol":17,"map":"pl_frontier_final","folder":"tf","game":"Team Fortress","app_id":440,"player_count":0,"max_players":24,"Bots":0,"server_type":"Dedicated","server_os":"Linux","password":true,"vac":true,"version":"7757534","steam_id":85568392924510199,"keywords":["nocrits","nodmgspread","payload","uncletopia"],"game_id":440,"stv_port":27046,"stv_name":"Uncletopia | Los Angeles | 4 | Stopwatch Beta | STV","players":null},{"server_id":11,"name":"Uncletopia | London | 1 | All Maps","name_short":"lon-1","host":"lon-1.uk.uncletopia.com","port":27015,"enabled":true,"region":"eu","cc":"gb","latitude":51.509865,"longitude":-0.118092,"reserved":0,"last_update":"0001-01-01T00:00:00Z","name_a2s":"Uncletopia | London | 1 | All Maps","protocol":17,"map":"pl_pier","folder":"tf","game":"Team Fortress","app_id":440,"player_count":24,"max_players":24,"Bots":0,"server_type":"Dedicated","server_os":"Linux","password":true,"vac":true,"version":"7757534","steam_id":85568392924367362,"keywords":["nocrits","nodmgspread","payload","uncletopia"],"game_id":440,"stv_port":27016,"stv_name":"Uncletopia | London | 1 | All Maps | STV","players":[{"user_id":200,"name":"Minimi","steam_id":76561198873850443,"connected_time":848000000000,"state":"active","ping":70},{"user_id":149,"name":"Laru","steam_id":76561197998838438,"connected_time":5730000000000,"state":"active","ping":68},{"user_id":203,"name":"fume.","steam_id":76561197960476801,"connected_time":727000000000,"state":"active","ping":51},{"user_id":176,"name":"Xiqui","steam_id":76561198818386611,"connected_time":2654000000000,"state":"active","ping":71},{"user_id":198,"name":"Trapezoid","steam_id":76561198059369295,"connected_time":1055000000000,"state":"active","ping":71},{"user_id":197,"name":"Zoran Snajper","steam_id":76561198312564061,"connected_time":1094000000000,"state":"active","ping":66},{"user_id":206,"name":"swag warrior","steam_id":76561198796600155,"connected_time":671000000000,"state":"active","ping":95},{"user_id":127,"name":"Crooked Soybean","steam_id":76561198837706438,"connected_time":7179000000000,"state":"active","ping":60},{"user_id":209,"name":"wxyz kapıcı izzet","steam_id":76561198241873438,"connected_time":619000000000,"state":"active","ping":88},{"user_id":202,"name":"buy high sell low","steam_id":76561199062586342,"connected_time":740000000000,"state":"active","ping":66},{"user_id":138,"name":"bum","steam_id":76561198060105180,"connected_time":6381000000000,"state":"active","ping":67},{"user_id":187,"name":"murderwow","steam_id":76561198024566944,"connected_time":1949000000000,"state":"active","ping":105},{"user_id":102,"name":"VolcanicArts","steam_id":76561198063453246,"connected_time":7865000000000,"state":"active","ping":53},{"user_id":213,"name":"VioletSpecs","steam_id":76561198089366466,"connected_time":325000000000,"state":"active","ping":130},{"user_id":212,"name":"Kaishakunin","steam_id":76561198028123874,"connected_time":337000000000,"state":"active","ping":93},{"user_id":207,"name":"HyperBruh","steam_id":76561198867157520,"connected_time":664000000000,"state":"active","ping":81},{"user_id":214,"name":"fazer","steam_id":76561199121283698,"connected_time":315000000000,"state":"active","ping":67},{"user_id":211,"name":"ghost","steam_id":76561198189940229,"connected_time":347000000000,"state":"active","ping":61},{"user_id":195,"name":"silicon based life form","steam_id":76561199127121346,"connected_time":1265000000000,"state":"active","ping":57},{"user_id":154,"name":"Lessoz","steam_id":76561199211572036,"connected_time":5359000000000,"state":"active","ping":93},{"user_id":204,"name":"quickfast","steam_id":76561199438900919,"connected_time":714000000000,"state":"active","ping":45},{"user_id":216,"name":"shr1mple","steam_id":76561198173537027,"connected_time":260000000000,"state":"active","ping":53},{"user_id":215,"name":"cow milking specialist","steam_id":76561198364121077,"connected_time":313000000000,"state":"active","ping":94},{"user_id":158,"name":"nudjura","steam_id":76561198281986139,"connected_time":4890000000000,"state":"active","ping":40}]},{"server_id":114,"name":"Uncletopia | London | 2 | All Maps","name_short":"lon-2","host":"lon-1.uk.uncletopia.com","port":27025,"enabled":true,"region":"eu","cc":"gb","latitude":51.509865,"longitude":-0.118092,"reserved":0,"last_update":"0001-01-01T00:00:00Z","name_a2s":"Uncletopia | London | 2 | All Maps","protocol":17,"map":"koth_highpass","folder":"tf","game":"Team Fortress","app_id":440,"player_count":0,"max_players":24,"Bots":0,"server_type":"Dedicated","server_os":"Linux","password":true,"vac":true,"version":"7757534","steam_id":85568392924470941,"keywords":["cp","nocrits","nodmgspread","uncletopia"],"game_id":440,"stv_port":27026,"stv_name":"Uncletopia | London | 2 | All Maps | STV","players":null},{"server_id":320,"name":"Uncletopia | London | 3 | All Maps","name_short":"lon-3","host":"lon-1.uk.uncletopia.com","port":27035,"enabled":true,"region":"eu","cc":"gb","latitude":51.509865,"longitude":-0.118092,"reserved":0,"last_update":"0001-01-01T00:00:00Z","name_a2s":"Uncletopia | London | 3 | All Maps","protocol":17,"map":"cp_dustbowl","folder":"tf","game":"Team Fortress","app_id":440,"player_count":23,"max_players":24,"Bots":0,"server_type":"Dedicated","server_os":"Linux","password":true,"vac":true,"version":"7757534","steam_id":85568392924510192,"keywords":["cp","nocrits","nodmgspread","uncletopia"],"game_id":440,"stv_port":27036,"stv_name":"Uncletopia | London | 3 | All Maps | STV","players":[{"user_id":262,"name":"MelFunnySmell","steam_id":76561198077506613,"connected_time":2595000000000,"state":"active","ping":71},{"user_id":300,"name":"wolffy","steam_id":76561198083145076,"connected_time":643000000000,"state":"active","ping":52},{"user_id":261,"name":"JohnTraveltime","steam_id":76561199244281754,"connected_time":2634000000000,"state":"active","ping":78},{"user_id":287,"name":"The Sunnyshot","steam_id":76561198086787499,"connected_time":1772000000000,"state":"active","ping":69},{"user_id":277,"name":"MuZe","steam_id":76561198096212604,"connected_time":1948000000000,"state":"active","ping":146},{"user_id":278,"name":"big hoops","steam_id":76561198004703799,"connected_time":1944000000000,"state":"active","ping":45},{"user_id":288,"name":"Loyde","steam_id":76561198029919524,"connected_time":1763000000000,"state":"active","ping":98},{"user_id":269,"name":"romaingallo","steam_id":76561198268112907,"connected_time":2466000000000,"state":"active","ping":60},{"user_id":276,"name":"Dolcelatte","steam_id":76561198038501770,"connected_time":1967000000000,"state":"active","ping":62},{"user_id":302,"name":"Dwevy","steam_id":76561198090379437,"connected_time":537000000000,"state":"active","ping":49},{"user_id":309,"name":"Koi","steam_id":76561198064411172,"connected_time":12000000000,"state":"spawning","ping":147},{"user_id":273,"name":"Jackleg Joel","steam_id":76561198271636476,"connected_time":1981000000000,"state":"active","ping":66},{"user_id":307,"name":"LSKi","steam_id":76561198215470228,"connected_time":68000000000,"state":"active","ping":52},{"user_id":259,"name":"RiX","steam_id":76561197969053733,"connected_time":2998000000000,"state":"active","ping":61},{"user_id":299,"name":"I-I","steam_id":76561198267969436,"connected_time":1335000000000,"state":"active","ping":70},{"user_id":248,"name":"Skepingawich","steam_id":76561198038736553,"connected_time":4503000000000,"state":"active","ping":57},{"user_id":297,"name":"Green Fallen","steam_id":76561198043868408,"connected_time":1456000000000,"state":"active","ping":78},{"user_id":301,"name":"Jimortal","steam_id":76561198342426856,"connected_time":641000000000,"state":"active","ping":56},{"user_id":250,"name":"Pepperonipizza","steam_id":76561198044471610,"connected_time":4459000000000,"state":"active","ping":62},{"user_id":305,"name":"EST_R33kid","steam_id":76561198947039734,"connected_time":142000000000,"state":"active","ping":88},{"user_id":306,"name":"Greyhunter","steam_id":76561197960884202,"connected_time":99000000000,"state":"active","ping":25},{"user_id":303,"name":"InsectKing","steam_id":76561199013519071,"connected_time":191000000000,"state":"active","ping":41},{"user_id":308,"name":"spes-marine42","steam_id":76561199404806029,"connected_time":35000000000,"state":"spawning","ping":62}]},{"server_id":321,"name":"Uncletopia | London | 4 | All Maps","name_short":"lon-4","host":"lon-1.uk.uncletopia.com","port":27045,"enabled":true,"region":"eu","cc":"gb","latitude":51.509865,"longitude":-0.118092,"reserved":0,"last_update":"0001-01-01T00:00:00Z","name_a2s":"Uncletopia | London | 4 | All Maps","protocol":17,"map":"koth_viaduct","folder":"tf","game":"Team Fortress","app_id":440,"player_count":1,"max_players":24,"Bots":0,"server_type":"Dedicated","server_os":"Linux","password":true,"vac":true,"version":"7757534","steam_id":85568392924510193,"keywords":["cp","nocrits","nodmgspread","uncletopia"],"game_id":440,"stv_port":27046,"stv_name":"Uncletopia | London | 4 | All Maps | STV","players":[{"user_id":11,"name":"Denialman (Muted)","steam_id":76561198309182092,"connected_time":283000000000,"state":"active","ping":67}]},{"server_id":21,"name":"Uncletopia | London | 5 | All Maps","name_short":"lon-5","host":"lon-1.uk.uncletopia.com","port":27055,"enabled":true,"region":"eu","cc":"gb","latitude":51.509865,"longitude":-0.118092,"reserved":0,"last_update":"0001-01-01T00:00:00Z","name_a2s":"Uncletopia | London | 5 | All Maps","protocol":17,"map":"koth_highpass","folder":"tf","game":"Team Fortress","app_id":440,"player_count":0,"max_players":24,"Bots":0,"server_type":"Dedicated","server_os":"Linux","password":true,"vac":true,"version":"7757534","steam_id":85568392924742829,"keywords":["cp","nocrits","nodmgspread","uncletopia"],"game_id":440,"stv_port":27056,"stv_name":"Uncletopia | London | 5 | All Maps | STV","players":null},{"server_id":22,"name":"Uncletopia | London | 6 | All Maps","name_short":"lon-6","host":"lon-1.uk.uncletopia.com","port":27065,"enabled":true,"region":"eu","cc":"gb","latitude":51.509865,"longitude":-0.118092,"reserved":0,"last_update":"0001-01-01T00:00:00Z","name_a2s":"Uncletopia | London | 6 | All Maps","protocol":17,"map":"koth_cascade","folder":"tf","game":"Team Fortress","app_id":440,"player_count":0,"max_players":24,"Bots":0,"server_type":"Dedicated","server_os":"Linux","password":true,"vac":true,"version":"7757534","steam_id":85568392924742830,"keywords":["cp","nocrits","nodmgspread","uncletopia"],"game_id":440,"stv_port":27066,"stv_name":"Uncletopia | London | 6 | All Maps | STV","players":null},{"server_id":40,"name":"Uncletopia | London | 7 | No Payload","name_short":"lon-7","host":"lon-1.uk.uncletopia.com","port":27075,"enabled":true,"region":"eu","cc":"gb","latitude":51.509865,"longitude":-0.118092,"reserved":0,"last_update":"0001-01-01T00:00:00Z","name_a2s":"Uncletopia | London | 7 | No Payload","protocol":17,"map":"koth_lazarus","folder":"tf","game":"Team Fortress","app_id":440,"player_count":0,"max_players":24,"Bots":0,"server_type":"Dedicated","server_os":"Linux","password":true,"vac":true,"version":"7757534","steam_id":85568392924964314,"keywords":["cp","nocrits","nodmgspread","uncletopia"],"game_id":440,"stv_port":27076,"stv_name":"Uncletopia | London | 7 | No Payload | STV","players":null},{"server_id":41,"name":"Uncletopia | London | 8 | Community","name_short":"lon-8","host":"lon-1.uk.uncletopia.com","port":27085,"enabled":true,"region":"eu","cc":"gb","latitude":51.509865,"longitude":-0.118092,"reserved":0,"last_update":"0001-01-01T00:00:00Z","name_a2s":"Uncletopia | London | 8 | Community","protocol":17,"map":"workshop/cp_croissant_final.ugc458840209","folder":"tf","game":"Team Fortress","app_id":440,"player_count":24,"max_players":24,"Bots":0,"server_type":"Dedicated","server_os":"Linux","password":true,"vac":true,"version":"7757534","steam_id":85568392924964315,"keywords":["cp","nocrits","nodmgspread","uncletopia"],"game_id":440,"stv_port":27086,"stv_name":"Uncletopia | London | 8 | Community | STV","players":[{"user_id":242,"name":"Chris","steam_id":76561198018626828,"connected_time":1787000000000,"state":"active","ping":54},{"user_id":265,"name":"hey gringo!","steam_id":76561198315156235,"connected_time":586000000000,"state":"active","ping":41},{"user_id":269,"name":"medium rare chicken enjoyer","steam_id":76561198050214002,"connected_time":505000000000,"state":"active","ping":62},{"user_id":250,"name":"Peri","steam_id":76561198255311543,"connected_time":1235000000000,"state":"active","ping":149},{"user_id":212,"name":"God's Goofiest Goober","steam_id":76561198103175187,"connected_time":3835000000000,"state":"active","ping":73},{"user_id":251,"name":"No one","steam_id":76561199021793541,"connected_time":1062000000000,"state":"active","ping":30},{"user_id":252,"name":"Le plus grand pirate de l'île","steam_id":76561198091017416,"connected_time":980000000000,"state":"active","ping":72},{"user_id":217,"name":"beurgeur","steam_id":76561198872426314,"connected_time":3742000000000,"state":"active","ping":44},{"user_id":253,"name":"Tramuntana","steam_id":76561198241843480,"connected_time":978000000000,"state":"active","ping":81},{"user_id":254,"name":"Sacetter","steam_id":76561198186614218,"connected_time":977000000000,"state":"active","ping":58},{"user_id":165,"name":"Joseph Stalin","steam_id":76561198033199746,"connected_time":6756000000000,"state":"active","ping":50},{"user_id":256,"name":"just w","steam_id":76561198154888327,"connected_time":880000000000,"state":"active","ping":50},{"user_id":255,"name":"YamaStuff","steam_id":76561198051914219,"connected_time":887000000000,"state":"active","ping":52},{"user_id":271,"name":"Adeleine","steam_id":76561198144960823,"connected_time":308000000000,"state":"active","ping":61},{"user_id":258,"name":"AYE","steam_id":76561198181368101,"connected_time":831000000000,"state":"active","ping":60},{"user_id":260,"name":"Lognes","steam_id":76561198076569769,"connected_time":775000000000,"state":"active","ping":66},{"user_id":261,"name":"PierraNova","steam_id":76561198145686102,"connected_time":751000000000,"state":"active","ping":57},{"user_id":266,"name":"Sibola","steam_id":76561198065337688,"connected_time":584000000000,"state":"active","ping":59},{"user_id":262,"name":"tenno montana","steam_id":76561198084798301,"connected_time":748000000000,"state":"active","ping":69},{"user_id":268,"name":"T Pot","steam_id":76561198426388444,"connected_time":532000000000,"state":"active","ping":57},{"user_id":234,"name":"Red","steam_id":76561198081676772,"connected_time":2138000000000,"state":"active","ping":53},{"user_id":264,"name":"Virtual Turtle","steam_id":76561198056255236,"connected_time":691000000000,"state":"active","ping":43},{"user_id":273,"name":"Tep's","steam_id":76561198324919963,"connected_time":197000000000,"state":"active","ping":52},{"user_id":186,"name":"Beni 🦧🍌","steam_id":76561198011340227,"connected_time":6016000000000,"state":"active","ping":62}]},{"server_id":300,"name":"Uncletopia | Montréal | 1 | All Maps","name_short":"mtl-1","host":"mtl-1.ca.uncletopia.com","port":27015,"enabled":true,"region":"us-east","cc":"ca","latitude":45.50889,"longitude":-73.56167,"reserved":0,"last_update":"0001-01-01T00:00:00Z","name_a2s":"Uncletopia | Montréal | 1 | All Maps","protocol":17,"map":"pl_snowycoast","folder":"tf","game":"Team Fortress","app_id":440,"player_count":0,"max_players":24,"Bots":0,"server_type":"Dedicated","server_os":"Linux","password":true,"vac":true,"version":"7757534","steam_id":85568392924500087,"keywords":["nocrits","nodmgspread","payload","uncletopia"],"game_id":440,"stv_port":27016,"stv_name":"Uncletopia | Montréal | 1 | All Maps | STV","players":null},{"server_id":301,"name":"Uncletopia | Montréal | 2 | All Maps","name_short":"mtl-2","host":"mtl-1.ca.uncletopia.com","port":27025,"enabled":true,"region":"us-east","cc":"ca","latitude":45.50889,"longitude":-73.56167,"reserved":0,"last_update":"0001-01-01T00:00:00Z","name_a2s":"Uncletopia | Montréal | 2 | All Maps","protocol":17,"map":"pl_snowycoast","folder":"tf","game":"Team Fortress","app_id":440,"player_count":0,"max_players":24,"Bots":0,"server_type":"Dedicated","server_os":"Linux","password":true,"vac":true,"version":"7757534","steam_id":85568392924500088,"keywords":["nocrits","nodmgspread","payload","uncletopia"],"game_id":440,"stv_port":27026,"stv_name":"Uncletopia | Montréal | 2 | All Maps | STV","players":null},{"server_id":302,"name":"Uncletopia | Montréal | 3 | All Maps","name_short":"mtl-3","host":"mtl-1.ca.uncletopia.com","port":27035,"enabled":true,"region":"us-east","cc":"ca","latitude":45.50889,"longitude":-73.56167,"reserved":0,"last_update":"0001-01-01T00:00:00Z","name_a2s":"Uncletopia | Montréal | 3 | All Maps","protocol":17,"map":"cp_dustbowl","folder":"tf","game":"Team Fortress","app_id":440,"player_count":0,"max_players":24,"Bots":0,"server_type":"Dedicated","server_os":"Linux","password":true,"vac":true,"version":"7757534","steam_id":85568392924500089,"keywords":["cp","nocrits","nodmgspread","uncletopia"],"game_id":440,"stv_port":27036,"stv_name":"Uncletopia | Montréal | 3 | All Maps | STV","players":null},{"server_id":303,"name":"Uncletopia | Montréal | 4 | No Payload","name_short":"mtl-4","host":"mtl-1.ca.uncletopia.com","port":27045,"enabled":true,"region":"us-east","cc":"ca","latitude":45.50889,"longitude":-73.56167,"reserved":0,"last_update":"0001-01-01T00:00:00Z","name_a2s":"Uncletopia | Montréal | 4 | No Payload","protocol":17,"map":"pl_borneo","folder":"tf","game":"Team Fortress","app_id":440,"player_count":0,"max_players":24,"Bots":0,"server_type":"Dedicated","server_os":"Linux","password":true,"vac":true,"version":"7757534","steam_id":85568392924500090,"keywords":["nocrits","nodmgspread","payload","uncletopia"],"game_id":440,"stv_port":27046,"stv_name":"Uncletopia | Montréal | 4 | No Payload | STV","players":null},{"server_id":13,"name":"Uncletopia | New York City | 1 | All Maps","name_short":"nyc-1","host":"nyc-1.us.uncletopia.com","port":27015,"enabled":true,"region":"us-east","cc":"us","latitude":40.73061,"longitude":-73.93524,"reserved":0,"last_update":"0001-01-01T00:00:00Z","name_a2s":"Uncletopia | New York City | 1 | All Maps","protocol":17,"map":"pl_swiftwater_final1","folder":"tf","game":"Team Fortress","app_id":440,"player_count":0,"max_players":24,"Bots":0,"server_type":"Dedicated","server_os":"Linux","password":true,"vac":true,"version":"7757534","steam_id":85568392924469993,"keywords":["nocrits","nodmgspread","payload","uncletopia"],"game_id":440,"stv_port":27016,"stv_name":"Uncletopia | New York City | 1 | All Maps | STV","players":null},{"server_id":14,"name":"Uncletopia | New York City | 2 | All Maps","name_short":"nyc-2","host":"nyc-1.us.uncletopia.com","port":27025,"enabled":true,"region":"us-east","cc":"us","latitude":40.73061,"longitude":-73.93524,"reserved":0,"last_update":"0001-01-01T00:00:00Z","name_a2s":"Uncletopia | New York City | 2 | All Maps","protocol":17,"map":"pl_barnblitz","folder":"tf","game":"Team Fortress","app_id":440,"player_count":0,"max_players":24,"Bots":0,"server_type":"Dedicated","server_os":"Linux","password":true,"vac":true,"version":"7757534","steam_id":85568392924469994,"keywords":["nocrits","nodmgspread","payload","uncletopia"],"game_id":440,"stv_port":27026,"stv_name":"Uncletopia | New York City | 2 | All Maps | STV","players":null},{"server_id":15,"name":"Uncletopia | New York City | 3 | Stopwatch Beta","name_short":"nyc-3","host":"nyc-1.us.uncletopia.com","port":27035,"enabled":true,"region":"us-east","cc":"us","latitude":40.73061,"longitude":-73.93524,"reserved":0,"last_update":"0001-01-01T00:00:00Z","name_a2s":"Uncletopia | New York City | 3 | Stopwatch Beta","protocol":17,"map":"cp_mountainlab","folder":"tf","game":"Team Fortress","app_id":440,"player_count":0,"max_players":24,"Bots":0,"server_type":"Dedicated","server_os":"Linux","password":true,"vac":true,"version":"7757534","steam_id":85568392924742820,"keywords":["cp","nocrits","nodmgspread","uncletopia"],"game_id":440,"stv_port":27036,"stv_name":"Uncletopia | New York City | 3 | Stopwatch Beta | STV","players":null},{"server_id":16,"name":"Uncletopia | New York City | 4 | Community","name_short":"nyc-4","host":"nyc-1.us.uncletopia.com","port":27045,"enabled":true,"region":"us-east","cc":"us","latitude":40.73061,"longitude":-73.93524,"reserved":0,"last_update":"0001-01-01T00:00:00Z","name_a2s":"Uncletopia | New York City | 4 | Community","protocol":17,"map":"workshop/cp_glassworks_rc6a.ugc454118349","folder":"tf","game":"Team Fortress","app_id":440,"player_count":0,"max_players":24,"Bots":0,"server_type":"Dedicated","server_os":"Linux","password":true,"vac":true,"version":"7757534","steam_id":85568392924742821,"keywords":["cp","nocrits","nodmgspread","uncletopia"],"game_id":440,"stv_port":27046,"stv_name":"Uncletopia | New York City | 4 | Community | STV","players":null},{"server_id":142,"name":"Uncletopia | São Paulo | 1 | All Maps","name_short":"sao-1","host":"sao-1.br.uncletopia.com","port":27015,"enabled":true,"region":"sa","cc":"br","latitude":-23.533773,"longitude":-46.62529,"reserved":0,"last_update":"0001-01-01T00:00:00Z","name_a2s":"Uncletopia | São Paulo | 1 | All Maps","protocol":17,"map":"cp_snakewater_final1","folder":"tf","game":"Team Fortress","app_id":440,"player_count":0,"max_players":24,"Bots":0,"server_type":"Dedicated","server_os":"Linux","password":true,"vac":true,"version":"7757534","steam_id":85568392924469996,"keywords":["cp","nocrits","nodmgspread","uncletopia"],"game_id":440,"stv_port":27016,"stv_name":"Uncletopia | São Paulo | 1 | All Maps | STV","players":null},{"server_id":143,"name":"Uncletopia | São Paulo | 2 | All Maps","name_short":"sao-2","host":"sao-2.br.uncletopia.com","port":27015,"enabled":true,"region":"sa","cc":"br","latitude":-23.533773,"longitude":-46.62529,"reserved":0,"last_update":"0001-01-01T00:00:00Z","name_a2s":"Uncletopia | São Paulo | 2 | All Maps","protocol":17,"map":"cp_mountainlab","folder":"tf","game":"Team Fortress","app_id":440,"player_count":0,"max_players":24,"Bots":0,"server_type":"Dedicated","server_os":"Linux","password":true,"vac":true,"version":"7757534","steam_id":85568392924485349,"keywords":["cp","nocrits","nodmgspread","uncletopia"],"game_id":440,"stv_port":27016,"stv_name":"Uncletopia | São Paulo | 2 | All Maps | STV","players":null},{"server_id":7,"name":"Uncletopia | Seattle | 1 | All Maps","name_short":"sea-1","host":"sea-1.us.uncletopia.com","port":27015,"enabled":true,"region":"us-west","cc":"us","latitude":47.608013,"longitude":-122.33517,"reserved":0,"last_update":"0001-01-01T00:00:00Z","name_a2s":"Uncletopia | Seattle | 1 | All Maps","protocol":17,"map":"pl_swiftwater_final1","folder":"tf","game":"Team Fortress","app_id":440,"player_count":2,"max_players":24,"Bots":0,"server_type":"Dedicated","server_os":"Linux","password":true,"vac":true,"version":"7757534","steam_id":85568392924469997,"keywords":["nocrits","nodmgspread","payload","uncletopia"],"game_id":440,"stv_port":27016,"stv_name":"Uncletopia | Seattle | 1 | All Maps | STV","players":[{"user_id":14,"name":"Themasterman75","steam_id":76561199385573293,"connected_time":70000000000,"state":"active","ping":69},{"user_id":15,"name":"Little Linguine","steam_id":76561198816986370,"connected_time":40000000000,"state":"active","ping":53}]},{"server_id":119,"name":"Uncletopia | Seattle | 2 | All Maps","name_short":"sea-2","host":"sea-1.us.uncletopia.com","port":27025,"enabled":true,"region":"us-west","cc":"us","latitude":47.608013,"longitude":-122.33517,"reserved":0,"last_update":"0001-01-01T00:00:00Z","name_a2s":"Uncletopia | Seattle | 2 | All Maps","protocol":17,"map":"koth_cascade","folder":"tf","game":"Team Fortress","app_id":440,"player_count":0,"max_players":24,"Bots":0,"server_type":"Dedicated","server_os":"Linux","password":true,"vac":true,"version":"7757534","steam_id":85568392924469998,"keywords":["cp","nocrits","nodmgspread","uncletopia"],"game_id":440,"stv_port":27026,"stv_name":"Uncletopia | Seattle | 2 | All Maps | STV","players":null},{"server_id":406,"name":"Uncletopia | Seattle | 3 | Stopwatch Beta","name_short":"sea-3","host":"sea-1.us.uncletopia.com","port":27035,"enabled":true,"region":"us-west","cc":"us","latitude":47.608013,"longitude":-122.33517,"reserved":0,"last_update":"0001-01-01T00:00:00Z","name_a2s":"Uncletopia | Seattle | 3 | Stopwatch Beta","protocol":17,"map":"pl_barnblitz","folder":"tf","game":"Team Fortress","app_id":440,"player_count":0,"max_players":24,"Bots":0,"server_type":"Dedicated","server_os":"Linux","password":true,"vac":true,"version":"7757534","steam_id":85568392924515217,"keywords":["nocrits","nodmgspread","payload","uncletopia"],"game_id":440,"stv_port":27036,"stv_name":"Uncletopia | Seattle | 3 | Stopwatch Beta | STV","players":null},{"server_id":17,"name":"Uncletopia | San Francisco | 1 | All Maps","name_short":"sfo-1","host":"sfo-1.us.uncletopia.com","port":27015,"enabled":true,"region":"us-west","cc":"us","latitude":37.77397,"longitude":-122.4313,"reserved":0,"last_update":"0001-01-01T00:00:00Z","name_a2s":"Uncletopia | San Francisco | 1 | All Maps","protocol":17,"map":"cp_process_final","folder":"tf","game":"Team Fortress","app_id":440,"player_count":0,"max_players":24,"Bots":0,"server_type":"Dedicated","server_os":"Linux","password":true,"vac":true,"version":"7757534","steam_id":85568392924469999,"keywords":["cp","nocrits","nodmgspread","uncletopia"],"game_id":440,"stv_port":27016,"stv_name":"Uncletopia | San Francisco | 1 | All Maps | STV","players":null},{"server_id":18,"name":"Uncletopia | San Francisco | 2 | All Maps","name_short":"sfo-2","host":"sfo-1.us.uncletopia.com","port":27025,"enabled":true,"region":"us-west","cc":"us","latitude":37.77397,"longitude":-122.4313,"reserved":0,"last_update":"0001-01-01T00:00:00Z","name_a2s":"Uncletopia | San Francisco | 2 | All Maps","protocol":17,"map":"cp_sunshine","folder":"tf","game":"Team Fortress","app_id":440,"player_count":0,"max_players":24,"Bots":0,"server_type":"Dedicated","server_os":"Linux","password":true,"vac":true,"version":"7757534","steam_id":85568392924470000,"keywords":["cp","nocrits","nodmgspread","uncletopia"],"game_id":440,"stv_port":27026,"stv_name":"Uncletopia | San Francisco | 2 | All Maps | STV","players":null},{"server_id":19,"name":"Uncletopia | San Francisco | 3 | Stopwatch Beta","name_short":"sfo-3","host":"sfo-1.us.uncletopia.com","port":27035,"enabled":true,"region":"us-west","cc":"us","latitude":37.77397,"longitude":-122.4313,"reserved":0,"last_update":"0001-01-01T00:00:00Z","name_a2s":"Uncletopia | San Francisco | 3 | Stopwatch Beta","protocol":17,"map":"pl_borneo","folder":"tf","game":"Team Fortress","app_id":440,"player_count":0,"max_players":24,"Bots":0,"server_type":"Dedicated","server_os":"Linux","password":true,"vac":true,"version":"7757534","steam_id":85568392924742824,"keywords":["nocrits","nodmgspread","payload","uncletopia"],"game_id":440,"stv_port":27036,"stv_name":"Uncletopia | San Francisco | 3 | Stopwatch Beta | STV","players":null},{"server_id":20,"name":"Uncletopia | San Francisco | 4 | Community","name_short":"sfo-4","host":"sfo-1.us.uncletopia.com","port":27045,"enabled":true,"region":"us-west","cc":"us","latitude":37.77397,"longitude":-122.4313,"reserved":0,"last_update":"0001-01-01T00:00:00Z","name_a2s":"Uncletopia | San Francisco | 4 | Community","protocol":17,"map":"koth_highpass","folder":"tf","game":"Team Fortress","app_id":440,"player_count":0,"max_players":24,"Bots":0,"server_type":"Dedicated","server_os":"Linux","password":true,"vac":true,"version":"7757534","steam_id":85568392924742826,"keywords":["cp","nocrits","nodmgspread","uncletopia"],"game_id":440,"stv_port":27046,"stv_name":"Uncletopia | San Francisco | 4 | Community | STV","players":null},{"server_id":141,"name":"Uncletopia | Sydney | 1 | All Maps","name_short":"syd-1","host":"syd-1.au.uncletopia.com","port":27015,"enabled":true,"region":"au","cc":"au","latitude":-33.865143,"longitude":151.2099,"reserved":0,"last_update":"0001-01-01T00:00:00Z","name_a2s":"Uncletopia | Sydney | 1 | All Maps","protocol":17,"map":"koth_highpass","folder":"tf","game":"Team Fortress","app_id":440,"player_count":0,"max_players":24,"Bots":0,"server_type":"Dedicated","server_os":"Linux","password":true,"vac":true,"version":"7757534","steam_id":85568392924470001,"keywords":["cp","nocrits","nodmgspread","uncletopia"],"game_id":440,"stv_port":27016,"stv_name":"Uncletopia | Sydney | 1 | All Maps | STV","players":null},{"server_id":123,"name":"Uncletopia | Sydney | 2 | All Maps","name_short":"syd-2","host":"syd-1.au.uncletopia.com","port":27025,"enabled":true,"region":"au","cc":"au","latitude":-33.865143,"longitude":151.2099,"reserved":0,"last_update":"0001-01-01T00:00:00Z","name_a2s":"Uncletopia | Sydney | 2 | All Maps","protocol":17,"map":"pl_badwater","folder":"tf","game":"Team Fortress","app_id":440,"player_count":8,"max_players":24,"Bots":0,"server_type":"Dedicated","server_os":"Linux","password":true,"vac":true,"version":"7757534","steam_id":85568392924470002,"keywords":["nocrits","nodmgspread","payload","uncletopia"],"game_id":440,"stv_port":27026,"stv_name":"Uncletopia | Sydney | 2 | All Maps | STV","players":[{"user_id":381,"name":"SpEnZeR","steam_id":76561199470854321,"connected_time":166000000000,"state":"active","ping":84},{"user_id":299,"name":"Donfen","steam_id":76561199076889222,"connected_time":11695000000000,"state":"active","ping":47},{"user_id":300,"name":"RagedPlague","steam_id":76561198208507111,"connected_time":11655000000000,"state":"active","ping":52},{"user_id":371,"name":"floop flub","steam_id":76561198418968979,"connected_time":1683000000000,"state":"active","ping":135},{"user_id":375,"name":"Yossarian","steam_id":76561198011246993,"connected_time":917000000000,"state":"active","ping":105},{"user_id":377,"name":"Romastorm","steam_id":76561198313076272,"connected_time":553000000000,"state":"active","ping":322},{"user_id":346,"name":"lutrii","steam_id":76561198841162620,"connected_time":6787000000000,"state":"active","ping":62},{"user_id":379,"name":"Branko","steam_id":76561199262196710,"connected_time":431000000000,"state":"active","ping":44}]},{"server_id":395,"name":"Uncletopia | Sydney | 3 | All Maps","name_short":"syd-3","host":"syd-1.au.uncletopia.com","port":27035,"enabled":true,"region":"au","cc":"au","latitude":-33.865143,"longitude":151.2099,"reserved":0,"last_update":"0001-01-01T00:00:00Z","name_a2s":"Uncletopia | Sydney | 3 | All Maps","protocol":17,"map":"koth_viaduct","folder":"tf","game":"Team Fortress","app_id":440,"player_count":0,"max_players":24,"Bots":0,"server_type":"Dedicated","server_os":"Linux","password":true,"vac":true,"version":"7757534","steam_id":85568392925194467,"keywords":["cp","nocrits","nodmgspread","uncletopia"],"game_id":440,"stv_port":27036,"stv_name":"Uncletopia | Sydney | 3 | All Maps | STV","players":null},{"server_id":396,"name":"Uncletopia | Sydney | 4 | All Maps","name_short":"syd-4","host":"syd-1.au.uncletopia.com","port":27045,"enabled":true,"region":"au","cc":"au","latitude":-33.865143,"longitude":151.2099,"reserved":0,"last_update":"0001-01-01T00:00:00Z","name_a2s":"Uncletopia | Sydney | 4 | All Maps","protocol":17,"map":"pl_snowycoast","folder":"tf","game":"Team Fortress","app_id":440,"player_count":0,"max_players":24,"Bots":0,"server_type":"Dedicated","server_os":"Linux","password":true,"vac":true,"version":"7757534","steam_id":85568392925397958,"keywords":["nocrits","nodmgspread","payload","uncletopia"],"game_id":440,"stv_port":27046,"stv_name":"Uncletopia | Sydney | 4 | All Maps | STV","players":null},{"server_id":58,"name":"Uncletopia | Sydney | 5 | Stopwatch Beta","name_short":"syd-5","host":"syd-1.au.uncletopia.com","port":27055,"enabled":true,"region":"au","cc":"au","latitude":-33.865143,"longitude":151.2099,"reserved":0,"last_update":"0001-01-01T00:00:00Z","name_a2s":"Uncletopia | Sydney | 5 | Stopwatch Beta","protocol":17,"map":"pl_swiftwater_final1","folder":"tf","game":"Team Fortress","app_id":440,"player_count":0,"max_players":24,"Bots":0,"server_type":"Dedicated","server_os":"Linux","password":true,"vac":true,"version":"7757534","steam_id":85568392925397959,"keywords":["nocrits","nodmgspread","payload","uncletopia"],"game_id":440,"stv_port":27056,"stv_name":"Uncletopia | Sydney | 5 | Stopwatch Beta | STV","players":null},{"server_id":59,"name":"Uncletopia | Sydney | 6 | Community","name_short":"syd-6","host":"syd-1.au.uncletopia.com","port":27065,"enabled":true,"region":"au","cc":"au","latitude":-33.865143,"longitude":151.2099,"reserved":0,"last_update":"0001-01-01T00:00:00Z","name_a2s":"Uncletopia | Sydney | 6 | Community","protocol":17,"map":"workshop/koth_synthetic_rc6a.ugc1549817316","folder":"tf","game":"Team Fortress","app_id":440,"player_count":0,"max_players":24,"Bots":0,"server_type":"Dedicated","server_os":"Linux","password":true,"vac":true,"version":"7757534","steam_id":85568392925397960,"keywords":["cp","nocrits","nodmgspread","uncletopia"],"game_id":440,"stv_port":27066,"stv_name":"Uncletopia | Sydney | 6 | Community | STV","players":null},{"server_id":49,"name":"Uncletopia | Warsaw | 1 | All Maps","name_short":"waw-1","host":"waw-1.pl.uncletopia.com","port":27015,"enabled":true,"region":"eu","cc":"pl","latitude":52.2297,"longitude":21.017532,"reserved":0,"last_update":"0001-01-01T00:00:00Z","name_a2s":"","protocol":0,"map":"","folder":"","game":"","app_id":0,"player_count":0,"max_players":0,"Bots":0,"server_type":"","server_os":"","password":false,"vac":false,"version":"","steam_id":0,"keywords":null,"game_id":0,"stv_port":0,"stv_name":"","players":null},{"server_id":50,"name":"Uncletopia | Warsaw | 2 | All Maps","name_short":"waw-2","host":"waw-1.pl.uncletopia.com","port":27025,"enabled":true,"region":"eu","cc":"pl","latitude":52.2297,"longitude":21.017532,"reserved":0,"last_update":"0001-01-01T00:00:00Z","name_a2s":"Uncletopia | Warsaw | 2 | All Maps","protocol":17,"map":"cp_process_final","folder":"tf","game":"Team Fortress","app_id":440,"player_count":0,"max_players":24,"Bots":0,"server_type":"Dedicated","server_os":"Linux","password":true,"vac":true,"version":"7757534","steam_id":85568392925397851,"keywords":["cp","nocrits","nodmgspread","uncletopia"],"game_id":440,"stv_port":27026,"stv_name":"Uncletopia | Warsaw | 2 | All Maps | STV","players":null},{"server_id":51,"name":"Uncletopia | Warsaw | 3 | All Maps","name_short":"waw-3","host":"waw-1.pl.uncletopia.com","port":27035,"enabled":true,"region":"eu","cc":"pl","latitude":52.2297,"longitude":21.017532,"reserved":0,"last_update":"0001-01-01T00:00:00Z","name_a2s":"Uncletopia | Warsaw | 3 | All Maps","protocol":17,"map":"pl_barnblitz","folder":"tf","game":"Team Fortress","app_id":440,"player_count":0,"max_players":24,"Bots":0,"server_type":"Dedicated","server_os":"Linux","password":true,"vac":true,"version":"7757534","steam_id":85568392925397852,"keywords":["nocrits","nodmgspread","payload","uncletopia"],"game_id":440,"stv_port":27036,"stv_name":"Uncletopia | Warsaw | 3 | All Maps | STV","players":null},{"server_id":52,"name":"Uncletopia | Warsaw | 4 | All Maps","name_short":"waw-4","host":"waw-1.pl.uncletopia.com","port":27045,"enabled":true,"region":"eu","cc":"pl","latitude":52.2297,"longitude":21.017532,"reserved":0,"last_update":"0001-01-01T00:00:00Z","name_a2s":"Uncletopia | Warsaw | 4 | All Maps","protocol":17,"map":"pl_snowycoast","folder":"tf","game":"Team Fortress","app_id":440,"player_count":0,"max_players":24,"Bots":0,"server_type":"Dedicated","server_os":"Linux","password":true,"vac":true,"version":"7757534","steam_id":85568392925397853,"keywords":["nocrits","nodmgspread","payload","uncletopia"],"game_id":440,"stv_port":27046,"stv_name":"Uncletopia | Warsaw | 4 | All Maps | STV","players":null},{"server_id":53,"name":"Uncletopia | Warsaw | 5 | Stopwatch Beta","name_short":"waw-5","host":"waw-1.pl.uncletopia.com","port":27055,"enabled":true,"region":"eu","cc":"pl","latitude":52.2297,"longitude":21.017532,"reserved":0,"last_update":"0001-01-01T00:00:00Z","name_a2s":"Uncletopia | Warsaw | 5 | Stopwatch Beta","protocol":17,"map":"pl_barnblitz","folder":"tf","game":"Team Fortress","app_id":440,"player_count":0,"max_players":24,"Bots":0,"server_type":"Dedicated","server_os":"Linux","password":true,"vac":true,"version":"7757534","steam_id":85568392925397854,"keywords":["nocrits","nodmgspread","payload","uncletopia"],"game_id":440,"stv_port":27056,"stv_name":"Uncletopia | Warsaw | 5 | Stopwatch Beta | STV","players":null},{"server_id":54,"name":"Uncletopia | Warsaw | 6 | Community","name_short":"waw-6","host":"waw-1.pl.uncletopia.com","port":27065,"enabled":true,"region":"eu","cc":"pl","latitude":52.2297,"longitude":21.017532,"reserved":0,"last_update":"0001-01-01T00:00:00Z","name_a2s":"Uncletopia | Warsaw | 6 | Community","protocol":17,"map":"workshop/pl_emerge_rc2.ugc888027758","folder":"tf","game":"Team Fortress","app_id":440,"player_count":2,"max_players":24,"Bots":0,"server_type":"Dedicated","server_os":"Linux","password":true,"vac":true,"version":"7757534","steam_id":85568392925397856,"keywords":["nocrits","nodmgspread","payload","uncletopia"],"game_id":440,"stv_port":27066,"stv_name":"Uncletopia | Warsaw | 6 | Community | STV","players":[{"user_id":7,"name":"Мышьяк","steam_id":76561198081752738,"connected_time":2275000000000,"state":"active","ping":415},{"user_id":8,"name":"zipeec","steam_id":76561199443185165,"connected_time":2269000000000,"state":"active","ping":160}]}]}