{"status":true,"message":"","result":[{"server_id":9,"name":"Uncletopia | Atlanta | 1 | All Maps","name_short":"atl-1","host":"atl-1.us.uncletopia.com","port":27015,"enabled":true,"region":"us-east","cc":"us","latitude":33.753746,"longitude":-84.38633,"reserved":0,"last_update":"0001-01-01T00:00:00Z","name_a2s":"Uncletopia | Atlanta | 1 | All Maps","protocol":17,"map":"pl_upward","folder":"tf","game":"Team Fortress","app_id":440,"player_count":24,"max_players":24,"Bots":0,"server_type":"Dedicated","server_os":"Linux","password":true,"vac":true,"version":"7757534","steam_id":85568392924469982,"keywords":["nocrits","nodmgspread","payload","uncletopia"],"game_id":440,"stv_port":27016,"stv_name":"Uncletopia | Atlanta | 1 | All Maps | STV","players":[{"user_id":242,"name":"Just PYE","steam_id":76561199439622967,"connected_time":1570000000000,"state":"active","ping":75},{"user_id":191,"name":"‚úøÁãêÂ¶ªakemi","steam_id":76561198406252824,"connected_time":7911000000000,"state":"active","ping":118},{"user_id":206,"name":"Ejaculation Zach","steam_id":76561198203765200,"connected_time":6460000000000,"state":"active","ping":81},{"user_id":230,"name":"Lilith","steam_id":76561198125102885,"connected_time":2940000000000,"state":"active","ping":60},{"user_id":215,"name":"Emails","steam_id":76561198836919458,"connected_time":5415000000000,"state":"active","ping":82},{"user_id":200,"name":"could you repeat that","steam_id":76561198098781227,"connected_time":6981000000000,"state":"active","ping":85},{"user_id":226,"name":"Fantastic Mr. Fox Appreciator","steam_id":76561198096306325,"connected_time":3766000000000,"state":"active","ping":110},{"user_id":245,"name":"Tyler\u0026Fingers","steam_id":76561198085154485,"connected_time":1214000000000,"state":"active","ping":86},{"user_id":189,"name":"BIG HOG","steam_id":76561198079923652,"connected_time":8328000000000,"state":"active","ping":68},{"user_id":220,"name":"marguerite","steam_id":76561198170873495,"connected_time":3809000000000,"state":"active","ping":59},{"user_id":248,"name":"atl1icyy","steam_id":76561198968001329,"connected_time":1152000000000,"state":"active","ping":47},{"user_id":218,"name":"lil hog","steam_id":76561199230929836,"connected_time":4464000000000,"state":"active","ping":79},{"user_id":231,"name":"Broken Cereal‚àö","steam_id":76561198087489795,"connected_time":2909000000000,"state":"active","ping":63},{"user_id":199,"name":"inky (Coolest)","steam_id":76561198968337022,"connected_time":7025000000000,"state":"active","ping":59},{"user_id":247,"name":"ash","steam_id":76561198127890645,"connected_time":1184000000000,"state":"active","ping":70},{"user_id":232,"name":"Ninty","steam_id":76561199364725776,"connected_time":2745000000000,"state":"active","ping":73},{"user_id":190,"name":"my name is big boobs","steam_id":76561198103496593,"connected_time":7990000000000,"state":"active","ping":46},{"user_id":249,"name":"Gandalf Gaming","steam_id":76561198368151490,"connected_time":718000000000,"state":"active","ping":55},{"user_id":251,"name":"dolly","steam_id":76561198061041601,"connected_time":665000000000,"state":"active","ping":59},{"user_id":256,"name":"malopy","steam_id":76561198354990729,"connected_time":89000000000,"state":"active","ping":88},{"user_id":184,"name":"FROTTING WORLD CHAMPION","steam_id":76561198249206656,"connected_time":9084000000000,"state":"active","ping":87},{"user_id":233,"name":"luxin","steam_id":76561198399383047,"connected_time":2471000000000,"state":"active","ping":57},{"user_id":244,"name":"xen","steam_id":76561198048568188,"connected_time":1570000000000,"state":"active","ping":62},{"user_id":238,"name":"MGE, Brother?","steam_id":76561198982810452,"connected_time":1704000000000,"state":"active","ping":85}]},{"server_id":104,"name":"Uncletopia | Atlanta | 2 | All Maps","name_short":"atl-2","host":"atl-1.us.uncletopia.com","port":27025,"enabled":true,"region":"us-east","cc":"us","latitude":33.753746,"longitude":-84.38633,"reserved":0,"last_update":"0001-01-01T00:00:00Z","name_a2s":"Uncletopia | Atlanta | 2 | All Maps","protocol":17,"map":"pl_thundermountain","folder":"tf","game":"Team Fortress","app_id":440,"player_count":24,"max_players":24,"Bots":0,"server_type":"Dedicated","server_os":"Linux","password":true,"vac":true,"version":"7757534","steam_id":85568392924469983,"keywords":["nocrits","nodmgspread","payload","uncletopia"],"game_id":440,"stv_port":27026,"stv_name":"Uncletopia | Atlanta | 2 | All Maps | STV","players":[{"user_id":116,"name":"SKYRRUNNER","steam_id":76561199275648928,"connected_time":2507000000000,"state":"active","ping":82},{"user_id":128,"name":"lucin","steam_id":76561198258062078,"connected_time":973000000000,"state":"active","ping":60},{"user_id":126,"name":"Winkrill","steam_id":76561198108515561,"connected_time":1546000000000,"state":"active","ping":74},{"user_id":137,"name":"rlty","steam_id":76561198009395055,"connected_time":296000000000,"state":"active","ping":64},{"user_id":133,"name":"Witchings","steam_id":76561198247431254,"connected_time":801000000000,"state":"active","ping":87},{"user_id":138,"name":"The jesus guy (FRNK)","steam_id":76561198237997622,"connected_time":255000000000,"state":"active","ping":161},{"user_id":127,"name":"Oopsie Daisy ‚ùã","steam_id":76561198042144492,"connected_time":1155000000000,"state":"active","ping":62},{"user_id":130,"name":"Azurelyon","steam_id":76561198870619191,"connected_time":896000000000,"state":"active","ping":143},{"user_id":139,"name":"Mr.E (Practicing Sniper \u0026 Medic","steam_id":76561198018670251,"connected_time":149000000000,"state":"active","ping":74},{"user_id":135,"name":"„ÅÑ„Å°„Åî„Åæ„Çç","steam_id":76561198166100997,"connected_time":660000000000,"state":"active","ping":71},{"user_id":132,"name":"A_Malebolgia","steam_id":76561198097722818,"connected_time":842000000000,"state":"active","ping":92},{"user_id":112,"name":"asbestos","steam_id":76561198079178866,"connected_time":2599000000000,"state":"active","ping":74},{"user_id":113,"name":"burger_hero","steam_id":76561198232617936,"connected_time":2582000000000,"state":"active","ping":69},{"user_id":105,"name":"ArchimediesMD","steam_id":76561198110352252,"connected_time":3009000000000,"state":"active","ping":94},{"user_id":117,"name":"54","steam_id":76561198099591549,"connected_time":2505000000000,"state":"active","ping":68},{"user_id":124,"name":"TechnoBear2099","steam_id":76561198238863596,"connected_time":1623000000000,"state":"active","ping":74},{"user_id":41,"name":"Anxious Nerd Bird","steam_id":76561198112178602,"connected_time":6891000000000,"state":"active","ping":115},{"user_id":121,"name":"vastrobotmax","steam_id":76561198417110724,"connected_time":1901000000000,"state":"active","ping":87},{"user_id":84,"name":"subway fanpage","steam_id":76561199057369742,"connected_time":4511000000000,"state":"active","ping":103},{"user_id":122,"name":"4 life","steam_id":76561198175961598,"connected_time":1895000000000,"state":"active","ping":116},{"user_id":140,"name":"jandajanda","steam_id":76561198235722476,"connected_time":5000000000,"state":"spawning","ping":49},{"user_id":136,"name":"ajm0208","steam_id":76561198125935007,"connected_time":588000000000,"state":"active","ping":69},{"user_id":72,"name":"Sergeant Joker #savetf2","steam_id":76561198854616604,"connected_time":5817000000000,"state":"active","ping":80},{"user_id":90,"name":"creamy","steam_id":76561198157435832,"connected_time":4384000000000,"state":"active","ping":87}]},{"server_id":400,"name":"Uncletopia | Atlanta | 3 | Community","name_short":"atl-3","host":"atl-1.us.uncletopia.com","port":27035,"enabled":true,"region":"us-east","cc":"us","latitude":33.753746,"longitude":-84.38633,"reserved":0,"last_update":"0001-01-01T00:00:00Z","name_a2s":"Uncletopia | Atlanta | 3 | Community","protocol":17,"map":"workshop/koth_kemptown_rc1.ugc767410655","folder":"tf","game":"Team Fortress","app_id":440,"player_count":0,"max_players":24,"Bots":0,"server_type":"Dedicated","server_os":"Linux","password":true,"vac":true,"version":"7757534","steam_id":85568392924515187,"keywords":["cp","nocrits","nodmgspread","uncletopia"],"game_id":440,"stv_port":27036,"stv_name":"Uncletopia | Atlanta | 3 | Community | STV","players":null},{"server_id":401,"name":"Uncletopia | Atlanta | 4 | No Payload","name_short":"atl-4","host":"atl-1.us.uncletopia.com","port":27045,"enabled":true,"region":"us-east","cc":"us","latitude":33.753746,"longitude":-84.38633,"reserved":0,"last_update":"0001-01-01T00:00:00Z","name_a2s":"","protocol":0,"map":"","folder":"","game":"","app_id":0,"player_count":0,"max_players":0,"Bots":0,"server_type":"","server_os":"","password":false,"vac":false,"version":"","steam_id":0,"keywords":null,"game_id":0,"stv_port":0,"stv_name":"","players":null},{"server_id":2,"name":"Uncletopia | Chicago | 1 | All Maps","name_short":"chi-1","host":"chi-1.us.uncletopia.com","port":27015,"enabled":true,"region":"us-central","cc":"us","latitude":41.881832,"longitude":-87.62318,"reserved":0,"last_update":"0001-01-01T00:00:00Z","name_a2s":"Uncletopia | Chicago | 1 | All Maps","protocol":17,"map":"cp_snakewater_final1","folder":"tf","game":"Team Fortress","app_id":440,"player_count":23,"max_players":24,"Bots":0,"server_type":"Dedicated","server_os":"Linux","password":true,"vac":true,"version":"7757534","steam_id":85568392924469984,"keywords":["cp","nocrits","nodmgspread","uncletopia"],"game_id":440,"stv_port":27016,"stv_name":"Uncletopia | Chicago | 1 | All Maps | STV","players":[{"user_id":226,"name":"poe","steam_id":76561198155720118,"connected_time":1899000000000,"state":"active","ping":44},{"user_id":233,"name":"LerN","steam_id":76561198083463877,"connected_time":1709000000000,"state":"active","ping":55},{"user_id":251,"name":"Crunchy Pancake","steam_id":76561198002555973,"connected_time":971000000000,"state":"active","ping":64},{"user_id":240,"name":"straight strokin my shit rn","steam_id":76561199061380038,"connected_time":1536000000000,"state":"active","ping":65},{"user_id":258,"name":"Bee","steam_id":76561198074681324,"connected_time":197000000000,"state":"active","ping":61},{"user_id":95,"name":"HeisenBurger","steam_id":76561198040632080,"connected_time":12711000000000,"state":"active","ping":39},{"user_id":235,"name":"Fluffeline","steam_id":76561198352909489,"connected_time":1650000000000,"state":"active","ping":142},{"user_id":241,"name":"Apricot","steam_id":76561198355699935,"connected_time":1481000000000,"state":"active","ping":58},{"user_id":254,"name":"defcon","steam_id":76561198100656328,"connected_time":524000000000,"state":"active","ping":75},{"user_id":261,"name":"Raniel Dicciardo","steam_id":76561198053859538,"connected_time":11000000000,"state":"active","ping":73},{"user_id":224,"name":"wifebeater2000","steam_id":76561198051925546,"connected_time":2109000000000,"state":"active","ping":52},{"user_id":259,"name":"Banks","steam_id":76561198276505537,"connected_time":94000000000,"state":"active","ping":62},{"user_id":262,"name":"DerrickHenryFan2012","steam_id":76561198254452687,"connected_time":7000000000,"state":"spawning","ping":64},{"user_id":219,"name":"350cc","steam_id":76561198377320040,"connected_time":2564000000000,"state":"active","ping":75},{"user_id":248,"name":"Comfy Monkey","steam_id":76561197998434936,"connected_time":1289000000000,"state":"active","ping":39},{"user_id":252,"name":"Howard Hamlin","steam_id":76561198881039861,"connected_time":924000000000,"state":"active","ping":39},{"user_id":160,"name":"Tilly","steam_id":76561198054825100,"connected_time":7561000000000,"state":"active","ping":60},{"user_id":257,"name":"Boo! Boo I Say!","steam_id":76561198272427405,"connected_time":273000000000,"state":"active","ping":70},{"user_id":230,"name":"Bare","steam_id":76561198296012433,"connected_time":1858000000000,"state":"active","ping":45},{"user_id":260,"name":"full of joy and whimsy","steam_id":76561198042271448,"connected_time":42000000000,"state":"active","ping":54},{"user_id":255,"name":"Sturmwolken [1312]","steam_id":76561198260905784,"connected_time":457000000000,"state":"active","ping":70},{"user_id":232,"name":"CeigeBirb","steam_id":76561198068538473,"connected_time":1738000000000,"state":"active","ping":62},{"user_id":236,"name":"The Drunk Clown","steam_id":76561197986850426,"connected_time":1647000000000,"state":"active","ping":75}]},{"server_id":106,"name":"Uncletopia | Chicago | 2 | All Maps","name_short":"chi-2","host":"chi-1.us.uncletopia.com","port":27025,"enabled":true,"region":"us-central","cc":"us","latitude":41.881832,"longitude":-87.62318,"reserved":0,"last_update":"0001-01-01T00:00:00Z","name_a2s":"Uncletopia | Chicago | 2 | All Maps","protocol":17,"map":"pl_frontier_final","folder":"tf","game":"Team Fortress","app_id":440,"player_count":0,"max_players":24,"Bots":0,"server_type":"Dedicated","server_os":"Linux","password":true,"vac":true,"version":"7757534","steam_id":85568392924469985,"keywords":["nocrits","nodmgspread","payload","uncletopia"],"game_id":440,"stv_port":27026,"stv_name":"Uncletopia | Chicago | 2 | All Maps | STV","players":null},{"server_id":402,"name":"Uncletopia | Chicago | 3 | All Maps","name_short":"chi-3","host":"chi-1.us.uncletopia.com","port":27035,"enabled":true,"region":"us-central","cc":"us","latitude":41.881832,"longitude":-87.62318,"reserved":0,"last_update":"0001-01-01T00:00:00Z","name_a2s":"Uncletopia | Chicago | 3 | All Maps","protocol":17,"map":"pl_borneo","folder":"tf","game":"Team Fortress","app_id":440,"player_count":5,"max_players":24,"Bots":0,"server_type":"Dedicated","server_os":"Linux","password":true,"vac":true,"version":"7757534","steam_id":85568392924515191,"keywords":["nocrits","nodmgspread","payload","uncletopia"],"game_id":440,"stv_port":27036,"stv_name":"Uncletopia | Chicago | 3 | All Maps | STV","players":[{"user_id":13,"name":"Pontifex","steam_id":76561198013016489,"connected_time":123000000000,"state":"active","ping":71},{"user_id":8,"name":"Your Local Festive Furry","steam_id":76561199030190462,"connected_time":440000000000,"state":"active","ping":74},{"user_id":12,"name":"have you ever had a dream","steam_id":76561198117008644,"connected_time":210000000000,"state":"active","ping":75},{"user_id":14,"name":"Eosson","steam_id":76561198108642113,"connected_time":118000000000,"state":"active","ping":60},{"user_id":15,"name":"NeverAcedIt (Pinnacle -\u003e Pit)","steam_id":76561198406671743,"connected_time":116000000000,"state":"active","ping":88}]},{"server_id":403,"name":"Uncletopia | Chicago | 4 | All Maps","name_short":"chi-4","host":"chi-1.us.uncletopia.com","port":27045,"enabled":true,"region":"us-central","cc":"us","latitude":41.881832,"longitude":-87.62318,"reserved":0,"last_update":"0001-01-01T00:00:00Z","name_a2s":"Uncletopia | Chicago | 4 | All Maps","protocol":17,"map":"koth_lakeside_final","folder":"tf","game":"Team Fortress","app_id":440,"player_count":0,"max_players":24,"Bots":0,"server_type":"Dedicated","server_os":"Linux","password":true,"vac":true,"version":"7757534","steam_id":85568392924515193,"keywords":["cp","nocrits","nodmgspread","uncletopia"],"game_id":440,"stv_port":27046,"stv_name":"Uncletopia | Chicago | 4 | All Maps | STV","players":null},{"server_id":36,"name":"Uncletopia | Chicago | 5 | All Maps","name_short":"chi-5","host":"chi-2.us.uncletopia.com","port":27015,"enabled":true,"region":"us-central","cc":"us","latitude":41.881832,"longitude":-87.62318,"reserved":0,"last_update":"0001-01-01T00:00:00Z","name_a2s":"Uncletopia | Chicago | 5 | All Maps","protocol":17,"map":"cp_powerhouse","folder":"tf","game":"Team Fortress","app_id":440,"player_count":21,"max_players":24,"Bots":0,"server_type":"Dedicated","server_os":"Linux","password":true,"vac":true,"version":"7757534","steam_id":85568392924866362,"keywords":["cp","nocrits","nodmgspread","uncletopia"],"game_id":440,"stv_port":27016,"stv_name":"Uncletopia | Chicago | 5 | All Maps | STV","players":[{"user_id":507,"name":"Goober","steam_id":76561198988863807,"connected_time":202000000000,"state":"active","ping":76},{"user_id":469,"name":"John16Mark","steam_id":76561198119445407,"connected_time":3390000000000,"state":"active","ping":120},{"user_id":508,"name":"keffers","steam_id":76561198202338796,"connected_time":200000000000,"state":"active","ping":62},{"user_id":497,"name":"your–¥—Ä—É–≥","steam_id":76561198317927140,"connected_time":1508000000000,"state":"active","ping":64},{"user_id":473,"name":"Evolution","steam_id":76561198144767370,"connected_time":3336000000000,"state":"active","ping":51},{"user_id":471,"name":"super dookie 69","steam_id":76561198300660227,"connected_time":3376000000000,"state":"active","ping":40},{"user_id":483,"name":"NUt","steam_id":76561198031007966,"connected_time":2327000000000,"state":"active","ping":66},{"user_id":513,"name":"COOK","steam_id":76561198149929885,"connected_time":26000000000,"state":"spawning","ping":66},{"user_id":510,"name":"Pot Head Pixie","steam_id":76561198083024504,"connected_time":179000000000,"state":"active","ping":48},{"user_id":447,"name":"[DEEP] Danmar33","steam_id":76561198056453091,"connected_time":4363000000000,"state":"active","ping":48},{"user_id":399,"name":"uhooter","steam_id":76561198007829078,"connected_time":6658000000000,"state":"active","ping":56},{"user_id":511,"name":"Emibee","steam_id":76561198331449341,"connected_time":142000000000,"state":"active","ping":171},{"user_id":461,"name":"[DEEP] Fitts1099","steam_id":76561198044986906,"connected_time":3844000000000,"state":"active","ping":40},{"user_id":454,"name":"Gato","steam_id":76561198063521721,"connected_time":4115000000000,"state":"active","ping":126},{"user_id":498,"name":"rivera","steam_id":76561198051058706,"connected_time":1037000000000,"state":"active","ping":55},{"user_id":387,"name":"I Am Alpharius","steam_id":76561198799197135,"connected_time":7077000000000,"state":"active","ping":56},{"user_id":512,"name":"cirkuu","steam_id":76561198053465042,"connected_time":131000000000,"state":"active","ping":69},{"user_id":474,"name":"Repent","steam_id":76561198121933439,"connected_time":3276000000000,"state":"active","ping":89},{"user_id":514,"name":"TypicalGiftig","steam_id":76561198170372495,"connected_time":3000000000,"state":"spawning","ping":53},{"user_id":487,"name":"Path","steam_id":76561198106831514,"connected_time":2229000000000,"state":"active","ping":88},{"user_id":505,"name":"Moni the Fumo","steam_id":76561198141505846,"connected_time":542000000000,"state":"active","ping":50}]},{"server_id":37,"name":"Uncletopia | Chicago | 6 | All Maps","name_short":"chi-6","host":"chi-2.us.uncletopia.com","port":27025,"enabled":true,"region":"us-central","cc":"us","latitude":41.881832,"longitude":-87.62318,"reserved":0,"last_update":"0001-01-01T00:00:00Z","name_a2s":"Uncletopia | Chicago | 6 | All Maps","protocol":17,"map":"pl_borneo","folder":"tf","game":"Team Fortress","app_id":440,"player_count":0,"max_players":24,"Bots":0,"server_type":"Dedicated","server_os":"Linux","password":true,"vac":true,"version":"7757534","steam_id":85568392924866363,"keywords":["nocrits","nodmgspread","payload","uncletopia"],"game_id":440,"stv_port":27026,"stv_name":"Uncletopia | Chicago | 6 | All Maps | STV","players":null},{"server_id":38,"name":"Uncletopia | Chicago | 7 | Stopwatch Beta","name_short":"chi-7","host":"chi-2.us.uncletopia.com","port":27035,"enabled":true,"region":"us-central","cc":"us","latitude":41.881832,"longitude":-87.62318,"reserved":0,"last_update":"0001-01-01T00:00:00Z","name_a2s":"Uncletopia | Chicago | 7 | Stopwatch Beta","protocol":17,"map":"pl_barnblitz","folder":"tf","game":"Team Fortress","app_id":440,"player_count":0,"max_players":24,"Bots":0,"server_type":"Dedicated","server_os":"Linux","password":true,"vac":true,"version":"7757534","steam_id":85568392924866364,"keywords":["nocrits","nodmgspread","payload","uncletopia"],"game_id":440,"stv_port":27036,"stv_name":"Uncletopia | Chicago | 7 | Stopwatch Beta | STV","players":null},{"server_id":39,"name":"Uncletopia | Chicago | 8 | Community","name_short":"chi-8","host":"chi-2.us.uncletopia.com","port":27045,"enabled":true,"region":"us-central","cc":"us","latitude":41.881832,"longitude":-87.62318,"reserved":0,"last_update":"0001-01-01T00:00:00Z","name_a2s":"Uncletopia | Chicago | 8 | Community","protocol":17,"map":"koth_cascade","folder":"tf","game":"Team Fortress","app_id":440,"player_count":0,"max_players":24,"Bots":0,"server_type":"Dedicated","server_os":"Linux","password":true,"vac":true,"version":"7757534","steam_id":85568392924866365,"keywords":["cp","nocrits","nodmgspread","uncletopia"],"game_id":440,"stv_port":27046,"stv_name":"Uncletopia | Chicago | 8 | Community | STV","players":null},{"server_id":8,"name":"Uncletopia | Dallas | 1 | All Maps","name_short":"dal-1","host":"dal-1.us.uncletopia.com","port":27015,"enabled":true,"region":"us-central","cc":"us","latitude":32.779167,"longitude":-96.80889,"reserved":0,"last_update":"0001-01-01T00:00:00Z","name_a2s":"Uncletopia | Dallas | 1 | All Maps","protocol":17,"map":"pl_swiftwater_final1","folder":"tf","game":"Team Fortress","app_id":440,"player_count":23,"max_players":24,"Bots":0,"server_type":"Dedicated","server_os":"Linux","password":true,"vac":true,"version":"7757534","steam_id":85568392924469986,"keywords":["nocrits","nodmgspread","payload","uncletopia"],"game_id":440,"stv_port":27016,"stv_name":"Uncletopia | Dallas | 1 | All Maps | STV","players":[{"user_id":20,"name":"Goodboish","steam_id":76561198170403119,"connected_time":3303000000000,"state":"active","ping":84},{"user_id":21,"name":"‚ô°ùöÇùö¢ùöïùöüùöíùöä‚ô°","steam_id":76561198327386698,"connected_time":3238000000000,"state":"active","ping":96},{"user_id":48,"name":"Terratomere","steam_id":76561198067716320,"connected_time":1877000000000,"state":"active","ping":85},{"user_id":60,"name":"A Gamer [F2P]","steam_id":76561198138712892,"connected_time":125000000000,"state":"active","ping":37},{"user_id":65,"name":"The Potato Romancer","steam_id":76561198204197648,"connected_time":105000000000,"state":"active","ping":86},{"user_id":67,"name":"story","steam_id":76561199088496817,"connected_time":60000000000,"state":"active","ping":66},{"user_id":68,"name":"Glitchpower64","steam_id":76561198994710718,"connected_time":1000000000,"state":"spawning","ping":138},{"user_id":36,"name":"Goose Pyro","steam_id":76561198994984332,"connected_time":2475000000000,"state":"active","ping":129},{"user_id":46,"name":"Reed.Dook","steam_id":76561198046625664,"connected_time":2063000000000,"state":"active","ping":85},{"user_id":29,"name":"Fraggin' Ragle","steam_id":76561198043334491,"connected_time":2791000000000,"state":"active","ping":91},{"user_id":55,"name":"DemiDemon","steam_id":76561199134742516,"connected_time":1417000000000,"state":"active","ping":53},{"user_id":63,"name":"Chimpish","steam_id":76561199263493270,"connected_time":116000000000,"state":"active","ping":92},{"user_id":33,"name":"dicksnip","steam_id":76561198356515396,"connected_time":2616000000000,"state":"active","ping":55},{"user_id":61,"name":"Fox","steam_id":76561198063507627,"connected_time":124000000000,"state":"active","ping":26},{"user_id":57,"name":"NacAttack","steam_id":76561198130720142,"connected_time":996000000000,"state":"active","ping":95},{"user_id":53,"name":"Printkiller","steam_id":76561198024054495,"connected_time":1550000000000,"state":"active","ping":69},{"user_id":64,"name":"Shamrock Shake Oct.10.2020 @8pm","steam_id":76561198833313201,"connected_time":116000000000,"state":"active","ping":83},{"user_id":39,"name":"Pennis the Menace","steam_id":76561198254878037,"connected_time":2288000000000,"state":"active","ping":92},{"user_id":66,"name":"Malmart_Employee","steam_id":76561198320388704,"connected_time":95000000000,"state":"active","ping":99},{"user_id":42,"name":"Dietrich","steam_id":76561198028163840,"connected_time":2223000000000,"state":"active","ping":63},{"user_id":43,"name":"Joe Swanson","steam_id":76561199089907740,"connected_time":2212000000000,"state":"active","ping":65},{"user_id":45,"name":"Btesa2","steam_id":76561198051628283,"connected_time":2176000000000,"state":"active","ping":50},{"user_id":47,"name":"Tuchpi","steam_id":76561197967581205,"connected_time":2053000000000,"state":"active","ping":79}]},{"server_id":108,"name":"Uncletopia | Dallas | 2 | All Maps","name_short":"dal-2","host":"dal-1.us.uncletopia.com","port":27025,"enabled":true,"region":"us-central","cc":"us","latitude":32.779167,"longitude":-96.80889,"reserved":0,"last_update":"0001-01-01T00:00:00Z","name_a2s":"Uncletopia | Dallas | 2 | All Maps","protocol":17,"map":"pl_thundermountain","folder":"tf","game":"Team Fortress","app_id":440,"player_count":0,"max_players":24,"Bots":0,"server_type":"Dedicated","server_os":"Linux","password":true,"vac":true,"version":"7757534","steam_id":85568392924469988,"keywords":["nocrits","nodmgspread","payload","uncletopia"],"game_id":440,"stv_port":27026,"stv_name":"Uncletopia | Dallas | 2 | All Maps | STV","players":null},{"server_id":5,"name":"Uncletopia | Frankfurt | 1 | All Maps","name_short":"frk-1","host":"frk-1.de.uncletopia.com","port":27015,"enabled":true,"region":"eu","cc":"de","latitude":50.110924,"longitude":8.682127,"reserved":0,"last_update":"0001-01-01T00:00:00Z","name_a2s":"Uncletopia | Frankfurt | 1 | All Maps","protocol":17,"map":"pl_badwater","folder":"tf","game":"Team Fortress","app_id":440,"player_count":24,"max_players":24,"Bots":0,"server_type":"Dedicated","server_os":"Linux","password":true,"vac":true,"version":"7757534","steam_id":85568392924469989,"keywords":["nocrits","nodmgspread","payload","uncletopia"],"game_id":440,"stv_port":27016,"stv_name":"Uncletopia | Frankfurt | 1 | All Maps | STV","players":[{"user_id":345,"name":"DraGOs512","steam_id":76561198438519964,"connected_time":2802000000000,"state":"active","ping":88},{"user_id":357,"name":"rA flavo","steam_id":76561198336661918,"connected_time":1609000000000,"state":"active","ping":50},{"user_id":378,"name":"Zenith_GL","steam_id":76561198863997808,"connected_time":119000000000,"state":"active","ping":62},{"user_id":358,"name":"Atronic","steam_id":76561198354960567,"connected_time":1599000000000,"state":"active","ping":47},{"user_id":365,"name":"Eck","steam_id":76561198170101474,"connected_time":1298000000000,"state":"active","ping":65},{"user_id":372,"name":"Ab0nis","steam_id":76561197977179613,"connected_time":432000000000,"state":"active","ping":78},{"user_id":355,"name":"Bastard'Nick","steam_id":76561198044044651,"connected_time":1833000000000,"state":"active","ping":65},{"user_id":377,"name":"Skylox","steam_id":76561198129291480,"connected_time":144000000000,"state":"active","ping":85},{"user_id":369,"name":"Anonymous47007","steam_id":76561199005211417,"connected_time":847000000000,"state":"active","ping":87},{"user_id":359,"name":"BOB","steam_id":76561198797287684,"connected_time":1551000000000,"state":"active","ping":64},{"user_id":296,"name":"Never √úber Me","steam_id":76561198140522687,"connected_time":6127000000000,"state":"active","ping":70},{"user_id":343,"name":"onion knight","steam_id":76561198328543549,"connected_time":2895000000000,"state":"active","ping":84},{"user_id":278,"name":"dirty","steam_id":76561197995572935,"connected_time":6793000000000,"state":"active","ping":79},{"user_id":321,"name":"noodlehairronaldoprime","steam_id":76561199471954402,"connected_time":4714000000000,"state":"active","ping":66},{"user_id":379,"name":"Tugazu","steam_id":76561198144223649,"connected_time":10000000000,"state":"active","ping":71},{"user_id":374,"name":"ÊÇ™","steam_id":76561198095879087,"connected_time":323000000000,"state":"active","ping":69},{"user_id":360,"name":"Frambouille","steam_id":76561198210342928,"connected_time":1513000000000,"state":"active","ping":67},{"user_id":265,"name":"Owlet","steam_id":76561198065613974,"connected_time":7723000000000,"state":"active","ping":70},{"user_id":361,"name":"Rogue Biscuit","steam_id":76561198086447685,"connected_time":1475000000000,"state":"active","ping":133},{"user_id":362,"name":"noobdog","steam_id":76561198036486671,"connected_time":1461000000000,"state":"active","ping":60},{"user_id":313,"name":"anders McFlanders","steam_id":76561198022811995,"connected_time":5559000000000,"state":"active","ping":58},{"user_id":367,"name":"jt7","steam_id":76561198073655162,"connected_time":1075000000000,"state":"active","ping":69},{"user_id":375,"name":"Simple Giggenomics","steam_id":76561198070986689,"connected_time":225000000000,"state":"active","ping":45},{"user_id":376,"name":"xeno_Y","steam_id":76561199009157261,"connected_time":166000000000,"state":"active","ping":75}]},{"server_id":110,"name":"Uncletopia | Frankfurt | 2 | All Maps","name_short":"frk-2","host":"frk-1.de.uncletopia.com","port":27025,"enabled":true,"region":"eu","cc":"de","latitude":50.110924,"longitude":8.682127,"reserved":0,"last_update":"0001-01-01T00:00:00Z","name_a2s":"Uncletopia | Frankfurt | 2 | All Maps","protocol":17,"map":"pl_thundermountain","folder":"tf","game":"Team Fortress","app_id":440,"player_count":24,"max_players":24,"Bots":0,"server_type":"Dedicated","server_os":"Linux","password":true,"vac":true,"version":"7757534","steam_id":85568392924469990,"keywords":["nocrits","nodmgspread","payload","uncletopia"],"game_id":440,"stv_port":27026,"stv_name":"Uncletopia | Frankfurt | 2 | All Maps | STV","players":[{"user_id":554,"name":"Ricky Dicky Grimes","steam_id":76561198065506317,"connected_time":1611000000000,"state":"active","ping":58},{"user_id":517,"name":"ayu","steam_id":76561198871342329,"connected_time":2749000000000,"state":"active","ping":101},{"user_id":506,"name":"Destinys","steam_id":76561198056132894,"connected_time":3318000000000,"state":"active","ping":58},{"user_id":519,"name":"Donnie","steam_id":76561198396050604,"connected_time":2717000000000,"state":"active","ping":83},{"user_id":520,"name":"Burpman","steam_id":76561198022897937,"connected_time":2690000000000,"state":"active","ping":62},{"user_id":561,"name":"Need moar bacon!","steam_id":76561198075914276,"connected_time":1305000000000,"state":"active","ping":83},{"user_id":516,"name":"Valfezant","steam_id":76561199063983797,"connected_time":2801000000000,"state":"active","ping":61},{"user_id":580,"name":"e36 1.8","steam_id":76561198134203031,"connected_time":37000000000,"state":"spawning","ping":67},{"user_id":442,"name":"nytronytronytro","steam_id":76561198080496833,"connected_time":6540000000000,"state":"active","ping":79},{"user_id":569,"name":"kamekame","steam_id":76561198047108054,"connected_time":875000000000,"state":"active","ping":103},{"user_id":563,"name":"Bidoof the Knight","steam_id":76561199214044702,"connected_time":1218000000000,"state":"active","ping":94},{"user_id":570,"name":"let me cook","steam_id":76561198010380786,"connected_time":816000000000,"state":"active","ping":60},{"user_id":576,"name":"randompixel","steam_id":76561198003941207,"connected_time":413000000000,"state":"active","ping":64},{"user_id":508,"name":"benifis163","steam_id":76561198420973492,"connected_time":3301000000000,"state":"active","ping":102},{"user_id":573,"name":"ƒ¢irts ƒ∂esteris #bigdick","steam_id":76561199168663034,"connected_time":764000000000,"state":"active","ping":60},{"user_id":567,"name":"Shovelhalfrusty","steam_id":76561198346447513,"connected_time":1017000000000,"state":"active","ping":84},{"user_id":562,"name":"Dr. Le Quack","steam_id":76561197995711176,"connected_time":1278000000000,"state":"active","ping":73},{"user_id":514,"name":"howabe","steam_id":76561197996486818,"connected_time":2842000000000,"state":"active","ping":54},{"user_id":525,"name":"tanyathsus","steam_id":76561198089522447,"connected_time":2496000000000,"state":"active","ping":65},{"user_id":581,"name":"God's Goofiest Goober","steam_id":76561198103175187,"connected_time":12000000000,"state":"spawning","ping":684},{"user_id":475,"name":"Cranto","steam_id":76561198101745576,"connected_time":4882000000000,"state":"active","ping":71},{"user_id":560,"name":"Syll","steam_id":76561198040736202,"connected_time":1432000000000,"state":"active","ping":96},{"user_id":577,"name":"simplistic","steam_id":76561198231690748,"connected_time":113000000000,"state":"active","ping":71},{"user_id":578,"name":"Egor Pomidor","steam_id":76561199175688390,"connected_time":74000000000,"state":"active","ping":78}]},{"server_id":308,"name":"Uncletopia | Frankfurt | 3 | All Maps","name_short":"frk-3","host":"frk-1.de.uncletopia.com","port":27035,"enabled":true,"region":"eu","cc":"de","latitude":50.110924,"longitude":8.682127,"reserved":0,"last_update":"0001-01-01T00:00:00Z","name_a2s":"Uncletopia | Frankfurt | 3 | All Maps","protocol":17,"map":"pl_barnblitz","folder":"tf","game":"Team Fortress","app_id":440,"player_count":22,"max_players":24,"Bots":0,"server_type":"Dedicated","server_os":"Linux","password":true,"vac":true,"version":"7757534","steam_id":85568392924504274,"keywords":["nocrits","nodmgspread","payload","uncletopia"],"game_id":440,"stv_port":27036,"stv_name":"Uncletopia | Frankfurt | 3 | All Maps | STV","players":[{"user_id":226,"name":"Patriot Pills","steam_id":76561198381647349,"connected_time":131000000000,"state":"active","ping":172},{"user_id":212,"name":"Real Sugar","steam_id":76561198016726107,"connected_time":904000000000,"state":"active","ping":75},{"user_id":185,"name":"-rikeOo-","steam_id":76561198303995379,"connected_time":2477000000000,"state":"active","ping":69},{"user_id":191,"name":"Burger King Dante","steam_id":76561198390314734,"connected_time":2079000000000,"state":"active","ping":60},{"user_id":213,"name":"–í–∞–¥–∏–º –ö–∞–∫–∞—à–∫–∏–Ω","steam_id":76561198383509320,"connected_time":853000000000,"state":"active","ping":70},{"user_id":221,"name":"ToTenLis","steam_id":76561198168581334,"connected_time":484000000000,"state":"active","ping":90},{"user_id":208,"name":"Dewotter","steam_id":76561198007653168,"connected_time":1423000000000,"state":"active","ping":74},{"user_id":223,"name":"subway vergil","steam_id":76561199110064166,"connected_time":280000000000,"state":"active","ping":185},{"user_id":211,"name":"KFD","steam_id":76561198157183003,"connected_time":1257000000000,"state":"active","ping":73},{"user_id":195,"name":"d u k k i","steam_id":76561198071807437,"connected_time":2036000000000,"state":"active","ping":79},{"user_id":196,"name":"Twisted Logic ‚àû","steam_id":76561198002245428,"connected_time":1983000000000,"state":"active","ping":54},{"user_id":225,"name":"Bobo","steam_id":76561198052308399,"connected_time":151000000000,"state":"active","ping":62},{"user_id":178,"name":"Lord","steam_id":76561198241305816,"connected_time":4038000000000,"state":"active","ping":122},{"user_id":198,"name":"Yatagarasu","steam_id":76561198035432521,"connected_time":1961000000000,"state":"active","ping":78},{"user_id":215,"name":"omnibombulator","steam_id":76561198025858897,"connected_time":745000000000,"state":"active","ping":64},{"user_id":228,"name":"S_ApplePie","steam_id":76561198106947669,"connected_time":66000000000,"state":"active","ping":105},{"user_id":180,"name":"Gorogaz","steam_id":76561198207157679,"connected_time":3636000000000,"state":"active","ping":68},{"user_id":174,"name":"Dor_atar","steam_id":76561198973980542,"connected_time":4401000000000,"state":"active","ping":73},{"user_id":205,"name":"maxharmony","steam_id":76561198233819688,"connected_time":1732000000000,"state":"active","ping":90},{"user_id":222,"name":"The Punch","steam_id":76561198212488780,"connected_time":337000000000,"state":"active","ping":59},{"user_id":216,"name":"Majami","steam_id":76561198054365738,"connected_time":720000000000,"state":"active","ping":81},{"user_id":207,"name":"Levood","steam_id":76561198088461401,"connected_time":1695000000000,"state":"active","ping":69}]},{"server_id":309,"name":"Uncletopia | Frankfurt | 4 | All Maps","name_short":"frk-4","host":"frk-1.de.uncletopia.com","port":27045,"enabled":true,"region":"eu","cc":"de","latitude":50.110924,"longitude":8.682127,"reserved":0,"last_update":"0001-01-01T00:00:00Z","name_a2s":"Uncletopia | Frankfurt | 4 | All Maps","protocol":17,"map":"cp_well","folder":"tf","game":"Team Fortress","app_id":440,"player_count":24,"max_players":24,"Bots":0,"server_type":"Dedicated","server_os":"Linux","password":true,"vac":true,"version":"7757534","steam_id":85568392924504275,"keywords":["cp","nocrits","nodmgspread","uncletopia"],"game_id":440,"stv_port":27046,"stv_name":"Uncletopia | Frankfurt | 4 | All Maps | STV","players":[{"user_id":469,"name":"Average Lunch Eater","steam_id":76561198353131373,"connected_time":1029000000000,"state":"active","ping":75},{"user_id":458,"name":"Serton‚ôù","steam_id":76561198011061126,"connected_time":1940000000000,"state":"active","ping":85},{"user_id":472,"name":"Maythorn","steam_id":76561198049709072,"connected_time":871000000000,"state":"active","ping":139},{"user_id":470,"name":"FluoducK","steam_id":76561198158175778,"connected_time":954000000000,"state":"active","ping":70},{"user_id":477,"name":"Dogwalker","steam_id":76561197985561055,"connected_time":680000000000,"state":"active","ping":59},{"user_id":432,"name":"Joseph#saveTF2","steam_id":76561199200682330,"connected_time":4795000000000,"state":"active","ping":106},{"user_id":440,"name":"real trap piss","steam_id":76561198055010039,"connected_time":3909000000000,"state":"active","ping":66},{"user_id":467,"name":"Hetmanych","steam_id":76561198870926865,"connected_time":1087000000000,"state":"active","ping":55},{"user_id":475,"name":"wasto-/-‚Ñ¢","steam_id":76561198102888038,"connected_time":743000000000,"state":"active","ping":47},{"user_id":445,"name":"X-tis","steam_id":76561198043837480,"connected_time":3212000000000,"state":"active","ping":73},{"user_id":471,"name":"Illegally Legal","steam_id":76561198982674420,"connected_time":945000000000,"state":"active","ping":54},{"user_id":465,"name":"makiverem","steam_id":76561198425866216,"connected_time":1640000000000,"state":"active","ping":85},{"user_id":473,"name":"anna","steam_id":76561197994492154,"connected_time":861000000000,"state":"active","ping":67},{"user_id":446,"name":"Fat Pigeon","steam_id":76561198817940142,"connected_time":2295000000000,"state":"active","ping":52},{"user_id":474,"name":"Kendo-6","steam_id":76561198318748304,"connected_time":847000000000,"state":"active","ping":128},{"user_id":476,"name":"Mistress of the universe","steam_id":76561198115988477,"connected_time":722000000000,"state":"active","ping":59},{"user_id":439,"name":"LarsInABox","steam_id":76561198028329262,"connected_time":3978000000000,"state":"active","ping":71},{"user_id":438,"name":"EdSuedi","steam_id":76561199387956486,"connected_time":4203000000000,"state":"active","ping":55},{"user_id":480,"name":"Per√§miehen√§","steam_id":76561197968945306,"connected_time":350000000000,"state":"active","ping":74},{"user_id":482,"name":"below sea level","steam_id":76561199027962230,"connected_time":27000000000,"state":"active","ping":63},{"user_id":453,"name":"MAKENTAKEN","steam_id":76561199127359587,"connected_time":2074000000000,"state":"active","ping":97},{"user_id":479,"name":"darkwater","steam_id":76561197986978738,"connected_time":519000000000,"state":"active","ping":62},{"user_id":466,"name":"washed up","steam_id":76561198275742101,"connected_time":1299000000000,"state":"active","ping":51},{"user_id":468,"name":"Healslut Manwhore","steam_id":76561198114164702,"connected_time":1075000000000,"state":"active","ping":63}]},{"server_id":310,"name":"Uncletopia | Frankfurt | 5 | All Maps","name_short":"frk-5","host":"frk-1.de.uncletopia.com","port":27055,"enabled":true,"region":"eu","cc":"de","latitude":50.110924,"longitude":8.682127,"reserved":0,"last_update":"0001-01-01T00:00:00Z","name_a2s":"Uncletopia | Frankfurt | 5 | All Maps","protocol":17,"map":"pl_pier","folder":"tf","game":"Team Fortress","app_id":440,"player_count":23,"max_players":24,"Bots":0,"server_type":"Dedicated","server_os":"Linux","password":true,"vac":true,"version":"7757534","steam_id":85568392924504277,"keywords":["nocrits","nodmgspread","payload","uncletopia"],"game_id":440,"stv_port":27056,"stv_name":"Uncletopia | Frankfurt | 5 | All Maps | STV","players":[{"user_id":413,"name":"M31K4","steam_id":76561198079446133,"connected_time":1557000000000,"state":"active","ping":96},{"user_id":392,"name":"food","steam_id":76561198308341534,"connected_time":2929000000000,"state":"active","ping":64},{"user_id":401,"name":"GabelliNium #savetf2","steam_id":76561199034115452,"connected_time":1967000000000,"state":"active","ping":89},{"user_id":377,"name":"Datenegassie","steam_id":76561198089417032,"connected_time":4169000000000,"state":"active","ping":59},{"user_id":355,"name":"Rahu 'Siebren' Godless","steam_id":76561198276259175,"connected_time":5710000000000,"state":"active","ping":100},{"user_id":419,"name":"Fridge","steam_id":76561198071665589,"connected_time":566000000000,"state":"active","ping":99},{"user_id":417,"name":"Captain HandicappedCock","steam_id":76561198109850402,"connected_time":605000000000,"state":"active","ping":69},{"user_id":400,"name":"ali","steam_id":76561198148359093,"connected_time":2120000000000,"state":"active","ping":48},{"user_id":415,"name":"deVychu","steam_id":76561198078032019,"connected_time":1329000000000,"state":"active","ping":71},{"user_id":259,"name":"Kildon","steam_id":76561198134661558,"connected_time":10941000000000,"state":"active","ping":86},{"user_id":422,"name":"Makasim:)","steam_id":76561198816061842,"connected_time":453000000000,"state":"active","ping":72},{"user_id":426,"name":"Mr_Pulse_","steam_id":76561198095001602,"connected_time":37000000000,"state":"active","ping":93},{"user_id":416,"name":"DanksTheWorld","steam_id":76561198346415362,"connected_time":1292000000000,"state":"active","ping":72},{"user_id":404,"name":"Een schaap zonder slaap","steam_id":76561198084808410,"connected_time":1801000000000,"state":"active","ping":61},{"user_id":424,"name":"cirlo","steam_id":76561198041836298,"connected_time":377000000000,"state":"active","ping":57},{"user_id":406,"name":"kektuse","steam_id":76561198088426580,"connected_time":1770000000000,"state":"active","ping":56},{"user_id":418,"name":"Underdog","steam_id":76561198060012688,"connected_time":594000000000,"state":"active","ping":67},{"user_id":408,"name":"FoOzTV","steam_id":76561197998636728,"connected_time":1726000000000,"state":"active","ping":72},{"user_id":250,"name":"Sinny","steam_id":76561197999598422,"connected_time":11650000000000,"state":"active","ping":78},{"user_id":410,"name":"the_Qcumber","steam_id":76561199152515819,"connected_time":1711000000000,"state":"active","ping":80},{"user_id":425,"name":"Shenanigan","steam_id":76561199155477588,"connected_time":313000000000,"state":"active","ping":81},{"user_id":396,"name":"‚òÖpoyo‚òÖ","steam_id":76561198150078959,"connected_time":2723000000000,"state":"active","ping":76},{"user_id":421,"name":"Saint","steam_id":76561198003296382,"connected_time":538000000000,"state":"active","ping":68}]},{"server_id":311,"name":"Uncletopia | Frankfurt | 6 | All Maps","name_short":"frk-6","host":"frk-1.de.uncletopia.com","port":27065,"enabled":true,"region":"eu","cc":"de","latitude":50.110924,"longitude":8.682127,"reserved":0,"last_update":"0001-01-01T00:00:00Z","name_a2s":"Uncletopia | Frankfurt | 6 | All Maps","protocol":17,"map":"koth_suijin","folder":"tf","game":"Team Fortress","app_id":440,"player_count":23,"max_players":24,"Bots":0,"server_type":"Dedicated","server_os":"Linux","password":true,"vac":true,"version":"7757534","steam_id":85568392924504278,"keywords":["cp","nocrits","nodmgspread","uncletopia"],"game_id":440,"stv_port":27066,"stv_name":"Uncletopia | Frankfurt | 6 | All Maps | STV","players":[{"user_id":218,"name":"Ishy the Lagger","steam_id":76561198835943890,"connected_time":516000000000,"state":"active","ping":177},{"user_id":219,"name":"Muppburg","steam_id":76561198031070682,"connected_time":491000000000,"state":"active","ping":75},{"user_id":209,"name":"true","steam_id":76561198031145243,"connected_time":1137000000000,"state":"active","ping":89},{"user_id":187,"name":"biofun","steam_id":76561198170609049,"connected_time":2056000000000,"state":"active","ping":76},{"user_id":180,"name":"Be on my ....!?","steam_id":76561198067204908,"connected_time":3230000000000,"state":"active","ping":60},{"user_id":220,"name":"blinexe","steam_id":76561199043074852,"connected_time":381000000000,"state":"active","ping":90},{"user_id":194,"name":"Nox Equites","steam_id":76561198115438449,"connected_time":1771000000000,"state":"active","ping":93},{"user_id":215,"name":"JohkupohkuXD","steam_id":76561198391108762,"connected_time":748000000000,"state":"active","ping":89},{"user_id":162,"name":"New","steam_id":76561198402195911,"connected_time":4302000000000,"state":"active","ping":108},{"user_id":216,"name":"sabelrosin","steam_id":76561198184886726,"connected_time":618000000000,"state":"active","ping":78},{"user_id":117,"name":"one tap hedchot","steam_id":76561198106049954,"connected_time":7554000000000,"state":"active","ping":79},{"user_id":129,"name":"killer of noob, winner of game","steam_id":76561198190583242,"connected_time":6712000000000,"state":"active","ping":67},{"user_id":184,"name":"can i be on your ...","steam_id":76561198097507847,"connected_time":2344000000000,"state":"active","ping":75},{"user_id":225,"name":"4ever Jerk05","steam_id":76561198066000941,"connected_time":166000000000,"state":"active","ping":62},{"user_id":200,"name":"mild bobby sauce","steam_id":76561198071226602,"connected_time":1489000000000,"state":"active","ping":65},{"user_id":227,"name":"bad 2 za bona","steam_id":76561199065919134,"connected_time":49000000000,"state":"active","ping":59},{"user_id":212,"name":"Sirzen","steam_id":76561198170155434,"connected_time":1055000000000,"state":"active","ping":55},{"user_id":223,"name":"Bonduelle#Savetf2","steam_id":76561199041992422,"connected_time":280000000000,"state":"active","ping":153},{"user_id":204,"name":"The Chimp","steam_id":76561199013458732,"connected_time":1366000000000,"state":"active","ping":138},{"user_id":206,"name":"TryX","steam_id":76561199356781475,"connected_time":1328000000000,"state":"active","ping":68},{"user_id":207,"name":"beurgeur","steam_id":76561198872426314,"connected_time":1324000000000,"state":"active","ping":45},{"user_id":213,"name":"Miro","steam_id":76561199147793578,"connected_time":921000000000,"state":"active","ping":84},{"user_id":224,"name":"Doctor Rudy G. Numpad","steam_id":76561198440881106,"connected_time":242000000000,"state":"active","ping":74}]},{"server_id":23,"name":"Uncletopia | Frankfurt | 7 | Stopwatch Beta","name_short":"frk-7","host":"frk-1.de.uncletopia.com","port":27075,"enabled":true,"region":"eu","cc":"de","latitude":50.110924,"longitude":8.682127,"reserved":0,"last_update":"0001-01-01T00:00:00Z","name_a2s":"Uncletopia | Frankfurt | 7 | Stopwatch Beta","protocol":17,"map":"koth_highpass","folder":"tf","game":"Team Fortress","app_id":440,"player_count":1,"max_players":24,"Bots":0,"server_type":"Dedicated","server_os":"Linux","password":true,"vac":true,"version":"7757534","steam_id":85568392924742827,"keywords":["cp","nocrits","nodmgspread","uncletopia"],"game_id":440,"stv_port":27076,"stv_name":"Uncletopia | Frankfurt | 7 | Stopwatch Beta | STV","players":[{"user_id":12,"name":"Truegr","steam_id":76561198811912339,"connected_time":1425000000000,"state":"active","ping":70}]},{"server_id":24,"name":"Uncletopia | Frankfurt | 8 | Community","name_short":"frk-8","host":"frk-1.de.uncletopia.com","port":27085,"enabled":true,"region":"eu","cc":"de","latitude":50.110924,"longitude":8.682127,"reserved":0,"last_update":"0001-01-01T00:00:00Z","name_a2s":"Uncletopia | Frankfurt | 8 | Community","protocol":17,"map":"koth_lakeside_final","folder":"tf","game":"Team Fortress","app_id":440,"player_count":0,"max_players":24,"Bots":0,"server_type":"Dedicated","server_os":"Linux","password":true,"vac":true,"version":"7757534","steam_id":85568392924742828,"keywords":["cp","nocrits","nodmgspread","uncletopia"],"game_id":440,"stv_port":27086,"stv_name":"Uncletopia | Frankfurt | 8 | Community | STV","players":null},{"server_id":202,"name":"Uncletopia | Hong Kong | 1 | All Maps","name_short":"hgk-1","host":"hgk-1.hk.uncletopia.com","port":27015,"enabled":true,"region":"asia","cc":"hk","latitude":22.302711,"longitude":114.177216,"reserved":0,"last_update":"0001-01-01T00:00:00Z","name_a2s":"Uncletopia | Hong Kong | 1 | All Maps","protocol":17,"map":"koth_cascade","folder":"tf","game":"Team Fortress","app_id":440,"player_count":0,"max_players":24,"Bots":0,"server_type":"Dedicated","server_os":"Linux","password":true,"vac":true,"version":"7757534","steam_id":85568392924494504,"keywords":["cp","nocrits","nodmgspread","uncletopia"],"game_id":440,"stv_port":27016,"stv_name":"Uncletopia | Hong Kong | 1 | All Maps | STV","players":null},{"server_id":1,"name":"Uncletopia | Los Angeles | 1 | All Maps","name_short":"lax-1","host":"lax-1.us.uncletopia.com","port":27015,"enabled":true,"region":"us-west","cc":"us","latitude":33.94279,"longitude":-118.41004,"reserved":0,"last_update":"0001-01-01T00:00:00Z","name_a2s":"Uncletopia | Los Angeles | 1 | All Maps","protocol":17,"map":"koth_viaduct","folder":"tf","game":"Team Fortress","app_id":440,"player_count":0,"max_players":24,"Bots":0,"server_type":"Dedicated","server_os":"Linux","password":true,"vac":true,"version":"7757534","steam_id":85568392924469991,"keywords":["cp","nocrits","nodmgspread","uncletopia"],"game_id":440,"stv_port":27016,"stv_name":"Uncletopia | Los Angeles | 1 | All Maps | STV","players":null},{"server_id":112,"name":"Uncletopia | Los Angeles | 2 | All Maps","name_short":"lax-2","host":"lax-1.us.uncletopia.com","port":27025,"enabled":true,"region":"us-west","cc":"us","latitude":33.94279,"longitude":-118.41004,"reserved":0,"last_update":"0001-01-01T00:00:00Z","name_a2s":"Uncletopia | Los Angeles | 2 | All Maps","protocol":17,"map":"pl_snowycoast","folder":"tf","game":"Team Fortress","app_id":440,"player_count":22,"max_players":24,"Bots":0,"server_type":"Dedicated","server_os":"Linux","password":true,"vac":true,"version":"7757534","steam_id":85568392924469992,"keywords":["nocrits","nodmgspread","payload","uncletopia"],"game_id":440,"stv_port":27026,"stv_name":"Uncletopia | Los Angeles | 2 | All Maps | STV","players":[{"user_id":96,"name":"greens beans","steam_id":76561198153611491,"connected_time":2072000000000,"state":"active","ping":61},{"user_id":99,"name":"oxbudy","steam_id":76561198022120207,"connected_time":1808000000000,"state":"active","ping":75},{"user_id":83,"name":"fish","steam_id":76561198440986029,"connected_time":3022000000000,"state":"active","ping":54},{"user_id":121,"name":"Zaniah","steam_id":76561198120582473,"connected_time":126000000000,"state":"active","ping":165},{"user_id":118,"name":"PinguEnjoyer6","steam_id":76561199186723516,"connected_time":688000000000,"state":"active","ping":41},{"user_id":69,"name":"MORE BOUNCE TO THE OUNCE","steam_id":76561198243399336,"connected_time":4495000000000,"state":"active","ping":67},{"user_id":104,"name":"emerge","steam_id":76561198186882891,"connected_time":1656000000000,"state":"active","ping":107},{"user_id":76,"name":"FlashofAsh","steam_id":76561198400422981,"connected_time":3311000000000,"state":"active","ping":87},{"user_id":124,"name":"BadWraith","steam_id":76561199447449211,"connected_time":66000000000,"state":"active","ping":59},{"user_id":125,"name":"ChieF BEEF QueeF","steam_id":76561198078294539,"connected_time":47000000000,"state":"active","ping":54},{"user_id":111,"name":"Erick","steam_id":76561198176406475,"connected_time":988000000000,"state":"active","ping":86},{"user_id":126,"name":"comet sooicidy","steam_id":76561198025173479,"connected_time":46000000000,"state":"active","ping":124},{"user_id":119,"name":"charm quark","steam_id":76561198098770777,"connected_time":657000000000,"state":"active","ping":75},{"user_id":122,"name":"Silver_Hawken","steam_id":76561198066860499,"connected_time":78000000000,"state":"active","ping":83},{"user_id":95,"name":"morgborg","steam_id":76561198350206257,"connected_time":2269000000000,"state":"active","ping":132},{"user_id":98,"name":"TheSquirrelofHuscurl","steam_id":76561198073379623,"connected_time":1953000000000,"state":"active","ping":94},{"user_id":116,"name":"BOR XOR","steam_id":76561198063294776,"connected_time":771000000000,"state":"active","ping":78},{"user_id":128,"name":"benito flakes","steam_id":76561198248625526,"connected_time":2000000000,"state":"spawning","ping":32},{"user_id":80,"name":"BurningKev","steam_id":76561198057688837,"connected_time":3180000000000,"state":"active","ping":75},{"user_id":120,"name":"Schnitz","steam_id":76561198265484253,"connected_time":630000000000,"state":"active","ping":58},{"user_id":113,"name":"Jolly","steam_id":76561198116357972,"connected_time":907000000000,"state":"active","ping":45},{"user_id":84,"name":"vera","steam_id":76561198318851246,"connected_time":2996000000000,"state":"active","ping":80}]},{"server_id":324,"name":"Uncletopia | Los Angeles | 3 | All Maps","name_short":"lax-3","host":"lax-1.us.uncletopia.com","port":27035,"enabled":true,"region":"us-west","cc":"us","latitude":33.94279,"longitude":-118.41004,"reserved":0,"last_update":"0001-01-01T00:00:00Z","name_a2s":"Uncletopia | Los Angeles | 3 | All Maps","protocol":17,"map":"cp_sunshine","folder":"tf","game":"Team Fortress","app_id":440,"player_count":0,"max_players":24,"Bots":0,"server_type":"Dedicated","server_os":"Linux","password":true,"vac":true,"version":"7757534","steam_id":85568392924510198,"keywords":["cp","nocrits","nodmgspread","uncletopia"],"game_id":440,"stv_port":27036,"stv_name":"Uncletopia | Los Angeles | 3 | All Maps | STV","players":null},{"server_id":25,"name":"Uncletopia | Los Angeles | 4 | Stopwatch Beta","name_short":"lax-4","host":"lax-1.us.uncletopia.com","port":27045,"enabled":true,"region":"us-west","cc":"us","latitude":33.94279,"longitude":-118.41004,"reserved":0,"last_update":"0001-01-01T00:00:00Z","name_a2s":"Uncletopia | Los Angeles | 4 | Stopwatch Beta","protocol":17,"map":"pl_swiftwater_final1","folder":"tf","game":"Team Fortress","app_id":440,"player_count":0,"max_players":24,"Bots":0,"server_type":"Dedicated","server_os":"Linux","password":true,"vac":true,"version":"7757534","steam_id":85568392924510199,"keywords":["nocrits","nodmgspread","payload","uncletopia"],"game_id":440,"stv_port":27046,"stv_name":"Uncletopia | Los Angeles | 4 | Stopwatch Beta | STV","players":null},{"server_id":11,"name":"Uncletopia | London | 1 | All Maps","name_short":"lon-1","host":"lon-1.uk.uncletopia.com","port":27015,"enabled":true,"region":"eu","cc":"gb","latitude":51.509865,"longitude":-0.118092,"reserved":0,"last_update":"0001-01-01T00:00:00Z","name_a2s":"Uncletopia | London | 1 | All Maps","protocol":17,"map":"pl_borneo","folder":"tf","game":"Team Fortress","app_id":440,"player_count":24,"max_players":24,"Bots":0,"server_type":"Dedicated","server_os":"Linux","password":true,"vac":true,"version":"7757534","steam_id":85568392924367362,"keywords":["nocrits","nodmgspread","payload","uncletopia"],"game_id":440,"stv_port":27016,"stv_name":"Uncletopia | London | 1 | All Maps | STV","players":[{"user_id":422,"name":"mid goth creachur","steam_id":76561198118989010,"connected_time":1313000000000,"state":"active","ping":60},{"user_id":394,"name":"Fwebbie","steam_id":76561199006875621,"connected_time":3258000000000,"state":"active","ping":61},{"user_id":430,"name":"Milca_11","steam_id":76561198848650365,"connected_time":390000000000,"state":"active","ping":89},{"user_id":416,"name":"Ansari","steam_id":76561198074982971,"connected_time":2367000000000,"state":"active","ping":55},{"user_id":419,"name":"Wader","steam_id":76561198147642106,"connected_time":2215000000000,"state":"active","ping":67},{"user_id":339,"name":"shooer","steam_id":76561198110531281,"connected_time":7777000000000,"state":"active","ping":68},{"user_id":378,"name":"transgender e-girl","steam_id":76561198168589809,"connected_time":5441000000000,"state":"active","ping":63},{"user_id":410,"name":"Zoran Snajper","steam_id":76561198312564061,"connected_time":2473000000000,"state":"active","ping":72},{"user_id":359,"name":"BreadBubbles","steam_id":76561198174332826,"connected_time":6301000000000,"state":"active","ping":71},{"user_id":412,"name":"Deva Path","steam_id":76561198085763542,"connected_time":2452000000000,"state":"active","ping":84},{"user_id":425,"name":"Kristianma","steam_id":76561198021772843,"connected_time":1070000000000,"state":"active","ping":65},{"user_id":417,"name":"Ryn :D","steam_id":76561198327032307,"connected_time":2327000000000,"state":"active","ping":82},{"user_id":343,"name":"player","steam_id":76561198054474684,"connected_time":7678000000000,"state":"active","ping":86},{"user_id":374,"name":"mommyüñ§x_x","steam_id":76561199204257697,"connected_time":5521000000000,"state":"active","ping":56},{"user_id":401,"name":"dec","steam_id":76561198009660168,"connected_time":2646000000000,"state":"active","ping":58},{"user_id":255,"name":"‚ô• Aura says Trans Rights ‚ô•","steam_id":76561198066258544,"connected_time":16295000000000,"state":"active","ping":62},{"user_id":413,"name":"TF2 Lollichop (Real)","steam_id":76561199047081427,"connected_time":2393000000000,"state":"active","ping":90},{"user_id":390,"name":"Wuffington","steam_id":76561198033762881,"connected_time":3457000000000,"state":"active","ping":49},{"user_id":428,"name":"Gaming Time","steam_id":76561199017872113,"connected_time":760000000000,"state":"active","ping":67},{"user_id":393,"name":"trite","steam_id":76561197983765323,"connected_time":3420000000000,"state":"active","ping":52},{"user_id":383,"name":"Q","steam_id":76561198276440993,"connected_time":5093000000000,"state":"active","ping":44},{"user_id":429,"name":"‚ô• Emma ‚ô•","steam_id":76561198046796406,"connected_time":744000000000,"state":"active","ping":53},{"user_id":421,"name":"jimmy bob","steam_id":76561198319583692,"connected_time":2188000000000,"state":"active","ping":66},{"user_id":388,"name":"Amy2Cute","steam_id":76561198291015553,"connected_time":3706000000000,"state":"active","ping":60}]},{"server_id":114,"name":"Uncletopia | London | 2 | All Maps","name_short":"lon-2","host":"lon-1.uk.uncletopia.com","port":27025,"enabled":true,"region":"eu","cc":"gb","latitude":51.509865,"longitude":-0.118092,"reserved":0,"last_update":"0001-01-01T00:00:00Z","name_a2s":"Uncletopia | London | 2 | All Maps","protocol":17,"map":"pl_barnblitz","folder":"tf","game":"Team Fortress","app_id":440,"player_count":24,"max_players":24,"Bots":0,"server_type":"Dedicated","server_os":"Linux","password":true,"vac":true,"version":"7757534","steam_id":85568392924470941,"keywords":["nocrits","nodmgspread","payload","uncletopia"],"game_id":440,"stv_port":27026,"stv_name":"Uncletopia | London | 2 | All Maps | STV","players":[{"user_id":125,"name":"‚ô• Cirno ‚ô•","steam_id":76561198834982738,"connected_time":1119000000000,"state":"active","ping":69},{"user_id":121,"name":"Camo Leaf","steam_id":76561197999456575,"connected_time":1319000000000,"state":"active","ping":54},{"user_id":126,"name":"FUKTARD2005","steam_id":76561198839121591,"connected_time":1085000000000,"state":"active","ping":60},{"user_id":102,"name":"Nostradamus","steam_id":76561198349792686,"connected_time":2283000000000,"state":"active","ping":72},{"user_id":131,"name":"Rooce","steam_id":76561199061011421,"connected_time":431000000000,"state":"active","ping":85},{"user_id":25,"name":"bayzoes","steam_id":76561198117472639,"connected_time":7072000000000,"state":"active","ping":41},{"user_id":26,"name":"Regan","steam_id":76561198100631086,"connected_time":7068000000000,"state":"active","ping":60},{"user_id":122,"name":"Sh3ba Spaniel","steam_id":76561198047412394,"connected_time":1279000000000,"state":"active","ping":147},{"user_id":115,"name":"RakNieborak","steam_id":76561198261791463,"connected_time":1749000000000,"state":"active","ping":60},{"user_id":128,"name":"Yuzu","steam_id":76561198121694613,"connected_time":943000000000,"state":"active","ping":49},{"user_id":118,"name":"Brica","steam_id":76561198196324799,"connected_time":1599000000000,"state":"active","ping":93},{"user_id":94,"name":"DocTwoEight","steam_id":76561198153488940,"connected_time":2860000000000,"state":"active","ping":74},{"user_id":116,"name":"Tort","steam_id":76561198329646769,"connected_time":1621000000000,"state":"active","ping":56},{"user_id":120,"name":"two fork","steam_id":76561199088913787,"connected_time":1416000000000,"state":"active","ping":55},{"user_id":124,"name":"Estamie","steam_id":76561198058527691,"connected_time":1169000000000,"state":"active","ping":74},{"user_id":95,"name":"bowchika wowa #SlavaUkraine","steam_id":76561198159564550,"connected_time":2851000000000,"state":"active","ping":71},{"user_id":99,"name":"rigie.","steam_id":76561198137778097,"connected_time":2598000000000,"state":"active","ping":60},{"user_id":113,"name":"Chikapu_Xek","steam_id":76561198428023493,"connected_time":1795000000000,"state":"active","ping":74},{"user_id":92,"name":"Edison Trent","steam_id":76561198067133145,"connected_time":3186000000000,"state":"active","ping":60},{"user_id":112,"name":"Jim The Jackal","steam_id":76561198062998417,"connected_time":1837000000000,"state":"active","ping":46},{"user_id":130,"name":"Well, off to hang myself","steam_id":76561198053374944,"connected_time":535000000000,"state":"active","ping":68},{"user_id":76,"name":"ParussMan","steam_id":76561198446245146,"connected_time":4730000000000,"state":"active","ping":116},{"user_id":68,"name":"Sgreff","steam_id":76561198036304365,"connected_time":5512000000000,"state":"active","ping":45},{"user_id":114,"name":"Dwevy","steam_id":76561198090379437,"connected_time":1758000000000,"state":"active","ping":53}]},{"server_id":320,"name":"Uncletopia | London | 3 | All Maps","name_short":"lon-3","host":"lon-1.uk.uncletopia.com","port":27035,"enabled":true,"region":"eu","cc":"gb","latitude":51.509865,"longitude":-0.118092,"reserved":0,"last_update":"0001-01-01T00:00:00Z","name_a2s":"Uncletopia | London | 3 | All Maps","protocol":17,"map":"pl_swiftwater_final1","folder":"tf","game":"Team Fortress","app_id":440,"player_count":24,"max_players":24,"Bots":0,"server_type":"Dedicated","server_os":"Linux","password":true,"vac":true,"version":"7757534","steam_id":85568392924510192,"keywords":["nocrits","nodmgspread","payload","uncletopia"],"game_id":440,"stv_port":27036,"stv_name":"Uncletopia | London | 3 | All Maps | STV","players":[{"user_id":125,"name":"Baki ‡∂û","steam_id":76561198193615529,"connected_time":3623000000000,"state":"active","ping":69},{"user_id":180,"name":"yuta","steam_id":76561198077922992,"connected_time":116000000000,"state":"active","ping":39},{"user_id":161,"name":"Majora","steam_id":76561198030827014,"connected_time":1065000000000,"state":"active","ping":43},{"user_id":174,"name":"Akane","steam_id":76561197990407312,"connected_time":202000000000,"state":"active","ping":78},{"user_id":173,"name":"degu","steam_id":76561198180823942,"connected_time":336000000000,"state":"active","ping":85},{"user_id":162,"name":"schmick","steam_id":76561198039537958,"connected_time":1055000000000,"state":"active","ping":60},{"user_id":146,"name":"Dispenser(Dispenser)","steam_id":76561199211831658,"connected_time":1931000000000,"state":"active","ping":65},{"user_id":126,"name":"Waltcha","steam_id":76561198007691468,"connected_time":3615000000000,"state":"active","ping":66},{"user_id":175,"name":"Have A Blessed Day","steam_id":76561198030956814,"connected_time":200000000000,"state":"active","ping":76},{"user_id":65,"name":"Circular","steam_id":76561198001536710,"connected_time":7536000000000,"state":"active","ping":57},{"user_id":148,"name":"KillerQueen (he/they/she)","steam_id":76561199019399725,"connected_time":1907000000000,"state":"active","ping":50},{"user_id":166,"name":"random_player691","steam_id":76561199209946306,"connected_time":970000000000,"state":"active","ping":50},{"user_id":167,"name":"USUNORO","steam_id":76561198807232967,"connected_time":967000000000,"state":"active","ping":142},{"user_id":163,"name":"Bodhi","steam_id":76561198000606642,"connected_time":1045000000000,"state":"active","ping":54},{"user_id":58,"name":"Balls","steam_id":76561198086400484,"connected_time":7666000000000,"state":"active","ping":75},{"user_id":164,"name":"zinzyk","steam_id":76561198128011822,"connected_time":1041000000000,"state":"active","ping":64},{"user_id":171,"name":"bimgus","steam_id":76561198208045069,"connected_time":520000000000,"state":"active","ping":48},{"user_id":176,"name":"Jayco","steam_id":76561198122497262,"connected_time":195000000000,"state":"active","ping":59},{"user_id":182,"name":"vs everyone","steam_id":76561198136959681,"connected_time":2000000000,"state":"spawning","ping":50},{"user_id":181,"name":"wwwruff...barkbark rwraf","steam_id":76561199013720188,"connected_time":23000000000,"state":"spawning","ping":88},{"user_id":156,"name":"will uber light classes","steam_id":76561198117033273,"connected_time":1699000000000,"state":"active","ping":55},{"user_id":168,"name":"waffle19","steam_id":76561199170690595,"connected_time":963000000000,"state":"active","ping":51},{"user_id":178,"name":"dotdotdot","steam_id":76561198057628751,"connected_time":187000000000,"state":"active","ping":64},{"user_id":179,"name":"rrm#4395","steam_id":76561199225339381,"connected_time":180000000000,"state":"active","ping":55}]},{"server_id":321,"name":"Uncletopia | London | 4 | All Maps","name_short":"lon-4","host":"lon-1.uk.uncletopia.com","port":27045,"enabled":true,"region":"eu","cc":"gb","latitude":51.509865,"longitude":-0.118092,"reserved":0,"last_update":"0001-01-01T00:00:00Z","name_a2s":"Uncletopia | London | 4 | All Maps","protocol":17,"map":"koth_viaduct","folder":"tf","game":"Team Fortress","app_id":440,"player_count":0,"max_players":24,"Bots":0,"server_type":"Dedicated","server_os":"Linux","password":true,"vac":true,"version":"7757534","steam_id":85568392924510193,"keywords":["cp","nocrits","nodmgspread","uncletopia"],"game_id":440,"stv_port":27046,"stv_name":"Uncletopia | London | 4 | All Maps | STV","players":null},{"server_id":21,"name":"Uncletopia | London | 5 | All Maps","name_short":"lon-5","host":"lon-1.uk.uncletopia.com","port":27055,"enabled":true,"region":"eu","cc":"gb","latitude":51.509865,"longitude":-0.118092,"reserved":0,"last_update":"0001-01-01T00:00:00Z","name_a2s":"Uncletopia | London | 5 | All Maps","protocol":17,"map":"cp_process_final","folder":"tf","game":"Team Fortress","app_id":440,"player_count":3,"max_players":24,"Bots":0,"server_type":"Dedicated","server_os":"Linux","password":true,"vac":true,"version":"7757534","steam_id":85568392924742829,"keywords":["cp","nocrits","nodmgspread","uncletopia"],"game_id":440,"stv_port":27056,"stv_name":"Uncletopia | London | 5 | All Maps | STV","players":[{"user_id":33,"name":"not drunk","steam_id":76561199184873889,"connected_time":600000000000,"state":"active","ping":69},{"user_id":29,"name":"cz","steam_id":76561198965227348,"connected_time":1483000000000,"state":"active","ping":75},{"user_id":30,"name":"63756d","steam_id":76561198808699024,"connected_time":1196000000000,"state":"active","ping":72}]},{"server_id":22,"name":"Uncletopia | London | 6 | All Maps","name_short":"lon-6","host":"lon-1.uk.uncletopia.com","port":27065,"enabled":true,"region":"eu","cc":"gb","latitude":51.509865,"longitude":-0.118092,"reserved":0,"last_update":"0001-01-01T00:00:00Z","name_a2s":"Uncletopia | London | 6 | All Maps","protocol":17,"map":"koth_viaduct","folder":"tf","game":"Team Fortress","app_id":440,"player_count":0,"max_players":24,"Bots":0,"server_type":"Dedicated","server_os":"Linux","password":true,"vac":true,"version":"7757534","steam_id":85568392924742830,"keywords":["cp","nocrits","nodmgspread","uncletopia"],"game_id":440,"stv_port":27066,"stv_name":"Uncletopia | London | 6 | All Maps | STV","players":null},{"server_id":40,"name":"Uncletopia | London | 7 | No Payload","name_short":"lon-7","host":"lon-1.uk.uncletopia.com","port":27075,"enabled":true,"region":"eu","cc":"gb","latitude":51.509865,"longitude":-0.118092,"reserved":0,"last_update":"0001-01-01T00:00:00Z","name_a2s":"Uncletopia | London | 7 | No Payload","protocol":17,"map":"cp_snakewater_final1","folder":"tf","game":"Team Fortress","app_id":440,"player_count":23,"max_players":24,"Bots":0,"server_type":"Dedicated","server_os":"Linux","password":true,"vac":true,"version":"7757534","steam_id":85568392924964314,"keywords":["cp","nocrits","nodmgspread","uncletopia"],"game_id":440,"stv_port":27076,"stv_name":"Uncletopia | London | 7 | No Payload | STV","players":[{"user_id":329,"name":"Big Al","steam_id":76561198079585198,"connected_time":1545000000000,"state":"active","ping":56},{"user_id":345,"name":"Setter Ball Gaul","steam_id":76561198130427881,"connected_time":453000000000,"state":"active","ping":165},{"user_id":332,"name":"sydthesock","steam_id":76561199478564380,"connected_time":1296000000000,"state":"active","ping":146},{"user_id":339,"name":"philsonhtc","steam_id":76561198416147770,"connected_time":666000000000,"state":"active","ping":60},{"user_id":323,"name":"mainlegs","steam_id":76561197991305140,"connected_time":2076000000000,"state":"active","ping":56},{"user_id":330,"name":"gabagool","steam_id":76561198307111838,"connected_time":1535000000000,"state":"active","ping":45},{"user_id":318,"name":"Kes","steam_id":76561198095288832,"connected_time":2175000000000,"state":"active","ping":51},{"user_id":319,"name":"johnny dorito","steam_id":76561198148074472,"connected_time":2169000000000,"state":"active","ping":54},{"user_id":313,"name":"worst feeling ever","steam_id":76561198147277460,"connected_time":2216000000000,"state":"active","ping":61},{"user_id":286,"name":"Grumtsior","steam_id":76561198043563111,"connected_time":3162000000000,"state":"active","ping":69},{"user_id":347,"name":"ChPerette","steam_id":76561198060004887,"connected_time":246000000000,"state":"active","ping":45},{"user_id":314,"name":"tm","steam_id":76561198256619964,"connected_time":2214000000000,"state":"active","ping":79},{"user_id":331,"name":"Spliffendor","steam_id":76561198144020209,"connected_time":1506000000000,"state":"active","ping":51},{"user_id":333,"name":"Welder","steam_id":76561198355300561,"connected_time":1098000000000,"state":"active","ping":71},{"user_id":334,"name":"Andrei12264","steam_id":76561199123066659,"connected_time":1074000000000,"state":"active","ping":91},{"user_id":341,"name":"cherry coal","steam_id":76561198822725169,"connected_time":601000000000,"state":"active","ping":58},{"user_id":336,"name":"Proud Jojo Fan #TF2SP","steam_id":76561198847327216,"connected_time":1023000000000,"state":"active","ping":77},{"user_id":298,"name":"‚ú™ m_br3","steam_id":76561198044981990,"connected_time":2774000000000,"state":"active","ping":89},{"user_id":315,"name":"Jam","steam_id":76561198010277932,"connected_time":2209000000000,"state":"active","ping":46},{"user_id":322,"name":"enterkeshi","steam_id":76561199134284873,"connected_time":2148000000000,"state":"active","ping":95},{"user_id":316,"name":"download beck 720p","steam_id":76561198163244605,"connected_time":2206000000000,"state":"active","ping":81},{"user_id":343,"name":"iwns morlo-^","steam_id":76561198249301650,"connected_time":546000000000,"state":"active","ping":45},{"user_id":346,"name":"quickfast","steam_id":76561199438900919,"connected_time":366000000000,"state":"active","ping":43}]},{"server_id":41,"name":"Uncletopia | London | 8 | Community","name_short":"lon-8","host":"lon-1.uk.uncletopia.com","port":27085,"enabled":true,"region":"eu","cc":"gb","latitude":51.509865,"longitude":-0.118092,"reserved":0,"last_update":"0001-01-01T00:00:00Z","name_a2s":"Uncletopia | London | 8 | Community","protocol":17,"map":"workshop/cp_sulfur_rc2.ugc619869471","folder":"tf","game":"Team Fortress","app_id":440,"player_count":21,"max_players":24,"Bots":0,"server_type":"Dedicated","server_os":"Linux","password":true,"vac":true,"version":"7757534","steam_id":85568392924964315,"keywords":["cp","nocrits","nodmgspread","uncletopia"],"game_id":440,"stv_port":27086,"stv_name":"Uncletopia | London | 8 | Community | STV","players":[{"user_id":561,"name":"Yaire","steam_id":76561198017343510,"connected_time":274000000000,"state":"active","ping":61},{"user_id":499,"name":"Uncle Owen","steam_id":76561198157999291,"connected_time":5245000000000,"state":"active","ping":89},{"user_id":508,"name":"Spetse","steam_id":76561197990649972,"connected_time":5019000000000,"state":"active","ping":91},{"user_id":446,"name":"Fran","steam_id":76561199070516960,"connected_time":7890000000000,"state":"active","ping":72},{"user_id":491,"name":"Bob.","steam_id":76561198330093822,"connected_time":5874000000000,"state":"active","ping":86},{"user_id":535,"name":"prophits","steam_id":76561198011854314,"connected_time":3522000000000,"state":"active","ping":75},{"user_id":547,"name":"Gearless","steam_id":76561198362367074,"connected_time":2219000000000,"state":"active","ping":90},{"user_id":553,"name":"Pan W","steam_id":76561198384111099,"connected_time":934000000000,"state":"active","ping":63},{"user_id":562,"name":"Alarmed Felix","steam_id":76561198167208311,"connected_time":271000000000,"state":"active","ping":57},{"user_id":531,"name":"AYE","steam_id":76561198181368101,"connected_time":3637000000000,"state":"active","ping":60},{"user_id":560,"name":"bachphong760","steam_id":76561199433780443,"connected_time":394000000000,"state":"active","ping":145},{"user_id":563,"name":"That_One_Useless_Guy","steam_id":76561199122356477,"connected_time":185000000000,"state":"active","ping":69},{"user_id":551,"name":"Osmo","steam_id":76561199286764992,"connected_time":1189000000000,"state":"active","ping":85},{"user_id":564,"name":"\u003e.\u003c","steam_id":76561199434718013,"connected_time":165000000000,"state":"active","ping":60},{"user_id":548,"name":"DrMaxie","steam_id":76561198117445222,"connected_time":1798000000000,"state":"active","ping":51},{"user_id":565,"name":"Pauler le one","steam_id":76561198398152855,"connected_time":45000000000,"state":"active","ping":101},{"user_id":552,"name":"DWK","steam_id":76561199012300202,"connected_time":1067000000000,"state":"active","ping":90},{"user_id":533,"name":"Step back","steam_id":76561198063855616,"connected_time":3631000000000,"state":"active","ping":76},{"user_id":528,"name":"Tea","steam_id":76561198799243030,"connected_time":3664000000000,"state":"active","ping":58},{"user_id":480,"name":"Farao Ramses II","steam_id":76561198078722712,"connected_time":6488000000000,"state":"active","ping":45},{"user_id":497,"name":"Unfortunate","steam_id":76561198125500777,"connected_time":5442000000000,"state":"active","ping":101}]},{"server_id":300,"name":"Uncletopia | Montr√©al | 1 | All Maps","name_short":"mtl-1","host":"mtl-1.ca.uncletopia.com","port":27015,"enabled":true,"region":"us-east","cc":"ca","latitude":45.50889,"longitude":-73.56167,"reserved":0,"last_update":"0001-01-01T00:00:00Z","name_a2s":"Uncletopia | Montr√©al | 1 | All Maps","protocol":17,"map":"koth_viaduct","folder":"tf","game":"Team Fortress","app_id":440,"player_count":0,"max_players":24,"Bots":0,"server_type":"Dedicated","server_os":"Linux","password":true,"vac":true,"version":"7757534","steam_id":85568392924500087,"keywords":["cp","nocrits","nodmgspread","uncletopia"],"game_id":440,"stv_port":27016,"stv_name":"Uncletopia | Montr√©al | 1 | All Maps | STV","players":null},{"server_id":301,"name":"Uncletopia | Montr√©al | 2 | All Maps","name_short":"mtl-2","host":"mtl-1.ca.uncletopia.com","port":27025,"enabled":true,"region":"us-east","cc":"ca","latitude":45.50889,"longitude":-73.56167,"reserved":0,"last_update":"0001-01-01T00:00:00Z","name_a2s":"Uncletopia | Montr√©al | 2 | All Maps","protocol":17,"map":"pl_snowycoast","folder":"tf","game":"Team Fortress","app_id":440,"player_count":0,"max_players":24,"Bots":0,"server_type":"Dedicated","server_os":"Linux","password":true,"vac":true,"version":"7757534","steam_id":85568392924500088,"keywords":["nocrits","nodmgspread","payload","uncletopia"],"game_id":440,"stv_port":27026,"stv_name":"Uncletopia | Montr√©al | 2 | All Maps | STV","players":null},{"server_id":302,"name":"Uncletopia | Montr√©al | 3 | All Maps","name_short":"mtl-3","host":"mtl-1.ca.uncletopia.com","port":27035,"enabled":true,"region":"us-east","cc":"ca","latitude":45.50889,"longitude":-73.56167,"reserved":0,"last_update":"0001-01-01T00:00:00Z","name_a2s":"Uncletopia | Montr√©al | 3 | All Maps","protocol":17,"map":"pl_swiftwater_final1","folder":"tf","game":"Team Fortress","app_id":440,"player_count":0,"max_players":24,"Bots":0,"server_type":"Dedicated","server_os":"Linux","password":true,"vac":true,"version":"7757534","steam_id":85568392924500089,"keywords":["nocrits","nodmgspread","payload","uncletopia"],"game_id":440,"stv_port":27036,"stv_name":"Uncletopia | Montr√©al | 3 | All Maps | STV","players":null},{"server_id":303,"name":"Uncletopia | Montr√©al | 4 | No Payload","name_short":"mtl-4","host":"mtl-1.ca.uncletopia.com","port":27045,"enabled":true,"region":"us-east","cc":"ca","latitude":45.50889,"longitude":-73.56167,"reserved":0,"last_update":"0001-01-01T00:00:00Z","name_a2s":"Uncletopia | Montr√©al | 4 | No Payload","protocol":17,"map":"pl_pier","folder":"tf","game":"Team Fortress","app_id":440,"player_count":0,"max_players":24,"Bots":0,"server_type":"Dedicated","server_os":"Linux","password":true,"vac":true,"version":"7757534","steam_id":85568392924500090,"keywords":["nocrits","nodmgspread","payload","uncletopia"],"game_id":440,"stv_port":27046,"stv_name":"Uncletopia | Montr√©al | 4 | No Payload | STV","players":null},{"server_id":13,"name":"Uncletopia | New York City | 1 | All Maps","name_short":"nyc-1","host":"nyc-1.us.uncletopia.com","port":27015,"enabled":true,"region":"us-east","cc":"us","latitude":40.73061,"longitude":-73.93524,"reserved":0,"last_update":"0001-01-01T00:00:00Z","name_a2s":"Uncletopia | New York City | 1 | All Maps","protocol":17,"map":"pl_badwater","folder":"tf","game":"Team Fortress","app_id":440,"player_count":24,"max_players":24,"Bots":0,"server_type":"Dedicated","server_os":"Linux","password":true,"vac":true,"version":"7757534","steam_id":85568392924469993,"keywords":["nocrits","nodmgspread","payload","uncletopia"],"game_id":440,"stv_port":27016,"stv_name":"Uncletopia | New York City | 1 | All Maps | STV","players":[{"user_id":5,"name":"SnatchyGoblin69","steam_id":76561199276295259,"connected_time":2489000000000,"state":"active","ping":88},{"user_id":6,"name":"a mass hallucination","steam_id":76561198259092181,"connected_time":2408000000000,"state":"active","ping":66},{"user_id":13,"name":"Unregistered Hypercam 2","steam_id":76561198046895822,"connected_time":1787000000000,"state":"active","ping":64},{"user_id":8,"name":"m-Seq","steam_id":76561198114922735,"connected_time":2133000000000,"state":"active","ping":51},{"user_id":14,"name":"Shuu","steam_id":76561199199180558,"connected_time":1782000000000,"state":"active","ping":61},{"user_id":33,"name":"Mango","steam_id":76561199209533440,"connected_time":930000000000,"state":"active","ping":66},{"user_id":34,"name":"DaMultiversalist","steam_id":76561198239552412,"connected_time":905000000000,"state":"active","ping":84},{"user_id":15,"name":"Deantallica","steam_id":76561198287223999,"connected_time":1749000000000,"state":"active","ping":86},{"user_id":16,"name":"Brutus","steam_id":76561198213163211,"connected_time":1740000000000,"state":"active","ping":71},{"user_id":32,"name":"autumnal.messenger","steam_id":76561199345816635,"connected_time":1010000000000,"state":"active","ping":129},{"user_id":21,"name":"Iron","steam_id":76561198247918478,"connected_time":1355000000000,"state":"active","ping":71},{"user_id":22,"name":"lactose father","steam_id":76561199408853457,"connected_time":1260000000000,"state":"active","ping":160},{"user_id":23,"name":"GatoSeiko","steam_id":76561198001001360,"connected_time":1250000000000,"state":"active","ping":167},{"user_id":24,"name":"Argo","steam_id":76561198353725622,"connected_time":1234000000000,"state":"active","ping":74},{"user_id":25,"name":"Devoid","steam_id":76561198254039012,"connected_time":1189000000000,"state":"active","ping":37},{"user_id":26,"name":"Meh but good","steam_id":76561199005772246,"connected_time":1186000000000,"state":"active","ping":77},{"user_id":27,"name":"watchfull","steam_id":76561198433266742,"connected_time":1176000000000,"state":"active","ping":125},{"user_id":28,"name":"QwilfishFan22","steam_id":76561198078565975,"connected_time":1156000000000,"state":"active","ping":58},{"user_id":29,"name":"Dilly Pickles","steam_id":76561198312068499,"connected_time":1145000000000,"state":"active","ping":67},{"user_id":30,"name":"Lucille_Bluth","steam_id":76561198206133916,"connected_time":1135000000000,"state":"active","ping":72},{"user_id":40,"name":"Alina Rin","steam_id":76561198936412406,"connected_time":242000000000,"state":"active","ping":91},{"user_id":35,"name":"Aurora","steam_id":76561198271981179,"connected_time":899000000000,"state":"active","ping":79},{"user_id":36,"name":"Bot Karma","steam_id":76561198422386331,"connected_time":860000000000,"state":"active","ping":134},{"user_id":39,"name":"TJThomas","steam_id":76561198038292405,"connected_time":682000000000,"state":"active","ping":60}]},{"server_id":14,"name":"Uncletopia | New York City | 2 | All Maps","name_short":"nyc-2","host":"nyc-1.us.uncletopia.com","port":27025,"enabled":true,"region":"us-east","cc":"us","latitude":40.73061,"longitude":-73.93524,"reserved":0,"last_update":"0001-01-01T00:00:00Z","name_a2s":"Uncletopia | New York City | 2 | All Maps","protocol":17,"map":"koth_viaduct","folder":"tf","game":"Team Fortress","app_id":440,"player_count":0,"max_players":24,"Bots":0,"server_type":"Dedicated","server_os":"Linux","password":true,"vac":true,"version":"7757534","steam_id":85568392924469994,"keywords":["cp","nocrits","nodmgspread","uncletopia"],"game_id":440,"stv_port":27026,"stv_name":"Uncletopia | New York City | 2 | All Maps | STV","players":null},{"server_id":15,"name":"Uncletopia | New York City | 3 | Stopwatch Beta","name_short":"nyc-3","host":"nyc-1.us.uncletopia.com","port":27035,"enabled":true,"region":"us-east","cc":"us","latitude":40.73061,"longitude":-73.93524,"reserved":0,"last_update":"0001-01-01T00:00:00Z","name_a2s":"Uncletopia | New York City | 3 | Stopwatch Beta","protocol":17,"map":"pl_upward","folder":"tf","game":"Team Fortress","app_id":440,"player_count":0,"max_players":24,"Bots":0,"server_type":"Dedicated","server_os":"Linux","password":true,"vac":true,"version":"7757534","steam_id":85568392924742820,"keywords":["nocrits","nodmgspread","payload","uncletopia"],"game_id":440,"stv_port":27036,"stv_name":"Uncletopia | New York City | 3 | Stopwatch Beta | STV","players":null},{"server_id":16,"name":"Uncletopia | New York City | 4 | Community","name_short":"nyc-4","host":"nyc-1.us.uncletopia.com","port":27045,"enabled":true,"region":"us-east","cc":"us","latitude":40.73061,"longitude":-73.93524,"reserved":0,"last_update":"0001-01-01T00:00:00Z","name_a2s":"Uncletopia | New York City | 4 | Community","protocol":17,"map":"workshop/koth_synthetic_rc6a.ugc1549817316","folder":"tf","game":"Team Fortress","app_id":440,"player_count":22,"max_players":24,"Bots":0,"server_type":"Dedicated","server_os":"Linux","password":true,"vac":true,"version":"7757534","steam_id":85568392924742821,"keywords":["cp","nocrits","nodmgspread","uncletopia"],"game_id":440,"stv_port":27046,"stv_name":"Uncletopia | New York City | 4 | Community | STV","players":[{"user_id":158,"name":"Maxxycat","steam_id":76561198194062681,"connected_time":83000000000,"state":"active","ping":74},{"user_id":157,"name":"BasicPeaches","steam_id":76561198190890150,"connected_time":109000000000,"state":"active","ping":59},{"user_id":143,"name":"neet","steam_id":76561197968115168,"connected_time":726000000000,"state":"active","ping":45},{"user_id":85,"name":"proon","steam_id":76561198155983535,"connected_time":4735000000000,"state":"active","ping":54},{"user_id":108,"name":"c","steam_id":76561198118319408,"connected_time":3655000000000,"state":"active","ping":75},{"user_id":136,"name":"legalizme223","steam_id":76561198051698391,"connected_time":1334000000000,"state":"active","ping":73},{"user_id":152,"name":"daniel_5000","steam_id":76561199029189825,"connected_time":314000000000,"state":"active","ping":58},{"user_id":154,"name":"An Ian","steam_id":76561198081871396,"connected_time":226000000000,"state":"active","ping":42},{"user_id":62,"name":"üÖúüÖîüÖîüÖöüÖ¢üÖ£üÖî\ufffd\ufffd\ufffd","steam_id":76561197999748343,"connected_time":7092000000000,"state":"active","ping":75},{"user_id":147,"name":"Smiles","steam_id":76561198107197973,"connected_time":644000000000,"state":"active","ping":78},{"user_id":80,"name":"King Sans","steam_id":76561198294198517,"connected_time":5076000000000,"state":"active","ping":46},{"user_id":148,"name":"carrion goat she/it","steam_id":76561198262064871,"connected_time":619000000000,"state":"active","ping":43},{"user_id":84,"name":"Dr. FeelGoose","steam_id":76561198029496191,"connected_time":4827000000000,"state":"active","ping":110},{"user_id":134,"name":"borzier","steam_id":76561198069190432,"connected_time":1394000000000,"state":"active","ping":79},{"user_id":137,"name":"DaVinchi","steam_id":76561198035464165,"connected_time":1307000000000,"state":"active","ping":131},{"user_id":139,"name":"Strange Diplomat","steam_id":76561198428191920,"connected_time":826000000000,"state":"active","ping":47},{"user_id":153,"name":"Bliztank | RGL.gg","steam_id":76561198019252798,"connected_time":309000000000,"state":"active","ping":45},{"user_id":155,"name":"orinkai177","steam_id":76561199191553388,"connected_time":193000000000,"state":"active","ping":102},{"user_id":159,"name":"Monster","steam_id":76561198189429665,"connected_time":82000000000,"state":"active","ping":69},{"user_id":114,"name":"Fermenting Kiwi","steam_id":76561198253303497,"connected_time":3511000000000,"state":"active","ping":88},{"user_id":105,"name":"TechnoNeko22","steam_id":76561198335866466,"connected_time":3797000000000,"state":"active","ping":102},{"user_id":131,"name":"Gary","steam_id":76561198133309753,"connected_time":1723000000000,"state":"active","ping":57}]},{"server_id":142,"name":"Uncletopia | S√£o Paulo | 1 | All Maps","name_short":"sao-1","host":"sao-1.br.uncletopia.com","port":27015,"enabled":true,"region":"sa","cc":"br","latitude":-23.533773,"longitude":-46.62529,"reserved":0,"last_update":"0001-01-01T00:00:00Z","name_a2s":"Uncletopia | S√£o Paulo | 1 | All Maps","protocol":17,"map":"koth_lakeside_final","folder":"tf","game":"Team Fortress","app_id":440,"player_count":0,"max_players":24,"Bots":0,"server_type":"Dedicated","server_os":"Linux","password":true,"vac":true,"version":"7757534","steam_id":85568392924469996,"keywords":["cp","nocrits","nodmgspread","uncletopia"],"game_id":440,"stv_port":27016,"stv_name":"Uncletopia | S√£o Paulo | 1 | All Maps | STV","players":null},{"server_id":143,"name":"Uncletopia | S√£o Paulo | 2 | All Maps","name_short":"sao-2","host":"sao-2.br.uncletopia.com","port":27015,"enabled":true,"region":"sa","cc":"br","latitude":-23.533773,"longitude":-46.62529,"reserved":0,"last_update":"0001-01-01T00:00:00Z","name_a2s":"Uncletopia | S√£o Paulo | 2 | All Maps","protocol":17,"map":"pl_pier","folder":"tf","game":"Team Fortress","app_id":440,"player_count":0,"max_players":24,"Bots":0,"server_type":"Dedicated","server_os":"Linux","password":true,"vac":true,"version":"7757534","steam_id":85568392924485349,"keywords":["nocrits","nodmgspread","payload","uncletopia"],"game_id":440,"stv_port":27016,"stv_name":"Uncletopia | S√£o Paulo | 2 | All Maps | STV","players":null},{"server_id":7,"name":"Uncletopia | Seattle | 1 | All Maps","name_short":"sea-1","host":"sea-1.us.uncletopia.com","port":27015,"enabled":true,"region":"us-west","cc":"us","latitude":47.608013,"longitude":-122.33517,"reserved":0,"last_update":"0001-01-01T00:00:00Z","name_a2s":"Uncletopia | Seattle | 1 | All Maps","protocol":17,"map":"cp_badlands","folder":"tf","game":"Team Fortress","app_id":440,"player_count":24,"max_players":24,"Bots":0,"server_type":"Dedicated","server_os":"Linux","password":true,"vac":true,"version":"7757534","steam_id":85568392924469997,"keywords":["cp","nocrits","nodmgspread","uncletopia"],"game_id":440,"stv_port":27016,"stv_name":"Uncletopia | Seattle | 1 | All Maps | STV","players":[{"user_id":356,"name":"vertice","steam_id":76561199117182718,"connected_time":3497000000000,"state":"spawning","ping":82},{"user_id":374,"name":"NOOT","steam_id":76561199060432770,"connected_time":2344000000000,"state":"spawning","ping":70},{"user_id":375,"name":"R√∂ntgen","steam_id":76561197993492325,"connected_time":2302000000000,"state":"spawning","ping":61},{"user_id":376,"name":"dust | she/it","steam_id":76561198045218909,"connected_time":2195000000000,"state":"spawning","ping":51},{"user_id":316,"name":"Vic„ÉÑ","steam_id":76561198256732090,"connected_time":6360000000000,"state":"spawning","ping":54},{"user_id":335,"name":"ro","steam_id":76561198935253634,"connected_time":4960000000000,"state":"spawning","ping":71},{"user_id":396,"name":"PheebsyDeebsy","steam_id":76561198101509436,"connected_time":1000000000,"state":"spawning","ping":68},{"user_id":392,"name":"Shark Sandwich","steam_id":76561198025007938,"connected_time":621000000000,"state":"spawning","ping":82},{"user_id":354,"name":"Biggie Grug","steam_id":76561198042998887,"connected_time":4161000000000,"state":"spawning","ping":63},{"user_id":325,"name":"Dabidio","steam_id":76561198347107425,"connected_time":5334000000000,"state":"spawning","ping":53},{"user_id":205,"name":"sheep girl \u003c3","steam_id":76561198068189558,"connected_time":10435000000000,"state":"spawning","ping":68},{"user_id":337,"name":"AUSTRALIUM GIBUS","steam_id":76561198111890714,"connected_time":4899000000000,"state":"spawning","ping":78},{"user_id":387,"name":"AmiableNebula","steam_id":76561198094306627,"connected_time":1187000000000,"state":"spawning","ping":83},{"user_id":384,"name":"Icy","steam_id":76561198125015366,"connected_time":1957000000000,"state":"spawning","ping":95},{"user_id":394,"name":"D34dR4bbit","steam_id":76561198167411455,"connected_time":224000000000,"state":"spawning","ping":34},{"user_id":385,"name":"Narsie's greatest Quarterback","steam_id":76561198834571611,"connected_time":1264000000000,"state":"spawning","ping":57},{"user_id":322,"name":"Mr8bittripper","steam_id":76561198133894229,"connected_time":5693000000000,"state":"spawning","ping":39},{"user_id":388,"name":"Confirmed Bachelor","steam_id":76561198441041496,"connected_time":1042000000000,"state":"spawning","ping":61},{"user_id":378,"name":"SIGMA GRINDSET","steam_id":76561198310993000,"connected_time":2151000000000,"state":"spawning","ping":75},{"user_id":382,"name":"Dispenser","steam_id":76561198070154445,"connected_time":2044000000000,"state":"spawning","ping":107},{"user_id":368,"name":"joe rippa","steam_id":76561198170402666,"connected_time":2523000000000,"state":"spawning","ping":69},{"user_id":380,"name":"shy guy","steam_id":76561198151246059,"connected_time":2117000000000,"state":"spawning","ping":63},{"user_id":386,"name":"Drew","steam_id":76561198058893405,"connected_time":1224000000000,"state":"spawning","ping":78},{"user_id":391,"name":"slleeeep's","steam_id":76561199029954324,"connected_time":769000000000,"state":"spawning","ping":78}]},{"server_id":119,"name":"Uncletopia | Seattle | 2 | All Maps","name_short":"sea-2","host":"sea-1.us.uncletopia.com","port":27025,"enabled":true,"region":"us-west","cc":"us","latitude":47.608013,"longitude":-122.33517,"reserved":0,"last_update":"0001-01-01T00:00:00Z","name_a2s":"Uncletopia | Seattle | 2 | All Maps","protocol":17,"map":"cp_gorge","folder":"tf","game":"Team Fortress","app_id":440,"player_count":24,"max_players":24,"Bots":0,"server_type":"Dedicated","server_os":"Linux","password":true,"vac":true,"version":"7757534","steam_id":85568392924469998,"keywords":["cp","nocrits","nodmgspread","uncletopia"],"game_id":440,"stv_port":27026,"stv_name":"Uncletopia | Seattle | 2 | All Maps | STV","players":[{"user_id":250,"name":"motherfucker 2.0","steam_id":76561198141189209,"connected_time":5570000000000,"state":"active","ping":90},{"user_id":246,"name":"Lesbian Futa Mommy","steam_id":76561198130479030,"connected_time":6272000000000,"state":"active","ping":56},{"user_id":313,"name":"AntiAnimus","steam_id":76561198039074432,"connected_time":1494000000000,"state":"active","ping":146},{"user_id":315,"name":"internet","steam_id":76561197975080641,"connected_time":743000000000,"state":"active","ping":64},{"user_id":329,"name":"John Smith","steam_id":76561198185776555,"connected_time":12000000000,"state":"spawning","ping":36},{"user_id":330,"name":"breakfast critic","steam_id":76561199216973269,"connected_time":12000000000,"state":"active","ping":74},{"user_id":323,"name":"Slondermin","steam_id":76561198320301349,"connected_time":486000000000,"state":"active","ping":129},{"user_id":296,"name":"coolfalcon168","steam_id":76561198948665710,"connected_time":2297000000000,"state":"active","ping":126},{"user_id":316,"name":"Ex-PFC Wintergreen","steam_id":76561198203851303,"connected_time":739000000000,"state":"active","ping":73},{"user_id":285,"name":"raison d'√™tre","steam_id":76561198212421513,"connected_time":3737000000000,"state":"active","ping":75},{"user_id":317,"name":"paChewychomp","steam_id":76561198068738250,"connected_time":735000000000,"state":"active","ping":69},{"user_id":318,"name":"Cardboardcoin","steam_id":76561199421284163,"connected_time":728000000000,"state":"active","ping":59},{"user_id":314,"name":"gloobern","steam_id":76561198341190679,"connected_time":777000000000,"state":"active","ping":66},{"user_id":327,"name":"Crystal","steam_id":76561198167018159,"connected_time":169000000000,"state":"active","ping":105},{"user_id":311,"name":"korkskrou","steam_id":76561198422156430,"connected_time":1663000000000,"state":"active","ping":45},{"user_id":299,"name":"Trash Man","steam_id":76561198870155636,"connected_time":2235000000000,"state":"active","ping":85},{"user_id":320,"name":"TFBot(2)","steam_id":76561198061284371,"connected_time":611000000000,"state":"active","ping":93},{"user_id":294,"name":"ICESPROCKET","steam_id":76561198320452169,"connected_time":2632000000000,"state":"active","ping":92},{"user_id":321,"name":"TFBot(1)","steam_id":76561198105538929,"connected_time":604000000000,"state":"active","ping":104},{"user_id":331,"name":"Bread Head","steam_id":76561198157443679,"connected_time":9000000000,"state":"spawning","ping":104},{"user_id":322,"name":"Super Kami Guru","steam_id":76561198322956099,"connected_time":591000000000,"state":"active","ping":84},{"user_id":189,"name":"Wacks","steam_id":76561198079476100,"connected_time":10901000000000,"state":"active","ping":73},{"user_id":288,"name":"The Pepsi¬Æ Superbowl¬Æ!","steam_id":76561198080828981,"connected_time":3488000000000,"state":"active","ping":72},{"user_id":310,"name":"nathanxbox2","steam_id":76561198046874088,"connected_time":1709000000000,"state":"active","ping":81}]},{"server_id":406,"name":"Uncletopia | Seattle | 3 | Stopwatch Beta","name_short":"sea-3","host":"sea-1.us.uncletopia.com","port":27035,"enabled":true,"region":"us-west","cc":"us","latitude":47.608013,"longitude":-122.33517,"reserved":0,"last_update":"0001-01-01T00:00:00Z","name_a2s":"Uncletopia | Seattle | 3 | Stopwatch Beta","protocol":17,"map":"cp_dustbowl","folder":"tf","game":"Team Fortress","app_id":440,"player_count":0,"max_players":24,"Bots":0,"server_type":"Dedicated","server_os":"Linux","password":true,"vac":true,"version":"7757534","steam_id":85568392924515217,"keywords":["cp","nocrits","nodmgspread","uncletopia"],"game_id":440,"stv_port":27036,"stv_name":"Uncletopia | Seattle | 3 | Stopwatch Beta | STV","players":null},{"server_id":17,"name":"Uncletopia | San Francisco | 1 | All Maps","name_short":"sfo-1","host":"sfo-1.us.uncletopia.com","port":27015,"enabled":true,"region":"us-west","cc":"us","latitude":37.77397,"longitude":-122.4313,"reserved":0,"last_update":"0001-01-01T00:00:00Z","name_a2s":"Uncletopia | San Francisco | 1 | All Maps","protocol":17,"map":"cp_process_final","folder":"tf","game":"Team Fortress","app_id":440,"player_count":0,"max_players":24,"Bots":0,"server_type":"Dedicated","server_os":"Linux","password":true,"vac":true,"version":"7757534","steam_id":85568392924469999,"keywords":["cp","nocrits","nodmgspread","uncletopia"],"game_id":440,"stv_port":27016,"stv_name":"Uncletopia | San Francisco | 1 | All Maps | STV","players":null},{"server_id":18,"name":"Uncletopia | San Francisco | 2 | All Maps","name_short":"sfo-2","host":"sfo-1.us.uncletopia.com","port":27025,"enabled":true,"region":"us-west","cc":"us","latitude":37.77397,"longitude":-122.4313,"reserved":0,"last_update":"0001-01-01T00:00:00Z","name_a2s":"Uncletopia | San Francisco | 2 | All Maps","protocol":17,"map":"koth_highpass","folder":"tf","game":"Team Fortress","app_id":440,"player_count":0,"max_players":24,"Bots":0,"server_type":"Dedicated","server_os":"Linux","password":true,"vac":true,"version":"7757534","steam_id":85568392924470000,"keywords":["cp","nocrits","nodmgspread","uncletopia"],"game_id":440,"stv_port":27026,"stv_name":"Uncletopia | San Francisco | 2 | All Maps | STV","players":null},{"server_id":19,"name":"Uncletopia | San Francisco | 3 | Stopwatch Beta","name_short":"sfo-3","host":"sfo-1.us.uncletopia.com","port":27035,"enabled":true,"region":"us-west","cc":"us","latitude":37.77397,"longitude":-122.4313,"reserved":0,"last_update":"0001-01-01T00:00:00Z","name_a2s":"Uncletopia | San Francisco | 3 | Stopwatch Beta","protocol":17,"map":"koth_highpass","folder":"tf","game":"Team Fortress","app_id":440,"player_count":0,"max_players":24,"Bots":0,"server_type":"Dedicated","server_os":"Linux","password":true,"vac":true,"version":"7757534","steam_id":85568392924742824,"keywords":["cp","nocrits","nodmgspread","uncletopia"],"game_id":440,"stv_port":27036,"stv_name":"Uncletopia | San Francisco | 3 | Stopwatch Beta | STV","players":null},{"server_id":20,"name":"Uncletopia | San Francisco | 4 | Community","name_short":"sfo-4","host":"sfo-1.us.uncletopia.com","port":27045,"enabled":true,"region":"us-west","cc":"us","latitude":37.77397,"longitude":-122.4313,"reserved":0,"last_update":"0001-01-01T00:00:00Z","name_a2s":"Uncletopia | San Francisco | 4 | Community","protocol":17,"map":"cp_altitude","folder":"tf","game":"Team Fortress","app_id":440,"player_count":0,"max_players":24,"Bots":0,"server_type":"Dedicated","server_os":"Linux","password":true,"vac":true,"version":"7757534","steam_id":85568392924742826,"keywords":["cp","nocrits","nodmgspread","uncletopia"],"game_id":440,"stv_port":27046,"stv_name":"Uncletopia | San Francisco | 4 | Community | STV","players":null},{"server_id":141,"name":"Uncletopia | Sydney | 1 | All Maps","name_short":"syd-1","host":"syd-1.au.uncletopia.com","port":27015,"enabled":true,"region":"au","cc":"au","latitude":-33.865143,"longitude":151.2099,"reserved":0,"last_update":"0001-01-01T00:00:00Z","name_a2s":"Uncletopia | Sydney | 1 | All Maps","protocol":17,"map":"koth_viaduct","folder":"tf","game":"Team Fortress","app_id":440,"player_count":0,"max_players":24,"Bots":0,"server_type":"Dedicated","server_os":"Linux","password":true,"vac":true,"version":"7757534","steam_id":85568392924470001,"keywords":["cp","nocrits","nodmgspread","uncletopia"],"game_id":440,"stv_port":27016,"stv_name":"Uncletopia | Sydney | 1 | All Maps | STV","players":null},{"server_id":123,"name":"Uncletopia | Sydney | 2 | All Maps","name_short":"syd-2","host":"syd-1.au.uncletopia.com","port":27025,"enabled":true,"region":"au","cc":"au","latitude":-33.865143,"longitude":151.2099,"reserved":0,"last_update":"0001-01-01T00:00:00Z","name_a2s":"Uncletopia | Sydney | 2 | All Maps","protocol":17,"map":"cp_process_final","folder":"tf","game":"Team Fortress","app_id":440,"player_count":0,"max_players":24,"Bots":0,"server_type":"Dedicated","server_os":"Linux","password":true,"vac":true,"version":"7757534","steam_id":85568392924470002,"keywords":["cp","nocrits","nodmgspread","uncletopia"],"game_id":440,"stv_port":27026,"stv_name":"Uncletopia | Sydney | 2 | All Maps | STV","players":null},{"server_id":395,"name":"Uncletopia | Sydney | 3 | All Maps","name_short":"syd-3","host":"syd-1.au.uncletopia.com","port":27035,"enabled":true,"region":"au","cc":"au","latitude":-33.865143,"longitude":151.2099,"reserved":0,"last_update":"0001-01-01T00:00:00Z","name_a2s":"Uncletopia | Sydney | 3 | All Maps","protocol":17,"map":"pl_swiftwater_final1","folder":"tf","game":"Team Fortress","app_id":440,"player_count":0,"max_players":24,"Bots":0,"server_type":"Dedicated","server_os":"Linux","password":true,"vac":true,"version":"7757534","steam_id":85568392925194467,"keywords":["nocrits","nodmgspread","payload","uncletopia"],"game_id":440,"stv_port":27036,"stv_name":"Uncletopia | Sydney | 3 | All Maps | STV","players":null},{"server_id":396,"name":"Uncletopia | Sydney | 4 | All Maps","name_short":"syd-4","host":"syd-1.au.uncletopia.com","port":27045,"enabled":true,"region":"au","cc":"au","latitude":-33.865143,"longitude":151.2099,"reserved":0,"last_update":"0001-01-01T00:00:00Z","name_a2s":"Uncletopia | Sydney | 4 | All Maps","protocol":17,"map":"koth_highpass","folder":"tf","game":"Team Fortress","app_id":440,"player_count":0,"max_players":24,"Bots":0,"server_type":"Dedicated","server_os":"Linux","password":true,"vac":true,"version":"7757534","steam_id":85568392925397958,"keywords":["cp","nocrits","nodmgspread","uncletopia"],"game_id":440,"stv_port":27046,"stv_name":"Uncletopia | Sydney | 4 | All Maps | STV","players":null},{"server_id":58,"name":"Uncletopia | Sydney | 5 | Stopwatch Beta","name_short":"syd-5","host":"syd-1.au.uncletopia.com","port":27055,"enabled":true,"region":"au","cc":"au","latitude":-33.865143,"longitude":151.2099,"reserved":0,"last_update":"0001-01-01T00:00:00Z","name_a2s":"Uncletopia | Sydney | 5 | Stopwatch Beta","protocol":17,"map":"koth_cascade","folder":"tf","game":"Team Fortress","app_id":440,"player_count":0,"max_players":24,"Bots":0,"server_type":"Dedicated","server_os":"Linux","password":true,"vac":true,"version":"7757534","steam_id":85568392925397959,"keywords":["cp","nocrits","nodmgspread","uncletopia"],"game_id":440,"stv_port":27056,"stv_name":"Uncletopia | Sydney | 5 | Stopwatch Beta | STV","players":null},{"server_id":59,"name":"Uncletopia | Sydney | 6 | Community","name_short":"syd-6","host":"syd-1.au.uncletopia.com","port":27065,"enabled":true,"region":"au","cc":"au","latitude":-33.865143,"longitude":151.2099,"reserved":0,"last_update":"0001-01-01T00:00:00Z","name_a2s":"Uncletopia | Sydney | 6 | Community","protocol":17,"map":"cp_snakewater_final1","folder":"tf","game":"Team Fortress","app_id":440,"player_count":0,"max_players":24,"Bots":0,"server_type":"Dedicated","server_os":"Linux","password":true,"vac":true,"version":"7757534","steam_id":85568392925397960,"keywords":["cp","nocrits","nodmgspread","uncletopia"],"game_id":440,"stv_port":27066,"stv_name":"Uncletopia | Sydney | 6 | Community | STV","players":null},{"server_id":49,"name":"Uncletopia | Warsaw | 1 | All Maps","name_short":"waw-1","host":"waw-1.pl.uncletopia.com","port":27015,"enabled":true,"region":"eu","cc":"pl","latitude":52.2297,"longitude":21.017532,"reserved":0,"last_update":"0001-01-01T00:00:00Z","name_a2s":"","protocol":0,"map":"","folder":"","game":"","app_id":0,"player_count":0,"max_players":0,"Bots":0,"server_type":"","server_os":"","password":false,"vac":false,"version":"","steam_id":0,"keywords":null,"game_id":0,"stv_port":0,"stv_name":"","players":null},{"server_id":50,"name":"Uncletopia | Warsaw | 2 | All Maps","name_short":"waw-2","host":"waw-1.pl.uncletopia.com","port":27025,"enabled":true,"region":"eu","cc":"pl","latitude":52.2297,"longitude":21.017532,"reserved":0,"last_update":"0001-01-01T00:00:00Z","name_a2s":"Uncletopia | Warsaw | 2 | All Maps","protocol":17,"map":"koth_viaduct","folder":"tf","game":"Team Fortress","app_id":440,"player_count":0,"max_players":24,"Bots":0,"server_type":"Dedicated","server_os":"Linux","password":true,"vac":true,"version":"7757534","steam_id":85568392925397851,"keywords":["cp","nocrits","nodmgspread","uncletopia"],"game_id":440,"stv_port":27026,"stv_name":"Uncletopia | Warsaw | 2 | All Maps | STV","players":null},{"server_id":51,"name":"Uncletopia | Warsaw | 3 | All Maps","name_short":"waw-3","host":"waw-1.pl.uncletopia.com","port":27035,"enabled":true,"region":"eu","cc":"pl","latitude":52.2297,"longitude":21.017532,"reserved":0,"last_update":"0001-01-01T00:00:00Z","name_a2s":"Uncletopia | Warsaw | 3 | All Maps","protocol":17,"map":"pl_frontier_final","folder":"tf","game":"Team Fortress","app_id":440,"player_count":0,"max_players":24,"Bots":0,"server_type":"Dedicated","server_os":"Linux","password":true,"vac":true,"version":"7757534","steam_id":85568392925397852,"keywords":["nocrits","nodmgspread","payload","uncletopia"],"game_id":440,"stv_port":27036,"stv_name":"Uncletopia | Warsaw | 3 | All Maps | STV","players":null},{"server_id":52,"name":"Uncletopia | Warsaw | 4 | All Maps","name_short":"waw-4","host":"waw-1.pl.uncletopia.com","port":27045,"enabled":true,"region":"eu","cc":"pl","latitude":52.2297,"longitude":21.017532,"reserved":0,"last_update":"0001-01-01T00:00:00Z","name_a2s":"Uncletopia | Warsaw | 4 | All Maps","protocol":17,"map":"cp_snakewater_final1","folder":"tf","game":"Team Fortress","app_id":440,"player_count":0,"max_players":24,"Bots":0,"server_type":"Dedicated","server_os":"Linux","password":true,"vac":true,"version":"7757534","steam_id":85568392925397853,"keywords":["cp","nocrits","nodmgspread","uncletopia"],"game_id":440,"stv_port":27046,"stv_name":"Uncletopia | Warsaw | 4 | All Maps | STV","players":null},{"server_id":53,"name":"Uncletopia | Warsaw | 5 | Stopwatch Beta","name_short":"waw-5","host":"waw-1.pl.uncletopia.com","port":27055,"enabled":true,"region":"eu","cc":"pl","latitude":52.2297,"longitude":21.017532,"reserved":0,"last_update":"0001-01-01T00:00:00Z","name_a2s":"Uncletopia | Warsaw | 5 | Stopwatch Beta","protocol":17,"map":"workshop/pl_vigil_rc9.ugc1266210012","folder":"tf","game":"Team Fortress","app_id":440,"player_count":0,"max_players":24,"Bots":0,"server_type":"Dedicated","server_os":"Linux","password":true,"vac":true,"version":"7757534","steam_id":85568392925397854,"keywords":["nocrits","nodmgspread","payload","uncletopia"],"game_id":440,"stv_port":27056,"stv_name":"Uncletopia | Warsaw | 5 | Stopwatch Beta | STV","players":null},{"server_id":54,"name":"Uncletopia | Warsaw | 6 | Community","name_short":"waw-6","host":"waw-1.pl.uncletopia.com","port":27065,"enabled":true,"region":"eu","cc":"pl","latitude":52.2297,"longitude":21.017532,"reserved":0,"last_update":"0001-01-01T00:00:00Z","name_a2s":"Uncletopia | Warsaw | 6 | Community","protocol":17,"map":"koth_lakeside_final","folder":"tf","game":"Team Fortress","app_id":440,"player_count":0,"max_players":24,"Bots":0,"server_type":"Dedicated","server_os":"Linux","password":true,"vac":true,"version":"7757534","steam_id":85568392925397856,"keywords":["cp","nocrits","nodmgspread","uncletopia"],"game_id":440,"stv_port":27066,"stv_name":"Uncletopia | Warsaw | 6 | Community | STV","players":null}]}