{"status":true,"message":"","result":[{"server_id":9,"name":"Uncletopia | Atlanta | 1 | All Maps","name_short":"atl-1","host":"atl-1.us.uncletopia.com","port":27015,"enabled":true,"region":"us-east","cc":"us","latitude":33.753746,"longitude":-84.38633,"reserved":0,"last_update":"0001-01-01T00:00:00Z","name_a2s":"Uncletopia | Atlanta | 1 | All Maps","protocol":17,"map":"koth_highpass","folder":"tf","game":"Team Fortress","app_id":440,"player_count":0,"max_players":24,"Bots":0,"server_type":"Dedicated","server_os":"Linux","password":true,"vac":true,"version":"7932396","steam_id":85568392924469982,"keywords":["cp","nocrits","nodmgspread","uncletopia"],"game_id":440,"stv_port":27016,"stv_name":"Uncletopia | Atlanta | 1 | All Maps | STV","players":null},{"server_id":104,"name":"Uncletopia | Atlanta | 2 | All Maps","name_short":"atl-2","host":"atl-1.us.uncletopia.com","port":27025,"enabled":true,"region":"us-east","cc":"us","latitude":33.753746,"longitude":-84.38633,"reserved":0,"last_update":"0001-01-01T00:00:00Z","name_a2s":"Uncletopia | Atlanta | 2 | All Maps","protocol":17,"map":"cp_dustbowl","folder":"tf","game":"Team Fortress","app_id":440,"player_count":0,"max_players":24,"Bots":0,"server_type":"Dedicated","server_os":"Linux","password":true,"vac":true,"version":"7932396","steam_id":85568392924469983,"keywords":["cp","nocrits","nodmgspread","uncletopia"],"game_id":440,"stv_port":27026,"stv_name":"Uncletopia | Atlanta | 2 | All Maps | STV","players":null},{"server_id":400,"name":"Uncletopia | Atlanta | 3 | Community","name_short":"atl-3","host":"atl-1.us.uncletopia.com","port":27035,"enabled":true,"region":"us-east","cc":"us","latitude":33.753746,"longitude":-84.38633,"reserved":0,"last_update":"0001-01-01T00:00:00Z","name_a2s":"Uncletopia | Atlanta | 3 | Community","protocol":17,"map":"workshop/koth_kemptown_rc1.ugc767410655","folder":"tf","game":"Team Fortress","app_id":440,"player_count":0,"max_players":24,"Bots":0,"server_type":"Dedicated","server_os":"Linux","password":true,"vac":true,"version":"7932396","steam_id":85568392924515187,"keywords":["cp","nocrits","nodmgspread","uncletopia"],"game_id":440,"stv_port":27036,"stv_name":"Uncletopia | Atlanta | 3 | Community | STV","players":null},{"server_id":401,"name":"Uncletopia | Atlanta | 4 | No Payload","name_short":"atl-4","host":"atl-1.us.uncletopia.com","port":27045,"enabled":true,"region":"us-east","cc":"us","latitude":33.753746,"longitude":-84.38633,"reserved":0,"last_update":"0001-01-01T00:00:00Z","name_a2s":"","protocol":0,"map":"","folder":"","game":"","app_id":0,"player_count":0,"max_players":0,"Bots":0,"server_type":"","server_os":"","password":false,"vac":false,"version":"","steam_id":0,"keywords":null,"game_id":0,"stv_port":0,"stv_name":"","players":null},{"server_id":2,"name":"Uncletopia | Chicago | 1 | All Maps","name_short":"chi-1","host":"chi-1.us.uncletopia.com","port":27015,"enabled":true,"region":"us-central","cc":"us","latitude":41.881832,"longitude":-87.62318,"reserved":0,"last_update":"0001-01-01T00:00:00Z","name_a2s":"Uncletopia | Chicago | 1 | All Maps","protocol":17,"map":"pl_upward","folder":"tf","game":"Team Fortress","app_id":440,"player_count":0,"max_players":24,"Bots":0,"server_type":"Dedicated","server_os":"Linux","password":true,"vac":true,"version":"7932396","steam_id":85568392924469984,"keywords":["nocrits","nodmgspread","payload","uncletopia"],"game_id":440,"stv_port":27016,"stv_name":"Uncletopia | Chicago | 1 | All Maps | STV","players":null},{"server_id":106,"name":"Uncletopia | Chicago | 2 | All Maps","name_short":"chi-2","host":"chi-1.us.uncletopia.com","port":27025,"enabled":true,"region":"us-central","cc":"us","latitude":41.881832,"longitude":-87.62318,"reserved":0,"last_update":"0001-01-01T00:00:00Z","name_a2s":"Uncletopia | Chicago | 2 | All Maps","protocol":17,"map":"pl_frontier_final","folder":"tf","game":"Team Fortress","app_id":440,"player_count":24,"max_players":24,"Bots":0,"server_type":"Dedicated","server_os":"Linux","password":true,"vac":true,"version":"7932396","steam_id":85568392924469985,"keywords":["nocrits","nodmgspread","payload","uncletopia"],"game_id":440,"stv_port":27026,"stv_name":"Uncletopia | Chicago | 2 | All Maps | STV","players":[{"user_id":867,"name":"Boneclub SalesmanYT","steam_id":76561198097765601,"connected_time":1530000000000,"state":"active","ping":64},{"user_id":769,"name":"BigDeac","steam_id":76561198091237274,"connected_time":7731000000000,"state":"active","ping":64},{"user_id":874,"name":"mae","steam_id":76561199263128928,"connected_time":631000000000,"state":"active","ping":100},{"user_id":878,"name":"BuncusBeffer","steam_id":76561198285936616,"connected_time":233000000000,"state":"active","ping":103},{"user_id":875,"name":"FruitsBasket","steam_id":76561199483951635,"connected_time":438000000000,"state":"active","ping":102},{"user_id":845,"name":"Fairy Wings","steam_id":76561198051009555,"connected_time":2504000000000,"state":"active","ping":97},{"user_id":859,"name":"MR. BEEEEEEEEEEEEEAAAAAAAAAAST","steam_id":76561198205346760,"connected_time":1819000000000,"state":"active","ping":44},{"user_id":877,"name":"line","steam_id":76561198086222096,"connected_time":328000000000,"state":"active","ping":54},{"user_id":822,"name":"Ludcmorais","steam_id":76561198359217809,"connected_time":4104000000000,"state":"active","ping":185},{"user_id":872,"name":"saint martin","steam_id":76561198173047169,"connected_time":825000000000,"state":"active","ping":60},{"user_id":870,"name":"Nolan","steam_id":76561198169648081,"connected_time":879000000000,"state":"active","ping":78},{"user_id":820,"name":"Steve (from Minecraft)","steam_id":76561198232026076,"connected_time":4168000000000,"state":"active","ping":55},{"user_id":869,"name":"Drapph","steam_id":76561199384213314,"connected_time":1336000000000,"state":"active","ping":78},{"user_id":813,"name":"carne asada","steam_id":76561198108398751,"connected_time":4372000000000,"state":"active","ping":67},{"user_id":849,"name":"Crowlamari","steam_id":76561198005978817,"connected_time":2191000000000,"state":"active","ping":75},{"user_id":879,"name":"TechnoBear2099","steam_id":76561198238863596,"connected_time":213000000000,"state":"active","ping":72},{"user_id":833,"name":"aleksei","steam_id":76561199061380038,"connected_time":3403000000000,"state":"active","ping":74},{"user_id":873,"name":"Papillon","steam_id":76561198049725849,"connected_time":767000000000,"state":"active","ping":74},{"user_id":847,"name":"Floaty","steam_id":76561198066487242,"connected_time":2355000000000,"state":"active","ping":56},{"user_id":881,"name":"Bali","steam_id":76561198038693845,"connected_time":37000000000,"state":"active","ping":82},{"user_id":846,"name":"n00dle","steam_id":76561198120798040,"connected_time":2454000000000,"state":"active","ping":86},{"user_id":768,"name":"noah","steam_id":76561198173310157,"connected_time":7737000000000,"state":"active","ping":53},{"user_id":844,"name":"sweaterfan","steam_id":76561199389567214,"connected_time":2786000000000,"state":"active","ping":68},{"user_id":850,"name":"Dot.","steam_id":76561198149463984,"connected_time":2161000000000,"state":"active","ping":45}]},{"server_id":402,"name":"Uncletopia | Chicago | 3 | All Maps","name_short":"chi-3","host":"chi-1.us.uncletopia.com","port":27035,"enabled":true,"region":"us-central","cc":"us","latitude":41.881832,"longitude":-87.62318,"reserved":0,"last_update":"0001-01-01T00:00:00Z","name_a2s":"Uncletopia | Chicago | 3 | All Maps","protocol":17,"map":"pl_barnblitz","folder":"tf","game":"Team Fortress","app_id":440,"player_count":23,"max_players":24,"Bots":0,"server_type":"Dedicated","server_os":"Linux","password":true,"vac":true,"version":"7932396","steam_id":85568392924515191,"keywords":["nocrits","nodmgspread","payload","uncletopia"],"game_id":440,"stv_port":27036,"stv_name":"Uncletopia | Chicago | 3 | All Maps | STV","players":[{"user_id":602,"name":"Loves2Doc","steam_id":76561198027035375,"connected_time":1676000000000,"state":"active","ping":96},{"user_id":563,"name":"Juanseparra564","steam_id":76561198176662903,"connected_time":4347000000000,"state":"active","ping":116},{"user_id":603,"name":"mazekiller22","steam_id":76561198310371516,"connected_time":1634000000000,"state":"active","ping":93},{"user_id":614,"name":"pirate pete","steam_id":76561198151048590,"connected_time":970000000000,"state":"active","ping":58},{"user_id":583,"name":"put my hand in the cashregister","steam_id":76561198062991744,"connected_time":3551000000000,"state":"active","ping":62},{"user_id":562,"name":"Dr. Blair Chao","steam_id":76561198146027518,"connected_time":4365000000000,"state":"active","ping":66},{"user_id":604,"name":"Xyverle","steam_id":76561198799726415,"connected_time":1577000000000,"state":"active","ping":57},{"user_id":605,"name":"Boomboombop","steam_id":76561198267531538,"connected_time":1484000000000,"state":"active","ping":91},{"user_id":595,"name":"JoJoJo","steam_id":76561198067153390,"connected_time":2681000000000,"state":"active","ping":52},{"user_id":586,"name":"viagra addict","steam_id":76561198017705248,"connected_time":3435000000000,"state":"active","ping":45},{"user_id":566,"name":"Female Gamer","steam_id":76561199366482682,"connected_time":4320000000000,"state":"active","ping":104},{"user_id":558,"name":"Whip_the_Rabbit","steam_id":76561198049896057,"connected_time":4627000000000,"state":"active","ping":111},{"user_id":607,"name":"car","steam_id":76561198999217575,"connected_time":1366000000000,"state":"active","ping":61},{"user_id":611,"name":"ice","steam_id":76561197994528974,"connected_time":1148000000000,"state":"active","ping":124},{"user_id":615,"name":"Mizz Genesis (SZ25)","steam_id":76561198388175532,"connected_time":944000000000,"state":"active","ping":85},{"user_id":621,"name":"basmati jarate","steam_id":76561198319442494,"connected_time":156000000000,"state":"active","ping":113},{"user_id":609,"name":"desnough","steam_id":76561198259938650,"connected_time":1327000000000,"state":"active","ping":69},{"user_id":616,"name":"Moffein","steam_id":76561198016739296,"connected_time":831000000000,"state":"active","ping":86},{"user_id":618,"name":"pop7585","steam_id":76561198149021193,"connected_time":483000000000,"state":"active","ping":74},{"user_id":619,"name":"Majestic-A","steam_id":76561198988062101,"connected_time":422000000000,"state":"active","ping":91},{"user_id":588,"name":"dunk","steam_id":76561198132476501,"connected_time":3357000000000,"state":"active","ping":47},{"user_id":599,"name":"Walrusto","steam_id":76561198829644616,"connected_time":2425000000000,"state":"active","ping":77},{"user_id":589,"name":"Phyzisist","steam_id":76561197983915993,"connected_time":3352000000000,"state":"active","ping":77}]},{"server_id":403,"name":"Uncletopia | Chicago | 4 | All Maps","name_short":"chi-4","host":"chi-1.us.uncletopia.com","port":27045,"enabled":true,"region":"us-central","cc":"us","latitude":41.881832,"longitude":-87.62318,"reserved":0,"last_update":"0001-01-01T00:00:00Z","name_a2s":"Uncletopia | Chicago | 4 | All Maps","protocol":17,"map":"cp_altitude","folder":"tf","game":"Team Fortress","app_id":440,"player_count":2,"max_players":24,"Bots":0,"server_type":"Dedicated","server_os":"Linux","password":true,"vac":true,"version":"7932396","steam_id":85568392924515193,"keywords":["cp","nocrits","nodmgspread","uncletopia"],"game_id":440,"stv_port":27046,"stv_name":"Uncletopia | Chicago | 4 | All Maps | STV","players":[{"user_id":697,"name":"Bunger Gameing","steam_id":76561199122786491,"connected_time":1611000000000,"state":"active","ping":65},{"user_id":688,"name":"Picklefrits","steam_id":76561198067070390,"connected_time":2297000000000,"state":"active","ping":100}]},{"server_id":36,"name":"Uncletopia | Chicago | 5 | All Maps","name_short":"chi-5","host":"chi-2.us.uncletopia.com","port":27015,"enabled":true,"region":"us-central","cc":"us","latitude":41.881832,"longitude":-87.62318,"reserved":0,"last_update":"0001-01-01T00:00:00Z","name_a2s":"Uncletopia | Chicago | 5 | All Maps","protocol":17,"map":"cp_dustbowl","folder":"tf","game":"Team Fortress","app_id":440,"player_count":2,"max_players":24,"Bots":0,"server_type":"Dedicated","server_os":"Linux","password":true,"vac":true,"version":"7932396","steam_id":85568392924866362,"keywords":["cp","nocrits","nodmgspread","uncletopia"],"game_id":440,"stv_port":27016,"stv_name":"Uncletopia | Chicago | 5 | All Maps | STV","players":[{"user_id":306,"name":"tf2pyro","steam_id":76561198388184353,"connected_time":8911000000000,"state":"active","ping":80},{"user_id":303,"name":"Zollap","steam_id":76561198056269568,"connected_time":9346000000000,"state":"active","ping":98}]},{"server_id":37,"name":"Uncletopia | Chicago | 6 | All Maps","name_short":"chi-6","host":"chi-2.us.uncletopia.com","port":27025,"enabled":true,"region":"us-central","cc":"us","latitude":41.881832,"longitude":-87.62318,"reserved":0,"last_update":"0001-01-01T00:00:00Z","name_a2s":"Uncletopia | Chicago | 6 | All Maps","protocol":17,"map":"koth_highpass","folder":"tf","game":"Team Fortress","app_id":440,"player_count":0,"max_players":24,"Bots":0,"server_type":"Dedicated","server_os":"Linux","password":true,"vac":true,"version":"7932396","steam_id":85568392924866363,"keywords":["cp","nocrits","nodmgspread","uncletopia"],"game_id":440,"stv_port":27026,"stv_name":"Uncletopia | Chicago | 6 | All Maps | STV","players":null},{"server_id":38,"name":"Uncletopia | Chicago | 7 | Stopwatch Beta","name_short":"chi-7","host":"chi-2.us.uncletopia.com","port":27035,"enabled":true,"region":"us-central","cc":"us","latitude":41.881832,"longitude":-87.62318,"reserved":0,"last_update":"0001-01-01T00:00:00Z","name_a2s":"Uncletopia | Chicago | 7 | Stopwatch Beta","protocol":17,"map":"pl_borneo","folder":"tf","game":"Team Fortress","app_id":440,"player_count":0,"max_players":24,"Bots":0,"server_type":"Dedicated","server_os":"Linux","password":true,"vac":true,"version":"7932396","steam_id":85568392924866364,"keywords":["nocrits","nodmgspread","payload","uncletopia"],"game_id":440,"stv_port":27036,"stv_name":"Uncletopia | Chicago | 7 | Stopwatch Beta | STV","players":null},{"server_id":39,"name":"Uncletopia | Chicago | 8 | Community","name_short":"chi-8","host":"chi-2.us.uncletopia.com","port":27045,"enabled":true,"region":"us-central","cc":"us","latitude":41.881832,"longitude":-87.62318,"reserved":0,"last_update":"0001-01-01T00:00:00Z","name_a2s":"Uncletopia | Chicago | 8 | Community","protocol":17,"map":"workshop/koth_product_final.ugc454272353","folder":"tf","game":"Team Fortress","app_id":440,"player_count":0,"max_players":24,"Bots":0,"server_type":"Dedicated","server_os":"Linux","password":true,"vac":true,"version":"7932396","steam_id":85568392924866365,"keywords":["cp","nocrits","nodmgspread","uncletopia"],"game_id":440,"stv_port":27046,"stv_name":"Uncletopia | Chicago | 8 | Community | STV","players":null},{"server_id":8,"name":"Uncletopia | Dallas | 1 | All Maps","name_short":"dal-1","host":"dal-1.us.uncletopia.com","port":27015,"enabled":true,"region":"us-central","cc":"us","latitude":32.779167,"longitude":-96.80889,"reserved":0,"last_update":"0001-01-01T00:00:00Z","name_a2s":"Uncletopia | Dallas | 1 | All Maps","protocol":17,"map":"pl_thundermountain","folder":"tf","game":"Team Fortress","app_id":440,"player_count":6,"max_players":24,"Bots":0,"server_type":"Dedicated","server_os":"Linux","password":true,"vac":true,"version":"7932396","steam_id":85568392924469986,"keywords":["nocrits","nodmgspread","payload","uncletopia"],"game_id":440,"stv_port":27016,"stv_name":"Uncletopia | Dallas | 1 | All Maps | STV","players":[{"user_id":799,"name":"Solace","steam_id":76561199477418568,"connected_time":905000000000,"state":"active","ping":94},{"user_id":800,"name":"Linksupersayan","steam_id":76561198027868963,"connected_time":73000000000,"state":"active","ping":135},{"user_id":778,"name":"BENIS  BOI","steam_id":76561198813112341,"connected_time":3902000000000,"state":"active","ping":57},{"user_id":787,"name":"pudl","steam_id":76561198043726592,"connected_time":2707000000000,"state":"active","ping":43},{"user_id":790,"name":"Nar8r","steam_id":76561198138316975,"connected_time":1909000000000,"state":"active","ping":80},{"user_id":792,"name":"Nexid","steam_id":76561198056285342,"connected_time":1885000000000,"state":"active","ping":84}]},{"server_id":108,"name":"Uncletopia | Dallas | 2 | All Maps","name_short":"dal-2","host":"dal-1.us.uncletopia.com","port":27025,"enabled":true,"region":"us-central","cc":"us","latitude":32.779167,"longitude":-96.80889,"reserved":0,"last_update":"0001-01-01T00:00:00Z","name_a2s":"Uncletopia | Dallas | 2 | All Maps","protocol":17,"map":"pl_borneo","folder":"tf","game":"Team Fortress","app_id":440,"player_count":23,"max_players":24,"Bots":0,"server_type":"Dedicated","server_os":"Linux","password":true,"vac":true,"version":"7932396","steam_id":85568392924469988,"keywords":["nocrits","nodmgspread","payload","uncletopia"],"game_id":440,"stv_port":27026,"stv_name":"Uncletopia | Dallas | 2 | All Maps | STV","players":[{"user_id":509,"name":"Vault","steam_id":76561198073359479,"connected_time":2554000000000,"state":"active","ping":76},{"user_id":524,"name":"looking for mommy gf :3c","steam_id":76561198214584609,"connected_time":790000000000,"state":"active","ping":61},{"user_id":515,"name":"STILLZ","steam_id":76561198131892406,"connected_time":1917000000000,"state":"active","ping":79},{"user_id":520,"name":"Resh Bomb!","steam_id":76561198066619792,"connected_time":955000000000,"state":"active","ping":65},{"user_id":530,"name":"11 crabs","steam_id":76561199248662446,"connected_time":476000000000,"state":"active","ping":85},{"user_id":501,"name":"cypherzero","steam_id":76561199182960322,"connected_time":3336000000000,"state":"active","ping":52},{"user_id":529,"name":"Batman","steam_id":76561199085516726,"connected_time":497000000000,"state":"active","ping":96},{"user_id":525,"name":"DarkBladeXIII","steam_id":76561198154646764,"connected_time":742000000000,"state":"active","ping":103},{"user_id":537,"name":"Stuffed Buck","steam_id":76561198037513737,"connected_time":115000000000,"state":"active","ping":72},{"user_id":497,"name":"E r i c k","steam_id":76561198113131039,"connected_time":3582000000000,"state":"active","ping":74},{"user_id":503,"name":"sapphoroth","steam_id":76561198062263639,"connected_time":3228000000000,"state":"active","ping":52},{"user_id":521,"name":"big vro","steam_id":76561197998911283,"connected_time":954000000000,"state":"active","ping":58},{"user_id":531,"name":"BIG HOG","steam_id":76561198079923652,"connected_time":417000000000,"state":"active","ping":46},{"user_id":419,"name":"SleeplessCollin","steam_id":76561198968140914,"connected_time":9835000000000,"state":"active","ping":61},{"user_id":480,"name":"nic","steam_id":76561198030654668,"connected_time":4617000000000,"state":"active","ping":70},{"user_id":522,"name":"ThatWizardGuy","steam_id":76561198433331664,"connected_time":828000000000,"state":"active","ping":103},{"user_id":532,"name":"Demonica","steam_id":76561198841858340,"connected_time":388000000000,"state":"active","ping":82},{"user_id":533,"name":"friendly on uncletopia","steam_id":76561198064194222,"connected_time":312000000000,"state":"active","ping":59},{"user_id":506,"name":"Koffy","steam_id":76561198184386039,"connected_time":2996000000000,"state":"active","ping":85},{"user_id":484,"name":"Nahvee","steam_id":76561198119759695,"connected_time":4574000000000,"state":"active","ping":66},{"user_id":534,"name":"bumperbarrygaming","steam_id":76561199204076827,"connected_time":300000000000,"state":"active","ping":82},{"user_id":526,"name":"I. C. Wiener","steam_id":76561198062777610,"connected_time":624000000000,"state":"active","ping":72},{"user_id":536,"name":"DALKurumiTokisaki","steam_id":76561198872867732,"connected_time":225000000000,"state":"active","ping":92}]},{"server_id":5,"name":"Uncletopia | Frankfurt | 1 | All Maps","name_short":"frk-1","host":"frk-1.de.uncletopia.com","port":27015,"enabled":true,"region":"eu","cc":"de","latitude":50.110924,"longitude":8.682127,"reserved":0,"last_update":"0001-01-01T00:00:00Z","name_a2s":"Uncletopia | Frankfurt | 1 | All Maps","protocol":17,"map":"pl_badwater","folder":"tf","game":"Team Fortress","app_id":440,"player_count":0,"max_players":24,"Bots":0,"server_type":"Dedicated","server_os":"Linux","password":true,"vac":true,"version":"7932396","steam_id":85568392924469989,"keywords":["nocrits","nodmgspread","payload","uncletopia"],"game_id":440,"stv_port":27016,"stv_name":"Uncletopia | Frankfurt | 1 | All Maps | STV","players":null},{"server_id":110,"name":"Uncletopia | Frankfurt | 2 | All Maps","name_short":"frk-2","host":"frk-1.de.uncletopia.com","port":27025,"enabled":true,"region":"eu","cc":"de","latitude":50.110924,"longitude":8.682127,"reserved":0,"last_update":"0001-01-01T00:00:00Z","name_a2s":"Uncletopia | Frankfurt | 2 | All Maps","protocol":17,"map":"pl_borneo","folder":"tf","game":"Team Fortress","app_id":440,"player_count":0,"max_players":24,"Bots":0,"server_type":"Dedicated","server_os":"Linux","password":true,"vac":true,"version":"7932396","steam_id":85568392924469990,"keywords":["nocrits","nodmgspread","payload","uncletopia"],"game_id":440,"stv_port":27026,"stv_name":"Uncletopia | Frankfurt | 2 | All Maps | STV","players":null},{"server_id":308,"name":"Uncletopia | Frankfurt | 3 | All Maps","name_short":"frk-3","host":"frk-1.de.uncletopia.com","port":27035,"enabled":true,"region":"eu","cc":"de","latitude":50.110924,"longitude":8.682127,"reserved":0,"last_update":"0001-01-01T00:00:00Z","name_a2s":"Uncletopia | Frankfurt | 3 | All Maps","protocol":17,"map":"pl_badwater","folder":"tf","game":"Team Fortress","app_id":440,"player_count":0,"max_players":24,"Bots":0,"server_type":"Dedicated","server_os":"Linux","password":true,"vac":true,"version":"7932396","steam_id":85568392924504274,"keywords":["nocrits","nodmgspread","payload","uncletopia"],"game_id":440,"stv_port":27036,"stv_name":"Uncletopia | Frankfurt | 3 | All Maps | STV","players":null},{"server_id":309,"name":"Uncletopia | Frankfurt | 4 | All Maps","name_short":"frk-4","host":"frk-1.de.uncletopia.com","port":27045,"enabled":true,"region":"eu","cc":"de","latitude":50.110924,"longitude":8.682127,"reserved":0,"last_update":"0001-01-01T00:00:00Z","name_a2s":"Uncletopia | Frankfurt | 4 | All Maps","protocol":17,"map":"pl_upward","folder":"tf","game":"Team Fortress","app_id":440,"player_count":0,"max_players":24,"Bots":0,"server_type":"Dedicated","server_os":"Linux","password":true,"vac":true,"version":"7932396","steam_id":85568392924504275,"keywords":["nocrits","nodmgspread","payload","uncletopia"],"game_id":440,"stv_port":27046,"stv_name":"Uncletopia | Frankfurt | 4 | All Maps | STV","players":null},{"server_id":310,"name":"Uncletopia | Frankfurt | 5 | All Maps","name_short":"frk-5","host":"frk-1.de.uncletopia.com","port":27055,"enabled":true,"region":"eu","cc":"de","latitude":50.110924,"longitude":8.682127,"reserved":0,"last_update":"0001-01-01T00:00:00Z","name_a2s":"Uncletopia | Frankfurt | 5 | All Maps","protocol":17,"map":"pl_badwater","folder":"tf","game":"Team Fortress","app_id":440,"player_count":0,"max_players":24,"Bots":0,"server_type":"Dedicated","server_os":"Linux","password":true,"vac":true,"version":"7932396","steam_id":85568392924504277,"keywords":["nocrits","nodmgspread","payload","uncletopia"],"game_id":440,"stv_port":27056,"stv_name":"Uncletopia | Frankfurt | 5 | All Maps | STV","players":null},{"server_id":311,"name":"Uncletopia | Frankfurt | 6 | All Maps","name_short":"frk-6","host":"frk-1.de.uncletopia.com","port":27065,"enabled":true,"region":"eu","cc":"de","latitude":50.110924,"longitude":8.682127,"reserved":0,"last_update":"0001-01-01T00:00:00Z","name_a2s":"Uncletopia | Frankfurt | 6 | All Maps","protocol":17,"map":"koth_viaduct","folder":"tf","game":"Team Fortress","app_id":440,"player_count":0,"max_players":24,"Bots":0,"server_type":"Dedicated","server_os":"Linux","password":true,"vac":true,"version":"7932396","steam_id":85568392924504278,"keywords":["cp","nocrits","nodmgspread","uncletopia"],"game_id":440,"stv_port":27066,"stv_name":"Uncletopia | Frankfurt | 6 | All Maps | STV","players":null},{"server_id":23,"name":"Uncletopia | Frankfurt | 7 | Stopwatch Beta","name_short":"frk-7","host":"frk-1.de.uncletopia.com","port":27075,"enabled":true,"region":"eu","cc":"de","latitude":50.110924,"longitude":8.682127,"reserved":0,"last_update":"0001-01-01T00:00:00Z","name_a2s":"Uncletopia | Frankfurt | 7 | Stopwatch Beta","protocol":17,"map":"pl_snowycoast","folder":"tf","game":"Team Fortress","app_id":440,"player_count":0,"max_players":24,"Bots":0,"server_type":"Dedicated","server_os":"Linux","password":true,"vac":true,"version":"7932396","steam_id":85568392924742827,"keywords":["nocrits","nodmgspread","payload","uncletopia"],"game_id":440,"stv_port":27076,"stv_name":"Uncletopia | Frankfurt | 7 | Stopwatch Beta | STV","players":null},{"server_id":24,"name":"Uncletopia | Frankfurt | 8 | Community","name_short":"frk-8","host":"frk-1.de.uncletopia.com","port":27085,"enabled":true,"region":"eu","cc":"de","latitude":50.110924,"longitude":8.682127,"reserved":0,"last_update":"0001-01-01T00:00:00Z","name_a2s":"Uncletopia | Frankfurt | 8 | Community","protocol":17,"map":"pl_barnblitz","folder":"tf","game":"Team Fortress","app_id":440,"player_count":0,"max_players":24,"Bots":0,"server_type":"Dedicated","server_os":"Linux","password":true,"vac":true,"version":"7932396","steam_id":85568392924742828,"keywords":["nocrits","nodmgspread","payload","uncletopia"],"game_id":440,"stv_port":27086,"stv_name":"Uncletopia | Frankfurt | 8 | Community | STV","players":null},{"server_id":202,"name":"Uncletopia | Hong Kong | 1 | All Maps","name_short":"hgk-1","host":"hgk-1.hk.uncletopia.com","port":27015,"enabled":true,"region":"asia","cc":"hk","latitude":22.302711,"longitude":114.177216,"reserved":0,"last_update":"0001-01-01T00:00:00Z","name_a2s":"Uncletopia | Hong Kong | 1 | All Maps","protocol":17,"map":"koth_cascade","folder":"tf","game":"Team Fortress","app_id":440,"player_count":3,"max_players":24,"Bots":0,"server_type":"Dedicated","server_os":"Linux","password":true,"vac":true,"version":"7932396","steam_id":85568392924494504,"keywords":["cp","nocrits","nodmgspread","uncletopia"],"game_id":440,"stv_port":27016,"stv_name":"Uncletopia | Hong Kong | 1 | All Maps | STV","players":[{"user_id":33,"name":"Turbo.RF4 x Platinum","steam_id":76561199061012484,"connected_time":228000000000,"state":"active","ping":54},{"user_id":34,"name":":weed:","steam_id":76561198386626651,"connected_time":180000000000,"state":"active","ping":51},{"user_id":35,"name":"Alen","steam_id":76561199036330383,"connected_time":100000000000,"state":"active","ping":105}]},{"server_id":1,"name":"Uncletopia | Los Angeles | 1 | All Maps","name_short":"lax-1","host":"lax-1.us.uncletopia.com","port":27015,"enabled":true,"region":"us-west","cc":"us","latitude":33.94279,"longitude":-118.41004,"reserved":0,"last_update":"0001-01-01T00:00:00Z","name_a2s":"Uncletopia | Los Angeles | 1 | All Maps","protocol":17,"map":"pl_upward","folder":"tf","game":"Team Fortress","app_id":440,"player_count":17,"max_players":24,"Bots":0,"server_type":"Dedicated","server_os":"Linux","password":true,"vac":true,"version":"7932396","steam_id":85568392924469991,"keywords":["nocrits","nodmgspread","payload","uncletopia"],"game_id":440,"stv_port":27016,"stv_name":"Uncletopia | Los Angeles | 1 | All Maps | STV","players":[{"user_id":418,"name":"fliggoo giggoo","steam_id":76561198986534519,"connected_time":2025000000000,"state":"active","ping":59},{"user_id":431,"name":"Squatter1","steam_id":76561198078987734,"connected_time":785000000000,"state":"active","ping":70},{"user_id":445,"name":"Ornitorinco","steam_id":76561198996265986,"connected_time":193000000000,"state":"active","ping":251},{"user_id":446,"name":"Team Fortress 2","steam_id":76561198335865111,"connected_time":132000000000,"state":"active","ping":260},{"user_id":390,"name":"Whisper!","steam_id":76561198119609795,"connected_time":4856000000000,"state":"active","ping":47},{"user_id":447,"name":"opponent","steam_id":76561198164529896,"connected_time":47000000000,"state":"active","ping":53},{"user_id":422,"name":"Meepster","steam_id":76561198146305159,"connected_time":1925000000000,"state":"active","ping":59},{"user_id":395,"name":"himbomccree","steam_id":76561198373330850,"connected_time":4428000000000,"state":"active","ping":43},{"user_id":419,"name":"Subject Delta","steam_id":76561199109118980,"connected_time":2017000000000,"state":"active","ping":55},{"user_id":448,"name":"the wizard","steam_id":76561198840565224,"connected_time":33000000000,"state":"active","ping":65},{"user_id":397,"name":"Blempem","steam_id":76561198323434589,"connected_time":4343000000000,"state":"active","ping":77},{"user_id":449,"name":"Lumina","steam_id":76561198089227368,"connected_time":12000000000,"state":"spawning","ping":784},{"user_id":433,"name":"Nukeboy","steam_id":76561198147058560,"connected_time":744000000000,"state":"active","ping":68},{"user_id":438,"name":"Tech Deck","steam_id":76561199070437675,"connected_time":504000000000,"state":"active","ping":58},{"user_id":399,"name":"Narlax","steam_id":76561198852832741,"connected_time":4248000000000,"state":"active","ping":76},{"user_id":443,"name":"kemonostyle","steam_id":76561198054280340,"connected_time":390000000000,"state":"active","ping":68},{"user_id":444,"name":"Hoenut","steam_id":76561198079676597,"connected_time":371000000000,"state":"active","ping":92}]},{"server_id":112,"name":"Uncletopia | Los Angeles | 2 | All Maps","name_short":"lax-2","host":"lax-1.us.uncletopia.com","port":27025,"enabled":true,"region":"us-west","cc":"us","latitude":33.94279,"longitude":-118.41004,"reserved":0,"last_update":"0001-01-01T00:00:00Z","name_a2s":"Uncletopia | Los Angeles | 2 | All Maps","protocol":17,"map":"pl_borneo","folder":"tf","game":"Team Fortress","app_id":440,"player_count":20,"max_players":24,"Bots":0,"server_type":"Dedicated","server_os":"Linux","password":true,"vac":true,"version":"7932396","steam_id":85568392924469992,"keywords":["nocrits","nodmgspread","payload","uncletopia"],"game_id":440,"stv_port":27026,"stv_name":"Uncletopia | Los Angeles | 2 | All Maps | STV","players":[{"user_id":192,"name":"BERLIN BAEST","steam_id":76561199407580843,"connected_time":4918000000000,"state":"active","ping":68},{"user_id":251,"name":"Prez Pineapple","steam_id":76561198253755258,"connected_time":294000000000,"state":"active","ping":76},{"user_id":203,"name":"Ferran, Painted Dog","steam_id":76561198004480302,"connected_time":3836000000000,"state":"active","ping":61},{"user_id":253,"name":"One Too Many Ostriches","steam_id":76561198038734484,"connected_time":215000000000,"state":"active","ping":53},{"user_id":252,"name":"OH NO","steam_id":76561198006900990,"connected_time":250000000000,"state":"active","ping":48},{"user_id":191,"name":"FaceLaces","steam_id":76561198194417725,"connected_time":4974000000000,"state":"active","ping":58},{"user_id":254,"name":"A Parliament of Owls","steam_id":76561197996200417,"connected_time":181000000000,"state":"active","ping":55},{"user_id":257,"name":"weed lesbian","steam_id":76561198042263805,"connected_time":93000000000,"state":"active","ping":79},{"user_id":222,"name":"Pluto","steam_id":76561198012630802,"connected_time":2628000000000,"state":"active","ping":61},{"user_id":210,"name":"skao","steam_id":76561198133360797,"connected_time":3573000000000,"state":"active","ping":45},{"user_id":256,"name":"Revenant-6","steam_id":76561198124566666,"connected_time":120000000000,"state":"active","ping":34},{"user_id":258,"name":"Yaboiserg21","steam_id":76561198420793582,"connected_time":84000000000,"state":"active","ping":73},{"user_id":220,"name":"Lambchop","steam_id":76561198043900363,"connected_time":2711000000000,"state":"active","ping":59},{"user_id":234,"name":"Mapachito Lindo","steam_id":76561198031359995,"connected_time":2097000000000,"state":"active","ping":71},{"user_id":259,"name":"Lerny_Bander69","steam_id":76561199467619936,"connected_time":57000000000,"state":"active","ping":63},{"user_id":212,"name":"SolarusD","steam_id":76561198029279861,"connected_time":3452000000000,"state":"active","ping":51},{"user_id":260,"name":"mike","steam_id":76561198163265338,"connected_time":56000000000,"state":"active","ping":75},{"user_id":261,"name":"Portaljumper02","steam_id":76561199199139402,"connected_time":50000000000,"state":"active","ping":56},{"user_id":262,"name":"Nebulous","steam_id":76561198289990049,"connected_time":50000000000,"state":"active","ping":69},{"user_id":263,"name":"Throstle","steam_id":76561197971330175,"connected_time":27000000000,"state":"spawning","ping":73}]},{"server_id":324,"name":"Uncletopia | Los Angeles | 3 | All Maps","name_short":"lax-3","host":"lax-1.us.uncletopia.com","port":27035,"enabled":true,"region":"us-west","cc":"us","latitude":33.94279,"longitude":-118.41004,"reserved":0,"last_update":"0001-01-01T00:00:00Z","name_a2s":"Uncletopia | Los Angeles | 3 | All Maps","protocol":17,"map":"koth_viaduct","folder":"tf","game":"Team Fortress","app_id":440,"player_count":24,"max_players":24,"Bots":0,"server_type":"Dedicated","server_os":"Linux","password":true,"vac":true,"version":"7932396","steam_id":85568392924510198,"keywords":["cp","nocrits","nodmgspread","uncletopia"],"game_id":440,"stv_port":27036,"stv_name":"Uncletopia | Los Angeles | 3 | All Maps | STV","players":[{"user_id":736,"name":"i need cock goku","steam_id":76561198154449875,"connected_time":490000000000,"state":"active","ping":166},{"user_id":737,"name":"Toastee","steam_id":76561198085410969,"connected_time":473000000000,"state":"active","ping":101},{"user_id":680,"name":"Mr. Carfox","steam_id":76561198041664428,"connected_time":4054000000000,"state":"active","ping":45},{"user_id":601,"name":"Taco+Taco=Burrito","steam_id":76561198063128663,"connected_time":11442000000000,"state":"active","ping":39},{"user_id":698,"name":"phon","steam_id":76561198140659236,"connected_time":2745000000000,"state":"active","ping":36},{"user_id":713,"name":"viedoamges","steam_id":76561198025295263,"connected_time":1798000000000,"state":"active","ping":83},{"user_id":730,"name":"Mud Goblin","steam_id":76561198839118505,"connected_time":1111000000000,"state":"active","ping":73},{"user_id":738,"name":"Coach","steam_id":76561198052644127,"connected_time":440000000000,"state":"active","ping":80},{"user_id":731,"name":"Junkmin","steam_id":76561198152251596,"connected_time":1029000000000,"state":"active","ping":32},{"user_id":746,"name":"Jomdac","steam_id":76561198150447896,"connected_time":131000000000,"state":"active","ping":48},{"user_id":718,"name":"Skeezey E","steam_id":76561199110494799,"connected_time":1767000000000,"state":"active","ping":118},{"user_id":697,"name":"Dcoyotzi","steam_id":76561199124707627,"connected_time":2766000000000,"state":"active","ping":77},{"user_id":739,"name":"froglawyer","steam_id":76561198100160110,"connected_time":377000000000,"state":"active","ping":80},{"user_id":745,"name":"meow","steam_id":76561198298140571,"connected_time":282000000000,"state":"active","ping":60},{"user_id":735,"name":"Alexx ༼ つ ◕_◕ ༽つ","steam_id":76561198268005140,"connected_time":808000000000,"state":"active","ping":77},{"user_id":741,"name":"Dusty Dude","steam_id":76561198117835662,"connected_time":331000000000,"state":"active","ping":85},{"user_id":742,"name":"simcye","steam_id":76561198010991761,"connected_time":314000000000,"state":"active","ping":75},{"user_id":723,"name":"☆Ruke☆","steam_id":76561198072441047,"connected_time":1644000000000,"state":"active","ping":78},{"user_id":747,"name":"set","steam_id":76561198294281809,"connected_time":107000000000,"state":"active","ping":57},{"user_id":724,"name":"brick_bloxer","steam_id":76561198075671287,"connected_time":1620000000000,"state":"active","ping":66},{"user_id":743,"name":"agb 4FUN","steam_id":76561198094512992,"connected_time":297000000000,"state":"active","ping":102},{"user_id":728,"name":"Ice cream sandwich","steam_id":76561198172748357,"connected_time":1281000000000,"state":"active","ping":63},{"user_id":744,"name":"samantha","steam_id":76561198049258493,"connected_time":295000000000,"state":"active","ping":77},{"user_id":729,"name":"Kiilys","steam_id":76561198326068377,"connected_time":1265000000000,"state":"active","ping":68}]},{"server_id":25,"name":"Uncletopia | Los Angeles | 4 | Stopwatch Beta","name_short":"lax-4","host":"lax-1.us.uncletopia.com","port":27045,"enabled":true,"region":"us-west","cc":"us","latitude":33.94279,"longitude":-118.41004,"reserved":0,"last_update":"0001-01-01T00:00:00Z","name_a2s":"Uncletopia | Los Angeles | 4 | Stopwatch Beta","protocol":17,"map":"workshop/pl_barnblitz_pro7.ugc582280235","folder":"tf","game":"Team Fortress","app_id":440,"player_count":0,"max_players":24,"Bots":0,"server_type":"Dedicated","server_os":"Linux","password":true,"vac":true,"version":"7932396","steam_id":85568392924510199,"keywords":["nocrits","nodmgspread","payload","uncletopia"],"game_id":440,"stv_port":27046,"stv_name":"Uncletopia | Los Angeles | 4 | Stopwatch Beta | STV","players":null},{"server_id":11,"name":"Uncletopia | London | 1 | All Maps","name_short":"lon-1","host":"lon-1.uk.uncletopia.com","port":27015,"enabled":true,"region":"eu","cc":"gb","latitude":51.509865,"longitude":-0.118092,"reserved":0,"last_update":"0001-01-01T00:00:00Z","name_a2s":"Uncletopia | London | 1 | All Maps","protocol":17,"map":"pl_swiftwater_final1","folder":"tf","game":"Team Fortress","app_id":440,"player_count":24,"max_players":24,"Bots":0,"server_type":"Dedicated","server_os":"Linux","password":true,"vac":true,"version":"7932396","steam_id":85568392924367362,"keywords":["nocrits","nodmgspread","payload","uncletopia"],"game_id":440,"stv_port":27016,"stv_name":"Uncletopia | London | 1 | All Maps | STV","players":[{"user_id":85,"name":"0","steam_id":76561199084809092,"connected_time":109000000000,"state":"active","ping":108},{"user_id":86,"name":"ÃNVS DRÃNVS","steam_id":76561198138733015,"connected_time":11000000000,"state":"spawning","ping":119},{"user_id":57,"name":"Edith","steam_id":76561198867635722,"connected_time":3017000000000,"state":"active","ping":109},{"user_id":80,"name":"noided","steam_id":76561199480942903,"connected_time":269000000000,"state":"active","ping":73},{"user_id":62,"name":"hai","steam_id":76561198074743037,"connected_time":2233000000000,"state":"active","ping":72},{"user_id":60,"name":"Goodman","steam_id":76561199028512477,"connected_time":2651000000000,"state":"active","ping":93},{"user_id":9,"name":"『Ｐｅｐｓｉ－Ｍａｎ\ufffd","steam_id":76561198058499087,"connected_time":6006000000000,"state":"active","ping":47},{"user_id":37,"name":"sokige","steam_id":76561198167112371,"connected_time":4586000000000,"state":"active","ping":99},{"user_id":25,"name":"Sakari","steam_id":76561197997811299,"connected_time":5147000000000,"state":"active","ping":61},{"user_id":13,"name":"Doctor Marijuana","steam_id":76561198288289879,"connected_time":5989000000000,"state":"active","ping":48},{"user_id":76,"name":"Luxotrics","steam_id":76561198053455161,"connected_time":553000000000,"state":"active","ping":82},{"user_id":82,"name":"RawNuggs","steam_id":76561198880104540,"connected_time":173000000000,"state":"active","ping":49},{"user_id":73,"name":"dispenser","steam_id":76561198165732391,"connected_time":1200000000000,"state":"active","ping":85},{"user_id":78,"name":"ympogus sussusSUSUSUSUSUSUSUSUS","steam_id":76561198202441870,"connected_time":510000000000,"state":"active","ping":57},{"user_id":68,"name":"Slacker","steam_id":76561198017519610,"connected_time":1662000000000,"state":"active","ping":102},{"user_id":55,"name":"Michał","steam_id":76561198320346362,"connected_time":3046000000000,"state":"active","ping":67},{"user_id":27,"name":"clone troooper star trek","steam_id":76561198105978107,"connected_time":5107000000000,"state":"active","ping":86},{"user_id":81,"name":"Bonduelle#Savetf2","steam_id":76561199041992422,"connected_time":267000000000,"state":"active","ping":182},{"user_id":69,"name":"ja","steam_id":76561199228540618,"connected_time":1655000000000,"state":"active","ping":67},{"user_id":74,"name":"killbind irl","steam_id":76561198180637374,"connected_time":638000000000,"state":"active","ping":91},{"user_id":72,"name":"NO end to POOTIS","steam_id":76561198144879361,"connected_time":1450000000000,"state":"active","ping":119},{"user_id":38,"name":"jakub","steam_id":76561198449852071,"connected_time":4472000000000,"state":"active","ping":41},{"user_id":34,"name":"pharmacist","steam_id":76561198274424248,"connected_time":4797000000000,"state":"active","ping":113},{"user_id":65,"name":"--","steam_id":76561198365098582,"connected_time":2093000000000,"state":"active","ping":155}]},{"server_id":114,"name":"Uncletopia | London | 2 | All Maps","name_short":"lon-2","host":"lon-1.uk.uncletopia.com","port":27025,"enabled":true,"region":"eu","cc":"gb","latitude":51.509865,"longitude":-0.118092,"reserved":0,"last_update":"0001-01-01T00:00:00Z","name_a2s":"Uncletopia | London | 2 | All Maps","protocol":17,"map":"koth_highpass","folder":"tf","game":"Team Fortress","app_id":440,"player_count":0,"max_players":24,"Bots":0,"server_type":"Dedicated","server_os":"Linux","password":true,"vac":true,"version":"7932396","steam_id":85568392924470941,"keywords":["cp","nocrits","nodmgspread","uncletopia"],"game_id":440,"stv_port":27026,"stv_name":"Uncletopia | London | 2 | All Maps | STV","players":null},{"server_id":320,"name":"Uncletopia | London | 3 | All Maps","name_short":"lon-3","host":"lon-1.uk.uncletopia.com","port":27035,"enabled":true,"region":"eu","cc":"gb","latitude":51.509865,"longitude":-0.118092,"reserved":0,"last_update":"0001-01-01T00:00:00Z","name_a2s":"Uncletopia | London | 3 | All Maps","protocol":17,"map":"cp_altitude","folder":"tf","game":"Team Fortress","app_id":440,"player_count":0,"max_players":24,"Bots":0,"server_type":"Dedicated","server_os":"Linux","password":true,"vac":true,"version":"7932396","steam_id":85568392924510192,"keywords":["cp","nocrits","nodmgspread","uncletopia"],"game_id":440,"stv_port":27036,"stv_name":"Uncletopia | London | 3 | All Maps | STV","players":null},{"server_id":321,"name":"Uncletopia | London | 4 | All Maps","name_short":"lon-4","host":"lon-1.uk.uncletopia.com","port":27045,"enabled":true,"region":"eu","cc":"gb","latitude":51.509865,"longitude":-0.118092,"reserved":0,"last_update":"0001-01-01T00:00:00Z","name_a2s":"Uncletopia | London | 4 | All Maps","protocol":17,"map":"cp_snakewater_final1","folder":"tf","game":"Team Fortress","app_id":440,"player_count":0,"max_players":24,"Bots":0,"server_type":"Dedicated","server_os":"Linux","password":true,"vac":true,"version":"7932396","steam_id":85568392924510193,"keywords":["cp","nocrits","nodmgspread","uncletopia"],"game_id":440,"stv_port":27046,"stv_name":"Uncletopia | London | 4 | All Maps | STV","players":null},{"server_id":21,"name":"Uncletopia | London | 5 | All Maps","name_short":"lon-5","host":"lon-1.uk.uncletopia.com","port":27055,"enabled":true,"region":"eu","cc":"gb","latitude":51.509865,"longitude":-0.118092,"reserved":0,"last_update":"0001-01-01T00:00:00Z","name_a2s":"Uncletopia | London | 5 | All Maps","protocol":17,"map":"pl_borneo","folder":"tf","game":"Team Fortress","app_id":440,"player_count":0,"max_players":24,"Bots":0,"server_type":"Dedicated","server_os":"Linux","password":true,"vac":true,"version":"7932396","steam_id":85568392924742829,"keywords":["nocrits","nodmgspread","payload","uncletopia"],"game_id":440,"stv_port":27056,"stv_name":"Uncletopia | London | 5 | All Maps | STV","players":null},{"server_id":22,"name":"Uncletopia | London | 6 | All Maps","name_short":"lon-6","host":"lon-1.uk.uncletopia.com","port":27065,"enabled":true,"region":"eu","cc":"gb","latitude":51.509865,"longitude":-0.118092,"reserved":0,"last_update":"0001-01-01T00:00:00Z","name_a2s":"Uncletopia | London | 6 | All Maps","protocol":17,"map":"cp_mountainlab","folder":"tf","game":"Team Fortress","app_id":440,"player_count":0,"max_players":24,"Bots":0,"server_type":"Dedicated","server_os":"Linux","password":true,"vac":true,"version":"7932396","steam_id":85568392924742830,"keywords":["cp","nocrits","nodmgspread","uncletopia"],"game_id":440,"stv_port":27066,"stv_name":"Uncletopia | London | 6 | All Maps | STV","players":null},{"server_id":40,"name":"Uncletopia | London | 7 | No Payload","name_short":"lon-7","host":"lon-1.uk.uncletopia.com","port":27075,"enabled":true,"region":"eu","cc":"gb","latitude":51.509865,"longitude":-0.118092,"reserved":0,"last_update":"0001-01-01T00:00:00Z","name_a2s":"Uncletopia | London | 7 | No Payload","protocol":17,"map":"pl_snowycoast","folder":"tf","game":"Team Fortress","app_id":440,"player_count":0,"max_players":24,"Bots":0,"server_type":"Dedicated","server_os":"Linux","password":true,"vac":true,"version":"7932396","steam_id":85568392924964314,"keywords":["nocrits","nodmgspread","payload","uncletopia"],"game_id":440,"stv_port":27076,"stv_name":"Uncletopia | London | 7 | No Payload | STV","players":null},{"server_id":41,"name":"Uncletopia | London | 8 | Community","name_short":"lon-8","host":"lon-1.uk.uncletopia.com","port":27085,"enabled":true,"region":"eu","cc":"gb","latitude":51.509865,"longitude":-0.118092,"reserved":0,"last_update":"0001-01-01T00:00:00Z","name_a2s":"Uncletopia | London | 8 | Community","protocol":17,"map":"pl_barnblitz","folder":"tf","game":"Team Fortress","app_id":440,"player_count":0,"max_players":24,"Bots":0,"server_type":"Dedicated","server_os":"Linux","password":true,"vac":true,"version":"7932396","steam_id":85568392924964315,"keywords":["nocrits","nodmgspread","payload","uncletopia"],"game_id":440,"stv_port":27086,"stv_name":"Uncletopia | London | 8 | Community | STV","players":null},{"server_id":300,"name":"Uncletopia | Montréal | 1 | All Maps","name_short":"mtl-1","host":"mtl-1.ca.uncletopia.com","port":27015,"enabled":true,"region":"us-east","cc":"ca","latitude":45.50889,"longitude":-73.56167,"reserved":0,"last_update":"0001-01-01T00:00:00Z","name_a2s":"Uncletopia | Montréal | 1 | All Maps","protocol":17,"map":"pl_pier","folder":"tf","game":"Team Fortress","app_id":440,"player_count":0,"max_players":24,"Bots":0,"server_type":"Dedicated","server_os":"Linux","password":true,"vac":true,"version":"7932396","steam_id":85568392924500087,"keywords":["nocrits","nodmgspread","payload","uncletopia"],"game_id":440,"stv_port":27016,"stv_name":"Uncletopia | Montréal | 1 | All Maps | STV","players":null},{"server_id":301,"name":"Uncletopia | Montréal | 2 | All Maps","name_short":"mtl-2","host":"mtl-1.ca.uncletopia.com","port":27025,"enabled":true,"region":"us-east","cc":"ca","latitude":45.50889,"longitude":-73.56167,"reserved":0,"last_update":"0001-01-01T00:00:00Z","name_a2s":"Uncletopia | Montréal | 2 | All Maps","protocol":17,"map":"koth_lakeside_final","folder":"tf","game":"Team Fortress","app_id":440,"player_count":0,"max_players":24,"Bots":0,"server_type":"Dedicated","server_os":"Linux","password":true,"vac":true,"version":"7932396","steam_id":85568392924500088,"keywords":["cp","nocrits","nodmgspread","uncletopia"],"game_id":440,"stv_port":27026,"stv_name":"Uncletopia | Montréal | 2 | All Maps | STV","players":null},{"server_id":302,"name":"Uncletopia | Montréal | 3 | All Maps","name_short":"mtl-3","host":"mtl-1.ca.uncletopia.com","port":27035,"enabled":true,"region":"us-east","cc":"ca","latitude":45.50889,"longitude":-73.56167,"reserved":0,"last_update":"0001-01-01T00:00:00Z","name_a2s":"Uncletopia | Montréal | 3 | All Maps","protocol":17,"map":"cp_dustbowl","folder":"tf","game":"Team Fortress","app_id":440,"player_count":0,"max_players":24,"Bots":0,"server_type":"Dedicated","server_os":"Linux","password":true,"vac":true,"version":"7932396","steam_id":85568392924500089,"keywords":["cp","nocrits","nodmgspread","uncletopia"],"game_id":440,"stv_port":27036,"stv_name":"Uncletopia | Montréal | 3 | All Maps | STV","players":null},{"server_id":303,"name":"Uncletopia | Montréal | 4 | No Payload","name_short":"mtl-4","host":"mtl-1.ca.uncletopia.com","port":27045,"enabled":true,"region":"us-east","cc":"ca","latitude":45.50889,"longitude":-73.56167,"reserved":0,"last_update":"0001-01-01T00:00:00Z","name_a2s":"Uncletopia | Montréal | 4 | No Payload","protocol":17,"map":"cp_vanguard","folder":"tf","game":"Team Fortress","app_id":440,"player_count":0,"max_players":24,"Bots":0,"server_type":"Dedicated","server_os":"Linux","password":true,"vac":true,"version":"7932396","steam_id":85568392924500090,"keywords":["cp","nocrits","nodmgspread","uncletopia"],"game_id":440,"stv_port":27046,"stv_name":"Uncletopia | Montréal | 4 | No Payload | STV","players":null},{"server_id":13,"name":"Uncletopia | New York City | 1 | All Maps","name_short":"nyc-1","host":"nyc-1.us.uncletopia.com","port":27015,"enabled":true,"region":"us-east","cc":"us","latitude":40.73061,"longitude":-73.93524,"reserved":0,"last_update":"0001-01-01T00:00:00Z","name_a2s":"Uncletopia | New York City | 1 | All Maps","protocol":17,"map":"pl_barnblitz","folder":"tf","game":"Team Fortress","app_id":440,"player_count":0,"max_players":24,"Bots":0,"server_type":"Dedicated","server_os":"Linux","password":true,"vac":true,"version":"7932396","steam_id":85568392924469993,"keywords":["nocrits","nodmgspread","payload","uncletopia"],"game_id":440,"stv_port":27016,"stv_name":"Uncletopia | New York City | 1 | All Maps | STV","players":null},{"server_id":14,"name":"Uncletopia | New York City | 2 | All Maps","name_short":"nyc-2","host":"nyc-1.us.uncletopia.com","port":27025,"enabled":true,"region":"us-east","cc":"us","latitude":40.73061,"longitude":-73.93524,"reserved":0,"last_update":"0001-01-01T00:00:00Z","name_a2s":"Uncletopia | New York City | 2 | All Maps","protocol":17,"map":"koth_viaduct","folder":"tf","game":"Team Fortress","app_id":440,"player_count":0,"max_players":24,"Bots":0,"server_type":"Dedicated","server_os":"Linux","password":true,"vac":true,"version":"7932396","steam_id":85568392924469994,"keywords":["cp","nocrits","nodmgspread","uncletopia"],"game_id":440,"stv_port":27026,"stv_name":"Uncletopia | New York City | 2 | All Maps | STV","players":null},{"server_id":15,"name":"Uncletopia | New York City | 3 | Stopwatch Beta","name_short":"nyc-3","host":"nyc-1.us.uncletopia.com","port":27035,"enabled":true,"region":"us-east","cc":"us","latitude":40.73061,"longitude":-73.93524,"reserved":0,"last_update":"0001-01-01T00:00:00Z","name_a2s":"Uncletopia | New York City | 3 | Stopwatch Beta","protocol":17,"map":"workshop/pl_badwater_pro_v12.ugc2142942074","folder":"tf","game":"Team Fortress","app_id":440,"player_count":0,"max_players":24,"Bots":0,"server_type":"Dedicated","server_os":"Linux","password":true,"vac":true,"version":"7932396","steam_id":85568392924742820,"keywords":["nocrits","nodmgspread","payload","uncletopia"],"game_id":440,"stv_port":27036,"stv_name":"Uncletopia | New York City | 3 | Stopwatch Beta | STV","players":null},{"server_id":16,"name":"Uncletopia | New York City | 4 | Community","name_short":"nyc-4","host":"nyc-1.us.uncletopia.com","port":27045,"enabled":true,"region":"us-east","cc":"us","latitude":40.73061,"longitude":-73.93524,"reserved":0,"last_update":"0001-01-01T00:00:00Z","name_a2s":"Uncletopia | New York City | 4 | Community","protocol":17,"map":"workshop/koth_bagel_rc6.ugc2514036946","folder":"tf","game":"Team Fortress","app_id":440,"player_count":0,"max_players":24,"Bots":0,"server_type":"Dedicated","server_os":"Linux","password":true,"vac":true,"version":"7932396","steam_id":85568392924742821,"keywords":["cp","nocrits","nodmgspread","uncletopia"],"game_id":440,"stv_port":27046,"stv_name":"Uncletopia | New York City | 4 | Community | STV","players":null},{"server_id":142,"name":"Uncletopia | São Paulo | 1 | All Maps","name_short":"sao-1","host":"sao-1.br.uncletopia.com","port":27015,"enabled":true,"region":"sa","cc":"br","latitude":-23.533773,"longitude":-46.62529,"reserved":0,"last_update":"0001-01-01T00:00:00Z","name_a2s":"Uncletopia | São Paulo | 1 | All Maps","protocol":17,"map":"cp_dustbowl","folder":"tf","game":"Team Fortress","app_id":440,"player_count":0,"max_players":24,"Bots":0,"server_type":"Dedicated","server_os":"Linux","password":true,"vac":true,"version":"7932396","steam_id":85568392924469996,"keywords":["cp","nocrits","nodmgspread","uncletopia"],"game_id":440,"stv_port":27016,"stv_name":"Uncletopia | São Paulo | 1 | All Maps | STV","players":null},{"server_id":143,"name":"Uncletopia | São Paulo | 2 | All Maps","name_short":"sao-2","host":"sao-2.br.uncletopia.com","port":27015,"enabled":true,"region":"sa","cc":"br","latitude":-23.533773,"longitude":-46.62529,"reserved":0,"last_update":"0001-01-01T00:00:00Z","name_a2s":"Uncletopia | São Paulo | 2 | All Maps","protocol":17,"map":"cp_altitude","folder":"tf","game":"Team Fortress","app_id":440,"player_count":0,"max_players":24,"Bots":0,"server_type":"Dedicated","server_os":"Linux","password":true,"vac":true,"version":"7932396","steam_id":85568392924485349,"keywords":["cp","nocrits","nodmgspread","uncletopia"],"game_id":440,"stv_port":27016,"stv_name":"Uncletopia | São Paulo | 2 | All Maps | STV","players":null},{"server_id":7,"name":"Uncletopia | Seattle | 1 | All Maps","name_short":"sea-1","host":"sea-1.us.uncletopia.com","port":27015,"enabled":true,"region":"us-west","cc":"us","latitude":47.608013,"longitude":-122.33517,"reserved":0,"last_update":"0001-01-01T00:00:00Z","name_a2s":"Uncletopia | Seattle | 1 | All Maps","protocol":17,"map":"koth_nucleus","folder":"tf","game":"Team Fortress","app_id":440,"player_count":25,"max_players":24,"Bots":0,"server_type":"Dedicated","server_os":"Linux","password":true,"vac":true,"version":"7932396","steam_id":85568392924469997,"keywords":["cp","nocrits","nodmgspread","uncletopia"],"game_id":440,"stv_port":27016,"stv_name":"Uncletopia | Seattle | 1 | All Maps | STV","players":[{"user_id":776,"name":"gorlab","steam_id":76561198025089694,"connected_time":1475000000000,"state":"active","ping":63},{"user_id":751,"name":"Ducks","steam_id":76561198130038345,"connected_time":4689000000000,"state":"active","ping":58},{"user_id":781,"name":"Ymiir","steam_id":76561198118284271,"connected_time":855000000000,"state":"active","ping":85},{"user_id":740,"name":"[TrC] Dackstrus","steam_id":76561197973518509,"connected_time":5728000000000,"state":"active","ping":54},{"user_id":772,"name":"Sniff","steam_id":76561198010270922,"connected_time":2098000000000,"state":"active","ping":42},{"user_id":774,"name":"Bishuhp","steam_id":76561198015062850,"connected_time":1728000000000,"state":"active","ping":47},{"user_id":784,"name":"Sm0keytheKlown","steam_id":76561199024915838,"connected_time":472000000000,"state":"active","ping":56},{"user_id":779,"name":"jorts","steam_id":76561199041179985,"connected_time":1413000000000,"state":"active","ping":54},{"user_id":758,"name":"ed","steam_id":76561198080475712,"connected_time":3460000000000,"state":"active","ping":74},{"user_id":656,"name":"squash","steam_id":76561198150281353,"connected_time":11848000000000,"state":"active","ping":58},{"user_id":787,"name":"C4lvin C4rbon","steam_id":76561198054465157,"connected_time":145000000000,"state":"active","ping":45},{"user_id":746,"name":"rat gets the cheese","steam_id":76561198031234032,"connected_time":5326000000000,"state":"active","ping":95},{"user_id":786,"name":"resh","steam_id":76561198239598834,"connected_time":384000000000,"state":"active","ping":130},{"user_id":783,"name":"NEЯO","steam_id":76561197965450216,"connected_time":665000000000,"state":"active","ping":56},{"user_id":752,"name":"Arsonist Goose","steam_id":76561198147441830,"connected_time":4660000000000,"state":"active","ping":71},{"user_id":753,"name":"oil","steam_id":76561198099980149,"connected_time":4606000000000,"state":"active","ping":75},{"user_id":604,"name":"VerminKing","steam_id":76561198060887391,"connected_time":16715000000000,"state":"active","ping":55},{"user_id":788,"name":"Kaiga","steam_id":76561198044052046,"connected_time":72000000000,"state":"active","ping":123},{"user_id":743,"name":"goldhed","steam_id":76561198051751133,"connected_time":5359000000000,"state":"active","ping":60},{"user_id":712,"name":"NEBULA","steam_id":76561198086878595,"connected_time":7258000000000,"state":"active","ping":74},{"user_id":669,"name":"lusty","steam_id":76561198138478947,"connected_time":10660000000000,"state":"active","ping":38},{"user_id":705,"name":"[TrC] Nosy","steam_id":76561197978859310,"connected_time":7742000000000,"state":"active","ping":59},{"user_id":728,"name":"swarm of bee","steam_id":76561198059604047,"connected_time":5858000000000,"state":"active","ping":39},{"user_id":763,"name":"Doctor™","steam_id":76561198134309750,"connected_time":2534000000000,"state":"active","ping":106},{"user_id":765,"name":"thunderous prophet","steam_id":76561198131166135,"connected_time":2534000000000,"state":"active","ping":43}]},{"server_id":119,"name":"Uncletopia | Seattle | 2 | All Maps","name_short":"sea-2","host":"sea-1.us.uncletopia.com","port":27025,"enabled":true,"region":"us-west","cc":"us","latitude":47.608013,"longitude":-122.33517,"reserved":0,"last_update":"0001-01-01T00:00:00Z","name_a2s":"Uncletopia | Seattle | 2 | All Maps","protocol":17,"map":"ctf_2fort","folder":"tf","game":"Team Fortress","app_id":440,"player_count":22,"max_players":24,"Bots":0,"server_type":"Dedicated","server_os":"Linux","password":true,"vac":true,"version":"7932396","steam_id":85568392924469998,"keywords":["ctf","nocrits","nodmgspread","uncletopia"],"game_id":440,"stv_port":27026,"stv_name":"Uncletopia | Seattle | 2 | All Maps | STV","players":[{"user_id":304,"name":"Lego Yoda","steam_id":76561199008362890,"connected_time":10753000000000,"state":"active","ping":111},{"user_id":403,"name":"craftylongsword","steam_id":76561198340102940,"connected_time":3645000000000,"state":"active","ping":59},{"user_id":443,"name":"big car","steam_id":76561198067082350,"connected_time":21000000000,"state":"active","ping":74},{"user_id":434,"name":"yuuko","steam_id":76561198097711389,"connected_time":467000000000,"state":"active","ping":45},{"user_id":428,"name":"Lilith","steam_id":76561198120362654,"connected_time":801000000000,"state":"active","ping":44},{"user_id":357,"name":"Mr Boombastic","steam_id":76561198004916219,"connected_time":6689000000000,"state":"active","ping":84},{"user_id":423,"name":"Childhood Obesity","steam_id":76561198061190813,"connected_time":1075000000000,"state":"active","ping":62},{"user_id":442,"name":"TwinkGaming(Jerma)","steam_id":76561197972835907,"connected_time":202000000000,"state":"active","ping":68},{"user_id":420,"name":"PulledPork","steam_id":76561198182077258,"connected_time":1441000000000,"state":"active","ping":44},{"user_id":410,"name":"Kelly Goosecock","steam_id":76561198060731432,"connected_time":2589000000000,"state":"active","ping":86},{"user_id":416,"name":"DickCheneyReal41","steam_id":76561199027712652,"connected_time":1944000000000,"state":"active","ping":74},{"user_id":421,"name":"Coowil","steam_id":76561198070985437,"connected_time":1135000000000,"state":"active","ping":41},{"user_id":425,"name":"slaanesh worshiper","steam_id":76561198017283523,"connected_time":908000000000,"state":"active","ping":45},{"user_id":344,"name":"jude802","steam_id":76561198186405021,"connected_time":7948000000000,"state":"active","ping":61},{"user_id":426,"name":"DO THE DEVIL CHALLENGE","steam_id":76561198045437723,"connected_time":897000000000,"state":"active","ping":129},{"user_id":427,"name":"armpit fetishist","steam_id":76561199008452637,"connected_time":886000000000,"state":"active","ping":105},{"user_id":429,"name":"Puppeteer","steam_id":76561198159928108,"connected_time":791000000000,"state":"active","ping":58},{"user_id":433,"name":"Ethattack78","steam_id":76561199211723523,"connected_time":517000000000,"state":"active","ping":74},{"user_id":353,"name":"SnoDot","steam_id":76561198062209970,"connected_time":7514000000000,"state":"active","ping":33},{"user_id":412,"name":"★Mayd★","steam_id":76561198291985932,"connected_time":2420000000000,"state":"active","ping":74},{"user_id":439,"name":"Grentac","steam_id":76561198140435841,"connected_time":334000000000,"state":"active","ping":119},{"user_id":414,"name":"TheTroller2Billion","steam_id":76561198389802335,"connected_time":2397000000000,"state":"active","ping":47}]},{"server_id":406,"name":"Uncletopia | Seattle | 3 | Stopwatch Beta","name_short":"sea-3","host":"sea-1.us.uncletopia.com","port":27035,"enabled":true,"region":"us-west","cc":"us","latitude":47.608013,"longitude":-122.33517,"reserved":0,"last_update":"0001-01-01T00:00:00Z","name_a2s":"Uncletopia | Seattle | 3 | Stopwatch Beta","protocol":17,"map":"workshop/pl_badwater_pro_v12.ugc2142942074","folder":"tf","game":"Team Fortress","app_id":440,"player_count":0,"max_players":24,"Bots":0,"server_type":"Dedicated","server_os":"Linux","password":true,"vac":true,"version":"7932396","steam_id":85568392924515217,"keywords":["nocrits","nodmgspread","payload","uncletopia"],"game_id":440,"stv_port":27036,"stv_name":"Uncletopia | Seattle | 3 | Stopwatch Beta | STV","players":null},{"server_id":17,"name":"Uncletopia | San Francisco | 1 | All Maps","name_short":"sfo-1","host":"sfo-1.us.uncletopia.com","port":27015,"enabled":true,"region":"us-west","cc":"us","latitude":37.77397,"longitude":-122.4313,"reserved":0,"last_update":"0001-01-01T00:00:00Z","name_a2s":"Uncletopia | San Francisco | 1 | All Maps","protocol":17,"map":"cp_sunshine","folder":"tf","game":"Team Fortress","app_id":440,"player_count":0,"max_players":24,"Bots":0,"server_type":"Dedicated","server_os":"Linux","password":true,"vac":true,"version":"7932396","steam_id":85568392924469999,"keywords":["cp","nocrits","nodmgspread","uncletopia"],"game_id":440,"stv_port":27016,"stv_name":"Uncletopia | San Francisco | 1 | All Maps | STV","players":null},{"server_id":18,"name":"Uncletopia | San Francisco | 2 | All Maps","name_short":"sfo-2","host":"sfo-1.us.uncletopia.com","port":27025,"enabled":true,"region":"us-west","cc":"us","latitude":37.77397,"longitude":-122.4313,"reserved":0,"last_update":"0001-01-01T00:00:00Z","name_a2s":"Uncletopia | San Francisco | 2 | All Maps","protocol":17,"map":"pl_swiftwater_final1","folder":"tf","game":"Team Fortress","app_id":440,"player_count":23,"max_players":24,"Bots":0,"server_type":"Dedicated","server_os":"Linux","password":true,"vac":true,"version":"7932396","steam_id":85568392924470000,"keywords":["nocrits","nodmgspread","payload","uncletopia"],"game_id":440,"stv_port":27026,"stv_name":"Uncletopia | San Francisco | 2 | All Maps | STV","players":[{"user_id":664,"name":"social distance warrior","steam_id":76561198128992994,"connected_time":3486000000000,"state":"active","ping":66},{"user_id":688,"name":"Kidjays","steam_id":76561198124941901,"connected_time":869000000000,"state":"active","ping":80},{"user_id":696,"name":"Medic Boyfriend","steam_id":76561198104086771,"connected_time":584000000000,"state":"active","ping":53},{"user_id":695,"name":"Texas","steam_id":76561198053276976,"connected_time":613000000000,"state":"active","ping":69},{"user_id":671,"name":"Wavelengths","steam_id":76561197997621320,"connected_time":2676000000000,"state":"active","ping":79},{"user_id":692,"name":"doopsies","steam_id":76561198083000867,"connected_time":791000000000,"state":"active","ping":70},{"user_id":699,"name":"4K","steam_id":76561198062712964,"connected_time":502000000000,"state":"active","ping":34},{"user_id":705,"name":"Aradia","steam_id":76561198255575892,"connected_time":269000000000,"state":"active","ping":76},{"user_id":635,"name":"Auburn","steam_id":76561198199541493,"connected_time":5412000000000,"state":"active","ping":62},{"user_id":676,"name":"lilypad\u003c/3","steam_id":76561198094140669,"connected_time":2563000000000,"state":"active","ping":88},{"user_id":698,"name":"KORBANOT","steam_id":76561198062761531,"connected_time":579000000000,"state":"active","ping":107},{"user_id":686,"name":"Leodragon678","steam_id":76561198985877790,"connected_time":1164000000000,"state":"active","ping":86},{"user_id":700,"name":"ILLVZN","steam_id":76561199065961083,"connected_time":488000000000,"state":"active","ping":52},{"user_id":607,"name":"RainboomCrash","steam_id":76561198065612273,"connected_time":7458000000000,"state":"active","ping":63},{"user_id":693,"name":"Leon Skennedy","steam_id":76561198053582170,"connected_time":716000000000,"state":"active","ping":58},{"user_id":608,"name":"Chiaki Nanami","steam_id":76561198164782653,"connected_time":7452000000000,"state":"active","ping":119},{"user_id":609,"name":"gerg","steam_id":76561197997127387,"connected_time":7449000000000,"state":"active","ping":59},{"user_id":618,"name":"Mcdiddle","steam_id":76561198025390097,"connected_time":6472000000000,"state":"active","ping":120},{"user_id":704,"name":"Super Bullshit Man","steam_id":76561198102416507,"connected_time":338000000000,"state":"active","ping":130},{"user_id":665,"name":"rock gaming","steam_id":76561199402868311,"connected_time":3304000000000,"state":"active","ping":72},{"user_id":694,"name":"primordial","steam_id":76561198058836750,"connected_time":688000000000,"state":"active","ping":82},{"user_id":681,"name":"dill","steam_id":76561198347085789,"connected_time":1709000000000,"state":"active","ping":67},{"user_id":706,"name":"crumblejon","steam_id":76561198111273302,"connected_time":240000000000,"state":"active","ping":60}]},{"server_id":19,"name":"Uncletopia | San Francisco | 3 | Stopwatch Beta","name_short":"sfo-3","host":"sfo-1.us.uncletopia.com","port":27035,"enabled":true,"region":"us-west","cc":"us","latitude":37.77397,"longitude":-122.4313,"reserved":0,"last_update":"0001-01-01T00:00:00Z","name_a2s":"Uncletopia | San Francisco | 3 | Stopwatch Beta","protocol":17,"map":"workshop/koth_ashville_final.ugc2130459942","folder":"tf","game":"Team Fortress","app_id":440,"player_count":0,"max_players":24,"Bots":0,"server_type":"Dedicated","server_os":"Linux","password":true,"vac":true,"version":"7932396","steam_id":85568392924742824,"keywords":["cp","nocrits","nodmgspread","uncletopia"],"game_id":440,"stv_port":27036,"stv_name":"Uncletopia | San Francisco | 3 | Stopwatch Beta | STV","players":null},{"server_id":20,"name":"Uncletopia | San Francisco | 4 | Community","name_short":"sfo-4","host":"sfo-1.us.uncletopia.com","port":27045,"enabled":true,"region":"us-west","cc":"us","latitude":37.77397,"longitude":-122.4313,"reserved":0,"last_update":"0001-01-01T00:00:00Z","name_a2s":"Uncletopia | San Francisco | 4 | Community","protocol":17,"map":"workshop/rd_asteroid_redux_b1.ugc2154902912","folder":"tf","game":"Team Fortress","app_id":440,"player_count":0,"max_players":24,"Bots":0,"server_type":"Dedicated","server_os":"Linux","password":true,"vac":true,"version":"7932396","steam_id":85568392924742826,"keywords":["beta","nocrits","nodmgspread","rd","uncletopia"],"game_id":440,"stv_port":27046,"stv_name":"Uncletopia | San Francisco | 4 | Community | STV","players":null},{"server_id":141,"name":"Uncletopia | Sydney | 1 | All Maps","name_short":"syd-1","host":"syd-1.au.uncletopia.com","port":27015,"enabled":true,"region":"au","cc":"au","latitude":-33.865143,"longitude":151.2099,"reserved":0,"last_update":"0001-01-01T00:00:00Z","name_a2s":"Uncletopia | Sydney | 1 | All Maps","protocol":17,"map":"pl_frontier_final","folder":"tf","game":"Team Fortress","app_id":440,"player_count":24,"max_players":24,"Bots":0,"server_type":"Dedicated","server_os":"Linux","password":true,"vac":true,"version":"7932396","steam_id":85568392924470001,"keywords":["nocrits","nodmgspread","payload","uncletopia"],"game_id":440,"stv_port":27016,"stv_name":"Uncletopia | Sydney | 1 | All Maps | STV","players":[{"user_id":114,"name":"weezer","steam_id":76561199439508788,"connected_time":1072000000000,"state":"active","ping":62},{"user_id":16,"name":"miyamoto is daddy","steam_id":76561199483818230,"connected_time":7707000000000,"state":"active","ping":74},{"user_id":130,"name":"Eater","steam_id":76561198100050147,"connected_time":413000000000,"state":"active","ping":112},{"user_id":124,"name":"BackyardBonanza19943214","steam_id":76561198383642609,"connected_time":762000000000,"state":"active","ping":60},{"user_id":92,"name":"Abraham Lincoln","steam_id":76561198095292515,"connected_time":3071000000000,"state":"active","ping":63},{"user_id":53,"name":"Lumalee ❤","steam_id":76561198157613299,"connected_time":4585000000000,"state":"active","ping":66},{"user_id":90,"name":"Skidallion","steam_id":76561198083922206,"connected_time":3234000000000,"state":"active","ping":72},{"user_id":129,"name":"Storms","steam_id":76561199058704739,"connected_time":511000000000,"state":"active","ping":81},{"user_id":77,"name":"pants money","steam_id":76561198066256359,"connected_time":3781000000000,"state":"active","ping":54},{"user_id":116,"name":"Meat","steam_id":76561198021812511,"connected_time":1063000000000,"state":"active","ping":53},{"user_id":93,"name":"Tricka •","steam_id":76561197968440123,"connected_time":3046000000000,"state":"active","ping":45},{"user_id":99,"name":"Lysergic Acid Diethylamide","steam_id":76561198153006468,"connected_time":2640000000000,"state":"active","ping":64},{"user_id":103,"name":"CypressFluff (She/Her)","steam_id":76561198174667818,"connected_time":2313000000000,"state":"active","ping":70},{"user_id":128,"name":"Lotuses","steam_id":76561199045059964,"connected_time":533000000000,"state":"active","ping":103},{"user_id":118,"name":"Crispy","steam_id":76561198081760160,"connected_time":991000000000,"state":"active","ping":69},{"user_id":119,"name":"Doodles ♛","steam_id":76561198023807247,"connected_time":945000000000,"state":"active","ping":60},{"user_id":110,"name":"Jacob","steam_id":76561198059341907,"connected_time":1246000000000,"state":"active","ping":45},{"user_id":122,"name":"ow","steam_id":76561198133277383,"connected_time":823000000000,"state":"active","ping":45},{"user_id":112,"name":"Morgenstern","steam_id":76561198253080474,"connected_time":1134000000000,"state":"active","ping":68},{"user_id":126,"name":"mada","steam_id":76561199436707447,"connected_time":620000000000,"state":"active","ping":56},{"user_id":82,"name":"Aquila","steam_id":76561198042520637,"connected_time":3509000000000,"state":"active","ping":41},{"user_id":88,"name":"Chooka","steam_id":76561197992307814,"connected_time":3301000000000,"state":"active","ping":70},{"user_id":131,"name":"Dupiter","steam_id":76561198108820767,"connected_time":99000000000,"state":"active","ping":48},{"user_id":127,"name":"lavanderpumpernickle","steam_id":76561199093611800,"connected_time":576000000000,"state":"active","ping":73}]},{"server_id":123,"name":"Uncletopia | Sydney | 2 | All Maps","name_short":"syd-2","host":"syd-1.au.uncletopia.com","port":27025,"enabled":true,"region":"au","cc":"au","latitude":-33.865143,"longitude":151.2099,"reserved":0,"last_update":"0001-01-01T00:00:00Z","name_a2s":"Uncletopia | Sydney | 2 | All Maps","protocol":17,"map":"pl_pier","folder":"tf","game":"Team Fortress","app_id":440,"player_count":0,"max_players":24,"Bots":0,"server_type":"Dedicated","server_os":"Linux","password":true,"vac":true,"version":"7932396","steam_id":85568392924470002,"keywords":["nocrits","nodmgspread","payload","uncletopia"],"game_id":440,"stv_port":27026,"stv_name":"Uncletopia | Sydney | 2 | All Maps | STV","players":null},{"server_id":395,"name":"Uncletopia | Sydney | 3 | All Maps","name_short":"syd-3","host":"syd-1.au.uncletopia.com","port":27035,"enabled":true,"region":"au","cc":"au","latitude":-33.865143,"longitude":151.2099,"reserved":0,"last_update":"0001-01-01T00:00:00Z","name_a2s":"Uncletopia | Sydney | 3 | All Maps","protocol":17,"map":"koth_viaduct","folder":"tf","game":"Team Fortress","app_id":440,"player_count":0,"max_players":24,"Bots":0,"server_type":"Dedicated","server_os":"Linux","password":true,"vac":true,"version":"7932396","steam_id":85568392925194467,"keywords":["cp","nocrits","nodmgspread","uncletopia"],"game_id":440,"stv_port":27036,"stv_name":"Uncletopia | Sydney | 3 | All Maps | STV","players":null},{"server_id":396,"name":"Uncletopia | Sydney | 4 | All Maps","name_short":"syd-4","host":"syd-1.au.uncletopia.com","port":27045,"enabled":true,"region":"au","cc":"au","latitude":-33.865143,"longitude":151.2099,"reserved":0,"last_update":"0001-01-01T00:00:00Z","name_a2s":"Uncletopia | Sydney | 4 | All Maps","protocol":17,"map":"koth_viaduct","folder":"tf","game":"Team Fortress","app_id":440,"player_count":0,"max_players":24,"Bots":0,"server_type":"Dedicated","server_os":"Linux","password":true,"vac":true,"version":"7932396","steam_id":85568392925397958,"keywords":["cp","nocrits","nodmgspread","uncletopia"],"game_id":440,"stv_port":27046,"stv_name":"Uncletopia | Sydney | 4 | All Maps | STV","players":null},{"server_id":58,"name":"Uncletopia | Sydney | 5 | Stopwatch Beta","name_short":"syd-5","host":"syd-1.au.uncletopia.com","port":27055,"enabled":true,"region":"au","cc":"au","latitude":-33.865143,"longitude":151.2099,"reserved":0,"last_update":"0001-01-01T00:00:00Z","name_a2s":"Uncletopia | Sydney | 5 | Stopwatch Beta","protocol":17,"map":"pl_borneo","folder":"tf","game":"Team Fortress","app_id":440,"player_count":0,"max_players":24,"Bots":0,"server_type":"Dedicated","server_os":"Linux","password":true,"vac":true,"version":"7932396","steam_id":85568392925397959,"keywords":["nocrits","nodmgspread","payload","uncletopia"],"game_id":440,"stv_port":27056,"stv_name":"Uncletopia | Sydney | 5 | Stopwatch Beta | STV","players":null},{"server_id":59,"name":"Uncletopia | Sydney | 6 | Community","name_short":"syd-6","host":"syd-1.au.uncletopia.com","port":27065,"enabled":true,"region":"au","cc":"au","latitude":-33.865143,"longitude":151.2099,"reserved":0,"last_update":"0001-01-01T00:00:00Z","name_a2s":"Uncletopia | Sydney | 6 | Community","protocol":17,"map":"workshop/pl_emerge_rc2.ugc888027758","folder":"tf","game":"Team Fortress","app_id":440,"player_count":0,"max_players":24,"Bots":0,"server_type":"Dedicated","server_os":"Linux","password":true,"vac":true,"version":"7932396","steam_id":85568392925397960,"keywords":["nocrits","nodmgspread","payload","uncletopia"],"game_id":440,"stv_port":27066,"stv_name":"Uncletopia | Sydney | 6 | Community | STV","players":null},{"server_id":49,"name":"Uncletopia | Warsaw | 1 | All Maps","name_short":"waw-1","host":"waw-1.pl.uncletopia.com","port":27015,"enabled":true,"region":"eu","cc":"pl","latitude":52.2297,"longitude":21.017532,"reserved":0,"last_update":"0001-01-01T00:00:00Z","name_a2s":"","protocol":0,"map":"","folder":"","game":"","app_id":0,"player_count":0,"max_players":0,"Bots":0,"server_type":"","server_os":"","password":false,"vac":false,"version":"","steam_id":0,"keywords":null,"game_id":0,"stv_port":0,"stv_name":"","players":null},{"server_id":50,"name":"Uncletopia | Warsaw | 2 | All Maps","name_short":"waw-2","host":"waw-1.pl.uncletopia.com","port":27025,"enabled":true,"region":"eu","cc":"pl","latitude":52.2297,"longitude":21.017532,"reserved":0,"last_update":"0001-01-01T00:00:00Z","name_a2s":"Uncletopia | Warsaw | 2 | All Maps","protocol":17,"map":"cp_sunshine","folder":"tf","game":"Team Fortress","app_id":440,"player_count":0,"max_players":24,"Bots":0,"server_type":"Dedicated","server_os":"Linux","password":true,"vac":true,"version":"7932396","steam_id":85568392925397851,"keywords":["cp","nocrits","nodmgspread","uncletopia"],"game_id":440,"stv_port":27026,"stv_name":"Uncletopia | Warsaw | 2 | All Maps | STV","players":null},{"server_id":51,"name":"Uncletopia | Warsaw | 3 | All Maps","name_short":"waw-3","host":"waw-1.pl.uncletopia.com","port":27035,"enabled":true,"region":"eu","cc":"pl","latitude":52.2297,"longitude":21.017532,"reserved":0,"last_update":"0001-01-01T00:00:00Z","name_a2s":"Uncletopia | Warsaw | 3 | All Maps","protocol":17,"map":"koth_lakeside_final","folder":"tf","game":"Team Fortress","app_id":440,"player_count":0,"max_players":24,"Bots":0,"server_type":"Dedicated","server_os":"Linux","password":true,"vac":true,"version":"7932396","steam_id":85568392925397852,"keywords":["cp","nocrits","nodmgspread","uncletopia"],"game_id":440,"stv_port":27036,"stv_name":"Uncletopia | Warsaw | 3 | All Maps | STV","players":null},{"server_id":52,"name":"Uncletopia | Warsaw | 4 | All Maps","name_short":"waw-4","host":"waw-1.pl.uncletopia.com","port":27045,"enabled":true,"region":"eu","cc":"pl","latitude":52.2297,"longitude":21.017532,"reserved":0,"last_update":"0001-01-01T00:00:00Z","name_a2s":"Uncletopia | Warsaw | 4 | All Maps","protocol":17,"map":"pl_swiftwater_final1","folder":"tf","game":"Team Fortress","app_id":440,"player_count":0,"max_players":24,"Bots":0,"server_type":"Dedicated","server_os":"Linux","password":true,"vac":true,"version":"7932396","steam_id":85568392925397853,"keywords":["nocrits","nodmgspread","payload","uncletopia"],"game_id":440,"stv_port":27046,"stv_name":"Uncletopia | Warsaw | 4 | All Maps | STV","players":null},{"server_id":53,"name":"Uncletopia | Warsaw | 5 | Stopwatch Beta","name_short":"waw-5","host":"waw-1.pl.uncletopia.com","port":27055,"enabled":true,"region":"eu","cc":"pl","latitude":52.2297,"longitude":21.017532,"reserved":0,"last_update":"0001-01-01T00:00:00Z","name_a2s":"Uncletopia | Warsaw | 5 | Stopwatch Beta","protocol":17,"map":"koth_highpass","folder":"tf","game":"Team Fortress","app_id":440,"player_count":0,"max_players":24,"Bots":0,"server_type":"Dedicated","server_os":"Linux","password":true,"vac":true,"version":"7932396","steam_id":85568392925397854,"keywords":["cp","nocrits","nodmgspread","uncletopia"],"game_id":440,"stv_port":27056,"stv_name":"Uncletopia | Warsaw | 5 | Stopwatch Beta | STV","players":null},{"server_id":54,"name":"Uncletopia | Warsaw | 6 | Community","name_short":"waw-6","host":"waw-1.pl.uncletopia.com","port":27065,"enabled":true,"region":"eu","cc":"pl","latitude":52.2297,"longitude":21.017532,"reserved":0,"last_update":"0001-01-01T00:00:00Z","name_a2s":"Uncletopia | Warsaw | 6 | Community","protocol":17,"map":"pl_upward","folder":"tf","game":"Team Fortress","app_id":440,"player_count":0,"max_players":24,"Bots":0,"server_type":"Dedicated","server_os":"Linux","password":true,"vac":true,"version":"7932396","steam_id":85568392925397856,"keywords":["nocrits","nodmgspread","payload","uncletopia"],"game_id":440,"stv_port":27066,"stv_name":"Uncletopia | Warsaw | 6 | Community | STV","players":null}]}