{"status":true,"message":"","result":[{"server_id":9,"name":"Uncletopia | Atlanta | 1 | All Maps","name_short":"atl-1","host":"atl-1.us.uncletopia.com","port":27015,"enabled":true,"region":"us-east","cc":"us","latitude":33.753746,"longitude":-84.38633,"reserved":0,"last_update":"0001-01-01T00:00:00Z","name_a2s":"Uncletopia | Atlanta | 1 | All Maps","protocol":17,"map":"cp_dustbowl","folder":"tf","game":"Team Fortress","app_id":440,"player_count":24,"max_players":24,"Bots":0,"server_type":"Dedicated","server_os":"Linux","password":true,"vac":true,"version":"7742253","steam_id":85568392924469982,"keywords":["cp","nocrits","nodmgspread","uncletopia"],"game_id":440,"stv_port":27016,"stv_name":"Uncletopia | Atlanta | 1 | All Maps | STV","players":[{"user_id":260,"name":"festive pork trooper","steam_id":76561198150327877,"connected_time":3147000000000,"state":"active","ping":42},{"user_id":274,"name":"Shipmunk","steam_id":76561198063062670,"connected_time":2205000000000,"state":"active","ping":52},{"user_id":273,"name":"Spy_Is_Pye","steam_id":76561199439622967,"connected_time":2268000000000,"state":"active","ping":68},{"user_id":275,"name":"catboy phroliax","steam_id":76561198207075529,"connected_time":2191000000000,"state":"active","ping":91},{"user_id":290,"name":"erwebomio","steam_id":76561198071152924,"connected_time":1185000000000,"state":"active","ping":99},{"user_id":264,"name":"beethan","steam_id":76561198148199120,"connected_time":2806000000000,"state":"active","ping":69},{"user_id":285,"name":"floofy","steam_id":76561198389769098,"connected_time":1425000000000,"state":"active","ping":81},{"user_id":266,"name":"Tay1Qr","steam_id":76561198082809935,"connected_time":2775000000000,"state":"active","ping":65},{"user_id":257,"name":"moodi catgirl","steam_id":76561198124028045,"connected_time":3659000000000,"state":"active","ping":66},{"user_id":302,"name":"ATL1 | Rat","steam_id":76561198137925582,"connected_time":867000000000,"state":"active","ping":61},{"user_id":283,"name":"riri ·óú·¥ó·óú","steam_id":76561198055462404,"connected_time":1471000000000,"state":"active","ping":86},{"user_id":303,"name":"ano sono etto","steam_id":76561197965022076,"connected_time":816000000000,"state":"active","ping":75},{"user_id":236,"name":"Ashes!","steam_id":76561197998475441,"connected_time":5116000000000,"state":"active","ping":88},{"user_id":309,"name":"ash","steam_id":76561198127890645,"connected_time":713000000000,"state":"active","ping":68},{"user_id":297,"name":"Christmas Chitin Connoisseur","steam_id":76561198980062131,"connected_time":1072000000000,"state":"active","ping":70},{"user_id":291,"name":"fortnite.jimmy.2014","steam_id":76561199177672325,"connected_time":1185000000000,"state":"active","ping":42},{"user_id":333,"name":"frid","steam_id":76561198005806915,"connected_time":93000000000,"state":"active","ping":77},{"user_id":253,"name":"layabout","steam_id":76561198130892117,"connected_time":4007000000000,"state":"active","ping":68},{"user_id":300,"name":"Ceiling Man","steam_id":76561198003959902,"connected_time":963000000000,"state":"active","ping":59},{"user_id":304,"name":"NERDBOBS | Lavie","steam_id":76561198825997674,"connected_time":800000000000,"state":"active","ping":47},{"user_id":305,"name":"THIRDPIERCE","steam_id":76561198405366314,"connected_time":797000000000,"state":"active","ping":87},{"user_id":311,"name":"ATL1 | icyy","steam_id":76561198968001329,"connected_time":643000000000,"state":"active","ping":59},{"user_id":267,"name":"Ground Control to Majortom","steam_id":76561198065589126,"connected_time":2756000000000,"state":"active","ping":65},{"user_id":334,"name":"ŒúŒ±rrz","steam_id":76561198079498985,"connected_time":25000000000,"state":"spawning","ping":76}]},{"server_id":400,"name":"Uncletopia | Atlanta | 3 | Stopwatch Beta","name_short":"atl-3","host":"atl-1.us.uncletopia.com","port":27035,"enabled":true,"region":"us-east","cc":"us","latitude":33.753746,"longitude":-84.38633,"reserved":0,"last_update":"0001-01-01T00:00:00Z","name_a2s":"Uncletopia | Atlanta | 3 | Stopwatch Beta","protocol":17,"map":"workshop/koth_ashville_final.ugc2130459942","folder":"tf","game":"Team Fortress","app_id":440,"player_count":0,"max_players":24,"Bots":0,"server_type":"Dedicated","server_os":"Linux","password":true,"vac":true,"version":"7742253","steam_id":85568392924515187,"keywords":["cp","nocrits","nodmgspread","uncletopia"],"game_id":440,"stv_port":27036,"stv_name":"Uncletopia | Atlanta | 3 | Stopwatch Beta | STV","players":null},{"server_id":401,"name":"Uncletopia | Atlanta | 4 | No Payload","name_short":"atl-4","host":"atl-1.us.uncletopia.com","port":27045,"enabled":true,"region":"us-east","cc":"us","latitude":33.753746,"longitude":-84.38633,"reserved":0,"last_update":"0001-01-01T00:00:00Z","name_a2s":"Uncletopia | Atlanta | 4 | No Payload","protocol":17,"map":"pl_pier","folder":"tf","game":"Team Fortress","app_id":440,"player_count":0,"max_players":24,"Bots":0,"server_type":"Dedicated","server_os":"Linux","password":true,"vac":true,"version":"7723704","steam_id":85568392924515188,"keywords":["nocrits","nodmgspread","payload","uncletopia"],"game_id":440,"stv_port":27046,"stv_name":"Uncletopia | Atlanta | 4 | No Payload | STV","players":null},{"server_id":2,"name":"Uncletopia | Chicago | 1 | All Maps","name_short":"chi-1","host":"chi-1.us.uncletopia.com","port":27015,"enabled":true,"region":"us-central","cc":"us","latitude":41.881832,"longitude":-87.62318,"reserved":0,"last_update":"0001-01-01T00:00:00Z","name_a2s":"Uncletopia | Chicago | 1 | All Maps","protocol":17,"map":"pl_frontier_final","folder":"tf","game":"Team Fortress","app_id":440,"player_count":22,"max_players":24,"Bots":0,"server_type":"Dedicated","server_os":"Linux","password":true,"vac":true,"version":"7742253","steam_id":85568392924469984,"keywords":["nocrits","nodmgspread","payload","uncletopia"],"game_id":440,"stv_port":27016,"stv_name":"Uncletopia | Chicago | 1 | All Maps | STV","players":[{"user_id":446,"name":"DiHMO","steam_id":76561198030130169,"connected_time":2127000000000,"state":"active","ping":45},{"user_id":447,"name":"Hiro","steam_id":76561198038287158,"connected_time":2103000000000,"state":"active","ping":61},{"user_id":460,"name":"willo","steam_id":76561198047401031,"connected_time":90000000000,"state":"spawning","ping":82},{"user_id":461,"name":"Crabs on Deck","steam_id":76561198812183594,"connected_time":80000000000,"state":"active","ping":65},{"user_id":400,"name":"Ras","steam_id":76561198123546775,"connected_time":7478000000000,"state":"active","ping":89},{"user_id":405,"name":"TheNicksta","steam_id":76561198241988360,"connected_time":7266000000000,"state":"active","ping":76},{"user_id":430,"name":"aero","steam_id":76561198297202459,"connected_time":4305000000000,"state":"active","ping":75},{"user_id":440,"name":"MasterIceNinja","steam_id":76561198125864012,"connected_time":3005000000000,"state":"active","ping":80},{"user_id":414,"name":"‚ô• Femboy‚ô•Ventily ‚ô•","steam_id":76561198157260335,"connected_time":6519000000000,"state":"active","ping":45},{"user_id":418,"name":"mossy_woods","steam_id":76561198284350370,"connected_time":5601000000000,"state":"active","ping":79},{"user_id":462,"name":"Mafia","steam_id":76561198225713512,"connected_time":73000000000,"state":"active","ping":80},{"user_id":464,"name":"MikeLovesRabbit","steam_id":76561197997742625,"connected_time":21000000000,"state":"spawning","ping":79},{"user_id":456,"name":".JIFF","steam_id":76561198045181760,"connected_time":654000000000,"state":"active","ping":60},{"user_id":451,"name":"TheJuiceCrew","steam_id":76561198109073254,"connected_time":1676000000000,"state":"active","ping":72},{"user_id":454,"name":"dyragu","steam_id":76561198172046883,"connected_time":903000000000,"state":"active","ping":48},{"user_id":373,"name":"crow","steam_id":76561198046802071,"connected_time":10106000000000,"state":"active","ping":56},{"user_id":432,"name":"TheToastingToaster","steam_id":76561198439391966,"connected_time":3549000000000,"state":"active","ping":59},{"user_id":436,"name":"blob","steam_id":76561198122375328,"connected_time":3475000000000,"state":"active","ping":58},{"user_id":423,"name":"Catboy Potemkin","steam_id":76561198078474420,"connected_time":5254000000000,"state":"active","ping":65},{"user_id":459,"name":"tlar","steam_id":76561198060117460,"connected_time":511000000000,"state":"active","ping":75},{"user_id":450,"name":"SirJellyRolls","steam_id":76561198119277244,"connected_time":1704000000000,"state":"active","ping":65},{"user_id":445,"name":"Buddy_and_Pal","steam_id":76561199078574984,"connected_time":2149000000000,"state":"active","ping":79}]},{"server_id":106,"name":"Uncletopia | Chicago | 2 | All Maps","name_short":"chi-2","host":"chi-1.us.uncletopia.com","port":27025,"enabled":true,"region":"us-central","cc":"us","latitude":41.881832,"longitude":-87.62318,"reserved":0,"last_update":"0001-01-01T00:00:00Z","name_a2s":"Uncletopia | Chicago | 2 | All Maps","protocol":17,"map":"pl_barnblitz","folder":"tf","game":"Team Fortress","app_id":440,"player_count":24,"max_players":24,"Bots":0,"server_type":"Dedicated","server_os":"Linux","password":true,"vac":true,"version":"7742253","steam_id":85568392924469985,"keywords":["nocrits","nodmgspread","payload","uncletopia"],"game_id":440,"stv_port":27026,"stv_name":"Uncletopia | Chicago | 2 | All Maps | STV","players":[{"user_id":581,"name":"misterjozo","steam_id":76561198012300755,"connected_time":1889000000000,"state":"active","ping":109},{"user_id":608,"name":"Dakota Sutcliffe","steam_id":76561198170660959,"connected_time":142000000000,"state":"active","ping":65},{"user_id":541,"name":"hej","steam_id":76561197996366940,"connected_time":5008000000000,"state":"active","ping":61},{"user_id":601,"name":"Avg. Santa Believer (Nice list)","steam_id":76561198040444697,"connected_time":552000000000,"state":"active","ping":65},{"user_id":606,"name":"e","steam_id":76561198131245396,"connected_time":172000000000,"state":"active","ping":52},{"user_id":561,"name":"gasparmx","steam_id":76561197998611994,"connected_time":3293000000000,"state":"active","ping":120},{"user_id":614,"name":"The Mohawk Menace","steam_id":76561199140785887,"connected_time":55000000000,"state":"active","ping":144},{"user_id":551,"name":"Dot.","steam_id":76561198149463984,"connected_time":3886000000000,"state":"active","ping":67},{"user_id":607,"name":"sork","steam_id":76561198082446459,"connected_time":165000000000,"state":"active","ping":71},{"user_id":575,"name":"tools","steam_id":76561199010542612,"connected_time":1977000000000,"state":"active","ping":45},{"user_id":597,"name":"L0git3ch","steam_id":76561198012721951,"connected_time":771000000000,"state":"active","ping":148},{"user_id":537,"name":"vmoney160","steam_id":76561198053516110,"connected_time":5041000000000,"state":"active","ping":83},{"user_id":524,"name":"randomperson88","steam_id":76561199228822173,"connected_time":5412000000000,"state":"active","ping":46},{"user_id":602,"name":"lfty","steam_id":76561198283841707,"connected_time":462000000000,"state":"active","ping":70},{"user_id":598,"name":"street baller","steam_id":76561198918417253,"connected_time":728000000000,"state":"active","ping":61},{"user_id":592,"name":"6t26j","steam_id":76561198278282836,"connected_time":1092000000000,"state":"active","ping":56},{"user_id":604,"name":"Seru","steam_id":76561199219827214,"connected_time":289000000000,"state":"active","ping":94},{"user_id":615,"name":"CheeseCake488","steam_id":76561199407617942,"connected_time":54000000000,"state":"active","ping":132},{"user_id":616,"name":"sex","steam_id":76561198198787713,"connected_time":2000000000,"state":"spawning","ping":59},{"user_id":564,"name":"twitch.tv/firepow10","steam_id":76561198111259720,"connected_time":3022000000000,"state":"active","ping":72},{"user_id":530,"name":"Le","steam_id":76561198817754233,"connected_time":5258000000000,"state":"active","ping":88},{"user_id":605,"name":"Karma","steam_id":76561198030565234,"connected_time":192000000000,"state":"active","ping":66},{"user_id":609,"name":"J3SUS","steam_id":76561198368965383,"connected_time":140000000000,"state":"active","ping":71},{"user_id":610,"name":"pixl","steam_id":76561198159732718,"connected_time":138000000000,"state":"active","ping":52}]},{"server_id":402,"name":"Uncletopia | Chicago | 3 | All Maps","name_short":"chi-3","host":"chi-1.us.uncletopia.com","port":27035,"enabled":true,"region":"us-central","cc":"us","latitude":41.881832,"longitude":-87.62318,"reserved":0,"last_update":"0001-01-01T00:00:00Z","name_a2s":"Uncletopia | Chicago | 3 | All Maps","protocol":17,"map":"cp_sunshine","folder":"tf","game":"Team Fortress","app_id":440,"player_count":24,"max_players":24,"Bots":0,"server_type":"Dedicated","server_os":"Linux","password":true,"vac":true,"version":"7742253","steam_id":85568392924515191,"keywords":["cp","nocrits","nodmgspread","uncletopia"],"game_id":440,"stv_port":27036,"stv_name":"Uncletopia | Chicago | 3 | All Maps | STV","players":[{"user_id":260,"name":"Lord Scrubling","steam_id":76561198263744445,"connected_time":512000000000,"state":"active","ping":74},{"user_id":261,"name":"Ziggy Q","steam_id":76561197995360978,"connected_time":503000000000,"state":"active","ping":60},{"user_id":239,"name":"Sicko Mode (Chris Pratt Cover)","steam_id":76561198315786174,"connected_time":1452000000000,"state":"active","ping":81},{"user_id":258,"name":"pencilneck","steam_id":76561198865971290,"connected_time":563000000000,"state":"active","ping":86},{"user_id":218,"name":"garfield","steam_id":76561198114119308,"connected_time":2242000000000,"state":"active","ping":63},{"user_id":263,"name":"You Want Me","steam_id":76561198135492119,"connected_time":455000000000,"state":"active","ping":83},{"user_id":255,"name":"The Super Mario Bros. Movie","steam_id":76561198871692156,"connected_time":917000000000,"state":"active","ping":100},{"user_id":211,"name":"choi","steam_id":76561198053669887,"connected_time":2441000000000,"state":"active","ping":118},{"user_id":244,"name":"Gardangle","steam_id":76561198394173831,"connected_time":1368000000000,"state":"active","ping":102},{"user_id":254,"name":"Octobella Enthusiast","steam_id":76561198199266047,"connected_time":1021000000000,"state":"active","ping":58},{"user_id":247,"name":"Shame","steam_id":76561198100490994,"connected_time":1318000000000,"state":"active","ping":75},{"user_id":262,"name":"Not a lolicon","steam_id":76561198843961343,"connected_time":502000000000,"state":"active","ping":75},{"user_id":245,"name":"gibbs","steam_id":76561198281270214,"connected_time":1357000000000,"state":"active","ping":85},{"user_id":265,"name":"Nic0","steam_id":76561198305690218,"connected_time":335000000000,"state":"active","ping":70},{"user_id":214,"name":"Emprial","steam_id":76561198195574594,"connected_time":2331000000000,"state":"active","ping":75},{"user_id":226,"name":"Tick","steam_id":76561198184161214,"connected_time":2042000000000,"state":"active","ping":40},{"user_id":217,"name":"kametro4","steam_id":76561198835430429,"connected_time":2250000000000,"state":"active","ping":82},{"user_id":256,"name":"WMario","steam_id":76561198017061554,"connected_time":907000000000,"state":"active","ping":61},{"user_id":220,"name":"ly","steam_id":76561198062922146,"connected_time":2195000000000,"state":"active","ping":82},{"user_id":250,"name":"Oxyclean","steam_id":76561198042954813,"connected_time":1282000000000,"state":"active","ping":82},{"user_id":223,"name":"hennessy and sailor moon","steam_id":76561198125947844,"connected_time":2106000000000,"state":"active","ping":100},{"user_id":267,"name":"Hot cheeto up my left nostril","steam_id":76561199103766971,"connected_time":0,"state":"spawning","ping":0},{"user_id":234,"name":"nhbiker","steam_id":76561198081277675,"connected_time":1635000000000,"state":"active","ping":60},{"user_id":257,"name":"N0T@TR@P","steam_id":76561198323432636,"connected_time":668000000000,"state":"active","ping":60}]},{"server_id":403,"name":"Uncletopia | Chicago | 4 | All Maps","name_short":"chi-4","host":"chi-1.us.uncletopia.com","port":27045,"enabled":true,"region":"us-central","cc":"us","latitude":41.881832,"longitude":-87.62318,"reserved":0,"last_update":"0001-01-01T00:00:00Z","name_a2s":"Uncletopia | Chicago | 4 | All Maps","protocol":17,"map":"cp_mountainlab","folder":"tf","game":"Team Fortress","app_id":440,"player_count":24,"max_players":24,"Bots":0,"server_type":"Dedicated","server_os":"Linux","password":true,"vac":true,"version":"7742253","steam_id":85568392924515193,"keywords":["cp","nocrits","nodmgspread","uncletopia"],"game_id":440,"stv_port":27046,"stv_name":"Uncletopia | Chicago | 4 | All Maps | STV","players":[{"user_id":177,"name":"soup","steam_id":76561198099977572,"connected_time":596000000000,"state":"active","ping":59},{"user_id":186,"name":"Chode Mode","steam_id":76561198353840477,"connected_time":174000000000,"state":"active","ping":61},{"user_id":163,"name":"Banes","steam_id":76561198083485876,"connected_time":1810000000000,"state":"active","ping":78},{"user_id":131,"name":"Open Mailbox","steam_id":76561198051933580,"connected_time":3540000000000,"state":"active","ping":79},{"user_id":188,"name":"Joji - Tick Tock","steam_id":76561198418414338,"connected_time":7000000000,"state":"spawning","ping":83},{"user_id":58,"name":"Owixan","steam_id":76561198074990070,"connected_time":9076000000000,"state":"active","ping":35},{"user_id":157,"name":"Tom","steam_id":76561198070630154,"connected_time":1951000000000,"state":"active","ping":83},{"user_id":187,"name":"Noshy-Yoshi","steam_id":76561198189521209,"connected_time":98000000000,"state":"active","ping":83},{"user_id":154,"name":"gulch","steam_id":76561199227946025,"connected_time":2174000000000,"state":"active","ping":67},{"user_id":179,"name":"Twilight Princess","steam_id":76561198049460281,"connected_time":489000000000,"state":"active","ping":66},{"user_id":184,"name":"That Sounds Serious","steam_id":76561198247719128,"connected_time":232000000000,"state":"active","ping":116},{"user_id":169,"name":"Brendan","steam_id":76561198041079914,"connected_time":1446000000000,"state":"active","ping":73},{"user_id":181,"name":"ChaingunnerFails","steam_id":76561198963075967,"connected_time":409000000000,"state":"active","ping":106},{"user_id":159,"name":"quality_ch3ck","steam_id":76561198361132101,"connected_time":1941000000000,"state":"active","ping":91},{"user_id":93,"name":"_Lusty_","steam_id":76561198876948142,"connected_time":5850000000000,"state":"active","ping":66},{"user_id":119,"name":"Brown_Dream","steam_id":76561198975766145,"connected_time":4216000000000,"state":"active","ping":83},{"user_id":29,"name":"Kasane","steam_id":76561198209006780,"connected_time":10620000000000,"state":"active","ping":85},{"user_id":183,"name":"cornealvase9152","steam_id":76561198851958868,"connected_time":276000000000,"state":"active","ping":100},{"user_id":134,"name":"ATL1 | JOVA","steam_id":76561198090333536,"connected_time":3299000000000,"state":"active","ping":68},{"user_id":182,"name":"Mogwr","steam_id":76561198124942972,"connected_time":408000000000,"state":"active","ping":81},{"user_id":148,"name":"primordialheath","steam_id":76561199386942638,"connected_time":2384000000000,"state":"active","ping":60},{"user_id":176,"name":"jesus lover","steam_id":76561198307655790,"connected_time":808000000000,"state":"active","ping":83},{"user_id":111,"name":"hyuck","steam_id":76561198319990195,"connected_time":4735000000000,"state":"active","ping":80},{"user_id":185,"name":"2023","steam_id":76561198068154783,"connected_time":232000000000,"state":"active","ping":73}]},{"server_id":36,"name":"Uncletopia | Chicago | 5 | All Maps","name_short":"chi-5","host":"chi-2.us.uncletopia.com","port":27015,"enabled":true,"region":"us-central","cc":"us","latitude":41.881832,"longitude":-87.62318,"reserved":0,"last_update":"0001-01-01T00:00:00Z","name_a2s":"Uncletopia | Chicago | 5 | All Maps","protocol":17,"map":"pl_badwater","folder":"tf","game":"Team Fortress","app_id":440,"player_count":24,"max_players":24,"Bots":0,"server_type":"Dedicated","server_os":"Linux","password":true,"vac":true,"version":"7742253","steam_id":85568392924866362,"keywords":["nocrits","nodmgspread","payload","uncletopia"],"game_id":440,"stv_port":27016,"stv_name":"Uncletopia | Chicago | 5 | All Maps | STV","players":[{"user_id":328,"name":"upside down cat","steam_id":76561198028288349,"connected_time":959000000000,"state":"active","ping":79},{"user_id":269,"name":"gaylittlemouse","steam_id":76561198819562111,"connected_time":3633000000000,"state":"active","ping":74},{"user_id":329,"name":"an ancient evil","steam_id":76561198052571208,"connected_time":880000000000,"state":"active","ping":65},{"user_id":326,"name":"Baked_tomato","steam_id":76561199104132783,"connected_time":997000000000,"state":"active","ping":107},{"user_id":317,"name":"dog-shaped dog","steam_id":76561198286166220,"connected_time":1747000000000,"state":"active","ping":53},{"user_id":239,"name":"Fudgely","steam_id":76561198039425862,"connected_time":5284000000000,"state":"active","ping":73},{"user_id":304,"name":"Totouri","steam_id":76561198004229789,"connected_time":2140000000000,"state":"active","ping":90},{"user_id":294,"name":"Holy Shmokes","steam_id":76561199229433298,"connected_time":2699000000000,"state":"active","ping":67},{"user_id":327,"name":"Professor Sex","steam_id":76561198396414319,"connected_time":983000000000,"state":"active","ping":104},{"user_id":280,"name":"nalezinik","steam_id":76561198030026119,"connected_time":3036000000000,"state":"active","ping":64},{"user_id":330,"name":"Ripheart","steam_id":76561198089661561,"connected_time":866000000000,"state":"active","ping":55},{"user_id":331,"name":"Bee","steam_id":76561198074681324,"connected_time":858000000000,"state":"active","ping":63},{"user_id":306,"name":"Phrog","steam_id":76561198202216091,"connected_time":2040000000000,"state":"active","ping":75},{"user_id":313,"name":"Matella","steam_id":76561198097427947,"connected_time":1862000000000,"state":"active","ping":153},{"user_id":333,"name":"frenfielf","steam_id":76561198011363677,"connected_time":745000000000,"state":"active","ping":46},{"user_id":342,"name":"ATL1 | eish","steam_id":76561198089463603,"connected_time":206000000000,"state":"active","ping":135},{"user_id":309,"name":"HanakoToast","steam_id":76561198045233131,"connected_time":1950000000000,"state":"active","ping":97},{"user_id":300,"name":"a crazy hobo","steam_id":76561198289650060,"connected_time":2358000000000,"state":"active","ping":88},{"user_id":337,"name":"vinny6","steam_id":76561198386735728,"connected_time":536000000000,"state":"active","ping":68},{"user_id":336,"name":"Kanye is my Biggest Fan","steam_id":76561198162363747,"connected_time":563000000000,"state":"active","ping":68},{"user_id":338,"name":"ShitsandGiggles‚Ñ¢","steam_id":76561198058708019,"connected_time":518000000000,"state":"active","ping":55},{"user_id":339,"name":"I AM THE SPY","steam_id":76561198044854271,"connected_time":485000000000,"state":"active","ping":48},{"user_id":341,"name":"Zemmy","steam_id":76561198821792404,"connected_time":254000000000,"state":"active","ping":76},{"user_id":312,"name":"Hector","steam_id":76561198133254620,"connected_time":1893000000000,"state":"active","ping":88}]},{"server_id":37,"name":"Uncletopia | Chicago | 6 | All Maps","name_short":"chi-6","host":"chi-2.us.uncletopia.com","port":27025,"enabled":true,"region":"us-central","cc":"us","latitude":41.881832,"longitude":-87.62318,"reserved":0,"last_update":"0001-01-01T00:00:00Z","name_a2s":"Uncletopia | Chicago | 6 | All Maps","protocol":17,"map":"pl_pier","folder":"tf","game":"Team Fortress","app_id":440,"player_count":23,"max_players":24,"Bots":0,"server_type":"Dedicated","server_os":"Linux","password":true,"vac":true,"version":"7742253","steam_id":85568392924866363,"keywords":["nocrits","nodmgspread","payload","uncletopia"],"game_id":440,"stv_port":27026,"stv_name":"Uncletopia | Chicago | 6 | All Maps | STV","players":[{"user_id":100,"name":"-=Bits=-Dinkleberg","steam_id":76561198080367616,"connected_time":1632000000000,"state":"active","ping":80},{"user_id":137,"name":"Yukon Cornelius","steam_id":76561198261512781,"connected_time":75000000000,"state":"active","ping":118},{"user_id":101,"name":"FUNNY JOKE(pls laugh)","steam_id":76561199070877046,"connected_time":1611000000000,"state":"active","ping":99},{"user_id":121,"name":"Bailster","steam_id":76561198091530428,"connected_time":599000000000,"state":"active","ping":61},{"user_id":124,"name":"4d4","steam_id":76561198402360789,"connected_time":487000000000,"state":"active","ping":74},{"user_id":136,"name":"john","steam_id":76561198039864629,"connected_time":144000000000,"state":"active","ping":61},{"user_id":110,"name":"Zek","steam_id":76561198014574925,"connected_time":1379000000000,"state":"active","ping":70},{"user_id":118,"name":"Zephon","steam_id":76561198023552881,"connected_time":654000000000,"state":"active","ping":65},{"user_id":108,"name":"Matt","steam_id":76561198008108521,"connected_time":1419000000000,"state":"active","ping":77},{"user_id":92,"name":"Dovah","steam_id":76561198053592183,"connected_time":2016000000000,"state":"active","ping":75},{"user_id":130,"name":"Mads Mikkelsen","steam_id":76561198083482001,"connected_time":332000000000,"state":"active","ping":138},{"user_id":105,"name":"deku is my nigga","steam_id":76561198134411374,"connected_time":1502000000000,"state":"active","ping":75},{"user_id":126,"name":"Heckteck","steam_id":76561199098393174,"connected_time":472000000000,"state":"active","ping":97},{"user_id":127,"name":"Twan (no vibes plz)","steam_id":76561197991064908,"connected_time":460000000000,"state":"active","ping":65},{"user_id":116,"name":"caption cool","steam_id":76561197990612056,"connected_time":970000000000,"state":"active","ping":48},{"user_id":128,"name":"Wahooka (Manrobics Instructor)","steam_id":76561197962240925,"connected_time":441000000000,"state":"active","ping":61},{"user_id":96,"name":"Andraw","steam_id":76561198057499385,"connected_time":1950000000000,"state":"active","ping":63},{"user_id":135,"name":"klaus","steam_id":76561199008634102,"connected_time":185000000000,"state":"active","ping":74},{"user_id":132,"name":"tinkercrab11","steam_id":76561198881792140,"connected_time":288000000000,"state":"active","ping":83},{"user_id":99,"name":"volta","steam_id":76561199214283884,"connected_time":1853000000000,"state":"active","ping":90},{"user_id":119,"name":"Lunchboxx","steam_id":76561198079735916,"connected_time":640000000000,"state":"active","ping":55},{"user_id":114,"name":"The Will of Ski","steam_id":76561198155812624,"connected_time":1201000000000,"state":"active","ping":56},{"user_id":134,"name":"Banana","steam_id":76561198996230924,"connected_time":256000000000,"state":"active","ping":64}]},{"server_id":38,"name":"Uncletopia | Chicago | 7 | Stopwatch Beta","name_short":"chi-7","host":"chi-2.us.uncletopia.com","port":27035,"enabled":true,"region":"us-central","cc":"us","latitude":41.881832,"longitude":-87.62318,"reserved":0,"last_update":"0001-01-01T00:00:00Z","name_a2s":"Uncletopia | Chicago | 7 | Stopwatch Beta","protocol":17,"map":"workshop/koth_bagel_rc5.ugc2514036946","folder":"tf","game":"Team Fortress","app_id":440,"player_count":0,"max_players":24,"Bots":0,"server_type":"Dedicated","server_os":"Linux","password":true,"vac":true,"version":"7742253","steam_id":85568392924866364,"keywords":["cp","nocrits","nodmgspread","uncletopia"],"game_id":440,"stv_port":27036,"stv_name":"Uncletopia | Chicago | 7 | Stopwatch Beta | STV","players":null},{"server_id":39,"name":"Uncletopia | Chicago | 8 | Community","name_short":"chi-8","host":"chi-2.us.uncletopia.com","port":27045,"enabled":true,"region":"us-central","cc":"us","latitude":41.881832,"longitude":-87.62318,"reserved":0,"last_update":"0001-01-01T00:00:00Z","name_a2s":"Uncletopia | Chicago | 8 | Community","protocol":17,"map":"koth_lakeside_final","folder":"tf","game":"Team Fortress","app_id":440,"player_count":0,"max_players":24,"Bots":0,"server_type":"Dedicated","server_os":"Linux","password":true,"vac":true,"version":"7742253","steam_id":85568392924866365,"keywords":["cp","nocrits","nodmgspread","uncletopia"],"game_id":440,"stv_port":27046,"stv_name":"Uncletopia | Chicago | 8 | Community | STV","players":null},{"server_id":8,"name":"Uncletopia | Dallas | 1 | All Maps","name_short":"dal-1","host":"dal-1.us.uncletopia.com","port":27015,"enabled":true,"region":"us-central","cc":"us","latitude":32.779167,"longitude":-96.80889,"reserved":0,"last_update":"0001-01-01T00:00:00Z","name_a2s":"Uncletopia | Dallas | 1 | All Maps","protocol":17,"map":"pl_borneo","folder":"tf","game":"Team Fortress","app_id":440,"player_count":24,"max_players":24,"Bots":0,"server_type":"Dedicated","server_os":"Linux","password":true,"vac":true,"version":"7742253","steam_id":85568392924469986,"keywords":["nocrits","nodmgspread","payload","uncletopia"],"game_id":440,"stv_port":27016,"stv_name":"Uncletopia | Dallas | 1 | All Maps | STV","players":[{"user_id":66,"name":"jimbo","steam_id":76561198046059770,"connected_time":772000000000,"state":"active","ping":80},{"user_id":38,"name":"gwxndolyn ‚òÜ","steam_id":76561198061497429,"connected_time":2118000000000,"state":"active","ping":46},{"user_id":39,"name":"Spinch","steam_id":76561198296224166,"connected_time":2114000000000,"state":"active","ping":59},{"user_id":70,"name":"Cave Johnson","steam_id":76561198047412022,"connected_time":681000000000,"state":"active","ping":85},{"user_id":24,"name":"mikey | I'm Burning Bright!","steam_id":76561198985847893,"connected_time":3294000000000,"state":"active","ping":46},{"user_id":76,"name":"Infinite Hyperdeath","steam_id":76561198168946002,"connected_time":510000000000,"state":"active","ping":74},{"user_id":29,"name":"Red Heavy The Sandwich Slayer","steam_id":76561199187226776,"connected_time":2986000000000,"state":"active","ping":54},{"user_id":30,"name":"Dr. Anonymous","steam_id":76561198061654197,"connected_time":2806000000000,"state":"active","ping":52},{"user_id":77,"name":"The Funny man","steam_id":76561199053955604,"connected_time":477000000000,"state":"active","ping":92},{"user_id":44,"name":"Jona2180","steam_id":76561198807012900,"connected_time":1968000000000,"state":"active","ping":83},{"user_id":33,"name":"kid squid","steam_id":76561198167016289,"connected_time":2649000000000,"state":"active","ping":72},{"user_id":36,"name":"barbara","steam_id":76561198072417792,"connected_time":2275000000000,"state":"active","ping":92},{"user_id":69,"name":"Congcrab","steam_id":76561198078687685,"connected_time":749000000000,"state":"active","ping":82},{"user_id":41,"name":"survivalist keeda","steam_id":76561198277979851,"connected_time":2086000000000,"state":"active","ping":92},{"user_id":81,"name":"CandyMan","steam_id":76561198075668940,"connected_time":29000000000,"state":"active","ping":69},{"user_id":46,"name":"aaple","steam_id":76561198056377621,"connected_time":1951000000000,"state":"active","ping":44},{"user_id":47,"name":"Coolio-aid","steam_id":76561198218361691,"connected_time":1937000000000,"state":"active","ping":88},{"user_id":50,"name":"Joe","steam_id":76561199246334910,"connected_time":1843000000000,"state":"active","ping":48},{"user_id":52,"name":"T.w¬≤ | Sliced Bread","steam_id":76561198128489595,"connected_time":1815000000000,"state":"active","ping":120},{"user_id":78,"name":"3-13","steam_id":76561198063929021,"connected_time":470000000000,"state":"active","ping":49},{"user_id":73,"name":"kerdo","steam_id":76561199195205705,"connected_time":615000000000,"state":"active","ping":56},{"user_id":55,"name":"cadenlcheese","steam_id":76561199105517435,"connected_time":1812000000000,"state":"active","ping":122},{"user_id":74,"name":"Sauce Hut","steam_id":76561198151922248,"connected_time":611000000000,"state":"active","ping":97},{"user_id":75,"name":"Shalom","steam_id":76561198410005222,"connected_time":604000000000,"state":"active","ping":59}]},{"server_id":108,"name":"Uncletopia | Dallas | 2 | All Maps","name_short":"dal-2","host":"dal-1.us.uncletopia.com","port":27025,"enabled":true,"region":"us-central","cc":"us","latitude":32.779167,"longitude":-96.80889,"reserved":0,"last_update":"0001-01-01T00:00:00Z","name_a2s":"Uncletopia | Dallas | 2 | All Maps","protocol":17,"map":"pl_pier","folder":"tf","game":"Team Fortress","app_id":440,"player_count":24,"max_players":24,"Bots":0,"server_type":"Dedicated","server_os":"Linux","password":true,"vac":true,"version":"7742253","steam_id":85568392924469988,"keywords":["nocrits","nodmgspread","payload","uncletopia"],"game_id":440,"stv_port":27026,"stv_name":"Uncletopia | Dallas | 2 | All Maps | STV","players":[{"user_id":75,"name":"Rat Smacker","steam_id":76561199090197628,"connected_time":4173000000000,"state":"active","ping":61},{"user_id":91,"name":"really hot pocket","steam_id":76561198239297686,"connected_time":2831000000000,"state":"active","ping":80},{"user_id":103,"name":"MarekHamm","steam_id":76561198239042642,"connected_time":1626000000000,"state":"active","ping":53},{"user_id":102,"name":"doubleshare","steam_id":76561198024472046,"connected_time":1809000000000,"state":"active","ping":85},{"user_id":69,"name":"--_Cook_--","steam_id":76561198080855748,"connected_time":5173000000000,"state":"active","ping":76},{"user_id":88,"name":"[chef] iron","steam_id":76561197970888616,"connected_time":3089000000000,"state":"active","ping":59},{"user_id":52,"name":"PoltergussyLordoftheAsstralVoid","steam_id":76561199195004708,"connected_time":6050000000000,"state":"active","ping":87},{"user_id":116,"name":"Drakon","steam_id":76561198078210822,"connected_time":49000000000,"state":"active","ping":89},{"user_id":89,"name":"Mcstuffer","steam_id":76561198033974816,"connected_time":3077000000000,"state":"active","ping":53},{"user_id":29,"name":"Mr. Beast","steam_id":76561198111975583,"connected_time":6972000000000,"state":"active","ping":46},{"user_id":84,"name":"Rappitor","steam_id":76561198105613110,"connected_time":3148000000000,"state":"active","ping":75},{"user_id":97,"name":"Casaaterrizador","steam_id":76561199388911950,"connected_time":2318000000000,"state":"active","ping":75},{"user_id":114,"name":"[LINUX] F2P=S*(M/B)+H || Spy!","steam_id":76561198093538786,"connected_time":535000000000,"state":"active","ping":49},{"user_id":62,"name":"CapnCoolaid","steam_id":76561199120332919,"connected_time":5360000000000,"state":"active","ping":72},{"user_id":100,"name":"Charge Shot only","steam_id":76561198167974713,"connected_time":2191000000000,"state":"active","ping":74},{"user_id":93,"name":"Spirit","steam_id":76561199069322627,"connected_time":2617000000000,"state":"active","ping":96},{"user_id":95,"name":"call me qt","steam_id":76561198959379863,"connected_time":2412000000000,"state":"active","ping":98},{"user_id":77,"name":"Johnny Lawrence #JohnnyMaxxing","steam_id":76561199367141671,"connected_time":4081000000000,"state":"active","ping":88},{"user_id":98,"name":"Vladikr1","steam_id":76561198401495362,"connected_time":2317000000000,"state":"active","ping":77},{"user_id":79,"name":"WhoIsFrosty","steam_id":76561198880588117,"connected_time":3984000000000,"state":"active","ping":78},{"user_id":67,"name":"Spongebob","steam_id":76561198189429665,"connected_time":5216000000000,"state":"active","ping":81},{"user_id":107,"name":"Tots","steam_id":76561198027485007,"connected_time":943000000000,"state":"active","ping":50},{"user_id":115,"name":"remedu","steam_id":76561198005152587,"connected_time":406000000000,"state":"active","ping":46},{"user_id":112,"name":"seats","steam_id":76561197998756039,"connected_time":785000000000,"state":"active","ping":75}]},{"server_id":5,"name":"Uncletopia | Frankfurt | 1 | All Maps","name_short":"frk-1","host":"frk-1.de.uncletopia.com","port":27015,"enabled":true,"region":"eu","cc":"de","latitude":50.110924,"longitude":8.682127,"reserved":0,"last_update":"0001-01-01T00:00:00Z","name_a2s":"Uncletopia | Frankfurt | 1 | All Maps","protocol":17,"map":"pl_thundermountain","folder":"tf","game":"Team Fortress","app_id":440,"player_count":1,"max_players":24,"Bots":0,"server_type":"Dedicated","server_os":"Linux","password":true,"vac":true,"version":"7742253","steam_id":85568392924469989,"keywords":["nocrits","nodmgspread","payload","uncletopia"],"game_id":440,"stv_port":27016,"stv_name":"Uncletopia | Frankfurt | 1 | All Maps | STV","players":[{"user_id":242,"name":"Ben UFO","steam_id":76561198001648348,"connected_time":386000000000,"state":"active","ping":51}]},{"server_id":110,"name":"Uncletopia | Frankfurt | 2 | All Maps","name_short":"frk-2","host":"frk-1.de.uncletopia.com","port":27025,"enabled":true,"region":"eu","cc":"de","latitude":50.110924,"longitude":8.682127,"reserved":0,"last_update":"0001-01-01T00:00:00Z","name_a2s":"Uncletopia | Frankfurt | 2 | All Maps","protocol":17,"map":"cp_sunshine","folder":"tf","game":"Team Fortress","app_id":440,"player_count":0,"max_players":24,"Bots":0,"server_type":"Dedicated","server_os":"Linux","password":true,"vac":true,"version":"7742253","steam_id":85568392924469990,"keywords":["cp","nocrits","nodmgspread","uncletopia"],"game_id":440,"stv_port":27026,"stv_name":"Uncletopia | Frankfurt | 2 | All Maps | STV","players":null},{"server_id":308,"name":"Uncletopia | Frankfurt | 3 | All Maps","name_short":"frk-3","host":"frk-1.de.uncletopia.com","port":27035,"enabled":true,"region":"eu","cc":"de","latitude":50.110924,"longitude":8.682127,"reserved":0,"last_update":"0001-01-01T00:00:00Z","name_a2s":"Uncletopia | Frankfurt | 3 | All Maps","protocol":17,"map":"pl_upward","folder":"tf","game":"Team Fortress","app_id":440,"player_count":24,"max_players":24,"Bots":0,"server_type":"Dedicated","server_os":"Linux","password":true,"vac":true,"version":"7742253","steam_id":85568392924504274,"keywords":["nocrits","nodmgspread","payload","uncletopia"],"game_id":440,"stv_port":27036,"stv_name":"Uncletopia | Frankfurt | 3 | All Maps | STV","players":[{"user_id":684,"name":"Mi Manchi","steam_id":76561198171573129,"connected_time":7798000000000,"state":"active","ping":52},{"user_id":747,"name":"Kevin","steam_id":76561198035625423,"connected_time":2238000000000,"state":"active","ping":80},{"user_id":772,"name":"The Fellow Feller","steam_id":76561198188864306,"connected_time":265000000000,"state":"active","ping":59},{"user_id":769,"name":"JohnnyBambina","steam_id":76561198071581379,"connected_time":536000000000,"state":"active","ping":61},{"user_id":755,"name":"Acanda","steam_id":76561198123246537,"connected_time":1128000000000,"state":"active","ping":49},{"user_id":689,"name":"Vershal Smershal","steam_id":76561198116223995,"connected_time":6311000000000,"state":"active","ping":55},{"user_id":757,"name":"dn4k","steam_id":76561199221755690,"connected_time":1068000000000,"state":"active","ping":80},{"user_id":760,"name":"Superiumentarius","steam_id":76561198081642249,"connected_time":723000000000,"state":"active","ping":44},{"user_id":761,"name":"fallingpencil","steam_id":76561199230233148,"connected_time":712000000000,"state":"active","ping":62},{"user_id":770,"name":"blindcinema_","steam_id":76561198026908105,"connected_time":516000000000,"state":"active","ping":61},{"user_id":762,"name":"Eternity","steam_id":76561198238099668,"connected_time":679000000000,"state":"active","ping":92},{"user_id":744,"name":"St√ºmpy","steam_id":76561198255904077,"connected_time":2394000000000,"state":"active","ping":55},{"user_id":763,"name":"kbbq","steam_id":76561198346638308,"connected_time":656000000000,"state":"active","ping":59},{"user_id":738,"name":"jones","steam_id":76561198044434971,"connected_time":2859000000000,"state":"active","ping":62},{"user_id":771,"name":"good to be back","steam_id":76561199391850406,"connected_time":366000000000,"state":"active","ping":81},{"user_id":742,"name":"brokenphilip","steam_id":76561198080960604,"connected_time":2571000000000,"state":"active","ping":75},{"user_id":774,"name":"Sunvaar","steam_id":76561198871313459,"connected_time":65000000000,"state":"spawning","ping":131},{"user_id":766,"name":"SPONGE","steam_id":76561198040933472,"connected_time":600000000000,"state":"active","ping":61},{"user_id":741,"name":"Martt","steam_id":76561198067363871,"connected_time":2688000000000,"state":"active","ping":58},{"user_id":745,"name":"Gen","steam_id":76561198021775885,"connected_time":2265000000000,"state":"active","ping":51},{"user_id":734,"name":"Jonathan","steam_id":76561198087988880,"connected_time":2930000000000,"state":"active","ping":52},{"user_id":773,"name":"Yangus","steam_id":76561198147796010,"connected_time":154000000000,"state":"active","ping":71},{"user_id":702,"name":"Just Navlis","steam_id":76561198090479609,"connected_time":4951000000000,"state":"active","ping":53}]},{"server_id":309,"name":"Uncletopia | Frankfurt | 4 | All Maps","name_short":"frk-4","host":"frk-1.de.uncletopia.com","port":27045,"enabled":true,"region":"eu","cc":"de","latitude":50.110924,"longitude":8.682127,"reserved":0,"last_update":"0001-01-01T00:00:00Z","name_a2s":"Uncletopia | Frankfurt | 4 | All Maps","protocol":17,"map":"cp_sunshine","folder":"tf","game":"Team Fortress","app_id":440,"player_count":17,"max_players":24,"Bots":0,"server_type":"Dedicated","server_os":"Linux","password":true,"vac":true,"version":"7742253","steam_id":85568392924504275,"keywords":["cp","nocrits","nodmgspread","uncletopia"],"game_id":440,"stv_port":27046,"stv_name":"Uncletopia | Frankfurt | 4 | All Maps | STV","players":[{"user_id":545,"name":"Hank J Wimbleton","steam_id":76561198408623293,"connected_time":101000000000,"state":"active","ping":75},{"user_id":523,"name":"spacesh4rk","steam_id":76561197998939137,"connected_time":990000000000,"state":"active","ping":49},{"user_id":546,"name":"Lag","steam_id":76561198159360376,"connected_time":100000000000,"state":"active","ping":52},{"user_id":547,"name":"eba","steam_id":76561198309765812,"connected_time":80000000000,"state":"active","ping":78},{"user_id":530,"name":"|20BB)\u003eMach","steam_id":76561198952487564,"connected_time":799000000000,"state":"active","ping":76},{"user_id":539,"name":"YEEET","steam_id":76561198914938199,"connected_time":398000000000,"state":"active","ping":88},{"user_id":522,"name":"asburgers usa","steam_id":76561198875472890,"connected_time":1030000000000,"state":"active","ping":75},{"user_id":524,"name":"Dashei","steam_id":76561198027044994,"connected_time":892000000000,"state":"active","ping":79},{"user_id":525,"name":"Daven","steam_id":76561198036522928,"connected_time":889000000000,"state":"active","ping":61},{"user_id":527,"name":"KillerQueen (he/they/she)","steam_id":76561199019399725,"connected_time":843000000000,"state":"active","ping":60},{"user_id":542,"name":"Milosz52","steam_id":76561199060940204,"connected_time":182000000000,"state":"active","ping":72},{"user_id":513,"name":"Penis Contortionist","steam_id":76561198073663784,"connected_time":2031000000000,"state":"active","ping":59},{"user_id":514,"name":"Marquis de Hoto","steam_id":76561198080687708,"connected_time":2022000000000,"state":"active","ping":49},{"user_id":531,"name":"Chaos Soup","steam_id":76561198346417565,"connected_time":789000000000,"state":"active","ping":74},{"user_id":488,"name":"Never √úber Me","steam_id":76561198140522687,"connected_time":3311000000000,"state":"active","ping":63},{"user_id":532,"name":"‚ñ†Sir SC‚ñ†","steam_id":76561198114638963,"connected_time":788000000000,"state":"active","ping":64},{"user_id":497,"name":"Cabbch","steam_id":76561198045955679,"connected_time":3117000000000,"state":"active","ping":45}]},{"server_id":310,"name":"Uncletopia | Frankfurt | 5 | All Maps","name_short":"frk-5","host":"frk-1.de.uncletopia.com","port":27055,"enabled":true,"region":"eu","cc":"de","latitude":50.110924,"longitude":8.682127,"reserved":0,"last_update":"0001-01-01T00:00:00Z","name_a2s":"Uncletopia | Frankfurt | 5 | All Maps","protocol":17,"map":"pl_snowycoast","folder":"tf","game":"Team Fortress","app_id":440,"player_count":22,"max_players":24,"Bots":0,"server_type":"Dedicated","server_os":"Linux","password":true,"vac":true,"version":"7742253","steam_id":85568392924504277,"keywords":["nocrits","nodmgspread","payload","uncletopia"],"game_id":440,"stv_port":27056,"stv_name":"Uncletopia | Frankfurt | 5 | All Maps | STV","players":[{"user_id":425,"name":"Endo","steam_id":76561198130227890,"connected_time":940000000000,"state":"active","ping":58},{"user_id":426,"name":"steinwaywhite","steam_id":76561198353178649,"connected_time":664000000000,"state":"active","ping":63},{"user_id":379,"name":"ricorno","steam_id":76561199441603388,"connected_time":3692000000000,"state":"active","ping":73},{"user_id":427,"name":"The Phantom of the Opera","steam_id":76561199403298146,"connected_time":616000000000,"state":"active","ping":64},{"user_id":428,"name":"UwU wanna see my m249 Nyah","steam_id":76561198200076465,"connected_time":469000000000,"state":"active","ping":62},{"user_id":429,"name":"Enilmik","steam_id":76561198040335264,"connected_time":375000000000,"state":"active","ping":61},{"user_id":372,"name":"Charles Darwin","steam_id":76561197973496139,"connected_time":4161000000000,"state":"active","ping":62},{"user_id":430,"name":"Gatsu","steam_id":76561198947553243,"connected_time":246000000000,"state":"active","ping":55},{"user_id":431,"name":"BENADRYL","steam_id":76561198107981411,"connected_time":236000000000,"state":"active","ping":72},{"user_id":432,"name":"Funnee","steam_id":76561198283086264,"connected_time":226000000000,"state":"active","ping":76},{"user_id":418,"name":"cum 2","steam_id":76561198010075638,"connected_time":1517000000000,"state":"active","ping":61},{"user_id":433,"name":"Funi Cat Studios","steam_id":76561198093689301,"connected_time":184000000000,"state":"active","ping":73},{"user_id":434,"name":"Thunder_Chief","steam_id":76561198086858957,"connected_time":177000000000,"state":"active","ping":67},{"user_id":435,"name":"swayze lft","steam_id":76561198141744030,"connected_time":173000000000,"state":"active","ping":72},{"user_id":436,"name":"ZyZ 2.0","steam_id":76561199178204775,"connected_time":166000000000,"state":"active","ping":121},{"user_id":437,"name":"que movida","steam_id":76561197966125354,"connected_time":159000000000,"state":"active","ping":76},{"user_id":438,"name":"Mars","steam_id":76561198846610729,"connected_time":158000000000,"state":"active","ping":148},{"user_id":439,"name":"D-√ê-√êoge","steam_id":76561198035576458,"connected_time":119000000000,"state":"active","ping":44},{"user_id":422,"name":"lunch muncher","steam_id":76561198353096483,"connected_time":1461000000000,"state":"active","ping":52},{"user_id":421,"name":"I fuck rats","steam_id":76561198193409418,"connected_time":1461000000000,"state":"active","ping":103},{"user_id":440,"name":"Spieller","steam_id":76561198057197847,"connected_time":107000000000,"state":"active","ping":75},{"user_id":441,"name":"jovi_","steam_id":76561198449280552,"connected_time":4000000000,"state":"spawning","ping":62}]},{"server_id":311,"name":"Uncletopia | Frankfurt | 6 | All Maps","name_short":"frk-6","host":"frk-1.de.uncletopia.com","port":27065,"enabled":true,"region":"eu","cc":"de","latitude":50.110924,"longitude":8.682127,"reserved":0,"last_update":"0001-01-01T00:00:00Z","name_a2s":"Uncletopia | Frankfurt | 6 | All Maps","protocol":17,"map":"pl_badwater","folder":"tf","game":"Team Fortress","app_id":440,"player_count":23,"max_players":24,"Bots":0,"server_type":"Dedicated","server_os":"Linux","password":true,"vac":true,"version":"7742253","steam_id":85568392924504278,"keywords":["nocrits","nodmgspread","payload","uncletopia"],"game_id":440,"stv_port":27066,"stv_name":"Uncletopia | Frankfurt | 6 | All Maps | STV","players":[{"user_id":781,"name":"orange fields","steam_id":76561199206159631,"connected_time":1048000000000,"state":"active","ping":58},{"user_id":801,"name":"Champi","steam_id":76561198830002766,"connected_time":241000000000,"state":"active","ping":60},{"user_id":792,"name":"Redfire","steam_id":76561198315545684,"connected_time":844000000000,"state":"active","ping":60},{"user_id":793,"name":"No Pancreas","steam_id":76561198099775964,"connected_time":803000000000,"state":"active","ping":64},{"user_id":784,"name":"Dylanxp300","steam_id":76561198271974937,"connected_time":937000000000,"state":"active","ping":152},{"user_id":802,"name":"üÉî Nugg1t(sme/lly)","steam_id":76561198065652251,"connected_time":231000000000,"state":"active","ping":42},{"user_id":790,"name":"vancedlightning","steam_id":76561198387524773,"connected_time":861000000000,"state":"active","ping":74},{"user_id":768,"name":"csnipery","steam_id":76561199435280050,"connected_time":2361000000000,"state":"active","ping":64},{"user_id":724,"name":"A Succulent Chinese Meal","steam_id":76561198069472440,"connected_time":6828000000000,"state":"active","ping":76},{"user_id":807,"name":"lil fgt","steam_id":76561198256441851,"connected_time":56000000000,"state":"active","ping":85},{"user_id":772,"name":"Chaz","steam_id":76561198077292814,"connected_time":2348000000000,"state":"active","ping":68},{"user_id":795,"name":"jankomit","steam_id":76561198043024857,"connected_time":697000000000,"state":"active","ping":78},{"user_id":800,"name":"gfjhsdf","steam_id":76561198136736426,"connected_time":314000000000,"state":"active","ping":50},{"user_id":785,"name":"jd","steam_id":76561198071502515,"connected_time":935000000000,"state":"active","ping":68},{"user_id":804,"name":"specimen","steam_id":76561199008480793,"connected_time":187000000000,"state":"active","ping":58},{"user_id":806,"name":"tiky","steam_id":76561199208101629,"connected_time":92000000000,"state":"active","ping":302},{"user_id":774,"name":"hawkblob","steam_id":76561198803720565,"connected_time":2336000000000,"state":"active","ping":76},{"user_id":775,"name":"Eui","steam_id":76561198080355745,"connected_time":2328000000000,"state":"active","ping":80},{"user_id":791,"name":"xXx ostry nakurwiacz 69 xXx","steam_id":76561198068972398,"connected_time":853000000000,"state":"active","ping":65},{"user_id":805,"name":"Valserp","steam_id":76561198279567444,"connected_time":183000000000,"state":"active","ping":76},{"user_id":756,"name":"‚òÖ sat1ra","steam_id":76561198011382701,"connected_time":3679000000000,"state":"active","ping":84},{"user_id":797,"name":"Kupusari d.o.o.","steam_id":76561198320880046,"connected_time":688000000000,"state":"active","ping":77},{"user_id":777,"name":"Pavel The Truck","steam_id":76561198164920627,"connected_time":2269000000000,"state":"active","ping":65}]},{"server_id":23,"name":"Uncletopia | Frankfurt | 7 | Stopwatch Beta","name_short":"frk-7","host":"frk-1.de.uncletopia.com","port":27075,"enabled":true,"region":"eu","cc":"de","latitude":50.110924,"longitude":8.682127,"reserved":0,"last_update":"0001-01-01T00:00:00Z","name_a2s":"Uncletopia | Frankfurt | 7 | Stopwatch Beta","protocol":17,"map":"workshop/pl_summercoast_rc8e.ugc1761528829","folder":"tf","game":"Team Fortress","app_id":440,"player_count":0,"max_players":24,"Bots":0,"server_type":"Dedicated","server_os":"Linux","password":true,"vac":true,"version":"7742253","steam_id":85568392924742827,"keywords":["nocrits","nodmgspread","payload","uncletopia"],"game_id":440,"stv_port":27076,"stv_name":"Uncletopia | Frankfurt | 7 | Stopwatch Beta | STV","players":null},{"server_id":24,"name":"Uncletopia | Frankfurt | 8 | Community","name_short":"frk-8","host":"frk-1.de.uncletopia.com","port":27085,"enabled":true,"region":"eu","cc":"de","latitude":50.110924,"longitude":8.682127,"reserved":0,"last_update":"0001-01-01T00:00:00Z","name_a2s":"Uncletopia | Frankfurt | 8 | Community","protocol":17,"map":"workshop/koth_bagel_rc5.ugc2514036946","folder":"tf","game":"Team Fortress","app_id":440,"player_count":0,"max_players":24,"Bots":0,"server_type":"Dedicated","server_os":"Linux","password":true,"vac":true,"version":"7742253","steam_id":85568392924742828,"keywords":["cp","nocrits","nodmgspread","uncletopia"],"game_id":440,"stv_port":27086,"stv_name":"Uncletopia | Frankfurt | 8 | Community | STV","players":null},{"server_id":202,"name":"Uncletopia | Hong Kong | 1 | All Maps","name_short":"hgk-1","host":"hgk-1.hk.uncletopia.com","port":27015,"enabled":true,"region":"asia","cc":"hk","latitude":22.302711,"longitude":114.177216,"reserved":0,"last_update":"0001-01-01T00:00:00Z","name_a2s":"Uncletopia | Hong Kong | 1 | All Maps","protocol":17,"map":"pl_badwater","folder":"tf","game":"Team Fortress","app_id":440,"player_count":0,"max_players":24,"Bots":0,"server_type":"Dedicated","server_os":"Linux","password":true,"vac":true,"version":"7742253","steam_id":85568392924494504,"keywords":["nocrits","nodmgspread","payload","uncletopia"],"game_id":440,"stv_port":27016,"stv_name":"Uncletopia | Hong Kong | 1 | All Maps | STV","players":null},{"server_id":1,"name":"Uncletopia | Los Angeles | 1 | All Maps","name_short":"lax-1","host":"lax-1.us.uncletopia.com","port":27015,"enabled":true,"region":"us-west","cc":"us","latitude":33.94279,"longitude":-118.41004,"reserved":0,"last_update":"0001-01-01T00:00:00Z","name_a2s":"Uncletopia | Los Angeles | 1 | All Maps","protocol":17,"map":"koth_highpass","folder":"tf","game":"Team Fortress","app_id":440,"player_count":0,"max_players":24,"Bots":0,"server_type":"Dedicated","server_os":"Linux","password":true,"vac":true,"version":"7742253","steam_id":85568392924469991,"keywords":["cp","nocrits","nodmgspread","uncletopia"],"game_id":440,"stv_port":27016,"stv_name":"Uncletopia | Los Angeles | 1 | All Maps | STV","players":null},{"server_id":112,"name":"Uncletopia | Los Angeles | 2 | All Maps","name_short":"lax-2","host":"lax-1.us.uncletopia.com","port":27025,"enabled":true,"region":"us-west","cc":"us","latitude":33.94279,"longitude":-118.41004,"reserved":0,"last_update":"0001-01-01T00:00:00Z","name_a2s":"Uncletopia | Los Angeles | 2 | All Maps","protocol":17,"map":"cp_dustbowl","folder":"tf","game":"Team Fortress","app_id":440,"player_count":0,"max_players":24,"Bots":0,"server_type":"Dedicated","server_os":"Linux","password":true,"vac":true,"version":"7742253","steam_id":85568392924469992,"keywords":["cp","nocrits","nodmgspread","uncletopia"],"game_id":440,"stv_port":27026,"stv_name":"Uncletopia | Los Angeles | 2 | All Maps | STV","players":null},{"server_id":324,"name":"Uncletopia | Los Angeles | 3 | All Maps","name_short":"lax-3","host":"lax-1.us.uncletopia.com","port":27035,"enabled":true,"region":"us-west","cc":"us","latitude":33.94279,"longitude":-118.41004,"reserved":0,"last_update":"0001-01-01T00:00:00Z","name_a2s":"Uncletopia | Los Angeles | 3 | All Maps","protocol":17,"map":"pl_frontier_final","folder":"tf","game":"Team Fortress","app_id":440,"player_count":19,"max_players":24,"Bots":0,"server_type":"Dedicated","server_os":"Linux","password":true,"vac":true,"version":"7742253","steam_id":85568392924510198,"keywords":["nocrits","nodmgspread","payload","uncletopia"],"game_id":440,"stv_port":27036,"stv_name":"Uncletopia | Los Angeles | 3 | All Maps | STV","players":[{"user_id":274,"name":"*literally heresy*","steam_id":76561198129718241,"connected_time":113000000000,"state":"active","ping":122},{"user_id":258,"name":"Rommel2007","steam_id":76561198041744631,"connected_time":860000000000,"state":"active","ping":50},{"user_id":265,"name":"76561198212421513","steam_id":76561198212421513,"connected_time":315000000000,"state":"active","ping":46},{"user_id":174,"name":"Rasputia","steam_id":76561198132051047,"connected_time":7560000000000,"state":"active","ping":81},{"user_id":263,"name":"Tanner The Fish Man","steam_id":76561198372696640,"connected_time":536000000000,"state":"active","ping":55},{"user_id":268,"name":"AIDS GIRAFFE","steam_id":76561198010525744,"connected_time":181000000000,"state":"active","ping":112},{"user_id":266,"name":"NeonBlue33","steam_id":76561199463234329,"connected_time":252000000000,"state":"active","ping":105},{"user_id":259,"name":"Goretron","steam_id":76561198001320198,"connected_time":856000000000,"state":"active","ping":100},{"user_id":261,"name":"walking simulator","steam_id":76561199379152580,"connected_time":683000000000,"state":"active","ping":134},{"user_id":262,"name":"Bruised Bread","steam_id":76561198120459295,"connected_time":679000000000,"state":"active","ping":82},{"user_id":275,"name":"IncogNeeto","steam_id":76561199091278006,"connected_time":67000000000,"state":"active","ping":64},{"user_id":269,"name":"gamer","steam_id":76561198334059206,"connected_time":173000000000,"state":"active","ping":62},{"user_id":270,"name":"hotgarbage","steam_id":76561197988541148,"connected_time":170000000000,"state":"active","ping":75},{"user_id":277,"name":"idiot normie","steam_id":76561198397662124,"connected_time":11000000000,"state":"active","ping":85},{"user_id":272,"name":"heavy tf2","steam_id":76561198161076003,"connected_time":158000000000,"state":"active","ping":105},{"user_id":273,"name":"General Archiver","steam_id":76561199247095754,"connected_time":131000000000,"state":"active","ping":100},{"user_id":276,"name":"K2f","steam_id":76561198049600563,"connected_time":45000000000,"state":"spawning","ping":86},{"user_id":243,"name":"thisguy42424242","steam_id":76561199304282915,"connected_time":2145000000000,"state":"active","ping":42},{"user_id":237,"name":"jj874181","steam_id":76561199455124144,"connected_time":2679000000000,"state":"active","ping":75}]},{"server_id":25,"name":"Uncletopia | Los Angeles | 4 | Stopwatch Beta","name_short":"lax-4","host":"lax-1.us.uncletopia.com","port":27045,"enabled":true,"region":"us-west","cc":"us","latitude":33.94279,"longitude":-118.41004,"reserved":0,"last_update":"0001-01-01T00:00:00Z","name_a2s":"Uncletopia | Los Angeles | 4 | Stopwatch Beta","protocol":17,"map":"pl_swiftwater_final1","folder":"tf","game":"Team Fortress","app_id":440,"player_count":0,"max_players":24,"Bots":0,"server_type":"Dedicated","server_os":"Linux","password":true,"vac":true,"version":"7742253","steam_id":85568392924510199,"keywords":["nocrits","nodmgspread","payload","uncletopia"],"game_id":440,"stv_port":27046,"stv_name":"Uncletopia | Los Angeles | 4 | Stopwatch Beta | STV","players":null},{"server_id":11,"name":"Uncletopia | London | 1 | All Maps","name_short":"lon-1","host":"lon-1.uk.uncletopia.com","port":27015,"enabled":true,"region":"eu","cc":"gb","latitude":51.509865,"longitude":-0.118092,"reserved":0,"last_update":"0001-01-01T00:00:00Z","name_a2s":"Uncletopia | London | 1 | All Maps","protocol":17,"map":"pl_barnblitz","folder":"tf","game":"Team Fortress","app_id":440,"player_count":23,"max_players":24,"Bots":0,"server_type":"Dedicated","server_os":"Linux","password":true,"vac":true,"version":"7742253","steam_id":85568392924367362,"keywords":["nocrits","nodmgspread","payload","uncletopia"],"game_id":440,"stv_port":27016,"stv_name":"Uncletopia | London | 1 | All Maps | STV","players":[{"user_id":791,"name":"reze\u003emakima","steam_id":76561198119167317,"connected_time":2024000000000,"state":"active","ping":47},{"user_id":805,"name":"Scrap","steam_id":76561199159785850,"connected_time":945000000000,"state":"active","ping":44},{"user_id":784,"name":"gamerweed5","steam_id":76561198087651151,"connected_time":2485000000000,"state":"active","ping":38},{"user_id":780,"name":"htraB","steam_id":76561198043122677,"connected_time":3772000000000,"state":"active","ping":61},{"user_id":810,"name":"Lucan","steam_id":76561198219195135,"connected_time":357000000000,"state":"active","ping":52},{"user_id":806,"name":"Hotgamerdad","steam_id":76561198085940613,"connected_time":840000000000,"state":"active","ping":47},{"user_id":804,"name":"Hermitcrack","steam_id":76561198149216441,"connected_time":1140000000000,"state":"active","ping":82},{"user_id":787,"name":"jonesy","steam_id":76561198073975078,"connected_time":2150000000000,"state":"active","ping":50},{"user_id":802,"name":"Coac","steam_id":76561198085265740,"connected_time":1563000000000,"state":"active","ping":69},{"user_id":711,"name":"Asfreild","steam_id":76561198055901120,"connected_time":11771000000000,"state":"active","ping":71},{"user_id":811,"name":"SOPHIIEE","steam_id":76561198443798981,"connected_time":7000000000,"state":"spawning","ping":53},{"user_id":777,"name":"sora","steam_id":76561198096547662,"connected_time":4139000000000,"state":"active","ping":50},{"user_id":794,"name":"‚ú™ J","steam_id":76561198094911581,"connected_time":1970000000000,"state":"active","ping":51},{"user_id":757,"name":"General Petrov","steam_id":76561198027204104,"connected_time":6184000000000,"state":"active","ping":64},{"user_id":796,"name":"Soph","steam_id":76561198131688853,"connected_time":1872000000000,"state":"active","ping":55},{"user_id":808,"name":"Cobraz0r","steam_id":76561198017693962,"connected_time":611000000000,"state":"active","ping":75},{"user_id":746,"name":"Chief Quityourbitchin","steam_id":76561198860065033,"connected_time":7186000000000,"state":"active","ping":48},{"user_id":781,"name":"the joy of recycling","steam_id":76561198138509827,"connected_time":3730000000000,"state":"active","ping":74},{"user_id":782,"name":"KPhii","steam_id":76561198970587061,"connected_time":2778000000000,"state":"active","ping":52},{"user_id":765,"name":"Dominus.","steam_id":76561199065917088,"connected_time":5261000000000,"state":"active","ping":59},{"user_id":812,"name":"K√§pt'n","steam_id":76561198082347638,"connected_time":2000000000,"state":"spawning","ping":79},{"user_id":797,"name":"the meme lord","steam_id":76561198279369377,"connected_time":1869000000000,"state":"active","ping":52},{"user_id":739,"name":"Dirty Joe","steam_id":76561198142418870,"connected_time":7646000000000,"state":"active","ping":41}]},{"server_id":114,"name":"Uncletopia | London | 2 | All Maps","name_short":"lon-2","host":"lon-1.uk.uncletopia.com","port":27025,"enabled":true,"region":"eu","cc":"gb","latitude":51.509865,"longitude":-0.118092,"reserved":0,"last_update":"0001-01-01T00:00:00Z","name_a2s":"Uncletopia | London | 2 | All Maps","protocol":17,"map":"pl_snowycoast","folder":"tf","game":"Team Fortress","app_id":440,"player_count":25,"max_players":24,"Bots":0,"server_type":"Dedicated","server_os":"Linux","password":true,"vac":true,"version":"7742253","steam_id":85568392924470941,"keywords":["nocrits","nodmgspread","payload","uncletopia"],"game_id":440,"stv_port":27026,"stv_name":"Uncletopia | London | 2 | All Maps | STV","players":[{"user_id":515,"name":"Brown Ape","steam_id":76561198132932211,"connected_time":2837000000000,"state":"active","ping":51},{"user_id":554,"name":"RudiPrico4","steam_id":76561199014381495,"connected_time":633000000000,"state":"active","ping":63},{"user_id":557,"name":"GAMER MODE ACTIVATE","steam_id":76561198334042273,"connected_time":507000000000,"state":"active","ping":55},{"user_id":563,"name":"Spitfire","steam_id":76561198106519283,"connected_time":360000000000,"state":"active","ping":80},{"user_id":550,"name":"molten","steam_id":76561198096653130,"connected_time":817000000000,"state":"active","ping":58},{"user_id":569,"name":"–ú—ã —Å –£–∫—Ä–∞–∏–Ω–æ–π","steam_id":76561198022402155,"connected_time":258000000000,"state":"active","ping":40},{"user_id":566,"name":"Mizzow","steam_id":76561198008040797,"connected_time":282000000000,"state":"active","ping":45},{"user_id":509,"name":"aspect","steam_id":76561198315032412,"connected_time":3992000000000,"state":"active","ping":72},{"user_id":567,"name":"Man O' Steel","steam_id":76561198108612758,"connected_time":276000000000,"state":"active","ping":52},{"user_id":511,"name":"Homicidal Tendencies","steam_id":76561198828681043,"connected_time":3793000000000,"state":"active","ping":44},{"user_id":514,"name":"joegxz","steam_id":76561198365211175,"connected_time":2848000000000,"state":"active","ping":76},{"user_id":568,"name":"sHIFTINGvORTEX","steam_id":76561198231648332,"connected_time":271000000000,"state":"active","ping":60},{"user_id":519,"name":"Le Bon Toutou","steam_id":76561198300902712,"connected_time":2791000000000,"state":"active","ping":58},{"user_id":570,"name":"Steen","steam_id":76561198122992510,"connected_time":252000000000,"state":"active","ping":45},{"user_id":572,"name":"no. 1 lucki fan","steam_id":76561198022382969,"connected_time":230000000000,"state":"active","ping":67},{"user_id":580,"name":"MG TF 2004!","steam_id":76561198042975907,"connected_time":67000000000,"state":"active","ping":52},{"user_id":560,"name":"Tort","steam_id":76561198329646769,"connected_time":459000000000,"state":"active","ping":49},{"user_id":542,"name":"ƒåamuga‚öú","steam_id":76561198324252599,"connected_time":1216000000000,"state":"active","ping":74},{"user_id":573,"name":"travis","steam_id":76561198138119811,"connected_time":221000000000,"state":"active","ping":45},{"user_id":553,"name":"ILoveKey2","steam_id":76561198814559564,"connected_time":761000000000,"state":"active","ping":77},{"user_id":582,"name":"mimi","steam_id":76561198060648946,"connected_time":7000000000,"state":"spawning","ping":89},{"user_id":578,"name":"Tumajarbisaun","steam_id":76561198029296012,"connected_time":106000000000,"state":"active","ping":65},{"user_id":522,"name":"Jiant","steam_id":76561198374998274,"connected_time":2770000000000,"state":"active","ping":71},{"user_id":528,"name":"cockwater","steam_id":76561198209101861,"connected_time":2604000000000,"state":"active","ping":75},{"user_id":548,"name":"tone","steam_id":76561197975301462,"connected_time":912000000000,"state":"active","ping":64}]},{"server_id":320,"name":"Uncletopia | London | 3 | All Maps","name_short":"lon-3","host":"lon-1.uk.uncletopia.com","port":27035,"enabled":true,"region":"eu","cc":"gb","latitude":51.509865,"longitude":-0.118092,"reserved":0,"last_update":"0001-01-01T00:00:00Z","name_a2s":"Uncletopia | London | 3 | All Maps","protocol":17,"map":"pl_borneo","folder":"tf","game":"Team Fortress","app_id":440,"player_count":4,"max_players":24,"Bots":0,"server_type":"Dedicated","server_os":"Linux","password":true,"vac":true,"version":"7742253","steam_id":85568392924510192,"keywords":["nocrits","nodmgspread","payload","uncletopia"],"game_id":440,"stv_port":27036,"stv_name":"Uncletopia | London | 3 | All Maps | STV","players":[{"user_id":694,"name":"Rick Astley's left foot","steam_id":76561198177287273,"connected_time":658000000000,"state":"active","ping":49},{"user_id":697,"name":"theogliam","steam_id":76561198814626472,"connected_time":166000000000,"state":"active","ping":66},{"user_id":698,"name":"JOHN GAMING (based)","steam_id":76561199085822219,"connected_time":67000000000,"state":"active","ping":78},{"user_id":658,"name":"Cottonwell","steam_id":76561198374926891,"connected_time":3044000000000,"state":"active","ping":45}]},{"server_id":321,"name":"Uncletopia | London | 4 | All Maps","name_short":"lon-4","host":"lon-1.uk.uncletopia.com","port":27045,"enabled":true,"region":"eu","cc":"gb","latitude":51.509865,"longitude":-0.118092,"reserved":0,"last_update":"0001-01-01T00:00:00Z","name_a2s":"Uncletopia | London | 4 | All Maps","protocol":17,"map":"pl_swiftwater_final1","folder":"tf","game":"Team Fortress","app_id":440,"player_count":24,"max_players":24,"Bots":0,"server_type":"Dedicated","server_os":"Linux","password":true,"vac":true,"version":"7742253","steam_id":85568392924510193,"keywords":["nocrits","nodmgspread","payload","uncletopia"],"game_id":440,"stv_port":27046,"stv_name":"Uncletopia | London | 4 | All Maps | STV","players":[{"user_id":466,"name":"Tom","steam_id":76561198126800063,"connected_time":930000000000,"state":"active","ping":31},{"user_id":467,"name":"Whallie","steam_id":76561198881117247,"connected_time":929000000000,"state":"active","ping":75},{"user_id":472,"name":"Tsuki","steam_id":76561198055410037,"connected_time":245000000000,"state":"active","ping":60},{"user_id":434,"name":"randompixel","steam_id":76561198003941207,"connected_time":4014000000000,"state":"active","ping":52},{"user_id":471,"name":"Fran","steam_id":76561199070516960,"connected_time":294000000000,"state":"active","ping":72},{"user_id":300,"name":"sharty in my head","steam_id":76561198106049954,"connected_time":11508000000000,"state":"active","ping":74},{"user_id":462,"name":"GorkaMorka","steam_id":76561198323830346,"connected_time":978000000000,"state":"active","ping":57},{"user_id":394,"name":"Psyborg","steam_id":76561199158462312,"connected_time":7320000000000,"state":"active","ping":54},{"user_id":456,"name":"Djingis Khan","steam_id":76561197967864460,"connected_time":1877000000000,"state":"active","ping":56},{"user_id":261,"name":"when we shart on our enemyz","steam_id":76561198043601838,"connected_time":14283000000000,"state":"active","ping":60},{"user_id":463,"name":"bubblojoe","steam_id":76561198044534119,"connected_time":977000000000,"state":"active","ping":47},{"user_id":438,"name":"Catnip Smoker","steam_id":76561198284519569,"connected_time":3430000000000,"state":"active","ping":82},{"user_id":403,"name":"Memesus","steam_id":76561199362236174,"connected_time":6184000000000,"state":"active","ping":65},{"user_id":432,"name":"miro","steam_id":76561198196357213,"connected_time":4467000000000,"state":"active","ping":73},{"user_id":380,"name":"shartyparty[JPN]","steam_id":76561198081559669,"connected_time":7513000000000,"state":"active","ping":87},{"user_id":423,"name":"Patrick Ratrick","steam_id":76561198086190783,"connected_time":5009000000000,"state":"active","ping":45},{"user_id":470,"name":"Branide pirate","steam_id":76561198133716900,"connected_time":576000000000,"state":"active","ping":55},{"user_id":424,"name":"Haggis77","steam_id":76561198372976771,"connected_time":4938000000000,"state":"active","ping":52},{"user_id":433,"name":"23","steam_id":76561198149347502,"connected_time":4462000000000,"state":"active","ping":87},{"user_id":445,"name":"Catboy 9S gaming","steam_id":76561197999024118,"connected_time":2587000000000,"state":"active","ping":82},{"user_id":453,"name":"Regan","steam_id":76561198100631086,"connected_time":2000000000000,"state":"active","ping":46},{"user_id":473,"name":"sharted on enemy","steam_id":76561198079277466,"connected_time":245000000000,"state":"active","ping":68},{"user_id":465,"name":"Robs","steam_id":76561198078355830,"connected_time":941000000000,"state":"active","ping":63},{"user_id":468,"name":"world of shart","steam_id":76561198080912087,"connected_time":853000000000,"state":"active","ping":73}]},{"server_id":21,"name":"Uncletopia | London | 5 | All Maps","name_short":"lon-5","host":"lon-1.uk.uncletopia.com","port":27055,"enabled":true,"region":"eu","cc":"gb","latitude":51.509865,"longitude":-0.118092,"reserved":0,"last_update":"0001-01-01T00:00:00Z","name_a2s":"Uncletopia | London | 5 | All Maps","protocol":17,"map":"koth_lazarus","folder":"tf","game":"Team Fortress","app_id":440,"player_count":0,"max_players":24,"Bots":0,"server_type":"Dedicated","server_os":"Linux","password":true,"vac":true,"version":"7742253","steam_id":85568392924742829,"keywords":["cp","nocrits","nodmgspread","uncletopia"],"game_id":440,"stv_port":27056,"stv_name":"Uncletopia | London | 5 | All Maps | STV","players":null},{"server_id":22,"name":"Uncletopia | London | 6 | All Maps","name_short":"lon-6","host":"lon-1.uk.uncletopia.com","port":27065,"enabled":true,"region":"eu","cc":"gb","latitude":51.509865,"longitude":-0.118092,"reserved":0,"last_update":"0001-01-01T00:00:00Z","name_a2s":"Uncletopia | London | 6 | All Maps","protocol":17,"map":"cp_snakewater_final1","folder":"tf","game":"Team Fortress","app_id":440,"player_count":0,"max_players":24,"Bots":0,"server_type":"Dedicated","server_os":"Linux","password":true,"vac":true,"version":"7742253","steam_id":85568392924742830,"keywords":["cp","nocrits","nodmgspread","uncletopia"],"game_id":440,"stv_port":27066,"stv_name":"Uncletopia | London | 6 | All Maps | STV","players":null},{"server_id":40,"name":"Uncletopia | London | 7 | No Payload","name_short":"lon-7","host":"lon-1.uk.uncletopia.com","port":27075,"enabled":true,"region":"eu","cc":"gb","latitude":51.509865,"longitude":-0.118092,"reserved":0,"last_update":"0001-01-01T00:00:00Z","name_a2s":"Uncletopia | London | 7 | No Payload","protocol":17,"map":"koth_lakeside_final","folder":"tf","game":"Team Fortress","app_id":440,"player_count":0,"max_players":24,"Bots":0,"server_type":"Dedicated","server_os":"Linux","password":true,"vac":true,"version":"7742253","steam_id":85568392924964314,"keywords":["cp","nocrits","nodmgspread","uncletopia"],"game_id":440,"stv_port":27076,"stv_name":"Uncletopia | London | 7 | No Payload | STV","players":null},{"server_id":41,"name":"Uncletopia | London | 8 | Community","name_short":"lon-8","host":"lon-1.uk.uncletopia.com","port":27085,"enabled":true,"region":"eu","cc":"gb","latitude":51.509865,"longitude":-0.118092,"reserved":0,"last_update":"0001-01-01T00:00:00Z","name_a2s":"Uncletopia | London | 8 | Community","protocol":17,"map":"workshop/rd_asteroid_redux_b1.ugc2154902912","folder":"tf","game":"Team Fortress","app_id":440,"player_count":0,"max_players":24,"Bots":0,"server_type":"Dedicated","server_os":"Linux","password":true,"vac":true,"version":"7742253","steam_id":85568392924964315,"keywords":["beta","nocrits","nodmgspread","rd","uncletopia"],"game_id":440,"stv_port":27086,"stv_name":"Uncletopia | London | 8 | Community | STV","players":null},{"server_id":300,"name":"Uncletopia | Montr√©al | 1 | All Maps","name_short":"mtl-1","host":"mtl-1.ca.uncletopia.com","port":27015,"enabled":true,"region":"us-east","cc":"ca","latitude":45.50889,"longitude":-73.56167,"reserved":0,"last_update":"0001-01-01T00:00:00Z","name_a2s":"Uncletopia | Montr√©al | 1 | All Maps","protocol":17,"map":"koth_cascade","folder":"tf","game":"Team Fortress","app_id":440,"player_count":0,"max_players":24,"Bots":0,"server_type":"Dedicated","server_os":"Linux","password":true,"vac":true,"version":"7742253","steam_id":85568392924500087,"keywords":["cp","nocrits","nodmgspread","uncletopia"],"game_id":440,"stv_port":27016,"stv_name":"Uncletopia | Montr√©al | 1 | All Maps | STV","players":null},{"server_id":301,"name":"Uncletopia | Montr√©al | 2 | All Maps","name_short":"mtl-2","host":"mtl-1.ca.uncletopia.com","port":27025,"enabled":true,"region":"us-east","cc":"ca","latitude":45.50889,"longitude":-73.56167,"reserved":0,"last_update":"0001-01-01T00:00:00Z","name_a2s":"Uncletopia | Montr√©al | 2 | All Maps","protocol":17,"map":"koth_highpass","folder":"tf","game":"Team Fortress","app_id":440,"player_count":0,"max_players":24,"Bots":0,"server_type":"Dedicated","server_os":"Linux","password":true,"vac":true,"version":"7742253","steam_id":85568392924500088,"keywords":["cp","nocrits","nodmgspread","uncletopia"],"game_id":440,"stv_port":27026,"stv_name":"Uncletopia | Montr√©al | 2 | All Maps | STV","players":null},{"server_id":302,"name":"Uncletopia | Montr√©al | 3 | All Maps","name_short":"mtl-3","host":"mtl-1.ca.uncletopia.com","port":27035,"enabled":true,"region":"us-east","cc":"ca","latitude":45.50889,"longitude":-73.56167,"reserved":0,"last_update":"0001-01-01T00:00:00Z","name_a2s":"Uncletopia | Montr√©al | 3 | All Maps","protocol":17,"map":"cp_mountainlab","folder":"tf","game":"Team Fortress","app_id":440,"player_count":0,"max_players":24,"Bots":0,"server_type":"Dedicated","server_os":"Linux","password":true,"vac":true,"version":"7742253","steam_id":85568392924500089,"keywords":["cp","nocrits","nodmgspread","uncletopia"],"game_id":440,"stv_port":27036,"stv_name":"Uncletopia | Montr√©al | 3 | All Maps | STV","players":null},{"server_id":303,"name":"Uncletopia | Montr√©al | 4 | No Payload","name_short":"mtl-4","host":"mtl-1.ca.uncletopia.com","port":27045,"enabled":true,"region":"us-east","cc":"ca","latitude":45.50889,"longitude":-73.56167,"reserved":0,"last_update":"0001-01-01T00:00:00Z","name_a2s":"Uncletopia | Montr√©al | 4 | No Payload","protocol":17,"map":"koth_nucleus","folder":"tf","game":"Team Fortress","app_id":440,"player_count":0,"max_players":24,"Bots":0,"server_type":"Dedicated","server_os":"Linux","password":true,"vac":true,"version":"7742253","steam_id":85568392924500090,"keywords":["cp","nocrits","nodmgspread","uncletopia"],"game_id":440,"stv_port":27046,"stv_name":"Uncletopia | Montr√©al | 4 | No Payload | STV","players":null},{"server_id":13,"name":"Uncletopia | New York City | 1 | All Maps","name_short":"nyc-1","host":"nyc-1.us.uncletopia.com","port":27015,"enabled":true,"region":"us-east","cc":"us","latitude":40.73061,"longitude":-73.93524,"reserved":0,"last_update":"0001-01-01T00:00:00Z","name_a2s":"Uncletopia | New York City | 1 | All Maps","protocol":17,"map":"cp_dustbowl","folder":"tf","game":"Team Fortress","app_id":440,"player_count":1,"max_players":24,"Bots":0,"server_type":"Dedicated","server_os":"Linux","password":true,"vac":true,"version":"7742253","steam_id":85568392924469993,"keywords":["cp","nocrits","nodmgspread","uncletopia"],"game_id":440,"stv_port":27016,"stv_name":"Uncletopia | New York City | 1 | All Maps | STV","players":[{"user_id":9,"name":"you forgot the sauce","steam_id":76561198387016713,"connected_time":97000000000,"state":"active","ping":54}]},{"server_id":14,"name":"Uncletopia | New York City | 2 | All Maps","name_short":"nyc-2","host":"nyc-1.us.uncletopia.com","port":27025,"enabled":true,"region":"us-east","cc":"us","latitude":40.73061,"longitude":-73.93524,"reserved":0,"last_update":"0001-01-01T00:00:00Z","name_a2s":"Uncletopia | New York City | 2 | All Maps","protocol":17,"map":"koth_viaduct","folder":"tf","game":"Team Fortress","app_id":440,"player_count":0,"max_players":24,"Bots":0,"server_type":"Dedicated","server_os":"Linux","password":true,"vac":true,"version":"7742253","steam_id":85568392924469994,"keywords":["cp","nocrits","nodmgspread","uncletopia"],"game_id":440,"stv_port":27026,"stv_name":"Uncletopia | New York City | 2 | All Maps | STV","players":null},{"server_id":15,"name":"Uncletopia | New York City | 3 | Stopwatch Beta","name_short":"nyc-3","host":"nyc-1.us.uncletopia.com","port":27035,"enabled":true,"region":"us-east","cc":"us","latitude":40.73061,"longitude":-73.93524,"reserved":0,"last_update":"0001-01-01T00:00:00Z","name_a2s":"Uncletopia | New York City | 3 | Stopwatch Beta","protocol":17,"map":"pl_pier","folder":"tf","game":"Team Fortress","app_id":440,"player_count":0,"max_players":24,"Bots":0,"server_type":"Dedicated","server_os":"Linux","password":true,"vac":true,"version":"7742253","steam_id":85568392924742820,"keywords":["nocrits","nodmgspread","payload","uncletopia"],"game_id":440,"stv_port":27036,"stv_name":"Uncletopia | New York City | 3 | Stopwatch Beta | STV","players":null},{"server_id":16,"name":"Uncletopia | New York City | 4 | Community","name_short":"nyc-4","host":"nyc-1.us.uncletopia.com","port":27045,"enabled":true,"region":"us-east","cc":"us","latitude":40.73061,"longitude":-73.93524,"reserved":0,"last_update":"0001-01-01T00:00:00Z","name_a2s":"Uncletopia | New York City | 4 | Community","protocol":17,"map":"workshop/pl_barnblitz_pro7.ugc582280235","folder":"tf","game":"Team Fortress","app_id":440,"player_count":0,"max_players":24,"Bots":0,"server_type":"Dedicated","server_os":"Linux","password":true,"vac":true,"version":"7742253","steam_id":85568392924742821,"keywords":["nocrits","nodmgspread","payload","uncletopia"],"game_id":440,"stv_port":27046,"stv_name":"Uncletopia | New York City | 4 | Community | STV","players":null},{"server_id":142,"name":"Uncletopia | S√£o Paulo | 1 | All Maps","name_short":"sao-1","host":"sao-1.br.uncletopia.com","port":27015,"enabled":true,"region":"sa","cc":"br","latitude":-23.533773,"longitude":-46.62529,"reserved":0,"last_update":"0001-01-01T00:00:00Z","name_a2s":"Uncletopia | S√£o Paulo | 1 | All Maps","protocol":17,"map":"koth_highpass","folder":"tf","game":"Team Fortress","app_id":440,"player_count":2,"max_players":24,"Bots":0,"server_type":"Dedicated","server_os":"Linux","password":true,"vac":true,"version":"7742253","steam_id":85568392924469996,"keywords":["cp","nocrits","nodmgspread","uncletopia"],"game_id":440,"stv_port":27016,"stv_name":"Uncletopia | S√£o Paulo | 1 | All Maps | STV","players":[{"user_id":25,"name":"Tert_14","steam_id":76561198185952289,"connected_time":361000000000,"state":"active","ping":59},{"user_id":21,"name":"guarda-chuva","steam_id":76561198078694330,"connected_time":2667000000000,"state":"active","ping":269}]},{"server_id":143,"name":"Uncletopia | S√£o Paulo | 2 | All Maps","name_short":"sao-2","host":"sao-2.br.uncletopia.com","port":27015,"enabled":true,"region":"sa","cc":"br","latitude":-23.533773,"longitude":-46.62529,"reserved":0,"last_update":"0001-01-01T00:00:00Z","name_a2s":"Uncletopia | S√£o Paulo | 2 | All Maps","protocol":17,"map":"pl_pier","folder":"tf","game":"Team Fortress","app_id":440,"player_count":15,"max_players":24,"Bots":0,"server_type":"Dedicated","server_os":"Linux","password":true,"vac":true,"version":"7742253","steam_id":85568392924485349,"keywords":["nocrits","nodmgspread","payload","uncletopia"],"game_id":440,"stv_port":27016,"stv_name":"Uncletopia | S√£o Paulo | 2 | All Maps | STV","players":[{"user_id":40,"name":"jao","steam_id":76561198408082822,"connected_time":395000000000,"state":"active","ping":53},{"user_id":48,"name":"jr_rusty","steam_id":76561198313937899,"connected_time":79000000000,"state":"active","ping":45},{"user_id":25,"name":"kripie","steam_id":76561198057124378,"connected_time":766000000000,"state":"active","ping":53},{"user_id":26,"name":"bonnie","steam_id":76561198420782718,"connected_time":764000000000,"state":"active","ping":69},{"user_id":30,"name":"Derfel","steam_id":76561198134643483,"connected_time":646000000000,"state":"active","ping":61},{"user_id":31,"name":"Ôº•ÔΩéÔΩÑÔΩÖÔΩíÔºÆÔΩÖÔΩÉÔΩíÔΩè","steam_id":76561198044304293,"connected_time":625000000000,"state":"active","ping":42},{"user_id":32,"name":"nothing happened","steam_id":76561198081283606,"connected_time":625000000000,"state":"active","ping":42},{"user_id":33,"name":"piroka da Gkay","steam_id":76561198171349369,"connected_time":617000000000,"state":"active","ping":37},{"user_id":37,"name":"Escarios","steam_id":76561198118017809,"connected_time":572000000000,"state":"active","ping":84},{"user_id":38,"name":"niruma","steam_id":76561198067799345,"connected_time":544000000000,"state":"active","ping":40},{"user_id":43,"name":"CATS","steam_id":76561198103172108,"connected_time":314000000000,"state":"active","ping":70},{"user_id":44,"name":"Bostil Pereira da Silva","steam_id":76561198154557793,"connected_time":296000000000,"state":"active","ping":82},{"user_id":45,"name":"DreadDoorMan","steam_id":76561199195113803,"connected_time":254000000000,"state":"active","ping":199},{"user_id":46,"name":"Av14","steam_id":76561198264071057,"connected_time":215000000000,"state":"active","ping":50},{"user_id":47,"name":"get Racc'd","steam_id":76561199229475412,"connected_time":204000000000,"state":"active","ping":152}]},{"server_id":7,"name":"Uncletopia | Seattle | 1 | All Maps","name_short":"sea-1","host":"sea-1.us.uncletopia.com","port":27015,"enabled":true,"region":"us-west","cc":"us","latitude":47.608013,"longitude":-122.33517,"reserved":0,"last_update":"0001-01-01T00:00:00Z","name_a2s":"Uncletopia | Seattle | 1 | All Maps","protocol":17,"map":"pl_badwater","folder":"tf","game":"Team Fortress","app_id":440,"player_count":24,"max_players":24,"Bots":0,"server_type":"Dedicated","server_os":"Linux","password":true,"vac":true,"version":"7742253","steam_id":85568392924469997,"keywords":["nocrits","nodmgspread","payload","uncletopia"],"game_id":440,"stv_port":27016,"stv_name":"Uncletopia | Seattle | 1 | All Maps | STV","players":[{"user_id":236,"name":"Themasterman75","steam_id":76561199385573293,"connected_time":483000000000,"state":"active","ping":86},{"user_id":198,"name":"Sloppy Joe (Extra Sauce)","steam_id":76561198359703432,"connected_time":3161000000000,"state":"active","ping":114},{"user_id":202,"name":"KingTinkerer","steam_id":76561198226856548,"connected_time":2945000000000,"state":"active","ping":73},{"user_id":200,"name":"Aegis","steam_id":76561198022764002,"connected_time":3075000000000,"state":"active","ping":56},{"user_id":172,"name":"Shoggoth","steam_id":76561198117892299,"connected_time":4866000000000,"state":"active","ping":70},{"user_id":237,"name":"CaptainGold1","steam_id":76561198104967772,"connected_time":482000000000,"state":"active","ping":54},{"user_id":224,"name":"weed lesbian","steam_id":76561198042263805,"connected_time":1113000000000,"state":"active","ping":47},{"user_id":226,"name":"Sock","steam_id":76561198069090237,"connected_time":1057000000000,"state":"active","ping":102},{"user_id":238,"name":"jalapeno pete","steam_id":76561199159928133,"connected_time":435000000000,"state":"active","ping":108},{"user_id":247,"name":"Milano","steam_id":76561198051889174,"connected_time":263000000000,"state":"active","ping":72},{"user_id":227,"name":"der","steam_id":76561198060762287,"connected_time":934000000000,"state":"active","ping":44},{"user_id":231,"name":"BIGGUS DICKUS","steam_id":76561199057483763,"connected_time":708000000000,"state":"active","ping":81},{"user_id":240,"name":"FunnyPhish","steam_id":76561199013502305,"connected_time":416000000000,"state":"active","ping":94},{"user_id":241,"name":"ElektreecK","steam_id":76561198135229661,"connected_time":416000000000,"state":"active","ping":106},{"user_id":228,"name":"a cat plushie","steam_id":76561198080046542,"connected_time":917000000000,"state":"active","ping":47},{"user_id":232,"name":"Gary, 40, soul sucking 9-5","steam_id":76561198073812888,"connected_time":652000000000,"state":"active","ping":43},{"user_id":233,"name":"pat back","steam_id":76561198347225801,"connected_time":647000000000,"state":"active","ping":60},{"user_id":242,"name":"J. Lightning","steam_id":76561198147148998,"connected_time":380000000000,"state":"active","ping":130},{"user_id":187,"name":"Jay","steam_id":76561198148464582,"connected_time":4086000000000,"state":"active","ping":87},{"user_id":243,"name":"BolognaWithOlives","steam_id":76561198101262668,"connected_time":376000000000,"state":"active","ping":105},{"user_id":208,"name":"neonl1","steam_id":76561198818539774,"connected_time":2790000000000,"state":"active","ping":109},{"user_id":215,"name":"Pneumo.","steam_id":76561197987911883,"connected_time":2177000000000,"state":"active","ping":65},{"user_id":244,"name":"DA | Graken","steam_id":76561198057636785,"connected_time":346000000000,"state":"active","ping":51},{"user_id":245,"name":"Strangelove","steam_id":76561198353773611,"connected_time":331000000000,"state":"active","ping":132}]},{"server_id":119,"name":"Uncletopia | Seattle | 2 | All Maps","name_short":"sea-2","host":"sea-1.us.uncletopia.com","port":27025,"enabled":true,"region":"us-west","cc":"us","latitude":47.608013,"longitude":-122.33517,"reserved":0,"last_update":"0001-01-01T00:00:00Z","name_a2s":"Uncletopia | Seattle | 2 | All Maps","protocol":17,"map":"cp_gullywash_final1","folder":"tf","game":"Team Fortress","app_id":440,"player_count":7,"max_players":24,"Bots":0,"server_type":"Dedicated","server_os":"Linux","password":true,"vac":true,"version":"7742253","steam_id":85568392924469998,"keywords":["cp","nocrits","nodmgspread","uncletopia"],"game_id":440,"stv_port":27026,"stv_name":"Uncletopia | Seattle | 2 | All Maps | STV","players":[{"user_id":404,"name":"Porytal","steam_id":76561198306101889,"connected_time":1101000000000,"state":"active","ping":49},{"user_id":405,"name":"girr","steam_id":76561198995114110,"connected_time":818000000000,"state":"active","ping":68},{"user_id":409,"name":"Sissel","steam_id":76561198138956747,"connected_time":126000000000,"state":"active","ping":134},{"user_id":407,"name":"laggy mcstab","steam_id":76561198106379962,"connected_time":334000000000,"state":"active","ping":47},{"user_id":408,"name":"Peaches","steam_id":76561198157117348,"connected_time":186000000000,"state":"active","ping":99},{"user_id":410,"name":"TheMadDoctor(He/Him)","steam_id":76561198846198407,"connected_time":120000000000,"state":"active","ping":45},{"user_id":411,"name":"NishiFishi","steam_id":76561198071635250,"connected_time":61000000000,"state":"active","ping":69}]},{"server_id":406,"name":"Uncletopia | Seattle | 3 | Stopwatch Beta","name_short":"sea-3","host":"sea-1.us.uncletopia.com","port":27035,"enabled":true,"region":"us-west","cc":"us","latitude":47.608013,"longitude":-122.33517,"reserved":0,"last_update":"0001-01-01T00:00:00Z","name_a2s":"Uncletopia | Seattle | 3 | Stopwatch Beta","protocol":17,"map":"workshop/koth_bagel_rc5.ugc2514036946","folder":"tf","game":"Team Fortress","app_id":440,"player_count":0,"max_players":24,"Bots":0,"server_type":"Dedicated","server_os":"Linux","password":true,"vac":true,"version":"7742253","steam_id":85568392924515217,"keywords":["cp","nocrits","nodmgspread","uncletopia"],"game_id":440,"stv_port":27036,"stv_name":"Uncletopia | Seattle | 3 | Stopwatch Beta | STV","players":null},{"server_id":17,"name":"Uncletopia | San Francisco | 1 | All Maps","name_short":"sfo-1","host":"sfo-1.us.uncletopia.com","port":27015,"enabled":true,"region":"us-west","cc":"us","latitude":37.77397,"longitude":-122.4313,"reserved":0,"last_update":"0001-01-01T00:00:00Z","name_a2s":"Uncletopia | San Francisco | 1 | All Maps","protocol":17,"map":"koth_highpass","folder":"tf","game":"Team Fortress","app_id":440,"player_count":0,"max_players":24,"Bots":0,"server_type":"Dedicated","server_os":"Linux","password":true,"vac":true,"version":"7742253","steam_id":85568392924469999,"keywords":["cp","nocrits","nodmgspread","uncletopia"],"game_id":440,"stv_port":27016,"stv_name":"Uncletopia | San Francisco | 1 | All Maps | STV","players":null},{"server_id":18,"name":"Uncletopia | San Francisco | 2 | All Maps","name_short":"sfo-2","host":"sfo-1.us.uncletopia.com","port":27025,"enabled":true,"region":"us-west","cc":"us","latitude":37.77397,"longitude":-122.4313,"reserved":0,"last_update":"0001-01-01T00:00:00Z","name_a2s":"Uncletopia | San Francisco | 2 | All Maps","protocol":17,"map":"cp_process_final","folder":"tf","game":"Team Fortress","app_id":440,"player_count":0,"max_players":24,"Bots":0,"server_type":"Dedicated","server_os":"Linux","password":true,"vac":true,"version":"7742253","steam_id":85568392924470000,"keywords":["cp","nocrits","nodmgspread","uncletopia"],"game_id":440,"stv_port":27026,"stv_name":"Uncletopia | San Francisco | 2 | All Maps | STV","players":null},{"server_id":19,"name":"Uncletopia | San Francisco | 3 | Stopwatch Beta","name_short":"sfo-3","host":"sfo-1.us.uncletopia.com","port":27035,"enabled":true,"region":"us-west","cc":"us","latitude":37.77397,"longitude":-122.4313,"reserved":0,"last_update":"0001-01-01T00:00:00Z","name_a2s":"Uncletopia | San Francisco | 3 | Stopwatch Beta","protocol":17,"map":"cp_granary","folder":"tf","game":"Team Fortress","app_id":440,"player_count":0,"max_players":24,"Bots":0,"server_type":"Dedicated","server_os":"Linux","password":true,"vac":true,"version":"7742253","steam_id":85568392924742824,"keywords":["cp","nocrits","nodmgspread","uncletopia"],"game_id":440,"stv_port":27036,"stv_name":"Uncletopia | San Francisco | 3 | Stopwatch Beta | STV","players":null},{"server_id":20,"name":"Uncletopia | San Francisco | 4 | Community","name_short":"sfo-4","host":"sfo-1.us.uncletopia.com","port":27045,"enabled":true,"region":"us-west","cc":"us","latitude":37.77397,"longitude":-122.4313,"reserved":0,"last_update":"0001-01-01T00:00:00Z","name_a2s":"Uncletopia | San Francisco | 4 | Community","protocol":17,"map":"workshop/cp_overgrown_rc7b.ugc503939302","folder":"tf","game":"Team Fortress","app_id":440,"player_count":0,"max_players":24,"Bots":0,"server_type":"Dedicated","server_os":"Linux","password":true,"vac":true,"version":"7742253","steam_id":85568392924742826,"keywords":["cp","nocrits","nodmgspread","uncletopia"],"game_id":440,"stv_port":27046,"stv_name":"Uncletopia | San Francisco | 4 | Community | STV","players":null},{"server_id":141,"name":"Uncletopia | Sydney | 1 | All Maps","name_short":"syd-1","host":"syd-1.au.uncletopia.com","port":27015,"enabled":true,"region":"au","cc":"au","latitude":-33.865143,"longitude":151.2099,"reserved":0,"last_update":"0001-01-01T00:00:00Z","name_a2s":"Uncletopia | Sydney | 1 | All Maps","protocol":17,"map":"pl_pier","folder":"tf","game":"Team Fortress","app_id":440,"player_count":23,"max_players":24,"Bots":0,"server_type":"Dedicated","server_os":"Linux","password":true,"vac":true,"version":"7742253","steam_id":85568392924470001,"keywords":["nocrits","nodmgspread","payload","uncletopia"],"game_id":440,"stv_port":27016,"stv_name":"Uncletopia | Sydney | 1 | All Maps | STV","players":[{"user_id":139,"name":"Omor","steam_id":76561198977762882,"connected_time":78000000000,"state":"active","ping":51},{"user_id":119,"name":"lavanderpumpernickle","steam_id":76561199093611800,"connected_time":683000000000,"state":"active","ping":56},{"user_id":120,"name":"Kimiko","steam_id":76561199057568663,"connected_time":632000000000,"state":"active","ping":48},{"user_id":122,"name":"boj","steam_id":76561198013589073,"connected_time":530000000000,"state":"active","ping":48},{"user_id":87,"name":"Jetfire","steam_id":76561198047370036,"connected_time":3024000000000,"state":"active","ping":69},{"user_id":18,"name":"squrrel","steam_id":76561198083429611,"connected_time":7500000000000,"state":"active","ping":75},{"user_id":30,"name":"Scorchinq","steam_id":76561198169423722,"connected_time":6234000000000,"state":"active","ping":41},{"user_id":100,"name":"Cum Mountain","steam_id":76561198880497900,"connected_time":1718000000000,"state":"active","ping":43},{"user_id":95,"name":"internetkittenz13","steam_id":76561198881042979,"connected_time":2700000000000,"state":"active","ping":67},{"user_id":129,"name":"DreadDoorMan","steam_id":76561199195113803,"connected_time":268000000000,"state":"connecting","ping":0},{"user_id":112,"name":"Celph","steam_id":76561197993987500,"connected_time":921000000000,"state":"active","ping":56},{"user_id":104,"name":"riskybiznutz","steam_id":76561198040467549,"connected_time":1652000000000,"state":"active","ping":38},{"user_id":137,"name":"TheSteelMushroom","steam_id":76561198078494990,"connected_time":123000000000,"state":"active","ping":48},{"user_id":106,"name":"grab a stubby mate","steam_id":76561198075320354,"connected_time":1437000000000,"state":"active","ping":57},{"user_id":83,"name":"ttv/ca7x3","steam_id":76561198181194862,"connected_time":3855000000000,"state":"active","ping":58},{"user_id":102,"name":"trash","steam_id":76561198110764631,"connected_time":1700000000000,"state":"active","ping":46},{"user_id":141,"name":"Chris","steam_id":76561198088227961,"connected_time":60000000000,"state":"active","ping":62},{"user_id":116,"name":"Space Capsicum","steam_id":76561198358483352,"connected_time":851000000000,"state":"active","ping":59},{"user_id":142,"name":"Ginger Jesus","steam_id":76561198052386458,"connected_time":27000000000,"state":"spawning","ping":269},{"user_id":124,"name":"Jesus (Real)","steam_id":76561199012042116,"connected_time":409000000000,"state":"active","ping":43},{"user_id":130,"name":"cade is sleepy","steam_id":76561198126719182,"connected_time":259000000000,"state":"active","ping":52},{"user_id":127,"name":"hazelnut","steam_id":76561198214029745,"connected_time":357000000000,"state":"active","ping":46},{"user_id":128,"name":"[Recon] Galah","steam_id":76561197996636860,"connected_time":309000000000,"state":"active","ping":41}]},{"server_id":123,"name":"Uncletopia | Sydney | 2 | All Maps","name_short":"syd-2","host":"syd-1.au.uncletopia.com","port":27025,"enabled":true,"region":"au","cc":"au","latitude":-33.865143,"longitude":151.2099,"reserved":0,"last_update":"0001-01-01T00:00:00Z","name_a2s":"Uncletopia | Sydney | 2 | All Maps","protocol":17,"map":"pl_pier","folder":"tf","game":"Team Fortress","app_id":440,"player_count":0,"max_players":24,"Bots":0,"server_type":"Dedicated","server_os":"Linux","password":true,"vac":true,"version":"7742253","steam_id":85568392924470002,"keywords":["nocrits","nodmgspread","payload","uncletopia"],"game_id":440,"stv_port":27026,"stv_name":"Uncletopia | Sydney | 2 | All Maps | STV","players":null},{"server_id":395,"name":"Uncletopia | Sydney | 3 | All Maps","name_short":"syd-3","host":"syd-1.au.uncletopia.com","port":27035,"enabled":true,"region":"au","cc":"au","latitude":-33.865143,"longitude":151.2099,"reserved":0,"last_update":"0001-01-01T00:00:00Z","name_a2s":"Uncletopia | Sydney | 3 | All Maps","protocol":17,"map":"koth_viaduct","folder":"tf","game":"Team Fortress","app_id":440,"player_count":0,"max_players":24,"Bots":0,"server_type":"Dedicated","server_os":"Linux","password":true,"vac":true,"version":"7742253","steam_id":85568392925194467,"keywords":["cp","nocrits","nodmgspread","uncletopia"],"game_id":440,"stv_port":27036,"stv_name":"Uncletopia | Sydney | 3 | All Maps | STV","players":null},{"server_id":396,"name":"Uncletopia | Sydney | 4 | All Maps","name_short":"syd-4","host":"syd-1.au.uncletopia.com","port":27045,"enabled":true,"region":"au","cc":"au","latitude":-33.865143,"longitude":151.2099,"reserved":0,"last_update":"0001-01-01T00:00:00Z","name_a2s":"Uncletopia | Sydney | 4 | All Maps","protocol":17,"map":"pl_frontier_final","folder":"tf","game":"Team Fortress","app_id":440,"player_count":0,"max_players":24,"Bots":0,"server_type":"Dedicated","server_os":"Linux","password":true,"vac":true,"version":"7742253","steam_id":85568392925397958,"keywords":["nocrits","nodmgspread","payload","uncletopia"],"game_id":440,"stv_port":27046,"stv_name":"Uncletopia | Sydney | 4 | All Maps | STV","players":null},{"server_id":58,"name":"Uncletopia | Sydney | 5 | Stopwatch Beta","name_short":"syd-5","host":"syd-1.au.uncletopia.com","port":27055,"enabled":true,"region":"au","cc":"au","latitude":-33.865143,"longitude":151.2099,"reserved":0,"last_update":"0001-01-01T00:00:00Z","name_a2s":"Uncletopia | Sydney | 5 | Stopwatch Beta","protocol":17,"map":"cp_sunshine","folder":"tf","game":"Team Fortress","app_id":440,"player_count":0,"max_players":24,"Bots":0,"server_type":"Dedicated","server_os":"Linux","password":true,"vac":true,"version":"7742253","steam_id":85568392925397959,"keywords":["cp","nocrits","nodmgspread","uncletopia"],"game_id":440,"stv_port":27056,"stv_name":"Uncletopia | Sydney | 5 | Stopwatch Beta | STV","players":null},{"server_id":59,"name":"Uncletopia | Sydney | 6 | Community","name_short":"syd-6","host":"syd-1.au.uncletopia.com","port":27065,"enabled":true,"region":"au","cc":"au","latitude":-33.865143,"longitude":151.2099,"reserved":0,"last_update":"0001-01-01T00:00:00Z","name_a2s":"Uncletopia | Sydney | 6 | Community","protocol":17,"map":"cp_dustbowl","folder":"tf","game":"Team Fortress","app_id":440,"player_count":0,"max_players":24,"Bots":0,"server_type":"Dedicated","server_os":"Linux","password":true,"vac":true,"version":"7742253","steam_id":85568392925397960,"keywords":["cp","nocrits","nodmgspread","uncletopia"],"game_id":440,"stv_port":27066,"stv_name":"Uncletopia | Sydney | 6 | Community | STV","players":null},{"server_id":49,"name":"Uncletopia | Warsaw | 1 | All Maps","name_short":"waw-1","host":"waw-1.pl.uncletopia.com","port":27015,"enabled":true,"region":"eu","cc":"pl","latitude":52.2297,"longitude":21.017532,"reserved":0,"last_update":"0001-01-01T00:00:00Z","name_a2s":"","protocol":0,"map":"","folder":"","game":"","app_id":0,"player_count":0,"max_players":0,"Bots":0,"server_type":"","server_os":"","password":false,"vac":false,"version":"","steam_id":0,"keywords":null,"game_id":0,"stv_port":0,"stv_name":"","players":null},{"server_id":50,"name":"Uncletopia | Warsaw | 2 | All Maps","name_short":"waw-2","host":"waw-1.pl.uncletopia.com","port":27025,"enabled":true,"region":"eu","cc":"pl","latitude":52.2297,"longitude":21.017532,"reserved":0,"last_update":"0001-01-01T00:00:00Z","name_a2s":"Uncletopia | Warsaw | 2 | All Maps","protocol":17,"map":"koth_viaduct","folder":"tf","game":"Team Fortress","app_id":440,"player_count":0,"max_players":24,"Bots":0,"server_type":"Dedicated","server_os":"Linux","password":true,"vac":true,"version":"7742253","steam_id":85568392925397851,"keywords":["cp","nocrits","nodmgspread","uncletopia"],"game_id":440,"stv_port":27026,"stv_name":"Uncletopia | Warsaw | 2 | All Maps | STV","players":null},{"server_id":51,"name":"Uncletopia | Warsaw | 3 | All Maps","name_short":"waw-3","host":"waw-1.pl.uncletopia.com","port":27035,"enabled":true,"region":"eu","cc":"pl","latitude":52.2297,"longitude":21.017532,"reserved":0,"last_update":"0001-01-01T00:00:00Z","name_a2s":"Uncletopia | Warsaw | 3 | All Maps","protocol":17,"map":"koth_lakeside_final","folder":"tf","game":"Team Fortress","app_id":440,"player_count":0,"max_players":24,"Bots":0,"server_type":"Dedicated","server_os":"Linux","password":true,"vac":true,"version":"7742253","steam_id":85568392925397852,"keywords":["cp","nocrits","nodmgspread","uncletopia"],"game_id":440,"stv_port":27036,"stv_name":"Uncletopia | Warsaw | 3 | All Maps | STV","players":null},{"server_id":52,"name":"Uncletopia | Warsaw | 4 | All Maps","name_short":"waw-4","host":"waw-1.pl.uncletopia.com","port":27045,"enabled":true,"region":"eu","cc":"pl","latitude":52.2297,"longitude":21.017532,"reserved":0,"last_update":"0001-01-01T00:00:00Z","name_a2s":"Uncletopia | Warsaw | 4 | All Maps","protocol":17,"map":"pl_frontier_final","folder":"tf","game":"Team Fortress","app_id":440,"player_count":0,"max_players":24,"Bots":0,"server_type":"Dedicated","server_os":"Linux","password":true,"vac":true,"version":"7742253","steam_id":85568392925397853,"keywords":["nocrits","nodmgspread","payload","uncletopia"],"game_id":440,"stv_port":27046,"stv_name":"Uncletopia | Warsaw | 4 | All Maps | STV","players":null},{"server_id":53,"name":"Uncletopia | Warsaw | 5 | Stopwatch Beta","name_short":"waw-5","host":"waw-1.pl.uncletopia.com","port":27055,"enabled":true,"region":"eu","cc":"pl","latitude":52.2297,"longitude":21.017532,"reserved":0,"last_update":"0001-01-01T00:00:00Z","name_a2s":"Uncletopia | Warsaw | 5 | Stopwatch Beta","protocol":17,"map":"pl_swiftwater_final1","folder":"tf","game":"Team Fortress","app_id":440,"player_count":0,"max_players":24,"Bots":0,"server_type":"Dedicated","server_os":"Linux","password":true,"vac":true,"version":"7742253","steam_id":85568392925397854,"keywords":["nocrits","nodmgspread","payload","uncletopia"],"game_id":440,"stv_port":27056,"stv_name":"Uncletopia | Warsaw | 5 | Stopwatch Beta | STV","players":null},{"server_id":54,"name":"Uncletopia | Warsaw | 6 | Community","name_short":"waw-6","host":"waw-1.pl.uncletopia.com","port":27065,"enabled":true,"region":"eu","cc":"pl","latitude":52.2297,"longitude":21.017532,"reserved":0,"last_update":"0001-01-01T00:00:00Z","name_a2s":"Uncletopia | Warsaw | 6 | Community","protocol":17,"map":"workshop/pl_vigil_rc9.ugc1266210012","folder":"tf","game":"Team Fortress","app_id":440,"player_count":2,"max_players":24,"Bots":0,"server_type":"Dedicated","server_os":"Linux","password":true,"vac":true,"version":"7742253","steam_id":85568392925397856,"keywords":["nocrits","nodmgspread","payload","uncletopia"],"game_id":440,"stv_port":27066,"stv_name":"Uncletopia | Warsaw | 6 | Community | STV","players":[{"user_id":133,"name":"ÍßÅ‡ºí ‚Ä¢ Xx_Red_xX ‚Ä¢‡ºíÍßÇ","steam_id":76561199230923075,"connected_time":610000000000,"state":"active","ping":310},{"user_id":134,"name":"adrianmillones1","steam_id":76561199274711212,"connected_time":592000000000,"state":"active","ping":253}]}]}