{"status":true,"message":"","result":[{"server_id":9,"name":"Uncletopia | Atlanta | 1 | All Maps","name_short":"atl-1","host":"atl-1.us.uncletopia.com","port":27015,"enabled":true,"region":"us-east","cc":"us","latitude":33.753746,"longitude":-84.38633,"reserved":0,"last_update":"0001-01-01T00:00:00Z","name_a2s":"Uncletopia | Atlanta | 1 | All Maps","protocol":17,"map":"pl_rumford_event","folder":"tf","game":"Team Fortress","app_id":440,"player_count":24,"max_players":24,"Bots":0,"server_type":"Dedicated","server_os":"Linux","password":true,"vac":true,"version":"7757534","steam_id":85568392924469982,"keywords":["nocrits","nodmgspread","payload","uncletopia"],"game_id":440,"stv_port":27016,"stv_name":"Uncletopia | Atlanta | 1 | All Maps | STV","players":[{"user_id":114,"name":"Nebula","steam_id":76561198795878862,"connected_time":4540000000000,"state":"active","ping":85},{"user_id":140,"name":"Rat Bastard","steam_id":76561198153443658,"connected_time":1992000000000,"state":"active","ping":71},{"user_id":91,"name":"AJsurfer","steam_id":76561198897045252,"connected_time":5323000000000,"state":"active","ping":132},{"user_id":95,"name":"new and improved washing machin","steam_id":76561199160873100,"connected_time":5229000000000,"state":"active","ping":102},{"user_id":160,"name":"rivera","steam_id":76561198051058706,"connected_time":130000000000,"state":"active","ping":60},{"user_id":154,"name":"I have a dream... mrNiceguy","steam_id":76561198053176402,"connected_time":333000000000,"state":"active","ping":176},{"user_id":145,"name":"TheSquirrelofHuscurl","steam_id":76561198073379623,"connected_time":1531000000000,"state":"active","ping":66},{"user_id":150,"name":"Waffle Wannabe","steam_id":76561198064510650,"connected_time":831000000000,"state":"active","ping":64},{"user_id":155,"name":"Gary","steam_id":76561198133309753,"connected_time":299000000000,"state":"active","ping":171},{"user_id":151,"name":"clack","steam_id":76561198966980576,"connected_time":403000000000,"state":"active","ping":68},{"user_id":40,"name":"luxin","steam_id":76561198399383047,"connected_time":9393000000000,"state":"active","ping":54},{"user_id":152,"name":"MrSoul480p","steam_id":76561198019138788,"connected_time":397000000000,"state":"active","ping":58},{"user_id":163,"name":"Kobicha","steam_id":76561198144970720,"connected_time":94000000000,"state":"active","ping":69},{"user_id":144,"name":"CPUnit","steam_id":76561198162881878,"connected_time":1746000000000,"state":"active","ping":60},{"user_id":161,"name":"Poo","steam_id":76561198265144507,"connected_time":119000000000,"state":"active","ping":76},{"user_id":157,"name":"Phrog","steam_id":76561199122281598,"connected_time":234000000000,"state":"active","ping":60},{"user_id":149,"name":"Kiss Master","steam_id":76561198289572271,"connected_time":1088000000000,"state":"active","ping":60},{"user_id":158,"name":"Fedsmoker","steam_id":76561198047372130,"connected_time":224000000000,"state":"active","ping":85},{"user_id":153,"name":"Monkey Mode","steam_id":76561197961267543,"connected_time":393000000000,"state":"active","ping":60},{"user_id":130,"name":"halfpint","steam_id":76561198148217618,"connected_time":3105000000000,"state":"active","ping":55},{"user_id":162,"name":"MaybeMars","steam_id":76561198084736804,"connected_time":109000000000,"state":"active","ping":69},{"user_id":53,"name":"scuba doo warfare","steam_id":76561198018761740,"connected_time":8325000000000,"state":"active","ping":78},{"user_id":119,"name":"lil hog","steam_id":76561199230929836,"connected_time":4307000000000,"state":"active","ping":87},{"user_id":132,"name":"bob","steam_id":76561198261060542,"connected_time":3057000000000,"state":"active","ping":76}]},{"server_id":104,"name":"Uncletopia | Atlanta | 2 | All Maps","name_short":"atl-2","host":"atl-1.us.uncletopia.com","port":27025,"enabled":true,"region":"us-east","cc":"us","latitude":33.753746,"longitude":-84.38633,"reserved":0,"last_update":"0001-01-01T00:00:00Z","name_a2s":"Uncletopia | Atlanta | 2 | All Maps","protocol":17,"map":"cp_sunshine","folder":"tf","game":"Team Fortress","app_id":440,"player_count":0,"max_players":24,"Bots":0,"server_type":"Dedicated","server_os":"Linux","password":true,"vac":true,"version":"7757534","steam_id":85568392924469983,"keywords":["cp","nocrits","nodmgspread","uncletopia"],"game_id":440,"stv_port":27026,"stv_name":"Uncletopia | Atlanta | 2 | All Maps | STV","players":null},{"server_id":400,"name":"Uncletopia | Atlanta | 3 | Community","name_short":"atl-3","host":"atl-1.us.uncletopia.com","port":27035,"enabled":true,"region":"us-east","cc":"us","latitude":33.753746,"longitude":-84.38633,"reserved":0,"last_update":"0001-01-01T00:00:00Z","name_a2s":"Uncletopia | Atlanta | 3 | Community","protocol":17,"map":"workshop/cp_hazyfort_rc6.ugc1365963729","folder":"tf","game":"Team Fortress","app_id":440,"player_count":1,"max_players":24,"Bots":0,"server_type":"Dedicated","server_os":"Linux","password":true,"vac":true,"version":"7757534","steam_id":85568392924515187,"keywords":["cp","nocrits","nodmgspread","uncletopia"],"game_id":440,"stv_port":27036,"stv_name":"Uncletopia | Atlanta | 3 | Community | STV","players":[{"user_id":4,"name":"ihavebeenstarving","steam_id":76561199449852744,"connected_time":73000000000,"state":"active","ping":62}]},{"server_id":401,"name":"Uncletopia | Atlanta | 4 | No Payload","name_short":"atl-4","host":"atl-1.us.uncletopia.com","port":27045,"enabled":true,"region":"us-east","cc":"us","latitude":33.753746,"longitude":-84.38633,"reserved":0,"last_update":"0001-01-01T00:00:00Z","name_a2s":"","protocol":0,"map":"","folder":"","game":"","app_id":0,"player_count":0,"max_players":0,"Bots":0,"server_type":"","server_os":"","password":false,"vac":false,"version":"","steam_id":0,"keywords":null,"game_id":0,"stv_port":0,"stv_name":"","players":null},{"server_id":2,"name":"Uncletopia | Chicago | 1 | All Maps","name_short":"chi-1","host":"chi-1.us.uncletopia.com","port":27015,"enabled":true,"region":"us-central","cc":"us","latitude":41.881832,"longitude":-87.62318,"reserved":0,"last_update":"0001-01-01T00:00:00Z","name_a2s":"Uncletopia | Chicago | 1 | All Maps","protocol":17,"map":"koth_highpass","folder":"tf","game":"Team Fortress","app_id":440,"player_count":11,"max_players":24,"Bots":0,"server_type":"Dedicated","server_os":"Linux","password":true,"vac":true,"version":"7757534","steam_id":85568392924469984,"keywords":["cp","nocrits","nodmgspread","uncletopia"],"game_id":440,"stv_port":27016,"stv_name":"Uncletopia | Chicago | 1 | All Maps | STV","players":[{"user_id":195,"name":"[يهودي] Bill Clinton [אל","steam_id":76561198163291190,"connected_time":1708000000000,"state":"active","ping":83},{"user_id":213,"name":"Yarn","steam_id":76561199227148369,"connected_time":368000000000,"state":"active","ping":110},{"user_id":197,"name":"chipperguy","steam_id":76561199060302023,"connected_time":1484000000000,"state":"active","ping":77},{"user_id":208,"name":"BasicPeaches","steam_id":76561198190890150,"connected_time":797000000000,"state":"active","ping":76},{"user_id":206,"name":"coyne","steam_id":76561197997350766,"connected_time":1136000000000,"state":"active","ping":61},{"user_id":214,"name":"femboy foxboy","steam_id":76561198056432756,"connected_time":364000000000,"state":"active","ping":57},{"user_id":215,"name":"[DEEP] Danmar33","steam_id":76561198056453091,"connected_time":126000000000,"state":"active","ping":46},{"user_id":211,"name":"NovaSc6ut","steam_id":76561198277163301,"connected_time":521000000000,"state":"active","ping":67},{"user_id":212,"name":"Niterux","steam_id":76561198101291574,"connected_time":451000000000,"state":"active","ping":77},{"user_id":216,"name":"Kebaboi","steam_id":76561198964264191,"connected_time":85000000000,"state":"active","ping":379},{"user_id":217,"name":"carutku","steam_id":76561199179457506,"connected_time":75000000000,"state":"active","ping":204}]},{"server_id":106,"name":"Uncletopia | Chicago | 2 | All Maps","name_short":"chi-2","host":"chi-1.us.uncletopia.com","port":27025,"enabled":true,"region":"us-central","cc":"us","latitude":41.881832,"longitude":-87.62318,"reserved":0,"last_update":"0001-01-01T00:00:00Z","name_a2s":"Uncletopia | Chicago | 2 | All Maps","protocol":17,"map":"koth_nucleus","folder":"tf","game":"Team Fortress","app_id":440,"player_count":0,"max_players":24,"Bots":0,"server_type":"Dedicated","server_os":"Linux","password":true,"vac":true,"version":"7757534","steam_id":85568392924469985,"keywords":["cp","nocrits","nodmgspread","uncletopia"],"game_id":440,"stv_port":27026,"stv_name":"Uncletopia | Chicago | 2 | All Maps | STV","players":null},{"server_id":402,"name":"Uncletopia | Chicago | 3 | All Maps","name_short":"chi-3","host":"chi-1.us.uncletopia.com","port":27035,"enabled":true,"region":"us-central","cc":"us","latitude":41.881832,"longitude":-87.62318,"reserved":0,"last_update":"0001-01-01T00:00:00Z","name_a2s":"Uncletopia | Chicago | 3 | All Maps","protocol":17,"map":"cp_steel","folder":"tf","game":"Team Fortress","app_id":440,"player_count":18,"max_players":24,"Bots":0,"server_type":"Dedicated","server_os":"Linux","password":true,"vac":true,"version":"7757534","steam_id":85568392924515191,"keywords":["cp","nocrits","nodmgspread","uncletopia"],"game_id":440,"stv_port":27036,"stv_name":"Uncletopia | Chicago | 3 | All Maps | STV","players":[{"user_id":253,"name":"Muffin","steam_id":76561199064341106,"connected_time":90000000000,"state":"active","ping":90},{"user_id":250,"name":"TheLobsterInQuestion","steam_id":76561198888928334,"connected_time":466000000000,"state":"active","ping":72},{"user_id":228,"name":"DarthEthanBoy","steam_id":76561198441643581,"connected_time":2392000000000,"state":"active","ping":61},{"user_id":255,"name":"not so french man","steam_id":76561198003593070,"connected_time":37000000000,"state":"spawning","ping":58},{"user_id":233,"name":"El Bondin","steam_id":76561198820792434,"connected_time":1930000000000,"state":"active","ping":102},{"user_id":256,"name":"mightymageknight","steam_id":76561199160853405,"connected_time":7000000000,"state":"spawning","ping":104},{"user_id":238,"name":"Chhaam","steam_id":76561198058508132,"connected_time":1403000000000,"state":"active","ping":50},{"user_id":237,"name":"TheSnipersHat","steam_id":76561198057684066,"connected_time":1419000000000,"state":"active","ping":72},{"user_id":231,"name":"McSmitten","steam_id":76561198022358379,"connected_time":2295000000000,"state":"active","ping":78},{"user_id":249,"name":"Mecha","steam_id":76561198014927379,"connected_time":644000000000,"state":"active","ping":75},{"user_id":245,"name":"M4 SOPMOD II Enjoyer","steam_id":76561198155176802,"connected_time":1333000000000,"state":"active","ping":71},{"user_id":210,"name":"Dom","steam_id":76561198043992490,"connected_time":3425000000000,"state":"active","ping":92},{"user_id":212,"name":"Cousin Corn on the Cob","steam_id":76561198049837377,"connected_time":3306000000000,"state":"active","ping":51},{"user_id":221,"name":"Smoker Lung","steam_id":76561198077167395,"connected_time":2646000000000,"state":"active","ping":45},{"user_id":247,"name":"JetZ","steam_id":76561199122488957,"connected_time":713000000000,"state":"active","ping":68},{"user_id":252,"name":"Bee","steam_id":76561198074681324,"connected_time":118000000000,"state":"active","ping":50},{"user_id":242,"name":"Lightning Bolt-Action","steam_id":76561198099461216,"connected_time":1358000000000,"state":"active","ping":60},{"user_id":232,"name":"Huey","steam_id":76561198972816386,"connected_time":2200000000000,"state":"active","ping":88}]},{"server_id":403,"name":"Uncletopia | Chicago | 4 | All Maps","name_short":"chi-4","host":"chi-1.us.uncletopia.com","port":27045,"enabled":true,"region":"us-central","cc":"us","latitude":41.881832,"longitude":-87.62318,"reserved":0,"last_update":"0001-01-01T00:00:00Z","name_a2s":"Uncletopia | Chicago | 4 | All Maps","protocol":17,"map":"pl_pier","folder":"tf","game":"Team Fortress","app_id":440,"player_count":24,"max_players":24,"Bots":0,"server_type":"Dedicated","server_os":"Linux","password":true,"vac":true,"version":"7757534","steam_id":85568392924515193,"keywords":["nocrits","nodmgspread","payload","uncletopia"],"game_id":440,"stv_port":27046,"stv_name":"Uncletopia | Chicago | 4 | All Maps | STV","players":[{"user_id":432,"name":"tasty","steam_id":76561198083839061,"connected_time":756000000000,"state":"active","ping":69},{"user_id":433,"name":"twix","steam_id":76561198040912048,"connected_time":723000000000,"state":"active","ping":46},{"user_id":434,"name":"Dookie","steam_id":76561198354025894,"connected_time":721000000000,"state":"active","ping":62},{"user_id":363,"name":"Vegerot","steam_id":76561197997843710,"connected_time":4914000000000,"state":"active","ping":60},{"user_id":444,"name":"Walkiing","steam_id":76561198074473413,"connected_time":213000000000,"state":"active","ping":45},{"user_id":436,"name":"wack","steam_id":76561198095697330,"connected_time":697000000000,"state":"active","ping":75},{"user_id":372,"name":"Raptor","steam_id":76561198105613110,"connected_time":4413000000000,"state":"active","ping":47},{"user_id":437,"name":"Bot Karma","steam_id":76561198422386331,"connected_time":682000000000,"state":"active","ping":146},{"user_id":445,"name":"SGTBrutus","steam_id":76561197967770472,"connected_time":212000000000,"state":"active","ping":56},{"user_id":439,"name":"MooleTheDoole","steam_id":76561199216480625,"connected_time":648000000000,"state":"active","ping":63},{"user_id":446,"name":"Iggy Dogg","steam_id":76561198059602545,"connected_time":201000000000,"state":"active","ping":54},{"user_id":373,"name":"Bird","steam_id":76561198247484514,"connected_time":4396000000000,"state":"active","ping":76},{"user_id":440,"name":"soda drink","steam_id":76561198092422065,"connected_time":614000000000,"state":"active","ping":84},{"user_id":441,"name":"TC","steam_id":76561198083276946,"connected_time":597000000000,"state":"active","ping":68},{"user_id":354,"name":"yahoo.com warrior","steam_id":76561198152818418,"connected_time":5522000000000,"state":"active","ping":87},{"user_id":356,"name":"Yandex.RU Mercenary","steam_id":76561198202254225,"connected_time":5458000000000,"state":"active","ping":90},{"user_id":442,"name":"Wool","steam_id":76561198332704108,"connected_time":586000000000,"state":"active","ping":51},{"user_id":391,"name":"gallowsCalibrator","steam_id":76561198076388445,"connected_time":2693000000000,"state":"active","ping":79},{"user_id":374,"name":"４０ ＦＰＳ","steam_id":76561198272394965,"connected_time":4390000000000,"state":"active","ping":134},{"user_id":383,"name":"OctopusCrime","steam_id":76561198060141069,"connected_time":3305000000000,"state":"active","ping":77},{"user_id":389,"name":"hotmail.com legionnaire","steam_id":76561198192120869,"connected_time":3119000000000,"state":"active","ping":63},{"user_id":427,"name":"g00bur","steam_id":76561197993622520,"connected_time":1668000000000,"state":"active","ping":70},{"user_id":388,"name":"popfulmail","steam_id":76561198865971290,"connected_time":3221000000000,"state":"active","ping":83},{"user_id":417,"name":"gmail.com white knight","steam_id":76561198138221795,"connected_time":2076000000000,"state":"active","ping":75}]},{"server_id":36,"name":"Uncletopia | Chicago | 5 | All Maps","name_short":"chi-5","host":"chi-2.us.uncletopia.com","port":27015,"enabled":true,"region":"us-central","cc":"us","latitude":41.881832,"longitude":-87.62318,"reserved":0,"last_update":"0001-01-01T00:00:00Z","name_a2s":"Uncletopia | Chicago | 5 | All Maps","protocol":17,"map":"koth_cascade","folder":"tf","game":"Team Fortress","app_id":440,"player_count":0,"max_players":24,"Bots":0,"server_type":"Dedicated","server_os":"Linux","password":true,"vac":true,"version":"7757534","steam_id":85568392924866362,"keywords":["cp","nocrits","nodmgspread","uncletopia"],"game_id":440,"stv_port":27016,"stv_name":"Uncletopia | Chicago | 5 | All Maps | STV","players":null},{"server_id":37,"name":"Uncletopia | Chicago | 6 | All Maps","name_short":"chi-6","host":"chi-2.us.uncletopia.com","port":27025,"enabled":true,"region":"us-central","cc":"us","latitude":41.881832,"longitude":-87.62318,"reserved":0,"last_update":"0001-01-01T00:00:00Z","name_a2s":"Uncletopia | Chicago | 6 | All Maps","protocol":17,"map":"pl_upward","folder":"tf","game":"Team Fortress","app_id":440,"player_count":24,"max_players":24,"Bots":0,"server_type":"Dedicated","server_os":"Linux","password":true,"vac":true,"version":"7757534","steam_id":85568392924866363,"keywords":["nocrits","nodmgspread","payload","uncletopia"],"game_id":440,"stv_port":27026,"stv_name":"Uncletopia | Chicago | 6 | All Maps | STV","players":[{"user_id":276,"name":"Pyro","steam_id":76561198312228050,"connected_time":2317000000000,"state":"active","ping":67},{"user_id":268,"name":"Chief Diggery K.","steam_id":76561198066629137,"connected_time":3188000000000,"state":"active","ping":105},{"user_id":297,"name":"aiden","steam_id":76561198449527009,"connected_time":691000000000,"state":"active","ping":48},{"user_id":277,"name":"Gocel","steam_id":76561198071467515,"connected_time":2314000000000,"state":"active","ping":65},{"user_id":299,"name":"lcy13vv","steam_id":76561197995997446,"connected_time":492000000000,"state":"active","ping":51},{"user_id":269,"name":"girlpeen supreme","steam_id":76561198031242903,"connected_time":3171000000000,"state":"active","ping":64},{"user_id":287,"name":"omma omma geh","steam_id":76561198339644583,"connected_time":1352000000000,"state":"active","ping":55},{"user_id":293,"name":"Romo","steam_id":76561198243101572,"connected_time":906000000000,"state":"active","ping":87},{"user_id":296,"name":"v","steam_id":76561198126358045,"connected_time":803000000000,"state":"active","ping":68},{"user_id":298,"name":"playguy carter","steam_id":76561198080679337,"connected_time":686000000000,"state":"active","ping":48},{"user_id":266,"name":"Kaluka","steam_id":76561198036861445,"connected_time":3206000000000,"state":"active","ping":60},{"user_id":227,"name":"SC|Formuoli","steam_id":76561198254354595,"connected_time":4281000000000,"state":"active","ping":39},{"user_id":231,"name":"A Puppy","steam_id":76561198828184456,"connected_time":4123000000000,"state":"active","ping":62},{"user_id":290,"name":"I Am Alpharius","steam_id":76561198799197135,"connected_time":1021000000000,"state":"active","ping":56},{"user_id":272,"name":"CaptainKn1ght","steam_id":76561198018979695,"connected_time":2827000000000,"state":"active","ping":104},{"user_id":294,"name":"BOT Positronic♥June (they/she","steam_id":76561198042556857,"connected_time":845000000000,"state":"active","ping":56},{"user_id":288,"name":"¬‿¬","steam_id":76561198325526945,"connected_time":1208000000000,"state":"active","ping":68},{"user_id":283,"name":"Crunchy","steam_id":76561199065412274,"connected_time":2062000000000,"state":"active","ping":82},{"user_id":267,"name":"Big kahuna","steam_id":76561198142024812,"connected_time":3197000000000,"state":"active","ping":85},{"user_id":292,"name":"Missing Minus","steam_id":76561198120822928,"connected_time":979000000000,"state":"active","ping":64},{"user_id":258,"name":"Peter Popoff","steam_id":76561198027171160,"connected_time":3421000000000,"state":"active","ping":50},{"user_id":291,"name":"Hippieranger","steam_id":76561198051958589,"connected_time":1021000000000,"state":"active","ping":90},{"user_id":300,"name":"no thoughts, head empty snake","steam_id":76561198872396820,"connected_time":126000000000,"state":"active","ping":73},{"user_id":259,"name":"debin","steam_id":76561198070711217,"connected_time":3416000000000,"state":"active","ping":54}]},{"server_id":38,"name":"Uncletopia | Chicago | 7 | Stopwatch Beta","name_short":"chi-7","host":"chi-2.us.uncletopia.com","port":27035,"enabled":true,"region":"us-central","cc":"us","latitude":41.881832,"longitude":-87.62318,"reserved":0,"last_update":"0001-01-01T00:00:00Z","name_a2s":"Uncletopia | Chicago | 7 | Stopwatch Beta","protocol":17,"map":"pl_barnblitz","folder":"tf","game":"Team Fortress","app_id":440,"player_count":0,"max_players":24,"Bots":0,"server_type":"Dedicated","server_os":"Linux","password":true,"vac":true,"version":"7757534","steam_id":85568392924866364,"keywords":["nocrits","nodmgspread","payload","uncletopia"],"game_id":440,"stv_port":27036,"stv_name":"Uncletopia | Chicago | 7 | Stopwatch Beta | STV","players":null},{"server_id":39,"name":"Uncletopia | Chicago | 8 | Community","name_short":"chi-8","host":"chi-2.us.uncletopia.com","port":27045,"enabled":true,"region":"us-central","cc":"us","latitude":41.881832,"longitude":-87.62318,"reserved":0,"last_update":"0001-01-01T00:00:00Z","name_a2s":"Uncletopia | Chicago | 8 | Community","protocol":17,"map":"koth_cascade","folder":"tf","game":"Team Fortress","app_id":440,"player_count":0,"max_players":24,"Bots":0,"server_type":"Dedicated","server_os":"Linux","password":true,"vac":true,"version":"7757534","steam_id":85568392924866365,"keywords":["cp","nocrits","nodmgspread","uncletopia"],"game_id":440,"stv_port":27046,"stv_name":"Uncletopia | Chicago | 8 | Community | STV","players":null},{"server_id":8,"name":"Uncletopia | Dallas | 1 | All Maps","name_short":"dal-1","host":"dal-1.us.uncletopia.com","port":27015,"enabled":true,"region":"us-central","cc":"us","latitude":32.779167,"longitude":-96.80889,"reserved":0,"last_update":"0001-01-01T00:00:00Z","name_a2s":"Uncletopia | Dallas | 1 | All Maps","protocol":17,"map":"ctf_2fort","folder":"tf","game":"Team Fortress","app_id":440,"player_count":11,"max_players":24,"Bots":0,"server_type":"Dedicated","server_os":"Linux","password":true,"vac":true,"version":"7757534","steam_id":85568392924469986,"keywords":["ctf","nocrits","nodmgspread","uncletopia"],"game_id":440,"stv_port":27016,"stv_name":"Uncletopia | Dallas | 1 | All Maps | STV","players":[{"user_id":14,"name":"Baby gaming","steam_id":76561198867319323,"connected_time":6226000000000,"state":"active","ping":79},{"user_id":71,"name":"BIGGEST MAC","steam_id":76561198847517098,"connected_time":564000000000,"state":"active","ping":181},{"user_id":16,"name":"thetroupegang","steam_id":76561198340510098,"connected_time":6182000000000,"state":"active","ping":43},{"user_id":29,"name":"icm2008","steam_id":76561199277408836,"connected_time":3210000000000,"state":"active","ping":84},{"user_id":28,"name":"Bobby Zimmeruski","steam_id":76561198171428589,"connected_time":3303000000000,"state":"active","ping":46},{"user_id":74,"name":"Distou","steam_id":76561198397886545,"connected_time":106000000000,"state":"active","ping":83},{"user_id":34,"name":"andyiscolorless","steam_id":76561199239870921,"connected_time":2939000000000,"state":"active","ping":133},{"user_id":59,"name":"Goose of Wisdom","steam_id":76561198233465044,"connected_time":1642000000000,"state":"active","ping":116},{"user_id":66,"name":"BLACK RANGER","steam_id":76561198117825609,"connected_time":1133000000000,"state":"active","ping":92},{"user_id":57,"name":"Dr.Soda","steam_id":76561198034549694,"connected_time":2364000000000,"state":"active","ping":88},{"user_id":62,"name":"♥ JUNE ♥","steam_id":76561198975039481,"connected_time":1592000000000,"state":"active","ping":109}]},{"server_id":108,"name":"Uncletopia | Dallas | 2 | All Maps","name_short":"dal-2","host":"dal-1.us.uncletopia.com","port":27025,"enabled":true,"region":"us-central","cc":"us","latitude":32.779167,"longitude":-96.80889,"reserved":0,"last_update":"0001-01-01T00:00:00Z","name_a2s":"Uncletopia | Dallas | 2 | All Maps","protocol":17,"map":"pl_barnblitz","folder":"tf","game":"Team Fortress","app_id":440,"player_count":24,"max_players":24,"Bots":0,"server_type":"Dedicated","server_os":"Linux","password":true,"vac":true,"version":"7757534","steam_id":85568392924469988,"keywords":["nocrits","nodmgspread","payload","uncletopia"],"game_id":440,"stv_port":27026,"stv_name":"Uncletopia | Dallas | 2 | All Maps | STV","players":[{"user_id":335,"name":"Joe Swanson","steam_id":76561199089907740,"connected_time":753000000000,"state":"active","ping":63},{"user_id":336,"name":"Maxx","steam_id":76561199478025303,"connected_time":682000000000,"state":"active","ping":71},{"user_id":348,"name":"jubb","steam_id":76561198186865526,"connected_time":353000000000,"state":"active","ping":120},{"user_id":341,"name":"laszlo","steam_id":76561198141198352,"connected_time":486000000000,"state":"active","ping":65},{"user_id":338,"name":"MetalTao","steam_id":76561198189408110,"connected_time":570000000000,"state":"active","ping":106},{"user_id":339,"name":"Aircraft Carrier Princess","steam_id":76561198348354629,"connected_time":553000000000,"state":"active","ping":83},{"user_id":198,"name":"Cinnifox","steam_id":76561198068773971,"connected_time":10771000000000,"state":"active","ping":72},{"user_id":119,"name":"Romanian Officer B Dingling","steam_id":76561198831997540,"connected_time":14724000000000,"state":"active","ping":66},{"user_id":343,"name":"seats","steam_id":76561197998756039,"connected_time":459000000000,"state":"active","ping":75},{"user_id":344,"name":"Pocket Sand","steam_id":76561198118272874,"connected_time":456000000000,"state":"active","ping":77},{"user_id":329,"name":"Pinder","steam_id":76561198176708643,"connected_time":1520000000000,"state":"active","ping":70},{"user_id":324,"name":"Gaminglast","steam_id":76561198362927765,"connected_time":1753000000000,"state":"active","ping":124},{"user_id":292,"name":"carol in HR","steam_id":76561198071775268,"connected_time":4885000000000,"state":"active","ping":92},{"user_id":345,"name":"DoomoPelota","steam_id":76561198326462587,"connected_time":444000000000,"state":"active","ping":90},{"user_id":353,"name":"Gundam Guy","steam_id":76561198178453993,"connected_time":75000000000,"state":"active","ping":79},{"user_id":332,"name":"Horse","steam_id":76561198004583631,"connected_time":1303000000000,"state":"active","ping":100},{"user_id":346,"name":"Shadow","steam_id":76561198105367432,"connected_time":428000000000,"state":"active","ping":85},{"user_id":352,"name":"Sup m8","steam_id":76561198081659121,"connected_time":162000000000,"state":"active","ping":36},{"user_id":333,"name":"borzier","steam_id":76561198069190432,"connected_time":1295000000000,"state":"active","ping":73},{"user_id":349,"name":"DerpFamous","steam_id":76561198046167888,"connected_time":341000000000,"state":"active","ping":57},{"user_id":316,"name":"Shylo","steam_id":76561199276858045,"connected_time":2557000000000,"state":"active","ping":58},{"user_id":350,"name":"COOK","steam_id":76561198149929885,"connected_time":324000000000,"state":"active","ping":80},{"user_id":314,"name":"Training Arc","steam_id":76561198038832034,"connected_time":3254000000000,"state":"active","ping":111},{"user_id":351,"name":"Simply_Komeiji","steam_id":76561198354177703,"connected_time":323000000000,"state":"active","ping":63}]},{"server_id":5,"name":"Uncletopia | Frankfurt | 1 | All Maps","name_short":"frk-1","host":"frk-1.de.uncletopia.com","port":27015,"enabled":true,"region":"eu","cc":"de","latitude":50.110924,"longitude":8.682127,"reserved":0,"last_update":"0001-01-01T00:00:00Z","name_a2s":"Uncletopia | Frankfurt | 1 | All Maps","protocol":17,"map":"pl_badwater","folder":"tf","game":"Team Fortress","app_id":440,"player_count":24,"max_players":24,"Bots":0,"server_type":"Dedicated","server_os":"Linux","password":true,"vac":true,"version":"7757534","steam_id":85568392924469989,"keywords":["nocrits","nodmgspread","payload","uncletopia"],"game_id":440,"stv_port":27016,"stv_name":"Uncletopia | Frankfurt | 1 | All Maps | STV","players":[{"user_id":768,"name":"Sch","steam_id":76561198071341689,"connected_time":404000000000,"state":"active","ping":67},{"user_id":775,"name":"THE TUNNEL IS INCOMPLETE","steam_id":76561198183949987,"connected_time":177000000000,"state":"active","ping":68},{"user_id":776,"name":"Earthman","steam_id":76561198137424821,"connected_time":1000000000,"state":"spawning","ping":47},{"user_id":742,"name":"Minimi","steam_id":76561198873850443,"connected_time":2837000000000,"state":"active","ping":63},{"user_id":746,"name":"Fenidokh","steam_id":76561198856093893,"connected_time":2343000000000,"state":"active","ping":73},{"user_id":756,"name":"Yelowchy","steam_id":76561198199416121,"connected_time":1556000000000,"state":"active","ping":60},{"user_id":767,"name":"Perämiehenä","steam_id":76561197968945306,"connected_time":420000000000,"state":"active","ping":74},{"user_id":758,"name":"Gołęmbiarz","steam_id":76561198072625627,"connected_time":1541000000000,"state":"active","ping":71},{"user_id":773,"name":"meatsoupcube","steam_id":76561198276802249,"connected_time":188000000000,"state":"active","ping":109},{"user_id":760,"name":"miche.","steam_id":76561198161449703,"connected_time":1525000000000,"state":"active","ping":104},{"user_id":763,"name":"Man Made Mad","steam_id":76561198808819694,"connected_time":1382000000000,"state":"active","ping":46},{"user_id":412,"name":"grandpa's post-mortem photo","steam_id":76561198130116078,"connected_time":25926000000000,"state":"active","ping":91},{"user_id":774,"name":"sv_opor 13123","steam_id":76561198002229612,"connected_time":186000000000,"state":"active","ping":70},{"user_id":769,"name":"ldshwt","steam_id":76561198090364357,"connected_time":371000000000,"state":"active","ping":58},{"user_id":765,"name":"FluffyFoxxo69","steam_id":76561198254582506,"connected_time":494000000000,"state":"active","ping":61},{"user_id":708,"name":"Arti","steam_id":76561197983352845,"connected_time":5487000000000,"state":"active","ping":72},{"user_id":750,"name":"Dispenser","steam_id":76561198130195469,"connected_time":2244000000000,"state":"active","ping":82},{"user_id":754,"name":"GoudAI","steam_id":76561198103391197,"connected_time":1773000000000,"state":"active","ping":92},{"user_id":762,"name":"smk","steam_id":76561198068027379,"connected_time":1507000000000,"state":"active","ping":85},{"user_id":730,"name":"Fran","steam_id":76561199070516960,"connected_time":3447000000000,"state":"active","ping":67},{"user_id":744,"name":"TidB","steam_id":76561198055342304,"connected_time":2543000000000,"state":"active","ping":50},{"user_id":771,"name":"STiNGHAN","steam_id":76561198023989090,"connected_time":276000000000,"state":"active","ping":85},{"user_id":732,"name":"Seron-Lowell","steam_id":76561198070291347,"connected_time":3203000000000,"state":"active","ping":46},{"user_id":738,"name":"Hannü","steam_id":76561197969886128,"connected_time":3095000000000,"state":"active","ping":70}]},{"server_id":110,"name":"Uncletopia | Frankfurt | 2 | All Maps","name_short":"frk-2","host":"frk-1.de.uncletopia.com","port":27025,"enabled":true,"region":"eu","cc":"de","latitude":50.110924,"longitude":8.682127,"reserved":0,"last_update":"0001-01-01T00:00:00Z","name_a2s":"Uncletopia | Frankfurt | 2 | All Maps","protocol":17,"map":"cp_process_final","folder":"tf","game":"Team Fortress","app_id":440,"player_count":23,"max_players":24,"Bots":0,"server_type":"Dedicated","server_os":"Linux","password":true,"vac":true,"version":"7757534","steam_id":85568392924469990,"keywords":["cp","nocrits","nodmgspread","uncletopia"],"game_id":440,"stv_port":27026,"stv_name":"Uncletopia | Frankfurt | 2 | All Maps | STV","players":[{"user_id":469,"name":"sandvich demolisher","steam_id":76561198192343263,"connected_time":2006000000000,"state":"active","ping":47},{"user_id":414,"name":"kamikaze bat enjoyer","steam_id":76561198865364180,"connected_time":5345000000000,"state":"active","ping":60},{"user_id":470,"name":"Vitamin Weee","steam_id":76561199183937747,"connected_time":1963000000000,"state":"active","ping":85},{"user_id":466,"name":"Kvicha Kvaratskhelia","steam_id":76561198179339326,"connected_time":2433000000000,"state":"active","ping":76},{"user_id":454,"name":"Lyell","steam_id":76561198350329389,"connected_time":3026000000000,"state":"active","ping":80},{"user_id":467,"name":"malinký","steam_id":76561198048683488,"connected_time":2197000000000,"state":"active","ping":59},{"user_id":476,"name":"ScarredPixel123","steam_id":76561199165112703,"connected_time":1154000000000,"state":"active","ping":76},{"user_id":482,"name":"sex havin'","steam_id":76561198169857427,"connected_time":342000000000,"state":"active","ping":78},{"user_id":381,"name":"zek","steam_id":76561198862763731,"connected_time":8140000000000,"state":"active","ping":52},{"user_id":457,"name":"Mi Manchi","steam_id":76561198171573129,"connected_time":2925000000000,"state":"active","ping":55},{"user_id":488,"name":"medium rare chicken enjoyer","steam_id":76561198050214002,"connected_time":51000000000,"state":"active","ping":61},{"user_id":424,"name":"David \"Crash\" Murphy","steam_id":76561198292845505,"connected_time":4779000000000,"state":"active","ping":91},{"user_id":465,"name":"wiping theorist","steam_id":76561198058012525,"connected_time":2515000000000,"state":"active","ping":70},{"user_id":486,"name":"tanyathsus","steam_id":76561198089522447,"connected_time":290000000000,"state":"active","ping":60},{"user_id":433,"name":"medicinal man","steam_id":76561198202668788,"connected_time":4275000000000,"state":"active","ping":75},{"user_id":484,"name":"Sir Skyber","steam_id":76561198064440004,"connected_time":339000000000,"state":"active","ping":93},{"user_id":480,"name":"Afsluitdijk","steam_id":76561198042095505,"connected_time":476000000000,"state":"active","ping":48},{"user_id":459,"name":"Step back","steam_id":76561198063855616,"connected_time":2905000000000,"state":"active","ping":70},{"user_id":464,"name":"united chunk","steam_id":76561199017850298,"connected_time":2677000000000,"state":"active","ping":72},{"user_id":475,"name":"Uncle Owen","steam_id":76561198157999291,"connected_time":1227000000000,"state":"active","ping":85},{"user_id":461,"name":"pfear","steam_id":76561197999207328,"connected_time":2896000000000,"state":"active","ping":75},{"user_id":485,"name":"sam-","steam_id":76561198013770973,"connected_time":327000000000,"state":"active","ping":75},{"user_id":477,"name":"Sean?","steam_id":76561198009758303,"connected_time":969000000000,"state":"active","ping":77}]},{"server_id":308,"name":"Uncletopia | Frankfurt | 3 | All Maps","name_short":"frk-3","host":"frk-1.de.uncletopia.com","port":27035,"enabled":true,"region":"eu","cc":"de","latitude":50.110924,"longitude":8.682127,"reserved":0,"last_update":"0001-01-01T00:00:00Z","name_a2s":"Uncletopia | Frankfurt | 3 | All Maps","protocol":17,"map":"pl_barnblitz","folder":"tf","game":"Team Fortress","app_id":440,"player_count":0,"max_players":24,"Bots":0,"server_type":"Dedicated","server_os":"Linux","password":true,"vac":true,"version":"7757534","steam_id":85568392924504274,"keywords":["nocrits","nodmgspread","payload","uncletopia"],"game_id":440,"stv_port":27036,"stv_name":"Uncletopia | Frankfurt | 3 | All Maps | STV","players":null},{"server_id":309,"name":"Uncletopia | Frankfurt | 4 | All Maps","name_short":"frk-4","host":"frk-1.de.uncletopia.com","port":27045,"enabled":true,"region":"eu","cc":"de","latitude":50.110924,"longitude":8.682127,"reserved":0,"last_update":"0001-01-01T00:00:00Z","name_a2s":"Uncletopia | Frankfurt | 4 | All Maps","protocol":17,"map":"pl_barnblitz","folder":"tf","game":"Team Fortress","app_id":440,"player_count":24,"max_players":24,"Bots":0,"server_type":"Dedicated","server_os":"Linux","password":true,"vac":true,"version":"7757534","steam_id":85568392924504275,"keywords":["nocrits","nodmgspread","payload","uncletopia"],"game_id":440,"stv_port":27046,"stv_name":"Uncletopia | Frankfurt | 4 | All Maps | STV","players":[{"user_id":353,"name":"Cornelius Shacklebart","steam_id":76561198000735878,"connected_time":2206000000000,"state":"active","ping":63},{"user_id":335,"name":"Syd","steam_id":76561198020515027,"connected_time":2781000000000,"state":"active","ping":63},{"user_id":333,"name":"Mertozt","steam_id":76561199027023555,"connected_time":2790000000000,"state":"active","ping":92},{"user_id":380,"name":"lord of kashchenko","steam_id":76561198402657988,"connected_time":766000000000,"state":"active","ping":84},{"user_id":374,"name":"mona che sbatte le porte gaming","steam_id":76561198115904548,"connected_time":953000000000,"state":"active","ping":83},{"user_id":381,"name":"(6)jo","steam_id":76561198122226417,"connected_time":561000000000,"state":"active","ping":53},{"user_id":367,"name":"Akane","steam_id":76561197990407312,"connected_time":1175000000000,"state":"active","ping":74},{"user_id":355,"name":"mały #tf2pickup.pl","steam_id":76561198074409147,"connected_time":2169000000000,"state":"active","ping":61},{"user_id":306,"name":"jo","steam_id":76561198109074418,"connected_time":4596000000000,"state":"active","ping":61},{"user_id":368,"name":"(1)jo","steam_id":76561198410598772,"connected_time":1100000000000,"state":"active","ping":59},{"user_id":277,"name":"(5)jo","steam_id":76561198181097561,"connected_time":7439000000000,"state":"active","ping":74},{"user_id":382,"name":"John Noob","steam_id":76561197999170026,"connected_time":543000000000,"state":"active","ping":103},{"user_id":376,"name":"Neytan","steam_id":76561198027024747,"connected_time":921000000000,"state":"active","ping":107},{"user_id":356,"name":"(7)jo","steam_id":76561198031470048,"connected_time":2148000000000,"state":"active","ping":61},{"user_id":276,"name":"(3)jo","steam_id":76561199176835169,"connected_time":7599000000000,"state":"active","ping":69},{"user_id":373,"name":"The Irish Eejit","steam_id":76561198027738057,"connected_time":988000000000,"state":"active","ping":79},{"user_id":370,"name":"D_Ink","steam_id":76561198267716662,"connected_time":1086000000000,"state":"active","ping":49},{"user_id":384,"name":"Lukas","steam_id":76561198009118452,"connected_time":232000000000,"state":"active","ping":56},{"user_id":386,"name":"HRCR118","steam_id":76561199146388596,"connected_time":121000000000,"state":"active","ping":81},{"user_id":372,"name":"Brian Dog","steam_id":76561198048213112,"connected_time":1018000000000,"state":"active","ping":55},{"user_id":361,"name":"balinter","steam_id":76561198103408801,"connected_time":2002000000000,"state":"active","ping":82},{"user_id":378,"name":"Anti_Dragon","steam_id":76561198969060607,"connected_time":887000000000,"state":"active","ping":105},{"user_id":365,"name":"(4)jo","steam_id":76561198170020311,"connected_time":1222000000000,"state":"active","ping":88},{"user_id":379,"name":"Vezage","steam_id":76561198064916164,"connected_time":887000000000,"state":"active","ping":76}]},{"server_id":310,"name":"Uncletopia | Frankfurt | 5 | All Maps","name_short":"frk-5","host":"frk-1.de.uncletopia.com","port":27055,"enabled":true,"region":"eu","cc":"de","latitude":50.110924,"longitude":8.682127,"reserved":0,"last_update":"0001-01-01T00:00:00Z","name_a2s":"Uncletopia | Frankfurt | 5 | All Maps","protocol":17,"map":"cp_altitude","folder":"tf","game":"Team Fortress","app_id":440,"player_count":24,"max_players":24,"Bots":0,"server_type":"Dedicated","server_os":"Linux","password":true,"vac":true,"version":"7757534","steam_id":85568392924504277,"keywords":["cp","nocrits","nodmgspread","uncletopia"],"game_id":440,"stv_port":27056,"stv_name":"Uncletopia | Frankfurt | 5 | All Maps | STV","players":[{"user_id":186,"name":"Aesthetic Alcoholism","steam_id":76561198044418968,"connected_time":668000000000,"state":"active","ping":47},{"user_id":162,"name":"ja","steam_id":76561199228540618,"connected_time":2114000000000,"state":"active","ping":77},{"user_id":200,"name":"specimen","steam_id":76561199008480793,"connected_time":94000000000,"state":"active","ping":62},{"user_id":177,"name":"Fish","steam_id":76561198182278770,"connected_time":1063000000000,"state":"active","ping":73},{"user_id":187,"name":"8 Ball","steam_id":76561197960988736,"connected_time":626000000000,"state":"active","ping":61},{"user_id":172,"name":"CreepyChocolate","steam_id":76561198133541741,"connected_time":1402000000000,"state":"active","ping":60},{"user_id":188,"name":"cult","steam_id":76561198188647690,"connected_time":613000000000,"state":"active","ping":71},{"user_id":156,"name":"Mistress of the universe","steam_id":76561198115988477,"connected_time":2332000000000,"state":"active","ping":61},{"user_id":197,"name":"Vibes 100","steam_id":76561198146194820,"connected_time":169000000000,"state":"active","ping":51},{"user_id":196,"name":"ele","steam_id":76561198194876459,"connected_time":247000000000,"state":"active","ping":62},{"user_id":123,"name":"Cuthbert","steam_id":76561198204649481,"connected_time":4844000000000,"state":"active","ping":91},{"user_id":190,"name":"lokeeeee","steam_id":76561198055575819,"connected_time":607000000000,"state":"active","ping":58},{"user_id":167,"name":"Shynii","steam_id":76561198194682105,"connected_time":1689000000000,"state":"active","ping":73},{"user_id":179,"name":"$nØw","steam_id":76561198238781028,"connected_time":933000000000,"state":"active","ping":104},{"user_id":199,"name":"Nerfan20 #SaveTF2","steam_id":76561198227391788,"connected_time":140000000000,"state":"active","ping":77},{"user_id":201,"name":"brainrot","steam_id":76561199414716848,"connected_time":80000000000,"state":"active","ping":70},{"user_id":163,"name":"ChPerette","steam_id":76561198060004887,"connected_time":2088000000000,"state":"active","ping":46},{"user_id":191,"name":"nytronytronytro","steam_id":76561198080496833,"connected_time":579000000000,"state":"active","ping":95},{"user_id":193,"name":"Keel","steam_id":76561198304052091,"connected_time":549000000000,"state":"active","ping":66},{"user_id":194,"name":"★poyo★","steam_id":76561198150078959,"connected_time":504000000000,"state":"active","ping":73},{"user_id":195,"name":"Roadkill","steam_id":76561198267445999,"connected_time":491000000000,"state":"active","ping":78},{"user_id":183,"name":"Charles Darwin","steam_id":76561197973496139,"connected_time":726000000000,"state":"active","ping":62},{"user_id":164,"name":"Raisin","steam_id":76561198116295334,"connected_time":1743000000000,"state":"active","ping":161},{"user_id":202,"name":"Gordon","steam_id":76561198088042034,"connected_time":62000000000,"state":"active","ping":112}]},{"server_id":311,"name":"Uncletopia | Frankfurt | 6 | All Maps","name_short":"frk-6","host":"frk-1.de.uncletopia.com","port":27065,"enabled":true,"region":"eu","cc":"de","latitude":50.110924,"longitude":8.682127,"reserved":0,"last_update":"0001-01-01T00:00:00Z","name_a2s":"Uncletopia | Frankfurt | 6 | All Maps","protocol":17,"map":"plr_nightfall_final","folder":"tf","game":"Team Fortress","app_id":440,"player_count":0,"max_players":24,"Bots":0,"server_type":"Dedicated","server_os":"Linux","password":true,"vac":true,"version":"7757534","steam_id":85568392924504278,"keywords":["nocrits","nodmgspread","payload","uncletopia"],"game_id":440,"stv_port":27066,"stv_name":"Uncletopia | Frankfurt | 6 | All Maps | STV","players":null},{"server_id":23,"name":"Uncletopia | Frankfurt | 7 | Stopwatch Beta","name_short":"frk-7","host":"frk-1.de.uncletopia.com","port":27075,"enabled":true,"region":"eu","cc":"de","latitude":50.110924,"longitude":8.682127,"reserved":0,"last_update":"0001-01-01T00:00:00Z","name_a2s":"Uncletopia | Frankfurt | 7 | Stopwatch Beta","protocol":17,"map":"workshop/koth_clearcut_b15.ugc2107050255","folder":"tf","game":"Team Fortress","app_id":440,"player_count":0,"max_players":24,"Bots":0,"server_type":"Dedicated","server_os":"Linux","password":true,"vac":true,"version":"7757534","steam_id":85568392924742827,"keywords":["cp","nocrits","nodmgspread","uncletopia"],"game_id":440,"stv_port":27076,"stv_name":"Uncletopia | Frankfurt | 7 | Stopwatch Beta | STV","players":null},{"server_id":24,"name":"Uncletopia | Frankfurt | 8 | Community","name_short":"frk-8","host":"frk-1.de.uncletopia.com","port":27085,"enabled":true,"region":"eu","cc":"de","latitude":50.110924,"longitude":8.682127,"reserved":0,"last_update":"0001-01-01T00:00:00Z","name_a2s":"Uncletopia | Frankfurt | 8 | Community","protocol":17,"map":"workshop/cp_kalinka_rc6a.ugc1272700588","folder":"tf","game":"Team Fortress","app_id":440,"player_count":0,"max_players":24,"Bots":0,"server_type":"Dedicated","server_os":"Linux","password":true,"vac":true,"version":"7757534","steam_id":85568392924742828,"keywords":["cp","nocrits","nodmgspread","uncletopia"],"game_id":440,"stv_port":27086,"stv_name":"Uncletopia | Frankfurt | 8 | Community | STV","players":null},{"server_id":202,"name":"Uncletopia | Hong Kong | 1 | All Maps","name_short":"hgk-1","host":"hgk-1.hk.uncletopia.com","port":27015,"enabled":true,"region":"asia","cc":"hk","latitude":22.302711,"longitude":114.177216,"reserved":0,"last_update":"0001-01-01T00:00:00Z","name_a2s":"Uncletopia | Hong Kong | 1 | All Maps","protocol":17,"map":"koth_lakeside_final","folder":"tf","game":"Team Fortress","app_id":440,"player_count":0,"max_players":24,"Bots":0,"server_type":"Dedicated","server_os":"Linux","password":true,"vac":true,"version":"7757534","steam_id":85568392924494504,"keywords":["cp","nocrits","nodmgspread","uncletopia"],"game_id":440,"stv_port":27016,"stv_name":"Uncletopia | Hong Kong | 1 | All Maps | STV","players":null},{"server_id":1,"name":"Uncletopia | Los Angeles | 1 | All Maps","name_short":"lax-1","host":"lax-1.us.uncletopia.com","port":27015,"enabled":true,"region":"us-west","cc":"us","latitude":33.94279,"longitude":-118.41004,"reserved":0,"last_update":"0001-01-01T00:00:00Z","name_a2s":"Uncletopia | Los Angeles | 1 | All Maps","protocol":17,"map":"koth_lakeside_final","folder":"tf","game":"Team Fortress","app_id":440,"player_count":0,"max_players":24,"Bots":0,"server_type":"Dedicated","server_os":"Linux","password":true,"vac":true,"version":"7757534","steam_id":85568392924469991,"keywords":["cp","nocrits","nodmgspread","uncletopia"],"game_id":440,"stv_port":27016,"stv_name":"Uncletopia | Los Angeles | 1 | All Maps | STV","players":null},{"server_id":112,"name":"Uncletopia | Los Angeles | 2 | All Maps","name_short":"lax-2","host":"lax-1.us.uncletopia.com","port":27025,"enabled":true,"region":"us-west","cc":"us","latitude":33.94279,"longitude":-118.41004,"reserved":0,"last_update":"0001-01-01T00:00:00Z","name_a2s":"Uncletopia | Los Angeles | 2 | All Maps","protocol":17,"map":"pl_badwater","folder":"tf","game":"Team Fortress","app_id":440,"player_count":0,"max_players":24,"Bots":0,"server_type":"Dedicated","server_os":"Linux","password":true,"vac":true,"version":"7757534","steam_id":85568392924469992,"keywords":["nocrits","nodmgspread","payload","uncletopia"],"game_id":440,"stv_port":27026,"stv_name":"Uncletopia | Los Angeles | 2 | All Maps | STV","players":null},{"server_id":324,"name":"Uncletopia | Los Angeles | 3 | All Maps","name_short":"lax-3","host":"lax-1.us.uncletopia.com","port":27035,"enabled":true,"region":"us-west","cc":"us","latitude":33.94279,"longitude":-118.41004,"reserved":0,"last_update":"0001-01-01T00:00:00Z","name_a2s":"Uncletopia | Los Angeles | 3 | All Maps","protocol":17,"map":"pl_barnblitz","folder":"tf","game":"Team Fortress","app_id":440,"player_count":0,"max_players":24,"Bots":0,"server_type":"Dedicated","server_os":"Linux","password":true,"vac":true,"version":"7757534","steam_id":85568392924510198,"keywords":["nocrits","nodmgspread","payload","uncletopia"],"game_id":440,"stv_port":27036,"stv_name":"Uncletopia | Los Angeles | 3 | All Maps | STV","players":null},{"server_id":25,"name":"Uncletopia | Los Angeles | 4 | Stopwatch Beta","name_short":"lax-4","host":"lax-1.us.uncletopia.com","port":27045,"enabled":true,"region":"us-west","cc":"us","latitude":33.94279,"longitude":-118.41004,"reserved":0,"last_update":"0001-01-01T00:00:00Z","name_a2s":"Uncletopia | Los Angeles | 4 | Stopwatch Beta","protocol":17,"map":"pl_swiftwater_final1","folder":"tf","game":"Team Fortress","app_id":440,"player_count":0,"max_players":24,"Bots":0,"server_type":"Dedicated","server_os":"Linux","password":true,"vac":true,"version":"7757534","steam_id":85568392924510199,"keywords":["nocrits","nodmgspread","payload","uncletopia"],"game_id":440,"stv_port":27046,"stv_name":"Uncletopia | Los Angeles | 4 | Stopwatch Beta | STV","players":null},{"server_id":11,"name":"Uncletopia | London | 1 | All Maps","name_short":"lon-1","host":"lon-1.uk.uncletopia.com","port":27015,"enabled":true,"region":"eu","cc":"gb","latitude":51.509865,"longitude":-0.118092,"reserved":0,"last_update":"0001-01-01T00:00:00Z","name_a2s":"Uncletopia | London | 1 | All Maps","protocol":17,"map":"pl_frontier_final","folder":"tf","game":"Team Fortress","app_id":440,"player_count":25,"max_players":24,"Bots":0,"server_type":"Dedicated","server_os":"Linux","password":true,"vac":true,"version":"7757534","steam_id":85568392924367362,"keywords":["nocrits","nodmgspread","payload","uncletopia"],"game_id":440,"stv_port":27016,"stv_name":"Uncletopia | London | 1 | All Maps | STV","players":[{"user_id":584,"name":"JESSIE LOVER","steam_id":76561198049840460,"connected_time":185000000000,"state":"active","ping":56},{"user_id":543,"name":"Son Goku","steam_id":76561199383437138,"connected_time":4604000000000,"state":"active","ping":125},{"user_id":551,"name":"thespe","steam_id":76561198088225107,"connected_time":3598000000000,"state":"active","ping":64},{"user_id":513,"name":"Lewylow","steam_id":76561198005425686,"connected_time":7492000000000,"state":"active","ping":52},{"user_id":579,"name":"EastmoreRandoms.","steam_id":76561198048921203,"connected_time":931000000000,"state":"active","ping":65},{"user_id":575,"name":"BreadBubbles","steam_id":76561198174332826,"connected_time":1136000000000,"state":"active","ping":56},{"user_id":585,"name":"It's a me Malario","steam_id":76561198176546013,"connected_time":56000000000,"state":"active","ping":188},{"user_id":526,"name":"shooer","steam_id":76561198110531281,"connected_time":6329000000000,"state":"active","ping":81},{"user_id":578,"name":"Baki ඞ","steam_id":76561198193615529,"connected_time":955000000000,"state":"active","ping":63},{"user_id":582,"name":"JESSIIEE LOVER","steam_id":76561198443798981,"connected_time":349000000000,"state":"active","ping":56},{"user_id":567,"name":"random_player691","steam_id":76561199209946306,"connected_time":1635000000000,"state":"active","ping":47},{"user_id":574,"name":"unrik76","steam_id":76561198147134386,"connected_time":1185000000000,"state":"active","ping":83},{"user_id":558,"name":"SirSangoor","steam_id":76561198044462559,"connected_time":2380000000000,"state":"active","ping":106},{"user_id":549,"name":"Seaney","steam_id":76561198059138839,"connected_time":3617000000000,"state":"active","ping":63},{"user_id":580,"name":"AXAL","steam_id":76561198178250598,"connected_time":916000000000,"state":"active","ping":56},{"user_id":556,"name":"gnarly business","steam_id":76561198832688767,"connected_time":2392000000000,"state":"active","ping":48},{"user_id":538,"name":"dec","steam_id":76561198009660168,"connected_time":5215000000000,"state":"active","ping":45},{"user_id":569,"name":"Ooze","steam_id":76561198039642637,"connected_time":1436000000000,"state":"active","ping":75},{"user_id":563,"name":"Warlord Zira","steam_id":76561198044174757,"connected_time":2040000000000,"state":"active","ping":90},{"user_id":583,"name":"gnome_Chompski","steam_id":76561198962543984,"connected_time":249000000000,"state":"active","ping":151},{"user_id":577,"name":"harryhux","steam_id":76561198228052940,"connected_time":1030000000000,"state":"active","ping":43},{"user_id":557,"name":"regimiro","steam_id":76561198120457008,"connected_time":2391000000000,"state":"active","ping":47},{"user_id":548,"name":"Majsco","steam_id":76561197988710485,"connected_time":3902000000000,"state":"active","ping":45},{"user_id":565,"name":"Night Fury","steam_id":76561197995207032,"connected_time":2021000000000,"state":"active","ping":84},{"user_id":586,"name":"Squishie","steam_id":76561198321025400,"connected_time":51000000000,"state":"connecting","ping":0}]},{"server_id":114,"name":"Uncletopia | London | 2 | All Maps","name_short":"lon-2","host":"lon-1.uk.uncletopia.com","port":27025,"enabled":true,"region":"eu","cc":"gb","latitude":51.509865,"longitude":-0.118092,"reserved":0,"last_update":"0001-01-01T00:00:00Z","name_a2s":"Uncletopia | London | 2 | All Maps","protocol":17,"map":"cp_sunshine","folder":"tf","game":"Team Fortress","app_id":440,"player_count":23,"max_players":24,"Bots":0,"server_type":"Dedicated","server_os":"Linux","password":true,"vac":true,"version":"7757534","steam_id":85568392924470941,"keywords":["cp","nocrits","nodmgspread","uncletopia"],"game_id":440,"stv_port":27026,"stv_name":"Uncletopia | London | 2 | All Maps | STV","players":[{"user_id":141,"name":"kojitori","steam_id":76561198838072150,"connected_time":3004000000000,"state":"active","ping":44},{"user_id":146,"name":"rosepinkyfuzz","steam_id":76561198018546334,"connected_time":1443000000000,"state":"active","ping":73},{"user_id":164,"name":"Rooce","steam_id":76561199061011421,"connected_time":192000000000,"state":"active","ping":83},{"user_id":109,"name":"Proto-arc","steam_id":76561198012776747,"connected_time":5251000000000,"state":"active","ping":45},{"user_id":161,"name":"✪ qua ✪","steam_id":76561198066408333,"connected_time":952000000000,"state":"active","ping":75},{"user_id":159,"name":"nyanezt","steam_id":76561198253734265,"connected_time":1151000000000,"state":"active","ping":111},{"user_id":112,"name":"gRUBY","steam_id":76561198040429367,"connected_time":5135000000000,"state":"active","ping":86},{"user_id":162,"name":"kilo","steam_id":76561198015641339,"connected_time":747000000000,"state":"active","ping":75},{"user_id":74,"name":"Harpenden, Harpenden, Harpenden","steam_id":76561198118138546,"connected_time":6003000000000,"state":"active","ping":38},{"user_id":165,"name":"plepek","steam_id":76561198042959598,"connected_time":181000000000,"state":"active","ping":82},{"user_id":152,"name":"Brallerin","steam_id":76561198060026189,"connected_time":1366000000000,"state":"active","ping":54},{"user_id":166,"name":"schmick","steam_id":76561198039537958,"connected_time":126000000000,"state":"active","ping":86},{"user_id":144,"name":"Chad Slav","steam_id":76561198160103841,"connected_time":2217000000000,"state":"active","ping":74},{"user_id":163,"name":"Dr.Sees [F2P]","steam_id":76561199219233587,"connected_time":642000000000,"state":"active","ping":77},{"user_id":121,"name":"Twisted Logic ∞","steam_id":76561198002245428,"connected_time":5000000000000,"state":"active","ping":40},{"user_id":122,"name":"eeeeee","steam_id":76561198017786875,"connected_time":4991000000000,"state":"active","ping":64},{"user_id":123,"name":"Carrotcracker","steam_id":76561198034862396,"connected_time":4984000000000,"state":"active","ping":84},{"user_id":124,"name":"Piellino","steam_id":76561198156873276,"connected_time":4958000000000,"state":"active","ping":104},{"user_id":145,"name":"Dwevy","steam_id":76561198090379437,"connected_time":1900000000000,"state":"active","ping":53},{"user_id":154,"name":"Saint","steam_id":76561198003296382,"connected_time":1340000000000,"state":"active","ping":75},{"user_id":138,"name":"FeminineAtom [LOS]","steam_id":76561198311208470,"connected_time":4385000000000,"state":"active","ping":59},{"user_id":128,"name":"Penis Contortionist","steam_id":76561198073663784,"connected_time":4907000000000,"state":"active","ping":40},{"user_id":155,"name":"Erior","steam_id":76561198039462080,"connected_time":1332000000000,"state":"active","ping":85}]},{"server_id":320,"name":"Uncletopia | London | 3 | All Maps","name_short":"lon-3","host":"lon-1.uk.uncletopia.com","port":27035,"enabled":true,"region":"eu","cc":"gb","latitude":51.509865,"longitude":-0.118092,"reserved":0,"last_update":"0001-01-01T00:00:00Z","name_a2s":"Uncletopia | London | 3 | All Maps","protocol":17,"map":"pl_badwater","folder":"tf","game":"Team Fortress","app_id":440,"player_count":24,"max_players":24,"Bots":0,"server_type":"Dedicated","server_os":"Linux","password":true,"vac":true,"version":"7757534","steam_id":85568392924510192,"keywords":["nocrits","nodmgspread","payload","uncletopia"],"game_id":440,"stv_port":27036,"stv_name":"Uncletopia | London | 3 | All Maps | STV","players":[{"user_id":561,"name":"Kurage","steam_id":76561198021221288,"connected_time":1565000000000,"state":"active","ping":71},{"user_id":569,"name":"gofdrey","steam_id":76561198121941052,"connected_time":851000000000,"state":"active","ping":64},{"user_id":538,"name":"PizzaPete123","steam_id":76561198089478290,"connected_time":3278000000000,"state":"active","ping":37},{"user_id":555,"name":"Welder","steam_id":76561198355300561,"connected_time":2042000000000,"state":"active","ping":70},{"user_id":554,"name":"MAKENTAKEN","steam_id":76561199127359587,"connected_time":2193000000000,"state":"active","ping":103},{"user_id":516,"name":"X-tis","steam_id":76561198043837480,"connected_time":3909000000000,"state":"active","ping":74},{"user_id":570,"name":"Rigby","steam_id":76561198021552128,"connected_time":750000000000,"state":"active","ping":115},{"user_id":543,"name":"LarsInABox","steam_id":76561198028329262,"connected_time":2707000000000,"state":"active","ping":73},{"user_id":542,"name":"EdSuedi","steam_id":76561199387956486,"connected_time":2919000000000,"state":"active","ping":61},{"user_id":568,"name":"Serton♝","steam_id":76561198011061126,"connected_time":933000000000,"state":"active","ping":73},{"user_id":576,"name":"hud_saytext_time 0","steam_id":76561198010327228,"connected_time":213000000000,"state":"active","ping":75},{"user_id":527,"name":"nirakya","steam_id":76561198024488584,"connected_time":3749000000000,"state":"active","ping":45},{"user_id":572,"name":"fénix","steam_id":76561198083199151,"connected_time":651000000000,"state":"active","ping":60},{"user_id":519,"name":"NitPig","steam_id":76561198212991935,"connected_time":3825000000000,"state":"active","ping":105},{"user_id":530,"name":"ohmiclaser","steam_id":76561198356393376,"connected_time":3711000000000,"state":"active","ping":44},{"user_id":566,"name":"washed up","steam_id":76561198275742101,"connected_time":1201000000000,"state":"active","ping":71},{"user_id":575,"name":"Wonder of U","steam_id":76561198099433856,"connected_time":408000000000,"state":"active","ping":71},{"user_id":541,"name":"WhoIsFrosty","steam_id":76561198880588117,"connected_time":2976000000000,"state":"active","ping":140},{"user_id":573,"name":"food","steam_id":76561198308341534,"connected_time":630000000000,"state":"active","ping":72},{"user_id":563,"name":"addicted","steam_id":76561199129801006,"connected_time":1306000000000,"state":"active","ping":56},{"user_id":564,"name":"big t","steam_id":76561198067179454,"connected_time":1303000000000,"state":"active","ping":37},{"user_id":577,"name":"randompixel","steam_id":76561198003941207,"connected_time":101000000000,"state":"active","ping":57},{"user_id":500,"name":"Fat Pigeon","steam_id":76561198817940142,"connected_time":4450000000000,"state":"active","ping":45},{"user_id":567,"name":"Udinese Dion","steam_id":76561198067931573,"connected_time":1201000000000,"state":"active","ping":53}]},{"server_id":321,"name":"Uncletopia | London | 4 | All Maps","name_short":"lon-4","host":"lon-1.uk.uncletopia.com","port":27045,"enabled":true,"region":"eu","cc":"gb","latitude":51.509865,"longitude":-0.118092,"reserved":0,"last_update":"0001-01-01T00:00:00Z","name_a2s":"Uncletopia | London | 4 | All Maps","protocol":17,"map":"cp_snakewater_final1","folder":"tf","game":"Team Fortress","app_id":440,"player_count":23,"max_players":24,"Bots":0,"server_type":"Dedicated","server_os":"Linux","password":true,"vac":true,"version":"7757534","steam_id":85568392924510193,"keywords":["cp","nocrits","nodmgspread","uncletopia"],"game_id":440,"stv_port":27046,"stv_name":"Uncletopia | London | 4 | All Maps | STV","players":[{"user_id":104,"name":"Ted Kaczynski","steam_id":76561198064795519,"connected_time":794000000000,"state":"active","ping":56},{"user_id":46,"name":"Azury","steam_id":76561198321669372,"connected_time":4670000000000,"state":"active","ping":49},{"user_id":98,"name":"Lag","steam_id":76561198159360376,"connected_time":1060000000000,"state":"active","ping":46},{"user_id":99,"name":"e36 1.8","steam_id":76561198134203031,"connected_time":1014000000000,"state":"active","ping":64},{"user_id":49,"name":"Ritz","steam_id":76561198222317440,"connected_time":4642000000000,"state":"active","ping":57},{"user_id":50,"name":"Vanille™","steam_id":76561198008102959,"connected_time":4638000000000,"state":"active","ping":55},{"user_id":52,"name":"Davey","steam_id":76561198256879107,"connected_time":4175000000000,"state":"active","ping":75},{"user_id":84,"name":"cherry coal","steam_id":76561198822725169,"connected_time":1790000000000,"state":"active","ping":60},{"user_id":88,"name":"Carol Olston","steam_id":76561198080257273,"connected_time":1514000000000,"state":"active","ping":44},{"user_id":63,"name":"Gregsticles","steam_id":76561198805480191,"connected_time":2920000000000,"state":"active","ping":57},{"user_id":58,"name":"H2n9","steam_id":76561198055811259,"connected_time":3155000000000,"state":"active","ping":57},{"user_id":106,"name":"akakez","steam_id":76561198095432821,"connected_time":603000000000,"state":"active","ping":110},{"user_id":62,"name":"Intruder","steam_id":76561198156128173,"connected_time":2936000000000,"state":"active","ping":75},{"user_id":61,"name":"Illegally Legal","steam_id":76561198982674420,"connected_time":3073000000000,"state":"active","ping":44},{"user_id":64,"name":"Qwerty (Kiwee)","steam_id":76561198991043855,"connected_time":2893000000000,"state":"active","ping":145},{"user_id":65,"name":"Silly Billy","steam_id":76561199079002507,"connected_time":2884000000000,"state":"active","ping":57},{"user_id":100,"name":"Simoh The Swoob","steam_id":76561198058078322,"connected_time":914000000000,"state":"active","ping":89},{"user_id":101,"name":"Miku","steam_id":76561198041717890,"connected_time":900000000000,"state":"active","ping":90},{"user_id":105,"name":"102ping","steam_id":76561199000963772,"connected_time":703000000000,"state":"active","ping":69},{"user_id":107,"name":"Pingutaro","steam_id":76561198112803718,"connected_time":0,"state":"spawning","ping":23},{"user_id":91,"name":"LegitACarWithAGun","steam_id":76561198081742337,"connected_time":1504000000000,"state":"active","ping":93},{"user_id":97,"name":"coldwar121947","steam_id":76561199387219377,"connected_time":1091000000000,"state":"active","ping":282},{"user_id":93,"name":"game","steam_id":76561199111169960,"connected_time":1492000000000,"state":"active","ping":68}]},{"server_id":21,"name":"Uncletopia | London | 5 | All Maps","name_short":"lon-5","host":"lon-1.uk.uncletopia.com","port":27055,"enabled":true,"region":"eu","cc":"gb","latitude":51.509865,"longitude":-0.118092,"reserved":0,"last_update":"0001-01-01T00:00:00Z","name_a2s":"Uncletopia | London | 5 | All Maps","protocol":17,"map":"pl_thundermountain","folder":"tf","game":"Team Fortress","app_id":440,"player_count":24,"max_players":24,"Bots":0,"server_type":"Dedicated","server_os":"Linux","password":true,"vac":true,"version":"7757534","steam_id":85568392924742829,"keywords":["nocrits","nodmgspread","payload","uncletopia"],"game_id":440,"stv_port":27056,"stv_name":"Uncletopia | London | 5 | All Maps | STV","players":[{"user_id":276,"name":"SeeYouSpaceRobot","steam_id":76561198454018197,"connected_time":593000000000,"state":"active","ping":61},{"user_id":263,"name":"Mango-Man","steam_id":76561198840558687,"connected_time":989000000000,"state":"active","ping":70},{"user_id":234,"name":"Tea","steam_id":76561198799243030,"connected_time":3352000000000,"state":"active","ping":58},{"user_id":250,"name":"Painkiller (real)☑","steam_id":76561199036837091,"connected_time":1699000000000,"state":"active","ping":85},{"user_id":227,"name":"DjinnKinn","steam_id":76561198029913860,"connected_time":4132000000000,"state":"active","ping":64},{"user_id":291,"name":"BunkerBoy","steam_id":76561198859439313,"connected_time":50000000000,"state":"active","ping":85},{"user_id":252,"name":"Paton","steam_id":76561198874669052,"connected_time":1621000000000,"state":"active","ping":82},{"user_id":264,"name":"Sparrow","steam_id":76561199289555797,"connected_time":967000000000,"state":"active","ping":75},{"user_id":290,"name":"Estamie","steam_id":76561198058527691,"connected_time":80000000000,"state":"active","ping":74},{"user_id":265,"name":"✪ m_br3","steam_id":76561198044981990,"connected_time":913000000000,"state":"active","ping":75},{"user_id":258,"name":"omnibombulator","steam_id":76561198025858897,"connected_time":1065000000000,"state":"active","ping":47},{"user_id":277,"name":"quickfast","steam_id":76561199438900919,"connected_time":521000000000,"state":"active","ping":44},{"user_id":260,"name":"chocolate flavoured femboy","steam_id":76561198819353867,"connected_time":1061000000000,"state":"active","ping":43},{"user_id":261,"name":"Dewotter","steam_id":76561198007653168,"connected_time":1055000000000,"state":"active","ping":55},{"user_id":266,"name":"Grumtsior","steam_id":76561198043563111,"connected_time":898000000000,"state":"active","ping":73},{"user_id":267,"name":"Sinny","steam_id":76561197999598422,"connected_time":858000000000,"state":"active","ping":82},{"user_id":280,"name":"Alibi","steam_id":76561198061845595,"connected_time":484000000000,"state":"active","ping":48},{"user_id":275,"name":"beheading video from 2009","steam_id":76561198834897089,"connected_time":745000000000,"state":"active","ping":74},{"user_id":270,"name":"Mayor Wank from Wanker Town","steam_id":76561197998253588,"connected_time":818000000000,"state":"active","ping":59},{"user_id":285,"name":"pedestrianise gloucester rd","steam_id":76561198126022039,"connected_time":334000000000,"state":"active","ping":44},{"user_id":286,"name":"Lord of the Moon","steam_id":76561198014115769,"connected_time":288000000000,"state":"active","ping":144},{"user_id":274,"name":"rz-/Atomic Punch","steam_id":76561199195508541,"connected_time":783000000000,"state":"active","ping":73},{"user_id":282,"name":"Summ","steam_id":76561198181125175,"connected_time":392000000000,"state":"active","ping":70},{"user_id":284,"name":"Dogwalker","steam_id":76561197985561055,"connected_time":368000000000,"state":"active","ping":69}]},{"server_id":22,"name":"Uncletopia | London | 6 | All Maps","name_short":"lon-6","host":"lon-1.uk.uncletopia.com","port":27065,"enabled":true,"region":"eu","cc":"gb","latitude":51.509865,"longitude":-0.118092,"reserved":0,"last_update":"0001-01-01T00:00:00Z","name_a2s":"Uncletopia | London | 6 | All Maps","protocol":17,"map":"koth_highpass","folder":"tf","game":"Team Fortress","app_id":440,"player_count":0,"max_players":24,"Bots":0,"server_type":"Dedicated","server_os":"Linux","password":true,"vac":true,"version":"7757534","steam_id":85568392924742830,"keywords":["cp","nocrits","nodmgspread","uncletopia"],"game_id":440,"stv_port":27066,"stv_name":"Uncletopia | London | 6 | All Maps | STV","players":null},{"server_id":40,"name":"Uncletopia | London | 7 | No Payload","name_short":"lon-7","host":"lon-1.uk.uncletopia.com","port":27075,"enabled":true,"region":"eu","cc":"gb","latitude":51.509865,"longitude":-0.118092,"reserved":0,"last_update":"0001-01-01T00:00:00Z","name_a2s":"Uncletopia | London | 7 | No Payload","protocol":17,"map":"cp_process_final","folder":"tf","game":"Team Fortress","app_id":440,"player_count":0,"max_players":24,"Bots":0,"server_type":"Dedicated","server_os":"Linux","password":true,"vac":true,"version":"7757534","steam_id":85568392924964314,"keywords":["cp","nocrits","nodmgspread","uncletopia"],"game_id":440,"stv_port":27076,"stv_name":"Uncletopia | London | 7 | No Payload | STV","players":null},{"server_id":41,"name":"Uncletopia | London | 8 | Community","name_short":"lon-8","host":"lon-1.uk.uncletopia.com","port":27085,"enabled":true,"region":"eu","cc":"gb","latitude":51.509865,"longitude":-0.118092,"reserved":0,"last_update":"0001-01-01T00:00:00Z","name_a2s":"Uncletopia | London | 8 | Community","protocol":17,"map":"workshop/koth_trenchfoot_b1a.ugc731436616","folder":"tf","game":"Team Fortress","app_id":440,"player_count":4,"max_players":24,"Bots":0,"server_type":"Dedicated","server_os":"Linux","password":true,"vac":true,"version":"7757534","steam_id":85568392924964315,"keywords":["cp","nocrits","nodmgspread","uncletopia"],"game_id":440,"stv_port":27086,"stv_name":"Uncletopia | London | 8 | Community | STV","players":[{"user_id":30,"name":"Jack.Orlando","steam_id":76561198802400236,"connected_time":5380000000000,"state":"active","ping":73},{"user_id":33,"name":"Funny gaming","steam_id":76561199235640948,"connected_time":2248000000000,"state":"active","ping":32},{"user_id":35,"name":"Ineluctable Sex Predator","steam_id":76561197995971061,"connected_time":502000000000,"state":"active","ping":90},{"user_id":11,"name":"fried","steam_id":76561198307522022,"connected_time":10149000000000,"state":"active","ping":46}]},{"server_id":300,"name":"Uncletopia | Montréal | 1 | All Maps","name_short":"mtl-1","host":"mtl-1.ca.uncletopia.com","port":27015,"enabled":true,"region":"us-east","cc":"ca","latitude":45.50889,"longitude":-73.56167,"reserved":0,"last_update":"0001-01-01T00:00:00Z","name_a2s":"Uncletopia | Montréal | 1 | All Maps","protocol":17,"map":"koth_cascade","folder":"tf","game":"Team Fortress","app_id":440,"player_count":0,"max_players":24,"Bots":0,"server_type":"Dedicated","server_os":"Linux","password":true,"vac":true,"version":"7757534","steam_id":85568392924500087,"keywords":["cp","nocrits","nodmgspread","uncletopia"],"game_id":440,"stv_port":27016,"stv_name":"Uncletopia | Montréal | 1 | All Maps | STV","players":null},{"server_id":301,"name":"Uncletopia | Montréal | 2 | All Maps","name_short":"mtl-2","host":"mtl-1.ca.uncletopia.com","port":27025,"enabled":true,"region":"us-east","cc":"ca","latitude":45.50889,"longitude":-73.56167,"reserved":0,"last_update":"0001-01-01T00:00:00Z","name_a2s":"Uncletopia | Montréal | 2 | All Maps","protocol":17,"map":"pl_snowycoast","folder":"tf","game":"Team Fortress","app_id":440,"player_count":0,"max_players":24,"Bots":0,"server_type":"Dedicated","server_os":"Linux","password":true,"vac":true,"version":"7757534","steam_id":85568392924500088,"keywords":["nocrits","nodmgspread","payload","uncletopia"],"game_id":440,"stv_port":27026,"stv_name":"Uncletopia | Montréal | 2 | All Maps | STV","players":null},{"server_id":302,"name":"Uncletopia | Montréal | 3 | All Maps","name_short":"mtl-3","host":"mtl-1.ca.uncletopia.com","port":27035,"enabled":true,"region":"us-east","cc":"ca","latitude":45.50889,"longitude":-73.56167,"reserved":0,"last_update":"0001-01-01T00:00:00Z","name_a2s":"Uncletopia | Montréal | 3 | All Maps","protocol":17,"map":"pl_swiftwater_final1","folder":"tf","game":"Team Fortress","app_id":440,"player_count":0,"max_players":24,"Bots":0,"server_type":"Dedicated","server_os":"Linux","password":true,"vac":true,"version":"7757534","steam_id":85568392924500089,"keywords":["nocrits","nodmgspread","payload","uncletopia"],"game_id":440,"stv_port":27036,"stv_name":"Uncletopia | Montréal | 3 | All Maps | STV","players":null},{"server_id":303,"name":"Uncletopia | Montréal | 4 | No Payload","name_short":"mtl-4","host":"mtl-1.ca.uncletopia.com","port":27045,"enabled":true,"region":"us-east","cc":"ca","latitude":45.50889,"longitude":-73.56167,"reserved":0,"last_update":"0001-01-01T00:00:00Z","name_a2s":"Uncletopia | Montréal | 4 | No Payload","protocol":17,"map":"cp_mercenarypark","folder":"tf","game":"Team Fortress","app_id":440,"player_count":0,"max_players":24,"Bots":0,"server_type":"Dedicated","server_os":"Linux","password":true,"vac":true,"version":"7757534","steam_id":85568392924500090,"keywords":["cp","nocrits","nodmgspread","uncletopia"],"game_id":440,"stv_port":27046,"stv_name":"Uncletopia | Montréal | 4 | No Payload | STV","players":null},{"server_id":13,"name":"Uncletopia | New York City | 1 | All Maps","name_short":"nyc-1","host":"nyc-1.us.uncletopia.com","port":27015,"enabled":true,"region":"us-east","cc":"us","latitude":40.73061,"longitude":-73.93524,"reserved":0,"last_update":"0001-01-01T00:00:00Z","name_a2s":"Uncletopia | New York City | 1 | All Maps","protocol":17,"map":"koth_viaduct","folder":"tf","game":"Team Fortress","app_id":440,"player_count":0,"max_players":24,"Bots":0,"server_type":"Dedicated","server_os":"Linux","password":true,"vac":true,"version":"7757534","steam_id":85568392924469993,"keywords":["cp","nocrits","nodmgspread","uncletopia"],"game_id":440,"stv_port":27016,"stv_name":"Uncletopia | New York City | 1 | All Maps | STV","players":null},{"server_id":14,"name":"Uncletopia | New York City | 2 | All Maps","name_short":"nyc-2","host":"nyc-1.us.uncletopia.com","port":27025,"enabled":true,"region":"us-east","cc":"us","latitude":40.73061,"longitude":-73.93524,"reserved":0,"last_update":"0001-01-01T00:00:00Z","name_a2s":"Uncletopia | New York City | 2 | All Maps","protocol":17,"map":"koth_lakeside_final","folder":"tf","game":"Team Fortress","app_id":440,"player_count":0,"max_players":24,"Bots":0,"server_type":"Dedicated","server_os":"Linux","password":true,"vac":true,"version":"7757534","steam_id":85568392924469994,"keywords":["cp","nocrits","nodmgspread","uncletopia"],"game_id":440,"stv_port":27026,"stv_name":"Uncletopia | New York City | 2 | All Maps | STV","players":null},{"server_id":15,"name":"Uncletopia | New York City | 3 | Stopwatch Beta","name_short":"nyc-3","host":"nyc-1.us.uncletopia.com","port":27035,"enabled":true,"region":"us-east","cc":"us","latitude":40.73061,"longitude":-73.93524,"reserved":0,"last_update":"0001-01-01T00:00:00Z","name_a2s":"Uncletopia | New York City | 3 | Stopwatch Beta","protocol":17,"map":"pl_upward","folder":"tf","game":"Team Fortress","app_id":440,"player_count":0,"max_players":24,"Bots":0,"server_type":"Dedicated","server_os":"Linux","password":true,"vac":true,"version":"7757534","steam_id":85568392924742820,"keywords":["nocrits","nodmgspread","payload","uncletopia"],"game_id":440,"stv_port":27036,"stv_name":"Uncletopia | New York City | 3 | Stopwatch Beta | STV","players":null},{"server_id":16,"name":"Uncletopia | New York City | 4 | Community","name_short":"nyc-4","host":"nyc-1.us.uncletopia.com","port":27045,"enabled":true,"region":"us-east","cc":"us","latitude":40.73061,"longitude":-73.93524,"reserved":0,"last_update":"0001-01-01T00:00:00Z","name_a2s":"Uncletopia | New York City | 4 | Community","protocol":17,"map":"workshop/pl_eruption_b9a.ugc2807898013","folder":"tf","game":"Team Fortress","app_id":440,"player_count":0,"max_players":24,"Bots":0,"server_type":"Dedicated","server_os":"Linux","password":true,"vac":true,"version":"7757534","steam_id":85568392924742821,"keywords":["nocrits","nodmgspread","payload","uncletopia"],"game_id":440,"stv_port":27046,"stv_name":"Uncletopia | New York City | 4 | Community | STV","players":null},{"server_id":142,"name":"Uncletopia | São Paulo | 1 | All Maps","name_short":"sao-1","host":"sao-1.br.uncletopia.com","port":27015,"enabled":true,"region":"sa","cc":"br","latitude":-23.533773,"longitude":-46.62529,"reserved":0,"last_update":"0001-01-01T00:00:00Z","name_a2s":"Uncletopia | São Paulo | 1 | All Maps","protocol":17,"map":"cp_sunshine","folder":"tf","game":"Team Fortress","app_id":440,"player_count":1,"max_players":24,"Bots":0,"server_type":"Dedicated","server_os":"Linux","password":true,"vac":true,"version":"7757534","steam_id":85568392924469996,"keywords":["cp","nocrits","nodmgspread","uncletopia"],"game_id":440,"stv_port":27016,"stv_name":"Uncletopia | São Paulo | 1 | All Maps | STV","players":[{"user_id":8,"name":"ailuros","steam_id":76561198171349369,"connected_time":755000000000,"state":"active","ping":30}]},{"server_id":143,"name":"Uncletopia | São Paulo | 2 | All Maps","name_short":"sao-2","host":"sao-2.br.uncletopia.com","port":27015,"enabled":true,"region":"sa","cc":"br","latitude":-23.533773,"longitude":-46.62529,"reserved":0,"last_update":"0001-01-01T00:00:00Z","name_a2s":"Uncletopia | São Paulo | 2 | All Maps","protocol":17,"map":"koth_viaduct","folder":"tf","game":"Team Fortress","app_id":440,"player_count":0,"max_players":24,"Bots":0,"server_type":"Dedicated","server_os":"Linux","password":true,"vac":true,"version":"7757534","steam_id":85568392924485349,"keywords":["cp","nocrits","nodmgspread","uncletopia"],"game_id":440,"stv_port":27016,"stv_name":"Uncletopia | São Paulo | 2 | All Maps | STV","players":null},{"server_id":7,"name":"Uncletopia | Seattle | 1 | All Maps","name_short":"sea-1","host":"sea-1.us.uncletopia.com","port":27015,"enabled":true,"region":"us-west","cc":"us","latitude":47.608013,"longitude":-122.33517,"reserved":0,"last_update":"0001-01-01T00:00:00Z","name_a2s":"Uncletopia | Seattle | 1 | All Maps","protocol":17,"map":"pl_borneo","folder":"tf","game":"Team Fortress","app_id":440,"player_count":24,"max_players":24,"Bots":0,"server_type":"Dedicated","server_os":"Linux","password":true,"vac":true,"version":"7757534","steam_id":85568392924469997,"keywords":["nocrits","nodmgspread","payload","uncletopia"],"game_id":440,"stv_port":27016,"stv_name":"Uncletopia | Seattle | 1 | All Maps | STV","players":[{"user_id":388,"name":"PixelBoy","steam_id":76561198165768983,"connected_time":845000000000,"state":"active","ping":127},{"user_id":404,"name":"Colonel Chikara","steam_id":76561198010021087,"connected_time":126000000000,"state":"active","ping":55},{"user_id":383,"name":"silly goose","steam_id":76561198274536610,"connected_time":1157000000000,"state":"active","ping":53},{"user_id":334,"name":"panpanpanpanpan","steam_id":76561198277478746,"connected_time":4132000000000,"state":"active","ping":87},{"user_id":400,"name":"mann","steam_id":76561199406261605,"connected_time":261000000000,"state":"active","ping":102},{"user_id":398,"name":"comfycaffeine","steam_id":76561198058690096,"connected_time":484000000000,"state":"active","ping":46},{"user_id":386,"name":"neph","steam_id":76561198962318010,"connected_time":970000000000,"state":"active","ping":146},{"user_id":405,"name":"MasterCrafter27","steam_id":76561198151035981,"connected_time":61000000000,"state":"active","ping":51},{"user_id":295,"name":"cool beans","steam_id":76561198045758072,"connected_time":7597000000000,"state":"active","ping":61},{"user_id":387,"name":"Deltaco","steam_id":76561198094572694,"connected_time":877000000000,"state":"active","ping":156},{"user_id":363,"name":"Blitzy","steam_id":76561198149472890,"connected_time":2347000000000,"state":"active","ping":60},{"user_id":380,"name":"D34dR4bbit","steam_id":76561198167411455,"connected_time":1378000000000,"state":"active","ping":59},{"user_id":381,"name":"🅜🅔🅔🅚🅢🅣🅔\ufffd\ufffd\ufffd","steam_id":76561197999748343,"connected_time":1314000000000,"state":"active","ping":90},{"user_id":389,"name":"Positive0","steam_id":76561198035780181,"connected_time":802000000000,"state":"active","ping":107},{"user_id":379,"name":"mega","steam_id":76561198089520959,"connected_time":1409000000000,"state":"active","ping":90},{"user_id":338,"name":"Jovo","steam_id":76561197993265970,"connected_time":3999000000000,"state":"active","ping":36},{"user_id":402,"name":"Taylor Swift","steam_id":76561198078130694,"connected_time":232000000000,"state":"active","ping":79},{"user_id":403,"name":"R3n3gade","steam_id":76561198145984116,"connected_time":150000000000,"state":"active","ping":86},{"user_id":406,"name":"Kirbo","steam_id":76561198952469459,"connected_time":58000000000,"state":"active","ping":62},{"user_id":321,"name":"ratie","steam_id":76561198059399661,"connected_time":5320000000000,"state":"active","ping":77},{"user_id":407,"name":"RapidXenophage","steam_id":76561198175149973,"connected_time":39000000000,"state":"active","ping":60},{"user_id":394,"name":"Aequalis747","steam_id":76561199456589841,"connected_time":640000000000,"state":"active","ping":107},{"user_id":408,"name":"Yoyo","steam_id":76561199122577289,"connected_time":15000000000,"state":"spawning","ping":146},{"user_id":348,"name":"Elongated Muskrat","steam_id":76561198314501346,"connected_time":3503000000000,"state":"active","ping":51}]},{"server_id":119,"name":"Uncletopia | Seattle | 2 | All Maps","name_short":"sea-2","host":"sea-1.us.uncletopia.com","port":27025,"enabled":true,"region":"us-west","cc":"us","latitude":47.608013,"longitude":-122.33517,"reserved":0,"last_update":"0001-01-01T00:00:00Z","name_a2s":"Uncletopia | Seattle | 2 | All Maps","protocol":17,"map":"cp_junction_final","folder":"tf","game":"Team Fortress","app_id":440,"player_count":20,"max_players":24,"Bots":0,"server_type":"Dedicated","server_os":"Linux","password":true,"vac":true,"version":"7757534","steam_id":85568392924469998,"keywords":["cp","nocrits","nodmgspread","uncletopia"],"game_id":440,"stv_port":27026,"stv_name":"Uncletopia | Seattle | 2 | All Maps | STV","players":[{"user_id":114,"name":"Sprucelass","steam_id":76561197998391724,"connected_time":919000000000,"state":"active","ping":90},{"user_id":125,"name":"Deryn Sharp","steam_id":76561198047017346,"connected_time":311000000000,"state":"active","ping":76},{"user_id":116,"name":"Trash Boat","steam_id":76561198181586946,"connected_time":687000000000,"state":"active","ping":78},{"user_id":99,"name":"Bobbeh","steam_id":76561198131601160,"connected_time":2668000000000,"state":"active","ping":40},{"user_id":111,"name":"Large Charles","steam_id":76561197999663001,"connected_time":1360000000000,"state":"active","ping":69},{"user_id":123,"name":"Eosson","steam_id":76561198108642113,"connected_time":417000000000,"state":"active","ping":59},{"user_id":67,"name":"roanoke›","steam_id":76561198048007844,"connected_time":4315000000000,"state":"active","ping":73},{"user_id":120,"name":"Based","steam_id":76561199089316436,"connected_time":451000000000,"state":"active","ping":39},{"user_id":121,"name":"MAGGOT!","steam_id":76561198213290696,"connected_time":439000000000,"state":"active","ping":46},{"user_id":108,"name":"yup","steam_id":76561199190800520,"connected_time":1854000000000,"state":"active","ping":39},{"user_id":122,"name":"TONIX","steam_id":76561198183582835,"connected_time":435000000000,"state":"active","ping":149},{"user_id":129,"name":"OrangeShoes","steam_id":76561197971249940,"connected_time":55000000000,"state":"active","ping":99},{"user_id":106,"name":"i cant aim","steam_id":76561198065873462,"connected_time":2016000000000,"state":"active","ping":75},{"user_id":126,"name":"RaidersFan34","steam_id":76561198269369893,"connected_time":295000000000,"state":"active","ping":56},{"user_id":100,"name":"defcon","steam_id":76561198100656328,"connected_time":2664000000000,"state":"active","ping":126},{"user_id":103,"name":"Mr. Dick™","steam_id":76561198047309044,"connected_time":2540000000000,"state":"active","ping":106},{"user_id":35,"name":"box","steam_id":76561198049531483,"connected_time":5884000000000,"state":"active","ping":108},{"user_id":112,"name":"keithykeithers","steam_id":76561197995552615,"connected_time":1239000000000,"state":"active","ping":45},{"user_id":43,"name":"old birb man","steam_id":76561199410269097,"connected_time":5594000000000,"state":"active","ping":78},{"user_id":105,"name":"Els (F2P)","steam_id":76561199129761684,"connected_time":2297000000000,"state":"active","ping":129}]},{"server_id":406,"name":"Uncletopia | Seattle | 3 | Stopwatch Beta","name_short":"sea-3","host":"sea-1.us.uncletopia.com","port":27035,"enabled":true,"region":"us-west","cc":"us","latitude":47.608013,"longitude":-122.33517,"reserved":0,"last_update":"0001-01-01T00:00:00Z","name_a2s":"Uncletopia | Seattle | 3 | Stopwatch Beta","protocol":17,"map":"cp_dustbowl","folder":"tf","game":"Team Fortress","app_id":440,"player_count":0,"max_players":24,"Bots":0,"server_type":"Dedicated","server_os":"Linux","password":true,"vac":true,"version":"7757534","steam_id":85568392924515217,"keywords":["cp","nocrits","nodmgspread","uncletopia"],"game_id":440,"stv_port":27036,"stv_name":"Uncletopia | Seattle | 3 | Stopwatch Beta | STV","players":null},{"server_id":17,"name":"Uncletopia | San Francisco | 1 | All Maps","name_short":"sfo-1","host":"sfo-1.us.uncletopia.com","port":27015,"enabled":true,"region":"us-west","cc":"us","latitude":37.77397,"longitude":-122.4313,"reserved":0,"last_update":"0001-01-01T00:00:00Z","name_a2s":"Uncletopia | San Francisco | 1 | All Maps","protocol":17,"map":"pl_enclosure_final","folder":"tf","game":"Team Fortress","app_id":440,"player_count":1,"max_players":24,"Bots":0,"server_type":"Dedicated","server_os":"Linux","password":true,"vac":true,"version":"7757534","steam_id":85568392924469999,"keywords":["nocrits","nodmgspread","payload","uncletopia"],"game_id":440,"stv_port":27016,"stv_name":"Uncletopia | San Francisco | 1 | All Maps | STV","players":[{"user_id":6,"name":":3","steam_id":76561198861711988,"connected_time":877000000000,"state":"active","ping":66}]},{"server_id":18,"name":"Uncletopia | San Francisco | 2 | All Maps","name_short":"sfo-2","host":"sfo-1.us.uncletopia.com","port":27025,"enabled":true,"region":"us-west","cc":"us","latitude":37.77397,"longitude":-122.4313,"reserved":0,"last_update":"0001-01-01T00:00:00Z","name_a2s":"Uncletopia | San Francisco | 2 | All Maps","protocol":17,"map":"pl_badwater","folder":"tf","game":"Team Fortress","app_id":440,"player_count":21,"max_players":24,"Bots":0,"server_type":"Dedicated","server_os":"Linux","password":true,"vac":true,"version":"7757534","steam_id":85568392924470000,"keywords":["nocrits","nodmgspread","payload","uncletopia"],"game_id":440,"stv_port":27026,"stv_name":"Uncletopia | San Francisco | 2 | All Maps | STV","players":[{"user_id":98,"name":"SeanEee","steam_id":76561198217227232,"connected_time":525000000000,"state":"active","ping":89},{"user_id":65,"name":"salad","steam_id":76561198199055635,"connected_time":2157000000000,"state":"active","ping":62},{"user_id":107,"name":"Joosh","steam_id":76561198214599739,"connected_time":71000000000,"state":"active","ping":57},{"user_id":66,"name":"XxChocola20xX","steam_id":76561199108579557,"connected_time":2153000000000,"state":"active","ping":75},{"user_id":97,"name":"Mediocre","steam_id":76561198056352693,"connected_time":641000000000,"state":"active","ping":70},{"user_id":99,"name":"MORE BOUNCE TO THE OUNCE","steam_id":76561198243399336,"connected_time":435000000000,"state":"active","ping":66},{"user_id":100,"name":"DD_440","steam_id":76561199135978082,"connected_time":411000000000,"state":"active","ping":113},{"user_id":60,"name":"Loleo","steam_id":76561198348132374,"connected_time":2488000000000,"state":"active","ping":91},{"user_id":101,"name":"Morbius","steam_id":76561198387984694,"connected_time":351000000000,"state":"active","ping":71},{"user_id":44,"name":"Green/Black Weezer CD#36","steam_id":76561198851520459,"connected_time":3309000000000,"state":"active","ping":120},{"user_id":106,"name":"Konnor","steam_id":76561199136300254,"connected_time":159000000000,"state":"active","ping":45},{"user_id":89,"name":"Keywest","steam_id":76561198266508363,"connected_time":1031000000000,"state":"active","ping":62},{"user_id":74,"name":"advent","steam_id":76561198136475311,"connected_time":1559000000000,"state":"active","ping":92},{"user_id":103,"name":"bobbyreinman2009","steam_id":76561198804763186,"connected_time":295000000000,"state":"active","ping":108},{"user_id":108,"name":"NYT","steam_id":76561198041151763,"connected_time":3000000000,"state":"spawning","ping":111},{"user_id":81,"name":"△","steam_id":76561198060642242,"connected_time":1314000000000,"state":"active","ping":127},{"user_id":83,"name":"The Big Iron","steam_id":76561198117276391,"connected_time":1287000000000,"state":"active","ping":88},{"user_id":28,"name":"Sir_DankToast","steam_id":76561198385093022,"connected_time":3689000000000,"state":"active","ping":60},{"user_id":92,"name":"Squiliam","steam_id":76561198025278006,"connected_time":988000000000,"state":"active","ping":89},{"user_id":87,"name":"Rainy","steam_id":76561198310972287,"connected_time":1097000000000,"state":"active","ping":32},{"user_id":94,"name":"beastierbeast","steam_id":76561199030645530,"connected_time":906000000000,"state":"active","ping":88}]},{"server_id":19,"name":"Uncletopia | San Francisco | 3 | Stopwatch Beta","name_short":"sfo-3","host":"sfo-1.us.uncletopia.com","port":27035,"enabled":true,"region":"us-west","cc":"us","latitude":37.77397,"longitude":-122.4313,"reserved":0,"last_update":"0001-01-01T00:00:00Z","name_a2s":"Uncletopia | San Francisco | 3 | Stopwatch Beta","protocol":17,"map":"koth_lakeside_final","folder":"tf","game":"Team Fortress","app_id":440,"player_count":0,"max_players":24,"Bots":0,"server_type":"Dedicated","server_os":"Linux","password":true,"vac":true,"version":"7757534","steam_id":85568392924742824,"keywords":["cp","nocrits","nodmgspread","uncletopia"],"game_id":440,"stv_port":27036,"stv_name":"Uncletopia | San Francisco | 3 | Stopwatch Beta | STV","players":null},{"server_id":20,"name":"Uncletopia | San Francisco | 4 | Community","name_short":"sfo-4","host":"sfo-1.us.uncletopia.com","port":27045,"enabled":true,"region":"us-west","cc":"us","latitude":37.77397,"longitude":-122.4313,"reserved":0,"last_update":"0001-01-01T00:00:00Z","name_a2s":"Uncletopia | San Francisco | 4 | Community","protocol":17,"map":"workshop/cp_propaganda_b18.ugc1603743849","folder":"tf","game":"Team Fortress","app_id":440,"player_count":21,"max_players":24,"Bots":0,"server_type":"Dedicated","server_os":"Linux","password":true,"vac":true,"version":"7757534","steam_id":85568392924742826,"keywords":["cp","nocrits","nodmgspread","uncletopia"],"game_id":440,"stv_port":27046,"stv_name":"Uncletopia | San Francisco | 4 | Community | STV","players":[{"user_id":93,"name":"Spicy Within Reason","steam_id":76561198066700370,"connected_time":251000000000,"state":"active","ping":72},{"user_id":64,"name":"OrangeBee","steam_id":76561198862058602,"connected_time":2058000000000,"state":"active","ping":55},{"user_id":39,"name":"Jeck","steam_id":76561198012275276,"connected_time":3891000000000,"state":"active","ping":57},{"user_id":81,"name":"dP | I'm in a Wookie Suit","steam_id":76561198083307644,"connected_time":1284000000000,"state":"active","ping":78},{"user_id":59,"name":"Paul Blart","steam_id":76561198068110623,"connected_time":2254000000000,"state":"active","ping":62},{"user_id":90,"name":"RoyalKnight557","steam_id":76561198213301523,"connected_time":881000000000,"state":"active","ping":101},{"user_id":83,"name":"Crack Addict","steam_id":76561198166681494,"connected_time":1212000000000,"state":"active","ping":81},{"user_id":62,"name":"Rended_","steam_id":76561199067091873,"connected_time":2180000000000,"state":"active","ping":136},{"user_id":94,"name":"stoned jester","steam_id":76561198079609974,"connected_time":193000000000,"state":"active","ping":66},{"user_id":92,"name":"brea?","steam_id":76561198025130409,"connected_time":525000000000,"state":"active","ping":98},{"user_id":75,"name":"dog","steam_id":76561198090737207,"connected_time":1684000000000,"state":"active","ping":64},{"user_id":56,"name":"land0","steam_id":76561198321264704,"connected_time":2683000000000,"state":"active","ping":111},{"user_id":95,"name":"dAiLyGrInD","steam_id":76561198163531915,"connected_time":126000000000,"state":"active","ping":92},{"user_id":65,"name":"TrustyGun","steam_id":76561198022854020,"connected_time":1998000000000,"state":"active","ping":111},{"user_id":66,"name":"schnedwob","steam_id":76561197999146588,"connected_time":1919000000000,"state":"active","ping":87},{"user_id":96,"name":"BrightOrangeMango","steam_id":76561198023144607,"connected_time":93000000000,"state":"active","ping":68},{"user_id":88,"name":"carrion goat she/it","steam_id":76561198262064871,"connected_time":1002000000000,"state":"active","ping":89},{"user_id":70,"name":"lukamine","steam_id":76561198166827208,"connected_time":1807000000000,"state":"active","ping":72},{"user_id":71,"name":"Dad","steam_id":76561199091290729,"connected_time":1778000000000,"state":"active","ping":100},{"user_id":73,"name":"Rickysuper_52","steam_id":76561198067865179,"connected_time":1725000000000,"state":"active","ping":82},{"user_id":74,"name":"HE’S IN THE GODDAMN WALLS","steam_id":76561198363267009,"connected_time":1725000000000,"state":"active","ping":79}]},{"server_id":141,"name":"Uncletopia | Sydney | 1 | All Maps","name_short":"syd-1","host":"syd-1.au.uncletopia.com","port":27015,"enabled":true,"region":"au","cc":"au","latitude":-33.865143,"longitude":151.2099,"reserved":0,"last_update":"0001-01-01T00:00:00Z","name_a2s":"Uncletopia | Sydney | 1 | All Maps","protocol":17,"map":"koth_viaduct","folder":"tf","game":"Team Fortress","app_id":440,"player_count":0,"max_players":24,"Bots":0,"server_type":"Dedicated","server_os":"Linux","password":true,"vac":true,"version":"7757534","steam_id":85568392924470001,"keywords":["cp","nocrits","nodmgspread","uncletopia"],"game_id":440,"stv_port":27016,"stv_name":"Uncletopia | Sydney | 1 | All Maps | STV","players":null},{"server_id":123,"name":"Uncletopia | Sydney | 2 | All Maps","name_short":"syd-2","host":"syd-1.au.uncletopia.com","port":27025,"enabled":true,"region":"au","cc":"au","latitude":-33.865143,"longitude":151.2099,"reserved":0,"last_update":"0001-01-01T00:00:00Z","name_a2s":"Uncletopia | Sydney | 2 | All Maps","protocol":17,"map":"cp_process_final","folder":"tf","game":"Team Fortress","app_id":440,"player_count":0,"max_players":24,"Bots":0,"server_type":"Dedicated","server_os":"Linux","password":true,"vac":true,"version":"7757534","steam_id":85568392924470002,"keywords":["cp","nocrits","nodmgspread","uncletopia"],"game_id":440,"stv_port":27026,"stv_name":"Uncletopia | Sydney | 2 | All Maps | STV","players":null},{"server_id":395,"name":"Uncletopia | Sydney | 3 | All Maps","name_short":"syd-3","host":"syd-1.au.uncletopia.com","port":27035,"enabled":true,"region":"au","cc":"au","latitude":-33.865143,"longitude":151.2099,"reserved":0,"last_update":"0001-01-01T00:00:00Z","name_a2s":"Uncletopia | Sydney | 3 | All Maps","protocol":17,"map":"pl_swiftwater_final1","folder":"tf","game":"Team Fortress","app_id":440,"player_count":0,"max_players":24,"Bots":0,"server_type":"Dedicated","server_os":"Linux","password":true,"vac":true,"version":"7757534","steam_id":85568392925194467,"keywords":["nocrits","nodmgspread","payload","uncletopia"],"game_id":440,"stv_port":27036,"stv_name":"Uncletopia | Sydney | 3 | All Maps | STV","players":null},{"server_id":396,"name":"Uncletopia | Sydney | 4 | All Maps","name_short":"syd-4","host":"syd-1.au.uncletopia.com","port":27045,"enabled":true,"region":"au","cc":"au","latitude":-33.865143,"longitude":151.2099,"reserved":0,"last_update":"0001-01-01T00:00:00Z","name_a2s":"Uncletopia | Sydney | 4 | All Maps","protocol":17,"map":"koth_highpass","folder":"tf","game":"Team Fortress","app_id":440,"player_count":0,"max_players":24,"Bots":0,"server_type":"Dedicated","server_os":"Linux","password":true,"vac":true,"version":"7757534","steam_id":85568392925397958,"keywords":["cp","nocrits","nodmgspread","uncletopia"],"game_id":440,"stv_port":27046,"stv_name":"Uncletopia | Sydney | 4 | All Maps | STV","players":null},{"server_id":58,"name":"Uncletopia | Sydney | 5 | Stopwatch Beta","name_short":"syd-5","host":"syd-1.au.uncletopia.com","port":27055,"enabled":true,"region":"au","cc":"au","latitude":-33.865143,"longitude":151.2099,"reserved":0,"last_update":"0001-01-01T00:00:00Z","name_a2s":"Uncletopia | Sydney | 5 | Stopwatch Beta","protocol":17,"map":"koth_cascade","folder":"tf","game":"Team Fortress","app_id":440,"player_count":0,"max_players":24,"Bots":0,"server_type":"Dedicated","server_os":"Linux","password":true,"vac":true,"version":"7757534","steam_id":85568392925397959,"keywords":["cp","nocrits","nodmgspread","uncletopia"],"game_id":440,"stv_port":27056,"stv_name":"Uncletopia | Sydney | 5 | Stopwatch Beta | STV","players":null},{"server_id":59,"name":"Uncletopia | Sydney | 6 | Community","name_short":"syd-6","host":"syd-1.au.uncletopia.com","port":27065,"enabled":true,"region":"au","cc":"au","latitude":-33.865143,"longitude":151.2099,"reserved":0,"last_update":"0001-01-01T00:00:00Z","name_a2s":"Uncletopia | Sydney | 6 | Community","protocol":17,"map":"cp_snakewater_final1","folder":"tf","game":"Team Fortress","app_id":440,"player_count":0,"max_players":24,"Bots":0,"server_type":"Dedicated","server_os":"Linux","password":true,"vac":true,"version":"7757534","steam_id":85568392925397960,"keywords":["cp","nocrits","nodmgspread","uncletopia"],"game_id":440,"stv_port":27066,"stv_name":"Uncletopia | Sydney | 6 | Community | STV","players":null},{"server_id":49,"name":"Uncletopia | Warsaw | 1 | All Maps","name_short":"waw-1","host":"waw-1.pl.uncletopia.com","port":27015,"enabled":true,"region":"eu","cc":"pl","latitude":52.2297,"longitude":21.017532,"reserved":0,"last_update":"0001-01-01T00:00:00Z","name_a2s":"","protocol":0,"map":"","folder":"","game":"","app_id":0,"player_count":0,"max_players":0,"Bots":0,"server_type":"","server_os":"","password":false,"vac":false,"version":"","steam_id":0,"keywords":null,"game_id":0,"stv_port":0,"stv_name":"","players":null},{"server_id":50,"name":"Uncletopia | Warsaw | 2 | All Maps","name_short":"waw-2","host":"waw-1.pl.uncletopia.com","port":27025,"enabled":true,"region":"eu","cc":"pl","latitude":52.2297,"longitude":21.017532,"reserved":0,"last_update":"0001-01-01T00:00:00Z","name_a2s":"Uncletopia | Warsaw | 2 | All Maps","protocol":17,"map":"pl_barnblitz","folder":"tf","game":"Team Fortress","app_id":440,"player_count":0,"max_players":24,"Bots":0,"server_type":"Dedicated","server_os":"Linux","password":true,"vac":true,"version":"7757534","steam_id":85568392925397851,"keywords":["nocrits","nodmgspread","payload","uncletopia"],"game_id":440,"stv_port":27026,"stv_name":"Uncletopia | Warsaw | 2 | All Maps | STV","players":null},{"server_id":51,"name":"Uncletopia | Warsaw | 3 | All Maps","name_short":"waw-3","host":"waw-1.pl.uncletopia.com","port":27035,"enabled":true,"region":"eu","cc":"pl","latitude":52.2297,"longitude":21.017532,"reserved":0,"last_update":"0001-01-01T00:00:00Z","name_a2s":"Uncletopia | Warsaw | 3 | All Maps","protocol":17,"map":"koth_lakeside_final","folder":"tf","game":"Team Fortress","app_id":440,"player_count":0,"max_players":24,"Bots":0,"server_type":"Dedicated","server_os":"Linux","password":true,"vac":true,"version":"7757534","steam_id":85568392925397852,"keywords":["cp","nocrits","nodmgspread","uncletopia"],"game_id":440,"stv_port":27036,"stv_name":"Uncletopia | Warsaw | 3 | All Maps | STV","players":null},{"server_id":52,"name":"Uncletopia | Warsaw | 4 | All Maps","name_short":"waw-4","host":"waw-1.pl.uncletopia.com","port":27045,"enabled":true,"region":"eu","cc":"pl","latitude":52.2297,"longitude":21.017532,"reserved":0,"last_update":"0001-01-01T00:00:00Z","name_a2s":"Uncletopia | Warsaw | 4 | All Maps","protocol":17,"map":"koth_lakeside_final","folder":"tf","game":"Team Fortress","app_id":440,"player_count":0,"max_players":24,"Bots":0,"server_type":"Dedicated","server_os":"Linux","password":true,"vac":true,"version":"7757534","steam_id":85568392925397853,"keywords":["cp","nocrits","nodmgspread","uncletopia"],"game_id":440,"stv_port":27046,"stv_name":"Uncletopia | Warsaw | 4 | All Maps | STV","players":null},{"server_id":53,"name":"Uncletopia | Warsaw | 5 | Stopwatch Beta","name_short":"waw-5","host":"waw-1.pl.uncletopia.com","port":27055,"enabled":true,"region":"eu","cc":"pl","latitude":52.2297,"longitude":21.017532,"reserved":0,"last_update":"0001-01-01T00:00:00Z","name_a2s":"Uncletopia | Warsaw | 5 | Stopwatch Beta","protocol":17,"map":"pl_borneo","folder":"tf","game":"Team Fortress","app_id":440,"player_count":0,"max_players":24,"Bots":0,"server_type":"Dedicated","server_os":"Linux","password":true,"vac":true,"version":"7757534","steam_id":85568392925397854,"keywords":["nocrits","nodmgspread","payload","uncletopia"],"game_id":440,"stv_port":27056,"stv_name":"Uncletopia | Warsaw | 5 | Stopwatch Beta | STV","players":null},{"server_id":54,"name":"Uncletopia | Warsaw | 6 | Community","name_short":"waw-6","host":"waw-1.pl.uncletopia.com","port":27065,"enabled":true,"region":"eu","cc":"pl","latitude":52.2297,"longitude":21.017532,"reserved":0,"last_update":"0001-01-01T00:00:00Z","name_a2s":"Uncletopia | Warsaw | 6 | Community","protocol":17,"map":"koth_lakeside_final","folder":"tf","game":"Team Fortress","app_id":440,"player_count":0,"max_players":24,"Bots":0,"server_type":"Dedicated","server_os":"Linux","password":true,"vac":true,"version":"7757534","steam_id":85568392925397856,"keywords":["cp","nocrits","nodmgspread","uncletopia"],"game_id":440,"stv_port":27066,"stv_name":"Uncletopia | Warsaw | 6 | Community | STV","players":null}]}