{"status":true,"message":"","result":[{"server_id":9,"name":"Uncletopia | Atlanta | 1 | All Maps","name_short":"atl-1","host":"atl-1.us.uncletopia.com","port":27015,"enabled":true,"region":"us-east","cc":"us","latitude":33.753746,"longitude":-84.38633,"reserved":0,"last_update":"0001-01-01T00:00:00Z","name_a2s":"Uncletopia | Atlanta | 1 | All Maps","protocol":17,"map":"pl_pier","folder":"tf","game":"Team Fortress","app_id":440,"player_count":24,"max_players":24,"Bots":0,"server_type":"Dedicated","server_os":"Linux","password":true,"vac":true,"version":"7757534","steam_id":85568392924469982,"keywords":["nocrits","nodmgspread","payload","uncletopia"],"game_id":440,"stv_port":27016,"stv_name":"Uncletopia | Atlanta | 1 | All Maps | STV","players":[{"user_id":503,"name":"--_Cook_--","steam_id":76561198080855748,"connected_time":2373000000000,"state":"active","ping":47},{"user_id":546,"name":"ATL1 | on my hunting trip","steam_id":76561198315341646,"connected_time":215000000000,"state":"active","ping":72},{"user_id":547,"name":"ATL1 | ma0re","steam_id":76561199231971506,"connected_time":193000000000,"state":"active","ping":66},{"user_id":486,"name":"Chemo","steam_id":76561197961308370,"connected_time":3650000000000,"state":"active","ping":71},{"user_id":519,"name":"JPMockMan","steam_id":76561198071370876,"connected_time":1976000000000,"state":"active","ping":95},{"user_id":506,"name":"Legit_Jaxer","steam_id":76561198172234053,"connected_time":2201000000000,"state":"active","ping":105},{"user_id":511,"name":"Jamendithas","steam_id":76561198119537716,"connected_time":2101000000000,"state":"active","ping":89},{"user_id":538,"name":"ATL1 | LuckyZero-_-","steam_id":76561198139891051,"connected_time":628000000000,"state":"active","ping":75},{"user_id":541,"name":"Rudy","steam_id":76561198013456828,"connected_time":556000000000,"state":"active","ping":60},{"user_id":471,"name":"latte","steam_id":76561198258062078,"connected_time":5297000000000,"state":"active","ping":59},{"user_id":498,"name":"O'Keearns","steam_id":76561198042213797,"connected_time":2909000000000,"state":"active","ping":47},{"user_id":530,"name":"Cobrayen","steam_id":76561198066505280,"connected_time":1271000000000,"state":"active","ping":78},{"user_id":533,"name":"G_Bob","steam_id":76561198098133233,"connected_time":1034000000000,"state":"active","ping":59},{"user_id":534,"name":"Partark","steam_id":76561198010265825,"connected_time":870000000000,"state":"active","ping":46},{"user_id":542,"name":"xthyl","steam_id":76561199361299006,"connected_time":505000000000,"state":"active","ping":99},{"user_id":535,"name":"guac","steam_id":76561198025481672,"connected_time":864000000000,"state":"active","ping":78},{"user_id":507,"name":"Elongated Muskrat","steam_id":76561198314501346,"connected_time":2185000000000,"state":"active","ping":101},{"user_id":540,"name":"Justy","steam_id":76561198044014069,"connected_time":577000000000,"state":"active","ping":85},{"user_id":502,"name":"Kuddly Kay (She/Her)","steam_id":76561198353432576,"connected_time":2722000000000,"state":"active","ping":89},{"user_id":536,"name":"DuckMann","steam_id":76561198197058638,"connected_time":662000000000,"state":"active","ping":47},{"user_id":515,"name":"HARRY","steam_id":76561198842067238,"connected_time":2038000000000,"state":"active","ping":73},{"user_id":411,"name":"700000 rabid Chihuahuas in Ohio","steam_id":76561198130772096,"connected_time":11296000000000,"state":"active","ping":49},{"user_id":528,"name":"Roloman11","steam_id":76561198308927283,"connected_time":1374000000000,"state":"active","ping":88},{"user_id":545,"name":"t.tv/FamilyGuyFunnyMoments277","steam_id":76561198416047580,"connected_time":449000000000,"state":"active","ping":98}]},{"server_id":400,"name":"Uncletopia | Atlanta | 3 | Community","name_short":"atl-3","host":"atl-1.us.uncletopia.com","port":27035,"enabled":true,"region":"us-east","cc":"us","latitude":33.753746,"longitude":-84.38633,"reserved":0,"last_update":"0001-01-01T00:00:00Z","name_a2s":"Uncletopia | Atlanta | 3 | Community","protocol":17,"map":"workshop/koth_ashville_final.ugc2130459942","folder":"tf","game":"Team Fortress","app_id":440,"player_count":2,"max_players":32,"Bots":0,"server_type":"Dedicated","server_os":"Linux","password":true,"vac":true,"version":"7757534","steam_id":85568392924515187,"keywords":["cp","increased_maxplayers","nocrits","nodmgspread","uncletopia"],"game_id":440,"stv_port":27036,"stv_name":"Uncletopia | Atlanta | 3 | Community | STV","players":[{"user_id":17,"name":"Bee","steam_id":76561198102292900,"connected_time":595000000000,"state":"active","ping":54},{"user_id":18,"name":"Hot Gay Italian","steam_id":76561198747931018,"connected_time":553000000000,"state":"active","ping":68}]},{"server_id":401,"name":"Uncletopia | Atlanta | 4 | No Payload","name_short":"atl-4","host":"atl-1.us.uncletopia.com","port":27045,"enabled":true,"region":"us-east","cc":"us","latitude":33.753746,"longitude":-84.38633,"reserved":0,"last_update":"0001-01-01T00:00:00Z","name_a2s":"","protocol":0,"map":"","folder":"","game":"","app_id":0,"player_count":0,"max_players":0,"Bots":0,"server_type":"","server_os":"","password":false,"vac":false,"version":"","steam_id":0,"keywords":null,"game_id":0,"stv_port":0,"stv_name":"","players":null},{"server_id":2,"name":"Uncletopia | Chicago | 1 | All Maps","name_short":"chi-1","host":"chi-1.us.uncletopia.com","port":27015,"enabled":true,"region":"us-central","cc":"us","latitude":41.881832,"longitude":-87.62318,"reserved":0,"last_update":"0001-01-01T00:00:00Z","name_a2s":"Uncletopia | Chicago | 1 | All Maps","protocol":17,"map":"cp_snakewater_final1","folder":"tf","game":"Team Fortress","app_id":440,"player_count":24,"max_players":24,"Bots":0,"server_type":"Dedicated","server_os":"Linux","password":true,"vac":true,"version":"7757534","steam_id":85568392924469984,"keywords":["cp","nocrits","nodmgspread","uncletopia"],"game_id":440,"stv_port":27016,"stv_name":"Uncletopia | Chicago | 1 | All Maps | STV","players":[{"user_id":417,"name":"Goat","steam_id":76561198068447650,"connected_time":5132000000000,"state":"active","ping":66},{"user_id":481,"name":"is it aight if i go in there","steam_id":76561198201113806,"connected_time":323000000000,"state":"active","ping":52},{"user_id":470,"name":"PKBEAST_7","steam_id":76561198177136537,"connected_time":1248000000000,"state":"active","ping":90},{"user_id":468,"name":"Dr.Long","steam_id":76561198930316713,"connected_time":1614000000000,"state":"active","ping":65},{"user_id":449,"name":"Shichinitzi","steam_id":76561198003833732,"connected_time":2933000000000,"state":"active","ping":46},{"user_id":443,"name":"Turtle","steam_id":76561198098121333,"connected_time":2995000000000,"state":"active","ping":66},{"user_id":476,"name":"Whirblewind","steam_id":76561197964722449,"connected_time":396000000000,"state":"active","ping":71},{"user_id":486,"name":"swooce","steam_id":76561198156232484,"connected_time":120000000000,"state":"active","ping":70},{"user_id":430,"name":"kermit","steam_id":76561198099928281,"connected_time":3705000000000,"state":"active","ping":67},{"user_id":482,"name":"dookha","steam_id":76561198202200512,"connected_time":310000000000,"state":"active","ping":58},{"user_id":487,"name":"LunaLinkle","steam_id":76561198180523995,"connected_time":114000000000,"state":"active","ping":50},{"user_id":484,"name":"Saint","steam_id":76561199122494395,"connected_time":149000000000,"state":"active","ping":77},{"user_id":480,"name":"gabagool","steam_id":76561198882758067,"connected_time":343000000000,"state":"active","ping":32},{"user_id":479,"name":"TallBit","steam_id":76561199059748976,"connected_time":387000000000,"state":"active","ping":54},{"user_id":469,"name":"Dwaggy","steam_id":76561198027369555,"connected_time":1432000000000,"state":"active","ping":70},{"user_id":298,"name":"the lesbianist pyroshark","steam_id":76561198374227766,"connected_time":13928000000000,"state":"active","ping":82},{"user_id":483,"name":"ancient :3 rizz","steam_id":76561198042518244,"connected_time":305000000000,"state":"active","ping":100},{"user_id":452,"name":"Sage","steam_id":76561198143101697,"connected_time":2514000000000,"state":"active","ping":98},{"user_id":467,"name":"blob","steam_id":76561198122375328,"connected_time":1687000000000,"state":"active","ping":68},{"user_id":463,"name":"Super","steam_id":76561199179611350,"connected_time":2256000000000,"state":"active","ping":71},{"user_id":474,"name":"Silly Scientist","steam_id":76561199199886079,"connected_time":460000000000,"state":"active","ping":76},{"user_id":472,"name":"DocLucky","steam_id":76561199093899249,"connected_time":508000000000,"state":"active","ping":160},{"user_id":445,"name":"pat fusty","steam_id":76561198117181511,"connected_time":2994000000000,"state":"active","ping":58},{"user_id":466,"name":"Turtlin'","steam_id":76561198885096042,"connected_time":2024000000000,"state":"active","ping":72}]},{"server_id":106,"name":"Uncletopia | Chicago | 2 | All Maps","name_short":"chi-2","host":"chi-1.us.uncletopia.com","port":27025,"enabled":true,"region":"us-central","cc":"us","latitude":41.881832,"longitude":-87.62318,"reserved":0,"last_update":"0001-01-01T00:00:00Z","name_a2s":"Uncletopia | Chicago | 2 | All Maps","protocol":17,"map":"pl_upward","folder":"tf","game":"Team Fortress","app_id":440,"player_count":24,"max_players":24,"Bots":0,"server_type":"Dedicated","server_os":"Linux","password":true,"vac":true,"version":"7757534","steam_id":85568392924469985,"keywords":["nocrits","nodmgspread","payload","uncletopia"],"game_id":440,"stv_port":27026,"stv_name":"Uncletopia | Chicago | 2 | All Maps | STV","players":[{"user_id":750,"name":"kite","steam_id":76561198346516392,"connected_time":1727000000000,"state":"active","ping":69},{"user_id":717,"name":"jujube","steam_id":76561198069415057,"connected_time":5189000000000,"state":"active","ping":60},{"user_id":742,"name":"Ojen","steam_id":76561197998414482,"connected_time":2383000000000,"state":"active","ping":75},{"user_id":692,"name":"chiswola","steam_id":76561198046920142,"connected_time":5923000000000,"state":"active","ping":67},{"user_id":709,"name":"Dispenser (Twan)","steam_id":76561197991064908,"connected_time":5340000000000,"state":"active","ping":58},{"user_id":760,"name":"jimbo","steam_id":76561198046059770,"connected_time":246000000000,"state":"active","ping":60},{"user_id":719,"name":"WhatsHisName","steam_id":76561198982712556,"connected_time":5171000000000,"state":"active","ping":91},{"user_id":738,"name":"Draconic Ballad","steam_id":76561198027191515,"connected_time":3452000000000,"state":"active","ping":54},{"user_id":748,"name":"Glad","steam_id":76561199388372220,"connected_time":2183000000000,"state":"active","ping":77},{"user_id":711,"name":"Cursed Dog","steam_id":76561198090785078,"connected_time":5324000000000,"state":"active","ping":97},{"user_id":755,"name":"Owl Pacino","steam_id":76561197979970666,"connected_time":902000000000,"state":"active","ping":55},{"user_id":754,"name":"years","steam_id":76561197994098627,"connected_time":1191000000000,"state":"active","ping":118},{"user_id":753,"name":"mepng","steam_id":76561199018758598,"connected_time":1701000000000,"state":"active","ping":83},{"user_id":741,"name":"egg roll","steam_id":76561198090486626,"connected_time":3069000000000,"state":"active","ping":93},{"user_id":757,"name":"Zombiehunter11","steam_id":76561198237517830,"connected_time":840000000000,"state":"active","ping":77},{"user_id":729,"name":"GloryToFlygod","steam_id":76561198963236216,"connected_time":4037000000000,"state":"active","ping":101},{"user_id":758,"name":"trans rights","steam_id":76561198066270313,"connected_time":823000000000,"state":"active","ping":87},{"user_id":704,"name":"Hammerhead","steam_id":76561198897122890,"connected_time":5626000000000,"state":"active","ping":57},{"user_id":746,"name":"Malone","steam_id":76561198045223733,"connected_time":2305000000000,"state":"active","ping":81},{"user_id":759,"name":"Dokkibai","steam_id":76561198355935693,"connected_time":817000000000,"state":"active","ping":45},{"user_id":733,"name":"Liquid Oxycodone","steam_id":76561198154162664,"connected_time":3974000000000,"state":"active","ping":79},{"user_id":744,"name":"Skycer","steam_id":76561198947321441,"connected_time":2382000000000,"state":"active","ping":100},{"user_id":731,"name":"Zambie","steam_id":76561199102385595,"connected_time":4028000000000,"state":"active","ping":114},{"user_id":739,"name":"Christmas Ham","steam_id":76561198119601623,"connected_time":3365000000000,"state":"active","ping":142}]},{"server_id":402,"name":"Uncletopia | Chicago | 3 | All Maps","name_short":"chi-3","host":"chi-1.us.uncletopia.com","port":27035,"enabled":true,"region":"us-central","cc":"us","latitude":41.881832,"longitude":-87.62318,"reserved":0,"last_update":"0001-01-01T00:00:00Z","name_a2s":"Uncletopia | Chicago | 3 | All Maps","protocol":17,"map":"pl_upward","folder":"tf","game":"Team Fortress","app_id":440,"player_count":24,"max_players":24,"Bots":0,"server_type":"Dedicated","server_os":"Linux","password":true,"vac":true,"version":"7757534","steam_id":85568392924515191,"keywords":["nocrits","nodmgspread","payload","uncletopia"],"game_id":440,"stv_port":27036,"stv_name":"Uncletopia | Chicago | 3 | All Maps | STV","players":[{"user_id":291,"name":"Weerk","steam_id":76561199209543551,"connected_time":705000000000,"state":"active","ping":82},{"user_id":250,"name":"Mr_Frosty","steam_id":76561199380389079,"connected_time":2255000000000,"state":"active","ping":88},{"user_id":288,"name":"amazing","steam_id":76561198386233160,"connected_time":775000000000,"state":"active","ping":96},{"user_id":253,"name":"shephard","steam_id":76561198043367011,"connected_time":2143000000000,"state":"active","ping":57},{"user_id":216,"name":"Buttons :)","steam_id":76561198139478534,"connected_time":4768000000000,"state":"active","ping":105},{"user_id":257,"name":"garfield","steam_id":76561198114119308,"connected_time":1999000000000,"state":"active","ping":70},{"user_id":234,"name":"Flat Eric","steam_id":76561198114922735,"connected_time":3679000000000,"state":"active","ping":64},{"user_id":277,"name":"Mexican Lad","steam_id":76561198060874570,"connected_time":1065000000000,"state":"active","ping":101},{"user_id":286,"name":"SoWhich","steam_id":76561198237125842,"connected_time":893000000000,"state":"active","ping":55},{"user_id":275,"name":"Aristotle Voulton","steam_id":76561198100174923,"connected_time":1261000000000,"state":"active","ping":89},{"user_id":266,"name":"ShitsandGiggles‚Ñ¢","steam_id":76561198058708019,"connected_time":1535000000000,"state":"active","ping":54},{"user_id":279,"name":"|WS| Don't_Taze_Me_Bro","steam_id":76561198043289495,"connected_time":1045000000000,"state":"active","ping":78},{"user_id":256,"name":"globefrotter","steam_id":76561198185980055,"connected_time":2029000000000,"state":"active","ping":57},{"user_id":276,"name":"Maik","steam_id":76561198045257088,"connected_time":1083000000000,"state":"active","ping":131},{"user_id":293,"name":"Hairy Pear","steam_id":76561198087397457,"connected_time":32000000000,"state":"spawning","ping":59},{"user_id":289,"name":"Banruk","steam_id":76561197990595058,"connected_time":775000000000,"state":"active","ping":72},{"user_id":281,"name":"Calamant","steam_id":76561198054650483,"connected_time":1031000000000,"state":"active","ping":69},{"user_id":285,"name":"Fake Uncle","steam_id":76561198880227689,"connected_time":948000000000,"state":"active","ping":67},{"user_id":294,"name":"exlhk7","steam_id":76561199468136783,"connected_time":21000000000,"state":"spawning","ping":94},{"user_id":292,"name":"TheElderFrog","steam_id":76561197985743135,"connected_time":41000000000,"state":"active","ping":79},{"user_id":262,"name":"brian enotown massacre","steam_id":76561198109901138,"connected_time":1961000000000,"state":"active","ping":75},{"user_id":243,"name":"Aribari","steam_id":76561198117327938,"connected_time":2673000000000,"state":"active","ping":86},{"user_id":263,"name":"BannedMist","steam_id":76561198905992575,"connected_time":1959000000000,"state":"active","ping":59},{"user_id":274,"name":"PageBoiSkull","steam_id":76561198237353578,"connected_time":1474000000000,"state":"active","ping":112}]},{"server_id":403,"name":"Uncletopia | Chicago | 4 | All Maps","name_short":"chi-4","host":"chi-1.us.uncletopia.com","port":27045,"enabled":true,"region":"us-central","cc":"us","latitude":41.881832,"longitude":-87.62318,"reserved":0,"last_update":"0001-01-01T00:00:00Z","name_a2s":"Uncletopia | Chicago | 4 | All Maps","protocol":17,"map":"pl_frontier_final","folder":"tf","game":"Team Fortress","app_id":440,"player_count":24,"max_players":24,"Bots":0,"server_type":"Dedicated","server_os":"Linux","password":true,"vac":true,"version":"7757534","steam_id":85568392924515193,"keywords":["nocrits","nodmgspread","payload","uncletopia"],"game_id":440,"stv_port":27046,"stv_name":"Uncletopia | Chicago | 4 | All Maps | STV","players":[{"user_id":652,"name":"user18081971","steam_id":76561198077902438,"connected_time":155000000000,"state":"active","ping":85},{"user_id":629,"name":"Cyber Cylon","steam_id":76561198048972781,"connected_time":485000000000,"state":"active","ping":56},{"user_id":605,"name":"Peepster","steam_id":76561198297854733,"connected_time":1235000000000,"state":"active","ping":73},{"user_id":620,"name":"Corn","steam_id":76561198177186718,"connected_time":922000000000,"state":"active","ping":54},{"user_id":627,"name":"Mr. Call You Back","steam_id":76561198025172811,"connected_time":575000000000,"state":"active","ping":72},{"user_id":608,"name":"Demopan gamin","steam_id":76561199229494402,"connected_time":1205000000000,"state":"active","ping":89},{"user_id":616,"name":"senorpapel","steam_id":76561198040507073,"connected_time":1090000000000,"state":"active","ping":72},{"user_id":592,"name":"Punkin","steam_id":76561198334301755,"connected_time":2264000000000,"state":"active","ping":72},{"user_id":609,"name":"Distou","steam_id":76561198397886545,"connected_time":1194000000000,"state":"active","ping":104},{"user_id":632,"name":"laszlo","steam_id":76561198141198352,"connected_time":446000000000,"state":"active","ping":45},{"user_id":612,"name":"Deal yo","steam_id":76561198282395338,"connected_time":1122000000000,"state":"active","ping":71},{"user_id":613,"name":"a king who's on a budget","steam_id":76561199134895220,"connected_time":1121000000000,"state":"active","ping":75},{"user_id":537,"name":"Adventurematt","steam_id":76561199302420877,"connected_time":5914000000000,"state":"active","ping":89},{"user_id":614,"name":"Pebbled","steam_id":76561199390347605,"connected_time":1117000000000,"state":"active","ping":85},{"user_id":628,"name":"draining to stay happy","steam_id":76561198797823116,"connected_time":567000000000,"state":"active","ping":62},{"user_id":557,"name":"BambuBabyPackRunner","steam_id":76561198320866421,"connected_time":4599000000000,"state":"active","ping":66},{"user_id":615,"name":"heimdall","steam_id":76561198069380992,"connected_time":1114000000000,"state":"active","ping":92},{"user_id":630,"name":"Purplest","steam_id":76561198093523277,"connected_time":475000000000,"state":"active","ping":57},{"user_id":631,"name":"PoisonIvy","steam_id":76561198072384574,"connected_time":468000000000,"state":"active","ping":53},{"user_id":633,"name":"linkin_park2002","steam_id":76561198073269122,"connected_time":437000000000,"state":"active","ping":74},{"user_id":598,"name":"Catscr","steam_id":76561198076589280,"connected_time":1959000000000,"state":"active","ping":96},{"user_id":624,"name":"TheTruthOfTheCessationOfDukkha","steam_id":76561198214370515,"connected_time":826000000000,"state":"active","ping":68},{"user_id":634,"name":"Toygar","steam_id":76561198023679830,"connected_time":437000000000,"state":"active","ping":47},{"user_id":647,"name":"girlboss","steam_id":76561197989019617,"connected_time":298000000000,"state":"active","ping":50}]},{"server_id":36,"name":"Uncletopia | Chicago | 5 | All Maps","name_short":"chi-5","host":"chi-2.us.uncletopia.com","port":27015,"enabled":true,"region":"us-central","cc":"us","latitude":41.881832,"longitude":-87.62318,"reserved":0,"last_update":"0001-01-01T00:00:00Z","name_a2s":"Uncletopia | Chicago | 5 | All Maps","protocol":17,"map":"pl_badwater","folder":"tf","game":"Team Fortress","app_id":440,"player_count":15,"max_players":24,"Bots":0,"server_type":"Dedicated","server_os":"Linux","password":true,"vac":true,"version":"7757534","steam_id":85568392924866362,"keywords":["nocrits","nodmgspread","payload","uncletopia"],"game_id":440,"stv_port":27016,"stv_name":"Uncletopia | Chicago | 5 | All Maps | STV","players":[{"user_id":69,"name":"Caoticaos","steam_id":76561198114800227,"connected_time":22000000000,"state":"active","ping":162},{"user_id":67,"name":"LargerThanAverageDragon","steam_id":76561198152036300,"connected_time":38000000000,"state":"active","ping":60},{"user_id":68,"name":"Yippity","steam_id":76561198271624911,"connected_time":30000000000,"state":"active","ping":74},{"user_id":70,"name":"proud owner of a large tongue","steam_id":76561198106690989,"connected_time":4000000000,"state":"spawning","ping":76},{"user_id":49,"name":"Lunacy","steam_id":76561199386273760,"connected_time":1328000000000,"state":"active","ping":105},{"user_id":71,"name":"Mizerd","steam_id":76561198410905783,"connected_time":0,"state":"spawning","ping":35},{"user_id":26,"name":"comically large spoon","steam_id":76561198350216657,"connected_time":2929000000000,"state":"active","ping":88},{"user_id":62,"name":"H Blake H","steam_id":76561197980280078,"connected_time":903000000000,"state":"active","ping":56},{"user_id":28,"name":"Kohbold","steam_id":76561198996480140,"connected_time":2919000000000,"state":"active","ping":70},{"user_id":30,"name":"Bel","steam_id":76561198213140033,"connected_time":2881000000000,"state":"active","ping":76},{"user_id":50,"name":"footoftheday","steam_id":76561198052712449,"connected_time":1321000000000,"state":"active","ping":66},{"user_id":60,"name":"Rond Gong The Dong Machine","steam_id":76561198283349215,"connected_time":941000000000,"state":"active","ping":85},{"user_id":53,"name":"bakkhertz","steam_id":76561198046745579,"connected_time":1301000000000,"state":"active","ping":82},{"user_id":40,"name":"filtered fish","steam_id":76561198000564263,"connected_time":2829000000000,"state":"active","ping":74},{"user_id":42,"name":"King","steam_id":76561198010019214,"connected_time":2827000000000,"state":"active","ping":46}]},{"server_id":37,"name":"Uncletopia | Chicago | 6 | All Maps","name_short":"chi-6","host":"chi-2.us.uncletopia.com","port":27025,"enabled":true,"region":"us-central","cc":"us","latitude":41.881832,"longitude":-87.62318,"reserved":0,"last_update":"0001-01-01T00:00:00Z","name_a2s":"Uncletopia | Chicago | 6 | All Maps","protocol":17,"map":"pl_borneo","folder":"tf","game":"Team Fortress","app_id":440,"player_count":24,"max_players":24,"Bots":0,"server_type":"Dedicated","server_os":"Linux","password":true,"vac":true,"version":"7757534","steam_id":85568392924866363,"keywords":["nocrits","nodmgspread","payload","uncletopia"],"game_id":440,"stv_port":27026,"stv_name":"Uncletopia | Chicago | 6 | All Maps | STV","players":[{"user_id":459,"name":"Cidio Irion","steam_id":76561198176885019,"connected_time":3780000000000,"state":"active","ping":92},{"user_id":500,"name":"b0b4 8710","steam_id":76561198068752705,"connected_time":74000000000,"state":"active","ping":56},{"user_id":469,"name":"TATARA","steam_id":76561199098759517,"connected_time":3538000000000,"state":"active","ping":134},{"user_id":501,"name":"twin","steam_id":76561198055626638,"connected_time":57000000000,"state":"active","ping":89},{"user_id":458,"name":"Cap'n Walrus","steam_id":76561198045651378,"connected_time":3838000000000,"state":"active","ping":83},{"user_id":324,"name":"Cyclaw","steam_id":76561198076045689,"connected_time":9185000000000,"state":"active","ping":49},{"user_id":497,"name":"turd ferguson","steam_id":76561198071620782,"connected_time":1048000000000,"state":"active","ping":84},{"user_id":486,"name":"ScoobyBlue","steam_id":76561198054656885,"connected_time":2479000000000,"state":"active","ping":81},{"user_id":489,"name":"Lemon Demon Enthusiast","steam_id":76561199026721822,"connected_time":1791000000000,"state":"active","ping":105},{"user_id":476,"name":"K e y s","steam_id":76561197961927732,"connected_time":2904000000000,"state":"active","ping":119},{"user_id":433,"name":"Infineable","steam_id":76561198358100698,"connected_time":4808000000000,"state":"active","ping":60},{"user_id":502,"name":"Brownser","steam_id":76561198263895597,"connected_time":29000000000,"state":"active","ping":75},{"user_id":481,"name":"Titan Tezwa","steam_id":76561198030320618,"connected_time":2547000000000,"state":"active","ping":73},{"user_id":492,"name":"Mr0_0Knight","steam_id":76561199471338064,"connected_time":1689000000000,"state":"active","ping":66},{"user_id":472,"name":"what","steam_id":76561198082336619,"connected_time":3384000000000,"state":"active","ping":82},{"user_id":482,"name":"[DATS‚û°] Sugar Meowth","steam_id":76561197995251793,"connected_time":2537000000000,"state":"active","ping":89},{"user_id":474,"name":"hot sauce...","steam_id":76561198046609186,"connected_time":3240000000000,"state":"active","ping":46},{"user_id":465,"name":"Piss","steam_id":76561198093846193,"connected_time":3720000000000,"state":"active","ping":86},{"user_id":494,"name":"The Necronomiconeconomist","steam_id":76561198010358323,"connected_time":1573000000000,"state":"active","ping":64},{"user_id":491,"name":"Barry","steam_id":76561198371953939,"connected_time":1768000000000,"state":"active","ping":93},{"user_id":483,"name":"sunrisebanana","steam_id":76561198038764622,"connected_time":2533000000000,"state":"active","ping":61},{"user_id":466,"name":"DDM","steam_id":76561197989699054,"connected_time":3710000000000,"state":"active","ping":70},{"user_id":485,"name":"same","steam_id":76561198041905863,"connected_time":2512000000000,"state":"active","ping":131},{"user_id":496,"name":"Viokik","steam_id":76561198408846602,"connected_time":1402000000000,"state":"active","ping":64}]},{"server_id":38,"name":"Uncletopia | Chicago | 7 | Stopwatch Beta","name_short":"chi-7","host":"chi-2.us.uncletopia.com","port":27035,"enabled":true,"region":"us-central","cc":"us","latitude":41.881832,"longitude":-87.62318,"reserved":0,"last_update":"0001-01-01T00:00:00Z","name_a2s":"Uncletopia | Chicago | 7 | Stopwatch Beta","protocol":17,"map":"workshop/koth_product_final.ugc454272353","folder":"tf","game":"Team Fortress","app_id":440,"player_count":0,"max_players":24,"Bots":0,"server_type":"Dedicated","server_os":"Linux","password":true,"vac":true,"version":"7757534","steam_id":85568392924866364,"keywords":["cp","nocrits","nodmgspread","uncletopia"],"game_id":440,"stv_port":27036,"stv_name":"Uncletopia | Chicago | 7 | Stopwatch Beta | STV","players":null},{"server_id":39,"name":"Uncletopia | Chicago | 8 | Community","name_short":"chi-8","host":"chi-2.us.uncletopia.com","port":27045,"enabled":true,"region":"us-central","cc":"us","latitude":41.881832,"longitude":-87.62318,"reserved":0,"last_update":"0001-01-01T00:00:00Z","name_a2s":"Uncletopia | Chicago | 8 | Community","protocol":17,"map":"workshop/pl_badwater_pro_v12.ugc2142942074","folder":"tf","game":"Team Fortress","app_id":440,"player_count":0,"max_players":24,"Bots":0,"server_type":"Dedicated","server_os":"Linux","password":true,"vac":true,"version":"7757534","steam_id":85568392924866365,"keywords":["nocrits","nodmgspread","payload","uncletopia"],"game_id":440,"stv_port":27046,"stv_name":"Uncletopia | Chicago | 8 | Community | STV","players":null},{"server_id":8,"name":"Uncletopia | Dallas | 1 | All Maps","name_short":"dal-1","host":"dal-1.us.uncletopia.com","port":27015,"enabled":true,"region":"us-central","cc":"us","latitude":32.779167,"longitude":-96.80889,"reserved":0,"last_update":"0001-01-01T00:00:00Z","name_a2s":"Uncletopia | Dallas | 1 | All Maps","protocol":17,"map":"pl_snowycoast","folder":"tf","game":"Team Fortress","app_id":440,"player_count":24,"max_players":24,"Bots":0,"server_type":"Dedicated","server_os":"Linux","password":true,"vac":true,"version":"7757534","steam_id":85568392924469986,"keywords":["nocrits","nodmgspread","payload","uncletopia"],"game_id":440,"stv_port":27016,"stv_name":"Uncletopia | Dallas | 1 | All Maps | STV","players":[{"user_id":720,"name":"Nobody","steam_id":76561198160544586,"connected_time":795000000000,"state":"active","ping":90},{"user_id":693,"name":"DrBenjas","steam_id":76561198345883103,"connected_time":3024000000000,"state":"active","ping":74},{"user_id":701,"name":"scot the waz","steam_id":76561198372030749,"connected_time":2686000000000,"state":"active","ping":99},{"user_id":713,"name":"HollowMan","steam_id":76561198967266827,"connected_time":2031000000000,"state":"active","ping":107},{"user_id":721,"name":"purply-ghost","steam_id":76561199204779865,"connected_time":784000000000,"state":"active","ping":36},{"user_id":651,"name":"Iron","steam_id":76561198062574427,"connected_time":5916000000000,"state":"active","ping":87},{"user_id":722,"name":"polish sausage with mayo","steam_id":76561198102681457,"connected_time":357000000000,"state":"active","ping":73},{"user_id":710,"name":"ŒªŒªeweŒªŒª","steam_id":76561198017539604,"connected_time":2089000000000,"state":"active","ping":75},{"user_id":704,"name":"Colonel Salt","steam_id":76561198207009563,"connected_time":2612000000000,"state":"active","ping":54},{"user_id":677,"name":"HE‚ÄôS IN THE GODDAMN WALLS","steam_id":76561198363267009,"connected_time":4038000000000,"state":"active","ping":45},{"user_id":715,"name":"brr skibidi dop dop dop","steam_id":76561198991982630,"connected_time":1516000000000,"state":"active","ping":77},{"user_id":695,"name":"Kuyumiester","steam_id":76561198126835302,"connected_time":2996000000000,"state":"active","ping":63},{"user_id":655,"name":"Tyranitar9999","steam_id":76561198071637331,"connected_time":5846000000000,"state":"active","ping":99},{"user_id":705,"name":"4 life","steam_id":76561198175961598,"connected_time":2584000000000,"state":"active","ping":101},{"user_id":676,"name":"Mr.YoYo","steam_id":76561198988717854,"connected_time":4230000000000,"state":"active","ping":91},{"user_id":706,"name":"An Erect Penis :)","steam_id":76561198086477485,"connected_time":2549000000000,"state":"active","ping":69},{"user_id":719,"name":"Riff","steam_id":76561198066921423,"connected_time":887000000000,"state":"active","ping":72},{"user_id":707,"name":"booty gremlin","steam_id":76561198044546534,"connected_time":2526000000000,"state":"active","ping":74},{"user_id":712,"name":"SomeGamer","steam_id":76561199046743995,"connected_time":2056000000000,"state":"active","ping":78},{"user_id":679,"name":"Pharmaceutical Enthusiast","steam_id":76561198344998550,"connected_time":3778000000000,"state":"active","ping":95},{"user_id":708,"name":"Unlike_Morning0","steam_id":76561199225509657,"connected_time":2499000000000,"state":"active","ping":63},{"user_id":662,"name":"HeroMaster90","steam_id":76561198092279948,"connected_time":5764000000000,"state":"active","ping":101},{"user_id":724,"name":"leumas","steam_id":76561198240408540,"connected_time":164000000000,"state":"active","ping":74},{"user_id":690,"name":"[√òWQJ√ò]chubacaalatake","steam_id":76561198136201697,"connected_time":3227000000000,"state":"active","ping":128}]},{"server_id":108,"name":"Uncletopia | Dallas | 2 | All Maps","name_short":"dal-2","host":"dal-1.us.uncletopia.com","port":27025,"enabled":true,"region":"us-central","cc":"us","latitude":32.779167,"longitude":-96.80889,"reserved":0,"last_update":"0001-01-01T00:00:00Z","name_a2s":"Uncletopia | Dallas | 2 | All Maps","protocol":17,"map":"pl_upward","folder":"tf","game":"Team Fortress","app_id":440,"player_count":24,"max_players":24,"Bots":0,"server_type":"Dedicated","server_os":"Linux","password":true,"vac":true,"version":"7757534","steam_id":85568392924469988,"keywords":["nocrits","nodmgspread","payload","uncletopia"],"game_id":440,"stv_port":27026,"stv_name":"Uncletopia | Dallas | 2 | All Maps | STV","players":[{"user_id":244,"name":"hungry hungry charlie sheen","steam_id":76561199161322235,"connected_time":5945000000000,"state":"active","ping":74},{"user_id":311,"name":"Len","steam_id":76561199141913673,"connected_time":638000000000,"state":"active","ping":67},{"user_id":306,"name":"langcharlie25","steam_id":76561199203225749,"connected_time":1139000000000,"state":"active","ping":59},{"user_id":322,"name":"codwarn","steam_id":76561198060079656,"connected_time":16000000000,"state":"spawning","ping":44},{"user_id":312,"name":"ryghehn","steam_id":76561198195359229,"connected_time":606000000000,"state":"active","ping":89},{"user_id":226,"name":"Soul Garg Plushy","steam_id":76561198044480181,"connected_time":6815000000000,"state":"active","ping":75},{"user_id":249,"name":"bolainassr0","steam_id":76561199079078845,"connected_time":5423000000000,"state":"active","ping":95},{"user_id":241,"name":"r0ck","steam_id":76561198141716764,"connected_time":6145000000000,"state":"active","ping":91},{"user_id":321,"name":"Jelpo","steam_id":76561198406920072,"connected_time":66000000000,"state":"active","ping":84},{"user_id":277,"name":"Madrox Who?","steam_id":76561197988859134,"connected_time":3915000000000,"state":"active","ping":101},{"user_id":286,"name":"ChazeBank","steam_id":76561198120449515,"connected_time":2760000000000,"state":"active","ping":56},{"user_id":284,"name":"Gipple","steam_id":76561198388661565,"connected_time":2954000000000,"state":"active","ping":95},{"user_id":290,"name":"Barry Chopsticks","steam_id":76561198185241418,"connected_time":2467000000000,"state":"active","ping":84},{"user_id":308,"name":"c","steam_id":76561198118319408,"connected_time":1043000000000,"state":"active","ping":105},{"user_id":320,"name":"JJ_80 TTV","steam_id":76561198195114443,"connected_time":172000000000,"state":"active","ping":69},{"user_id":257,"name":"DeckofDragons","steam_id":76561198057398213,"connected_time":5067000000000,"state":"active","ping":76},{"user_id":303,"name":"Demoman With One Joke","steam_id":76561197993467034,"connected_time":1721000000000,"state":"active","ping":61},{"user_id":253,"name":"Chance","steam_id":76561198360789770,"connected_time":5375000000000,"state":"active","ping":118},{"user_id":318,"name":"HASH Yellow Mellow","steam_id":76561198089697360,"connected_time":190000000000,"state":"active","ping":76},{"user_id":309,"name":"Lazulf","steam_id":76561198041410859,"connected_time":986000000000,"state":"active","ping":78},{"user_id":285,"name":"HarambeCBT","steam_id":76561198963065339,"connected_time":2949000000000,"state":"active","ping":73},{"user_id":243,"name":"Swaus","steam_id":76561198035761308,"connected_time":6139000000000,"state":"active","ping":74},{"user_id":315,"name":"Gaming123","steam_id":76561198801780168,"connected_time":565000000000,"state":"active","ping":89},{"user_id":302,"name":"p_picklelol","steam_id":76561198129434533,"connected_time":1846000000000,"state":"active","ping":45}]},{"server_id":5,"name":"Uncletopia | Frankfurt | 1 | All Maps","name_short":"frk-1","host":"frk-1.de.uncletopia.com","port":27015,"enabled":true,"region":"eu","cc":"de","latitude":50.110924,"longitude":8.682127,"reserved":0,"last_update":"0001-01-01T00:00:00Z","name_a2s":"Uncletopia | Frankfurt | 1 | All Maps","protocol":17,"map":"koth_lakeside_final","folder":"tf","game":"Team Fortress","app_id":440,"player_count":0,"max_players":24,"Bots":0,"server_type":"Dedicated","server_os":"Linux","password":true,"vac":true,"version":"7757534","steam_id":85568392924469989,"keywords":["cp","nocrits","nodmgspread","uncletopia"],"game_id":440,"stv_port":27016,"stv_name":"Uncletopia | Frankfurt | 1 | All Maps | STV","players":null},{"server_id":110,"name":"Uncletopia | Frankfurt | 2 | All Maps","name_short":"frk-2","host":"frk-1.de.uncletopia.com","port":27025,"enabled":true,"region":"eu","cc":"de","latitude":50.110924,"longitude":8.682127,"reserved":0,"last_update":"0001-01-01T00:00:00Z","name_a2s":"Uncletopia | Frankfurt | 2 | All Maps","protocol":17,"map":"pl_barnblitz","folder":"tf","game":"Team Fortress","app_id":440,"player_count":23,"max_players":24,"Bots":0,"server_type":"Dedicated","server_os":"Linux","password":true,"vac":true,"version":"7757534","steam_id":85568392924469990,"keywords":["nocrits","nodmgspread","payload","uncletopia"],"game_id":440,"stv_port":27026,"stv_name":"Uncletopia | Frankfurt | 2 | All Maps | STV","players":[{"user_id":592,"name":"Kenny Savage","steam_id":76561199049383900,"connected_time":392000000000,"state":"active","ping":75},{"user_id":587,"name":"New","steam_id":76561198402195911,"connected_time":483000000000,"state":"active","ping":113},{"user_id":585,"name":"etc","steam_id":76561197998394797,"connected_time":930000000000,"state":"active","ping":58},{"user_id":599,"name":"Neoplix","steam_id":76561199012756422,"connected_time":180000000000,"state":"active","ping":148},{"user_id":595,"name":"Ducky[WADZ]üê§","steam_id":76561198060341245,"connected_time":336000000000,"state":"active","ping":64},{"user_id":543,"name":"LooLeZ","steam_id":76561198068812096,"connected_time":4857000000000,"state":"active","ping":58},{"user_id":545,"name":"Brainlet","steam_id":76561198862617163,"connected_time":4670000000000,"state":"active","ping":68},{"user_id":583,"name":"rat performance","steam_id":76561198065854668,"connected_time":1177000000000,"state":"active","ping":51},{"user_id":546,"name":"funky","steam_id":76561199061970265,"connected_time":4642000000000,"state":"active","ping":87},{"user_id":574,"name":"zabloing","steam_id":76561198339480413,"connected_time":1981000000000,"state":"active","ping":70},{"user_id":575,"name":"Mumu :3","steam_id":76561198052794823,"connected_time":1909000000000,"state":"active","ping":51},{"user_id":597,"name":"Shynii","steam_id":76561198194682105,"connected_time":265000000000,"state":"active","ping":71},{"user_id":596,"name":"S_ApplePie","steam_id":76561198106947669,"connected_time":286000000000,"state":"active","ping":87},{"user_id":551,"name":"SuntanPikachu","steam_id":76561198121242476,"connected_time":4333000000000,"state":"active","ping":69},{"user_id":552,"name":"Getting Ass Kicked 2007","steam_id":76561198846784757,"connected_time":4315000000000,"state":"active","ping":71},{"user_id":590,"name":"MAD RAT","steam_id":76561199195985387,"connected_time":470000000000,"state":"active","ping":76},{"user_id":577,"name":"Drybooones","steam_id":76561198834232656,"connected_time":1780000000000,"state":"active","ping":66},{"user_id":516,"name":"tapeworms!","steam_id":76561198069649097,"connected_time":6885000000000,"state":"active","ping":62},{"user_id":569,"name":"Noodle","steam_id":76561198306486695,"connected_time":2149000000000,"state":"active","ping":55},{"user_id":579,"name":"Jacov","steam_id":76561198116641786,"connected_time":1536000000000,"state":"active","ping":75},{"user_id":594,"name":"Taste","steam_id":76561197994506978,"connected_time":363000000000,"state":"active","ping":71},{"user_id":598,"name":"John","steam_id":76561198089410709,"connected_time":231000000000,"state":"active","ping":88},{"user_id":601,"name":"King Of The Chill","steam_id":76561197971394640,"connected_time":155000000000,"state":"active","ping":209}]},{"server_id":308,"name":"Uncletopia | Frankfurt | 3 | All Maps","name_short":"frk-3","host":"frk-1.de.uncletopia.com","port":27035,"enabled":true,"region":"eu","cc":"de","latitude":50.110924,"longitude":8.682127,"reserved":0,"last_update":"0001-01-01T00:00:00Z","name_a2s":"Uncletopia | Frankfurt | 3 | All Maps","protocol":17,"map":"koth_cascade","folder":"tf","game":"Team Fortress","app_id":440,"player_count":0,"max_players":24,"Bots":0,"server_type":"Dedicated","server_os":"Linux","password":true,"vac":true,"version":"7757534","steam_id":85568392924504274,"keywords":["cp","nocrits","nodmgspread","uncletopia"],"game_id":440,"stv_port":27036,"stv_name":"Uncletopia | Frankfurt | 3 | All Maps | STV","players":null},{"server_id":309,"name":"Uncletopia | Frankfurt | 4 | All Maps","name_short":"frk-4","host":"frk-1.de.uncletopia.com","port":27045,"enabled":true,"region":"eu","cc":"de","latitude":50.110924,"longitude":8.682127,"reserved":0,"last_update":"0001-01-01T00:00:00Z","name_a2s":"Uncletopia | Frankfurt | 4 | All Maps","protocol":17,"map":"koth_cascade","folder":"tf","game":"Team Fortress","app_id":440,"player_count":0,"max_players":24,"Bots":0,"server_type":"Dedicated","server_os":"Linux","password":true,"vac":true,"version":"7757534","steam_id":85568392924504275,"keywords":["cp","nocrits","nodmgspread","uncletopia"],"game_id":440,"stv_port":27046,"stv_name":"Uncletopia | Frankfurt | 4 | All Maps | STV","players":null},{"server_id":310,"name":"Uncletopia | Frankfurt | 5 | All Maps","name_short":"frk-5","host":"frk-1.de.uncletopia.com","port":27055,"enabled":true,"region":"eu","cc":"de","latitude":50.110924,"longitude":8.682127,"reserved":0,"last_update":"0001-01-01T00:00:00Z","name_a2s":"Uncletopia | Frankfurt | 5 | All Maps","protocol":17,"map":"koth_viaduct","folder":"tf","game":"Team Fortress","app_id":440,"player_count":0,"max_players":24,"Bots":0,"server_type":"Dedicated","server_os":"Linux","password":true,"vac":true,"version":"7757534","steam_id":85568392924504277,"keywords":["cp","nocrits","nodmgspread","uncletopia"],"game_id":440,"stv_port":27056,"stv_name":"Uncletopia | Frankfurt | 5 | All Maps | STV","players":null},{"server_id":311,"name":"Uncletopia | Frankfurt | 6 | All Maps","name_short":"frk-6","host":"frk-1.de.uncletopia.com","port":27065,"enabled":true,"region":"eu","cc":"de","latitude":50.110924,"longitude":8.682127,"reserved":0,"last_update":"0001-01-01T00:00:00Z","name_a2s":"Uncletopia | Frankfurt | 6 | All Maps","protocol":17,"map":"cp_dustbowl","folder":"tf","game":"Team Fortress","app_id":440,"player_count":0,"max_players":24,"Bots":0,"server_type":"Dedicated","server_os":"Linux","password":true,"vac":true,"version":"7757534","steam_id":85568392924504278,"keywords":["cp","nocrits","nodmgspread","uncletopia"],"game_id":440,"stv_port":27066,"stv_name":"Uncletopia | Frankfurt | 6 | All Maps | STV","players":null},{"server_id":23,"name":"Uncletopia | Frankfurt | 7 | Stopwatch Beta","name_short":"frk-7","host":"frk-1.de.uncletopia.com","port":27075,"enabled":true,"region":"eu","cc":"de","latitude":50.110924,"longitude":8.682127,"reserved":0,"last_update":"0001-01-01T00:00:00Z","name_a2s":"Uncletopia | Frankfurt | 7 | Stopwatch Beta","protocol":17,"map":"workshop/koth_bagel_rc6.ugc2514036946","folder":"tf","game":"Team Fortress","app_id":440,"player_count":0,"max_players":24,"Bots":0,"server_type":"Dedicated","server_os":"Linux","password":true,"vac":true,"version":"7757534","steam_id":85568392924742827,"keywords":["cp","nocrits","nodmgspread","uncletopia"],"game_id":440,"stv_port":27076,"stv_name":"Uncletopia | Frankfurt | 7 | Stopwatch Beta | STV","players":null},{"server_id":24,"name":"Uncletopia | Frankfurt | 8 | Community","name_short":"frk-8","host":"frk-1.de.uncletopia.com","port":27085,"enabled":true,"region":"eu","cc":"de","latitude":50.110924,"longitude":8.682127,"reserved":0,"last_update":"0001-01-01T00:00:00Z","name_a2s":"Uncletopia | Frankfurt | 8 | Community","protocol":17,"map":"workshop/koth_slaughter_rc1.ugc1712845210","folder":"tf","game":"Team Fortress","app_id":440,"player_count":0,"max_players":24,"Bots":0,"server_type":"Dedicated","server_os":"Linux","password":true,"vac":true,"version":"7757534","steam_id":85568392924742828,"keywords":["cp","nocrits","nodmgspread","uncletopia"],"game_id":440,"stv_port":27086,"stv_name":"Uncletopia | Frankfurt | 8 | Community | STV","players":null},{"server_id":202,"name":"Uncletopia | Hong Kong | 1 | All Maps","name_short":"hgk-1","host":"hgk-1.hk.uncletopia.com","port":27015,"enabled":true,"region":"asia","cc":"hk","latitude":22.302711,"longitude":114.177216,"reserved":0,"last_update":"0001-01-01T00:00:00Z","name_a2s":"Uncletopia | Hong Kong | 1 | All Maps","protocol":17,"map":"pl_barnblitz","folder":"tf","game":"Team Fortress","app_id":440,"player_count":6,"max_players":24,"Bots":0,"server_type":"Dedicated","server_os":"Linux","password":true,"vac":true,"version":"7757534","steam_id":85568392924494504,"keywords":["nocrits","nodmgspread","payload","uncletopia"],"game_id":440,"stv_port":27016,"stv_name":"Uncletopia | Hong Kong | 1 | All Maps | STV","players":[{"user_id":36,"name":"Incompertent mercenaries","steam_id":76561198386626651,"connected_time":286000000000,"state":"active","ping":70},{"user_id":32,"name":"cjjakeypaul","steam_id":76561199126245431,"connected_time":933000000000,"state":"active","ping":115},{"user_id":34,"name":"Giouri","steam_id":76561199152247162,"connected_time":715000000000,"state":"active","ping":128},{"user_id":37,"name":"Sover blw.tf","steam_id":76561198136347837,"connected_time":129000000000,"state":"active","ping":75},{"user_id":17,"name":"The Mechanic from TC2","steam_id":76561199198665314,"connected_time":2745000000000,"state":"active","ping":88},{"user_id":22,"name":"The_Pain","steam_id":76561199245207853,"connected_time":2408000000000,"state":"active","ping":125}]},{"server_id":1,"name":"Uncletopia | Los Angeles | 1 | All Maps","name_short":"lax-1","host":"lax-1.us.uncletopia.com","port":27015,"enabled":true,"region":"us-west","cc":"us","latitude":33.94279,"longitude":-118.41004,"reserved":0,"last_update":"0001-01-01T00:00:00Z","name_a2s":"Uncletopia | Los Angeles | 1 | All Maps","protocol":17,"map":"cp_well","folder":"tf","game":"Team Fortress","app_id":440,"player_count":24,"max_players":24,"Bots":0,"server_type":"Dedicated","server_os":"Linux","password":true,"vac":true,"version":"7757534","steam_id":85568392924469991,"keywords":["cp","nocrits","nodmgspread","uncletopia"],"game_id":440,"stv_port":27016,"stv_name":"Uncletopia | Los Angeles | 1 | All Maps | STV","players":[{"user_id":413,"name":"flop","steam_id":76561199230528008,"connected_time":563000000000,"state":"active","ping":64},{"user_id":414,"name":"creepycrawler","steam_id":76561198352016831,"connected_time":543000000000,"state":"active","ping":105},{"user_id":415,"name":"reymundo","steam_id":76561197989412830,"connected_time":527000000000,"state":"active","ping":54},{"user_id":387,"name":"l_teri","steam_id":76561198853507579,"connected_time":1862000000000,"state":"active","ping":85},{"user_id":428,"name":"john joe","steam_id":76561198978951141,"connected_time":140000000000,"state":"active","ping":80},{"user_id":416,"name":"Dog","steam_id":76561198450992953,"connected_time":486000000000,"state":"active","ping":61},{"user_id":392,"name":"Nurse Doctor R.N.","steam_id":76561198079315048,"connected_time":1642000000000,"state":"active","ping":76},{"user_id":393,"name":"CRASH OVERRIDE","steam_id":76561198140540786,"connected_time":1622000000000,"state":"active","ping":119},{"user_id":417,"name":"Butman902","steam_id":76561198190200054,"connected_time":463000000000,"state":"active","ping":87},{"user_id":381,"name":"Pines","steam_id":76561199024146278,"connected_time":2553000000000,"state":"active","ping":59},{"user_id":429,"name":"xerro","steam_id":76561198323340524,"connected_time":133000000000,"state":"active","ping":93},{"user_id":396,"name":"Melon","steam_id":76561198086844531,"connected_time":1562000000000,"state":"active","ping":129},{"user_id":409,"name":"Stargazer A.","steam_id":76561198035479925,"connected_time":1076000000000,"state":"active","ping":41},{"user_id":397,"name":"Red Shift","steam_id":76561198057517699,"connected_time":1533000000000,"state":"active","ping":149},{"user_id":421,"name":"Cogsworth","steam_id":76561198101859889,"connected_time":401000000000,"state":"active","ping":115},{"user_id":419,"name":"Omni","steam_id":76561198035774007,"connected_time":436000000000,"state":"active","ping":87},{"user_id":420,"name":"SparklingSquids","steam_id":76561199245793673,"connected_time":432000000000,"state":"active","ping":66},{"user_id":422,"name":"Jinpachiro","steam_id":76561198072760969,"connected_time":387000000000,"state":"active","ping":45},{"user_id":423,"name":"‚§£RASCAL","steam_id":76561198269038647,"connected_time":369000000000,"state":"active","ping":143},{"user_id":430,"name":"radiohead enjoyer","steam_id":76561198397662124,"connected_time":24000000000,"state":"active","ping":94},{"user_id":405,"name":"BoeingBomb","steam_id":76561198326789339,"connected_time":1265000000000,"state":"active","ping":100},{"user_id":425,"name":"ShredMaan","steam_id":76561198429982138,"connected_time":335000000000,"state":"active","ping":53},{"user_id":426,"name":"engi","steam_id":76561199193020423,"connected_time":333000000000,"state":"active","ping":54},{"user_id":427,"name":"Bevan(The Manager)","steam_id":76561198073890273,"connected_time":330000000000,"state":"active","ping":84}]},{"server_id":112,"name":"Uncletopia | Los Angeles | 2 | All Maps","name_short":"lax-2","host":"lax-1.us.uncletopia.com","port":27025,"enabled":true,"region":"us-west","cc":"us","latitude":33.94279,"longitude":-118.41004,"reserved":0,"last_update":"0001-01-01T00:00:00Z","name_a2s":"Uncletopia | Los Angeles | 2 | All Maps","protocol":17,"map":"cp_snakewater_final1","folder":"tf","game":"Team Fortress","app_id":440,"player_count":0,"max_players":24,"Bots":0,"server_type":"Dedicated","server_os":"Linux","password":true,"vac":true,"version":"7757534","steam_id":85568392924469992,"keywords":["cp","nocrits","nodmgspread","uncletopia"],"game_id":440,"stv_port":27026,"stv_name":"Uncletopia | Los Angeles | 2 | All Maps | STV","players":null},{"server_id":324,"name":"Uncletopia | Los Angeles | 3 | All Maps","name_short":"lax-3","host":"lax-1.us.uncletopia.com","port":27035,"enabled":true,"region":"us-west","cc":"us","latitude":33.94279,"longitude":-118.41004,"reserved":0,"last_update":"0001-01-01T00:00:00Z","name_a2s":"Uncletopia | Los Angeles | 3 | All Maps","protocol":17,"map":"pl_pier","folder":"tf","game":"Team Fortress","app_id":440,"player_count":23,"max_players":24,"Bots":0,"server_type":"Dedicated","server_os":"Linux","password":true,"vac":true,"version":"7757534","steam_id":85568392924510198,"keywords":["nocrits","nodmgspread","payload","uncletopia"],"game_id":440,"stv_port":27036,"stv_name":"Uncletopia | Los Angeles | 3 | All Maps | STV","players":[{"user_id":28,"name":"assassincrazy18","steam_id":76561199465661561,"connected_time":14088000000000,"state":"connecting","ping":104},{"user_id":190,"name":"Ember","steam_id":76561199230174044,"connected_time":499000000000,"state":"connecting","ping":122},{"user_id":177,"name":"Drakon","steam_id":76561198078210822,"connected_time":1710000000000,"state":"connecting","ping":96},{"user_id":173,"name":"LILIUM","steam_id":76561198086591493,"connected_time":1781000000000,"state":"connecting","ping":63},{"user_id":183,"name":"Callahan","steam_id":76561198849981151,"connected_time":681000000000,"state":"connecting","ping":84},{"user_id":195,"name":"jungus","steam_id":76561198129862008,"connected_time":30000000000,"state":"spawning","ping":50},{"user_id":163,"name":"Vegasx702s","steam_id":76561198799772874,"connected_time":1997000000000,"state":"connecting","ping":91},{"user_id":157,"name":"-yoshem","steam_id":76561198400521296,"connected_time":2289000000000,"state":"connecting","ping":96},{"user_id":196,"name":"o7","steam_id":76561198125947844,"connected_time":23000000000,"state":"connecting","ping":65},{"user_id":159,"name":"HEHEHE HA","steam_id":76561199152800807,"connected_time":2166000000000,"state":"connecting","ping":91},{"user_id":160,"name":"TheBrocklobster","steam_id":76561198039682984,"connected_time":2044000000000,"state":"connecting","ping":69},{"user_id":194,"name":"J415","steam_id":76561199194276068,"connected_time":64000000000,"state":"connecting","ping":59},{"user_id":162,"name":"Luigiminer8","steam_id":76561198803438732,"connected_time":2015000000000,"state":"connecting","ping":107},{"user_id":165,"name":"Haywood Jablowme","steam_id":76561198097721532,"connected_time":1906000000000,"state":"connecting","ping":63},{"user_id":166,"name":"janas","steam_id":76561198039797596,"connected_time":1890000000000,"state":"spawning","ping":74},{"user_id":192,"name":"lol","steam_id":76561198026491738,"connected_time":456000000000,"state":"connecting","ping":67},{"user_id":168,"name":"t h e n a","steam_id":76561198169736062,"connected_time":1851000000000,"state":"connecting","ping":109},{"user_id":193,"name":"luigigario","steam_id":76561198881262416,"connected_time":391000000000,"state":"connecting","ping":68},{"user_id":170,"name":"LopsidedAnxiety","steam_id":76561199151233529,"connected_time":1805000000000,"state":"connecting","ping":185},{"user_id":171,"name":"oofer","steam_id":76561198342928847,"connected_time":1804000000000,"state":"connecting","ping":100},{"user_id":180,"name":"Billiscool | Ham Mafia |","steam_id":76561199146289214,"connected_time":719000000000,"state":"spawning","ping":75},{"user_id":175,"name":"YourPapaStrike","steam_id":76561198078760624,"connected_time":1762000000000,"state":"connecting","ping":93},{"user_id":176,"name":"Stapler","steam_id":76561198099295077,"connected_time":1758000000000,"state":"connecting","ping":75}]},{"server_id":25,"name":"Uncletopia | Los Angeles | 4 | Stopwatch Beta","name_short":"lax-4","host":"lax-1.us.uncletopia.com","port":27045,"enabled":true,"region":"us-west","cc":"us","latitude":33.94279,"longitude":-118.41004,"reserved":0,"last_update":"0001-01-01T00:00:00Z","name_a2s":"Uncletopia | Los Angeles | 4 | Stopwatch Beta","protocol":17,"map":"pl_frontier_final","folder":"tf","game":"Team Fortress","app_id":440,"player_count":0,"max_players":24,"Bots":0,"server_type":"Dedicated","server_os":"Linux","password":true,"vac":true,"version":"7757534","steam_id":85568392924510199,"keywords":["nocrits","nodmgspread","payload","uncletopia"],"game_id":440,"stv_port":27046,"stv_name":"Uncletopia | Los Angeles | 4 | Stopwatch Beta | STV","players":null},{"server_id":11,"name":"Uncletopia | London | 1 | All Maps","name_short":"lon-1","host":"lon-1.uk.uncletopia.com","port":27015,"enabled":true,"region":"eu","cc":"gb","latitude":51.509865,"longitude":-0.118092,"reserved":0,"last_update":"0001-01-01T00:00:00Z","name_a2s":"Uncletopia | London | 1 | All Maps","protocol":17,"map":"cp_altitude","folder":"tf","game":"Team Fortress","app_id":440,"player_count":0,"max_players":24,"Bots":0,"server_type":"Dedicated","server_os":"Linux","password":true,"vac":true,"version":"7757534","steam_id":85568392924367362,"keywords":["cp","nocrits","nodmgspread","uncletopia"],"game_id":440,"stv_port":27016,"stv_name":"Uncletopia | London | 1 | All Maps | STV","players":null},{"server_id":114,"name":"Uncletopia | London | 2 | All Maps","name_short":"lon-2","host":"lon-1.uk.uncletopia.com","port":27025,"enabled":true,"region":"eu","cc":"gb","latitude":51.509865,"longitude":-0.118092,"reserved":0,"last_update":"0001-01-01T00:00:00Z","name_a2s":"Uncletopia | London | 2 | All Maps","protocol":17,"map":"pl_barnblitz","folder":"tf","game":"Team Fortress","app_id":440,"player_count":0,"max_players":24,"Bots":0,"server_type":"Dedicated","server_os":"Linux","password":true,"vac":true,"version":"7757534","steam_id":85568392924470941,"keywords":["nocrits","nodmgspread","payload","uncletopia"],"game_id":440,"stv_port":27026,"stv_name":"Uncletopia | London | 2 | All Maps | STV","players":null},{"server_id":320,"name":"Uncletopia | London | 3 | All Maps","name_short":"lon-3","host":"lon-1.uk.uncletopia.com","port":27035,"enabled":true,"region":"eu","cc":"gb","latitude":51.509865,"longitude":-0.118092,"reserved":0,"last_update":"0001-01-01T00:00:00Z","name_a2s":"Uncletopia | London | 3 | All Maps","protocol":17,"map":"koth_harvest_final","folder":"tf","game":"Team Fortress","app_id":440,"player_count":4,"max_players":24,"Bots":0,"server_type":"Dedicated","server_os":"Linux","password":true,"vac":true,"version":"7757534","steam_id":85568392924510192,"keywords":["cp","nocrits","nodmgspread","uncletopia"],"game_id":440,"stv_port":27036,"stv_name":"Uncletopia | London | 3 | All Maps | STV","players":[{"user_id":798,"name":"Riot Wyatt","steam_id":76561199012624181,"connected_time":2915000000000,"state":"active","ping":159},{"user_id":796,"name":"Avocado [Ham Mafia]","steam_id":76561199007231261,"connected_time":3021000000000,"state":"active","ping":64},{"user_id":802,"name":"saus","steam_id":76561198114729364,"connected_time":2588000000000,"state":"active","ping":50},{"user_id":773,"name":"Fratm_Wolf","steam_id":76561199100512277,"connected_time":5563000000000,"state":"active","ping":74}]},{"server_id":321,"name":"Uncletopia | London | 4 | All Maps","name_short":"lon-4","host":"lon-1.uk.uncletopia.com","port":27045,"enabled":true,"region":"eu","cc":"gb","latitude":51.509865,"longitude":-0.118092,"reserved":0,"last_update":"0001-01-01T00:00:00Z","name_a2s":"Uncletopia | London | 4 | All Maps","protocol":17,"map":"cp_sunshine","folder":"tf","game":"Team Fortress","app_id":440,"player_count":22,"max_players":24,"Bots":0,"server_type":"Dedicated","server_os":"Linux","password":true,"vac":true,"version":"7757534","steam_id":85568392924510193,"keywords":["cp","nocrits","nodmgspread","uncletopia"],"game_id":440,"stv_port":27046,"stv_name":"Uncletopia | London | 4 | All Maps | STV","players":[{"user_id":262,"name":"Madokanon","steam_id":76561199392794183,"connected_time":1791000000000,"state":"spawning","ping":111},{"user_id":221,"name":"Kvicha Kvaratskhelia","steam_id":76561198179339326,"connected_time":5796000000000,"state":"active","ping":75},{"user_id":261,"name":"Legion of Power Liches","steam_id":76561199414716848,"connected_time":2254000000000,"state":"active","ping":67},{"user_id":260,"name":"dlk","steam_id":76561198086660302,"connected_time":2891000000000,"state":"active","ping":34},{"user_id":279,"name":"‚ú™ Danny","steam_id":76561198104483241,"connected_time":273000000000,"state":"active","ping":42},{"user_id":266,"name":"Mr Manager","steam_id":76561198021775885,"connected_time":1705000000000,"state":"active","ping":51},{"user_id":272,"name":"glyph","steam_id":76561197980736364,"connected_time":1601000000000,"state":"active","ping":81},{"user_id":277,"name":"smashy","steam_id":76561198063008186,"connected_time":913000000000,"state":"active","ping":61},{"user_id":250,"name":"Yangus","steam_id":76561198147796010,"connected_time":3616000000000,"state":"active","ping":46},{"user_id":280,"name":"Economic crisis","steam_id":76561198063562843,"connected_time":114000000000,"state":"active","ping":60},{"user_id":200,"name":"Unstable Goat","steam_id":76561197985788557,"connected_time":6822000000000,"state":"active","ping":82},{"user_id":253,"name":"Not Jessie","steam_id":76561198025129721,"connected_time":3544000000000,"state":"active","ping":21},{"user_id":269,"name":"tm`","steam_id":76561197993580412,"connected_time":1651000000000,"state":"active","ping":60},{"user_id":201,"name":"CV\u003cDeaD\u003e","steam_id":76561198001816577,"connected_time":6794000000000,"state":"active","ping":80},{"user_id":231,"name":"kbbq","steam_id":76561198346638308,"connected_time":5256000000000,"state":"active","ping":52},{"user_id":265,"name":"Rank 1 Gourmand World","steam_id":76561197970114051,"connected_time":1776000000000,"state":"active","ping":42},{"user_id":256,"name":"mr.sapyoursentry","steam_id":76561199202571828,"connected_time":3184000000000,"state":"active","ping":167},{"user_id":276,"name":"MGE NLY","steam_id":76561198815271970,"connected_time":1191000000000,"state":"active","ping":74},{"user_id":274,"name":"GuSkand","steam_id":76561198043775605,"connected_time":1237000000000,"state":"active","ping":89},{"user_id":238,"name":"Mi Manchi","steam_id":76561198171573129,"connected_time":4658000000000,"state":"active","ping":60},{"user_id":271,"name":"--","steam_id":76561198062247888,"connected_time":1638000000000,"state":"active","ping":57},{"user_id":264,"name":"Joseph Stalin","steam_id":76561198033199746,"connected_time":1789000000000,"state":"active","ping":50}]},{"server_id":21,"name":"Uncletopia | London | 5 | All Maps","name_short":"lon-5","host":"lon-1.uk.uncletopia.com","port":27055,"enabled":true,"region":"eu","cc":"gb","latitude":51.509865,"longitude":-0.118092,"reserved":0,"last_update":"0001-01-01T00:00:00Z","name_a2s":"Uncletopia | London | 5 | All Maps","protocol":17,"map":"cp_altitude","folder":"tf","game":"Team Fortress","app_id":440,"player_count":0,"max_players":24,"Bots":0,"server_type":"Dedicated","server_os":"Linux","password":true,"vac":true,"version":"7757534","steam_id":85568392924742829,"keywords":["cp","nocrits","nodmgspread","uncletopia"],"game_id":440,"stv_port":27056,"stv_name":"Uncletopia | London | 5 | All Maps | STV","players":null},{"server_id":22,"name":"Uncletopia | London | 6 | All Maps","name_short":"lon-6","host":"lon-1.uk.uncletopia.com","port":27065,"enabled":true,"region":"eu","cc":"gb","latitude":51.509865,"longitude":-0.118092,"reserved":0,"last_update":"0001-01-01T00:00:00Z","name_a2s":"Uncletopia | London | 6 | All Maps","protocol":17,"map":"pl_frontier_final","folder":"tf","game":"Team Fortress","app_id":440,"player_count":0,"max_players":24,"Bots":0,"server_type":"Dedicated","server_os":"Linux","password":true,"vac":true,"version":"7757534","steam_id":85568392924742830,"keywords":["nocrits","nodmgspread","payload","uncletopia"],"game_id":440,"stv_port":27066,"stv_name":"Uncletopia | London | 6 | All Maps | STV","players":null},{"server_id":40,"name":"Uncletopia | London | 7 | No Payload","name_short":"lon-7","host":"lon-1.uk.uncletopia.com","port":27075,"enabled":true,"region":"eu","cc":"gb","latitude":51.509865,"longitude":-0.118092,"reserved":0,"last_update":"0001-01-01T00:00:00Z","name_a2s":"Uncletopia | London | 7 | No Payload","protocol":17,"map":"cp_gullywash_final1","folder":"tf","game":"Team Fortress","app_id":440,"player_count":0,"max_players":24,"Bots":0,"server_type":"Dedicated","server_os":"Linux","password":true,"vac":true,"version":"7757534","steam_id":85568392924964314,"keywords":["cp","nocrits","nodmgspread","uncletopia"],"game_id":440,"stv_port":27076,"stv_name":"Uncletopia | London | 7 | No Payload | STV","players":null},{"server_id":41,"name":"Uncletopia | London | 8 | Community","name_short":"lon-8","host":"lon-1.uk.uncletopia.com","port":27085,"enabled":true,"region":"eu","cc":"gb","latitude":51.509865,"longitude":-0.118092,"reserved":0,"last_update":"0001-01-01T00:00:00Z","name_a2s":"Uncletopia | London | 8 | Community","protocol":17,"map":"workshop/koth_synthetic_rc6a.ugc1549817316","folder":"tf","game":"Team Fortress","app_id":440,"player_count":0,"max_players":24,"Bots":0,"server_type":"Dedicated","server_os":"Linux","password":true,"vac":true,"version":"7757534","steam_id":85568392924964315,"keywords":["cp","nocrits","nodmgspread","uncletopia"],"game_id":440,"stv_port":27086,"stv_name":"Uncletopia | London | 8 | Community | STV","players":null},{"server_id":300,"name":"Uncletopia | Montr√©al | 1 | All Maps","name_short":"mtl-1","host":"mtl-1.ca.uncletopia.com","port":27015,"enabled":true,"region":"us-east","cc":"ca","latitude":45.50889,"longitude":-73.56167,"reserved":0,"last_update":"0001-01-01T00:00:00Z","name_a2s":"Uncletopia | Montr√©al | 1 | All Maps","protocol":17,"map":"koth_viaduct","folder":"tf","game":"Team Fortress","app_id":440,"player_count":0,"max_players":24,"Bots":0,"server_type":"Dedicated","server_os":"Linux","password":true,"vac":true,"version":"7757534","steam_id":85568392924500087,"keywords":["cp","nocrits","nodmgspread","uncletopia"],"game_id":440,"stv_port":27016,"stv_name":"Uncletopia | Montr√©al | 1 | All Maps | STV","players":null},{"server_id":301,"name":"Uncletopia | Montr√©al | 2 | All Maps","name_short":"mtl-2","host":"mtl-1.ca.uncletopia.com","port":27025,"enabled":true,"region":"us-east","cc":"ca","latitude":45.50889,"longitude":-73.56167,"reserved":0,"last_update":"0001-01-01T00:00:00Z","name_a2s":"Uncletopia | Montr√©al | 2 | All Maps","protocol":17,"map":"pl_swiftwater_final1","folder":"tf","game":"Team Fortress","app_id":440,"player_count":0,"max_players":24,"Bots":0,"server_type":"Dedicated","server_os":"Linux","password":true,"vac":true,"version":"7757534","steam_id":85568392924500088,"keywords":["nocrits","nodmgspread","payload","uncletopia"],"game_id":440,"stv_port":27026,"stv_name":"Uncletopia | Montr√©al | 2 | All Maps | STV","players":null},{"server_id":302,"name":"Uncletopia | Montr√©al | 3 | All Maps","name_short":"mtl-3","host":"mtl-1.ca.uncletopia.com","port":27035,"enabled":true,"region":"us-east","cc":"ca","latitude":45.50889,"longitude":-73.56167,"reserved":0,"last_update":"0001-01-01T00:00:00Z","name_a2s":"Uncletopia | Montr√©al | 3 | All Maps","protocol":17,"map":"cp_process_final","folder":"tf","game":"Team Fortress","app_id":440,"player_count":0,"max_players":24,"Bots":0,"server_type":"Dedicated","server_os":"Linux","password":true,"vac":true,"version":"7757534","steam_id":85568392924500089,"keywords":["cp","nocrits","nodmgspread","uncletopia"],"game_id":440,"stv_port":27036,"stv_name":"Uncletopia | Montr√©al | 3 | All Maps | STV","players":null},{"server_id":303,"name":"Uncletopia | Montr√©al | 4 | No Payload","name_short":"mtl-4","host":"mtl-1.ca.uncletopia.com","port":27045,"enabled":true,"region":"us-east","cc":"ca","latitude":45.50889,"longitude":-73.56167,"reserved":0,"last_update":"0001-01-01T00:00:00Z","name_a2s":"Uncletopia | Montr√©al | 4 | No Payload","protocol":17,"map":"cp_well","folder":"tf","game":"Team Fortress","app_id":440,"player_count":0,"max_players":24,"Bots":0,"server_type":"Dedicated","server_os":"Linux","password":true,"vac":true,"version":"7757534","steam_id":85568392924500090,"keywords":["cp","nocrits","nodmgspread","uncletopia"],"game_id":440,"stv_port":27046,"stv_name":"Uncletopia | Montr√©al | 4 | No Payload | STV","players":null},{"server_id":13,"name":"Uncletopia | New York City | 1 | All Maps","name_short":"nyc-1","host":"nyc-1.us.uncletopia.com","port":27015,"enabled":true,"region":"us-east","cc":"us","latitude":40.73061,"longitude":-73.93524,"reserved":0,"last_update":"0001-01-01T00:00:00Z","name_a2s":"Uncletopia | New York City | 1 | All Maps","protocol":17,"map":"cp_steel","folder":"tf","game":"Team Fortress","app_id":440,"player_count":22,"max_players":24,"Bots":0,"server_type":"Dedicated","server_os":"Linux","password":true,"vac":true,"version":"7757534","steam_id":85568392924469993,"keywords":["cp","nocrits","nodmgspread","uncletopia"],"game_id":440,"stv_port":27016,"stv_name":"Uncletopia | New York City | 1 | All Maps | STV","players":[{"user_id":306,"name":"Dr Spaceman","steam_id":76561197969755657,"connected_time":3157000000000,"state":"active","ping":65},{"user_id":282,"name":"CySheep","steam_id":76561199058533095,"connected_time":5231000000000,"state":"active","ping":73},{"user_id":325,"name":"Sir Iasis","steam_id":76561198035666760,"connected_time":860000000000,"state":"active","ping":85},{"user_id":331,"name":"EL NI√ëO.","steam_id":76561198098149561,"connected_time":63000000000,"state":"active","ping":63},{"user_id":305,"name":"Dross","steam_id":76561198042172372,"connected_time":3171000000000,"state":"active","ping":54},{"user_id":328,"name":"Sonara","steam_id":76561198148877698,"connected_time":447000000000,"state":"active","ping":47},{"user_id":308,"name":"Obama F. Kennedy","steam_id":76561198282499318,"connected_time":3143000000000,"state":"active","ping":44},{"user_id":224,"name":"Baron von Whoopsie","steam_id":76561197996691013,"connected_time":9115000000000,"state":"active","ping":62},{"user_id":326,"name":"Francis","steam_id":76561198062395535,"connected_time":858000000000,"state":"active","ping":121},{"user_id":315,"name":"FishcakeBomber","steam_id":76561198079417209,"connected_time":2124000000000,"state":"active","ping":74},{"user_id":332,"name":"JHLO","steam_id":76561198074359967,"connected_time":27000000000,"state":"active","ping":53},{"user_id":333,"name":"Tapita de Lapicera Inusual","steam_id":76561199292130035,"connected_time":18000000000,"state":"spawning","ping":62},{"user_id":334,"name":"CRAZY engineer","steam_id":76561198887937902,"connected_time":15000000000,"state":"spawning","ping":61},{"user_id":335,"name":"Jailbreak","steam_id":76561198802085218,"connected_time":12000000000,"state":"active","ping":102},{"user_id":321,"name":"loganofhyrule","steam_id":76561199066971764,"connected_time":1446000000000,"state":"active","ping":71},{"user_id":336,"name":"MoistCurdle","steam_id":76561198126603510,"connected_time":6000000000,"state":"spawning","ping":43},{"user_id":337,"name":"just jazz","steam_id":76561198010637797,"connected_time":4000000000,"state":"spawning","ping":93},{"user_id":317,"name":"thecal","steam_id":76561198307893384,"connected_time":1865000000000,"state":"active","ping":76},{"user_id":316,"name":"Luis wid a mic","steam_id":76561198349570006,"connected_time":1886000000000,"state":"active","ping":34},{"user_id":318,"name":"mcdoubble","steam_id":76561198089126832,"connected_time":1860000000000,"state":"active","ping":72},{"user_id":330,"name":"alex","steam_id":76561198095203229,"connected_time":86000000000,"state":"active","ping":66},{"user_id":322,"name":"Rockguy21","steam_id":76561198121303359,"connected_time":1059000000000,"state":"active","ping":56}]},{"server_id":14,"name":"Uncletopia | New York City | 2 | All Maps","name_short":"nyc-2","host":"nyc-1.us.uncletopia.com","port":27025,"enabled":true,"region":"us-east","cc":"us","latitude":40.73061,"longitude":-73.93524,"reserved":0,"last_update":"0001-01-01T00:00:00Z","name_a2s":"Uncletopia | New York City | 2 | All Maps","protocol":17,"map":"koth_harvest_final","folder":"tf","game":"Team Fortress","app_id":440,"player_count":24,"max_players":24,"Bots":0,"server_type":"Dedicated","server_os":"Linux","password":true,"vac":true,"version":"7757534","steam_id":85568392924469994,"keywords":["cp","nocrits","nodmgspread","uncletopia"],"game_id":440,"stv_port":27026,"stv_name":"Uncletopia | New York City | 2 | All Maps | STV","players":[{"user_id":440,"name":"Xiamo'nah","steam_id":76561198067436825,"connected_time":5788000000000,"state":"active","ping":100},{"user_id":479,"name":"Cockathree","steam_id":76561198973288885,"connected_time":1113000000000,"state":"active","ping":50},{"user_id":489,"name":"Saggy","steam_id":76561198166706479,"connected_time":160000000000,"state":"active","ping":85},{"user_id":455,"name":"wiiblob","steam_id":76561198109106242,"connected_time":3953000000000,"state":"active","ping":142},{"user_id":480,"name":"lyanide","steam_id":76561198311704368,"connected_time":1099000000000,"state":"active","ping":64},{"user_id":495,"name":"Farseer Ulwithy","steam_id":76561197965179245,"connected_time":45000000000,"state":"active","ping":116},{"user_id":491,"name":"Geloman","steam_id":76561198005501322,"connected_time":119000000000,"state":"active","ping":58},{"user_id":464,"name":"JacripspyVulcano","steam_id":76561198966980576,"connected_time":3345000000000,"state":"active","ping":45},{"user_id":419,"name":"Wacky-Mo","steam_id":76561198022265991,"connected_time":7130000000000,"state":"active","ping":60},{"user_id":414,"name":"Glitchy stick","steam_id":76561199013429386,"connected_time":7901000000000,"state":"active","ping":60},{"user_id":485,"name":"„Äåiam3nigma„Äç","steam_id":76561198081580177,"connected_time":569000000000,"state":"active","ping":68},{"user_id":492,"name":"non_ai","steam_id":76561198270951938,"connected_time":108000000000,"state":"active","ping":50},{"user_id":476,"name":"Yune","steam_id":76561198039324447,"connected_time":1367000000000,"state":"active","ping":88},{"user_id":447,"name":"Heropon","steam_id":76561198105224481,"connected_time":5093000000000,"state":"active","ping":60},{"user_id":461,"name":"Letty","steam_id":76561198049361329,"connected_time":3621000000000,"state":"active","ping":65},{"user_id":493,"name":"cheeseman257","steam_id":76561199217910550,"connected_time":104000000000,"state":"active","ping":68},{"user_id":468,"name":"LazyKoala99","steam_id":76561199183623672,"connected_time":2422000000000,"state":"active","ping":60},{"user_id":494,"name":"Fawful's Minion","steam_id":76561198090120779,"connected_time":88000000000,"state":"active","ping":135},{"user_id":477,"name":"Nico","steam_id":76561198125701869,"connected_time":1143000000000,"state":"active","ping":51},{"user_id":466,"name":"begolds8","steam_id":76561198841069098,"connected_time":2433000000000,"state":"active","ping":102},{"user_id":482,"name":"Wiener Hole Paper Cut","steam_id":76561198000808203,"connected_time":1002000000000,"state":"active","ping":66},{"user_id":469,"name":"rellyreri","steam_id":76561198141793620,"connected_time":2407000000000,"state":"active","ping":41},{"user_id":474,"name":"ThePacBruno","steam_id":76561198046084545,"connected_time":1812000000000,"state":"active","ping":178}]},{"server_id":15,"name":"Uncletopia | New York City | 3 | Stopwatch Beta","name_short":"nyc-3","host":"nyc-1.us.uncletopia.com","port":27035,"enabled":true,"region":"us-east","cc":"us","latitude":40.73061,"longitude":-73.93524,"reserved":0,"last_update":"0001-01-01T00:00:00Z","name_a2s":"Uncletopia | New York City | 3 | Stopwatch Beta","protocol":17,"map":"workshop/koth_ashville_final.ugc2130459942","folder":"tf","game":"Team Fortress","app_id":440,"player_count":0,"max_players":24,"Bots":0,"server_type":"Dedicated","server_os":"Linux","password":true,"vac":true,"version":"7757534","steam_id":85568392924742820,"keywords":["cp","nocrits","nodmgspread","uncletopia"],"game_id":440,"stv_port":27036,"stv_name":"Uncletopia | New York City | 3 | Stopwatch Beta | STV","players":null},{"server_id":16,"name":"Uncletopia | New York City | 4 | Community","name_short":"nyc-4","host":"nyc-1.us.uncletopia.com","port":27045,"enabled":true,"region":"us-east","cc":"us","latitude":40.73061,"longitude":-73.93524,"reserved":0,"last_update":"0001-01-01T00:00:00Z","name_a2s":"Uncletopia | New York City | 4 | Community","protocol":17,"map":"workshop/cp_logjam_rc12.ugc454812035","folder":"tf","game":"Team Fortress","app_id":440,"player_count":0,"max_players":24,"Bots":0,"server_type":"Dedicated","server_os":"Linux","password":true,"vac":true,"version":"7757534","steam_id":85568392924742821,"keywords":["cp","nocrits","nodmgspread","uncletopia"],"game_id":440,"stv_port":27046,"stv_name":"Uncletopia | New York City | 4 | Community | STV","players":null},{"server_id":142,"name":"Uncletopia | S√£o Paulo | 1 | All Maps","name_short":"sao-1","host":"sao-1.br.uncletopia.com","port":27015,"enabled":true,"region":"sa","cc":"br","latitude":-23.533773,"longitude":-46.62529,"reserved":0,"last_update":"0001-01-01T00:00:00Z","name_a2s":"Uncletopia | S√£o Paulo | 1 | All Maps","protocol":17,"map":"koth_highpass","folder":"tf","game":"Team Fortress","app_id":440,"player_count":0,"max_players":24,"Bots":0,"server_type":"Dedicated","server_os":"Linux","password":true,"vac":true,"version":"7757534","steam_id":85568392924469996,"keywords":["cp","nocrits","nodmgspread","uncletopia"],"game_id":440,"stv_port":27016,"stv_name":"Uncletopia | S√£o Paulo | 1 | All Maps | STV","players":null},{"server_id":143,"name":"Uncletopia | S√£o Paulo | 2 | All Maps","name_short":"sao-2","host":"sao-2.br.uncletopia.com","port":27015,"enabled":true,"region":"sa","cc":"br","latitude":-23.533773,"longitude":-46.62529,"reserved":0,"last_update":"0001-01-01T00:00:00Z","name_a2s":"Uncletopia | S√£o Paulo | 2 | All Maps","protocol":17,"map":"cp_dustbowl","folder":"tf","game":"Team Fortress","app_id":440,"player_count":5,"max_players":24,"Bots":0,"server_type":"Dedicated","server_os":"Linux","password":true,"vac":true,"version":"7757534","steam_id":85568392924485349,"keywords":["cp","nocrits","nodmgspread","uncletopia"],"game_id":440,"stv_port":27016,"stv_name":"Uncletopia | S√£o Paulo | 2 | All Maps | STV","players":[{"user_id":57,"name":"burrildo_11","steam_id":76561199163140389,"connected_time":2734000000000,"state":"active","ping":64},{"user_id":59,"name":"Rusboy2a","steam_id":76561199204093572,"connected_time":2389000000000,"state":"active","ping":52},{"user_id":61,"name":"lilmanbigtalk","steam_id":76561198847459548,"connected_time":2257000000000,"state":"active","ping":44},{"user_id":66,"name":"Lazy #savetf2","steam_id":76561198929390439,"connected_time":326000000000,"state":"active","ping":33},{"user_id":65,"name":"VIVIMANCER","steam_id":76561198125711765,"connected_time":945000000000,"state":"active","ping":31}]},{"server_id":7,"name":"Uncletopia | Seattle | 1 | All Maps","name_short":"sea-1","host":"sea-1.us.uncletopia.com","port":27015,"enabled":true,"region":"us-west","cc":"us","latitude":47.608013,"longitude":-122.33517,"reserved":0,"last_update":"0001-01-01T00:00:00Z","name_a2s":"Uncletopia | Seattle | 1 | All Maps","protocol":17,"map":"pl_swiftwater_final1","folder":"tf","game":"Team Fortress","app_id":440,"player_count":24,"max_players":24,"Bots":0,"server_type":"Dedicated","server_os":"Linux","password":true,"vac":true,"version":"7757534","steam_id":85568392924469997,"keywords":["nocrits","nodmgspread","payload","uncletopia"],"game_id":440,"stv_port":27016,"stv_name":"Uncletopia | Seattle | 1 | All Maps | STV","players":[{"user_id":472,"name":"perc 10","steam_id":76561198116471653,"connected_time":4939000000000,"state":"active","ping":71},{"user_id":533,"name":"Pneumo.","steam_id":76561197987911883,"connected_time":860000000000,"state":"active","ping":67},{"user_id":528,"name":"Twisted Freaking Cyclepath","steam_id":76561198080775161,"connected_time":1594000000000,"state":"active","ping":88},{"user_id":540,"name":"RyInc","steam_id":76561198874261643,"connected_time":205000000000,"state":"active","ping":91},{"user_id":536,"name":"Villchip","steam_id":76561198198599982,"connected_time":301000000000,"state":"active","ping":51},{"user_id":438,"name":"WACKY JIM","steam_id":76561198961641122,"connected_time":6982000000000,"state":"active","ping":56},{"user_id":400,"name":"Dad 2","steam_id":76561198138546187,"connected_time":10241000000000,"state":"active","ping":127},{"user_id":542,"name":"Mico (Rat Mode)","steam_id":76561198125462953,"connected_time":124000000000,"state":"active","ping":53},{"user_id":396,"name":"Become girl, transition gender","steam_id":76561198200961750,"connected_time":11294000000000,"state":"active","ping":78},{"user_id":497,"name":"Donkitus","steam_id":76561198101336551,"connected_time":3156000000000,"state":"active","ping":41},{"user_id":519,"name":"moe","steam_id":76561198929586245,"connected_time":2472000000000,"state":"active","ping":71},{"user_id":529,"name":"GalacticQuasaur","steam_id":76561199066172937,"connected_time":1422000000000,"state":"active","ping":89},{"user_id":520,"name":"thereddshot","steam_id":76561199364611696,"connected_time":2169000000000,"state":"active","ping":143},{"user_id":507,"name":"Jigg","steam_id":76561198051140705,"connected_time":2933000000000,"state":"active","ping":45},{"user_id":527,"name":"psychic","steam_id":76561198136301926,"connected_time":1628000000000,"state":"active","ping":77},{"user_id":534,"name":"MyMonkeyBaby","steam_id":76561198046896670,"connected_time":386000000000,"state":"active","ping":58},{"user_id":512,"name":"YASAI JUICE","steam_id":76561198131971992,"connected_time":2818000000000,"state":"active","ping":90},{"user_id":537,"name":"Terribad","steam_id":76561198120844785,"connected_time":274000000000,"state":"active","ping":101},{"user_id":521,"name":"blinkerton city","steam_id":76561198054270410,"connected_time":2011000000000,"state":"active","ping":56},{"user_id":518,"name":"chunkysquare","steam_id":76561199076468383,"connected_time":2510000000000,"state":"active","ping":68},{"user_id":535,"name":"Dorte Voloxi","steam_id":76561198118620969,"connected_time":361000000000,"state":"active","ping":67},{"user_id":538,"name":"Joseph Stalin","steam_id":76561198126234142,"connected_time":266000000000,"state":"active","ping":74},{"user_id":539,"name":"m1","steam_id":76561198004133638,"connected_time":253000000000,"state":"active","ping":98},{"user_id":499,"name":"Gaming","steam_id":76561198327632113,"connected_time":3155000000000,"state":"active","ping":53}]},{"server_id":119,"name":"Uncletopia | Seattle | 2 | All Maps","name_short":"sea-2","host":"sea-1.us.uncletopia.com","port":27025,"enabled":true,"region":"us-west","cc":"us","latitude":47.608013,"longitude":-122.33517,"reserved":0,"last_update":"0001-01-01T00:00:00Z","name_a2s":"Uncletopia | Seattle | 2 | All Maps","protocol":17,"map":"cp_sunshine","folder":"tf","game":"Team Fortress","app_id":440,"player_count":24,"max_players":24,"Bots":0,"server_type":"Dedicated","server_os":"Linux","password":true,"vac":true,"version":"7757534","steam_id":85568392924469998,"keywords":["cp","nocrits","nodmgspread","uncletopia"],"game_id":440,"stv_port":27026,"stv_name":"Uncletopia | Seattle | 2 | All Maps | STV","players":[{"user_id":490,"name":"onsen episode","steam_id":76561197965022076,"connected_time":205000000000,"state":"active","ping":105},{"user_id":480,"name":"BroDuck","steam_id":76561198000217789,"connected_time":785000000000,"state":"active","ping":109},{"user_id":464,"name":"TheSnaggedSoul","steam_id":76561198198846371,"connected_time":1514000000000,"state":"active","ping":131},{"user_id":489,"name":"FULCRUM faded than a ho","steam_id":76561198274959371,"connected_time":499000000000,"state":"active","ping":121},{"user_id":484,"name":"Scoober","steam_id":76561199438657119,"connected_time":710000000000,"state":"active","ping":118},{"user_id":488,"name":"Ompaloompa","steam_id":76561199022594810,"connected_time":558000000000,"state":"active","ping":56},{"user_id":458,"name":"sexypringle","steam_id":76561198401282091,"connected_time":2286000000000,"state":"active","ping":86},{"user_id":459,"name":"YahYeeterson","steam_id":76561198120480906,"connected_time":2199000000000,"state":"active","ping":70},{"user_id":475,"name":"N√©oGothiqueüïØ","steam_id":76561198003467269,"connected_time":872000000000,"state":"active","ping":105},{"user_id":485,"name":"FlamingManiac","steam_id":76561198361996837,"connected_time":620000000000,"state":"active","ping":130},{"user_id":476,"name":"Neato!","steam_id":76561198043548668,"connected_time":836000000000,"state":"active","ping":87},{"user_id":418,"name":"John Wick's puppy","steam_id":76561198064662875,"connected_time":5612000000000,"state":"active","ping":66},{"user_id":477,"name":"oil","steam_id":76561198099980149,"connected_time":833000000000,"state":"active","ping":75},{"user_id":486,"name":"Jface1221","steam_id":76561198188082091,"connected_time":583000000000,"state":"active","ping":74},{"user_id":478,"name":"good burger employee","steam_id":76561198190903589,"connected_time":831000000000,"state":"active","ping":85},{"user_id":479,"name":"Mr.Thirteen","steam_id":76561198047468836,"connected_time":823000000000,"state":"active","ping":68},{"user_id":468,"name":"Strikerbolt","steam_id":76561199095622897,"connected_time":1264000000000,"state":"active","ping":88},{"user_id":465,"name":"Mike Hawk","steam_id":76561198045053326,"connected_time":1320000000000,"state":"active","ping":49},{"user_id":481,"name":"AGagagaga","steam_id":76561199008585183,"connected_time":775000000000,"state":"active","ping":127},{"user_id":482,"name":"SilentFootba11","steam_id":76561199006570947,"connected_time":769000000000,"state":"active","ping":129},{"user_id":447,"name":"The King of Piss World","steam_id":76561198082806956,"connected_time":2966000000000,"state":"active","ping":112},{"user_id":483,"name":"\u003c3","steam_id":76561198093713343,"connected_time":753000000000,"state":"active","ping":88},{"user_id":452,"name":"Rude Dog","steam_id":76561197980385816,"connected_time":2793000000000,"state":"active","ping":65},{"user_id":491,"name":"vareh","steam_id":76561197993190926,"connected_time":183000000000,"state":"active","ping":62}]},{"server_id":406,"name":"Uncletopia | Seattle | 3 | Stopwatch Beta","name_short":"sea-3","host":"sea-1.us.uncletopia.com","port":27035,"enabled":true,"region":"us-west","cc":"us","latitude":47.608013,"longitude":-122.33517,"reserved":0,"last_update":"0001-01-01T00:00:00Z","name_a2s":"Uncletopia | Seattle | 3 | Stopwatch Beta","protocol":17,"map":"workshop/koth_clearcut_b15.ugc2107050255","folder":"tf","game":"Team Fortress","app_id":440,"player_count":0,"max_players":24,"Bots":0,"server_type":"Dedicated","server_os":"Linux","password":true,"vac":true,"version":"7757534","steam_id":85568392924515217,"keywords":["cp","nocrits","nodmgspread","uncletopia"],"game_id":440,"stv_port":27036,"stv_name":"Uncletopia | Seattle | 3 | Stopwatch Beta | STV","players":null},{"server_id":17,"name":"Uncletopia | San Francisco | 1 | All Maps","name_short":"sfo-1","host":"sfo-1.us.uncletopia.com","port":27015,"enabled":true,"region":"us-west","cc":"us","latitude":37.77397,"longitude":-122.4313,"reserved":0,"last_update":"0001-01-01T00:00:00Z","name_a2s":"Uncletopia | San Francisco | 1 | All Maps","protocol":17,"map":"cp_dustbowl","folder":"tf","game":"Team Fortress","app_id":440,"player_count":24,"max_players":24,"Bots":0,"server_type":"Dedicated","server_os":"Linux","password":true,"vac":true,"version":"7757534","steam_id":85568392924469999,"keywords":["cp","nocrits","nodmgspread","uncletopia"],"game_id":440,"stv_port":27016,"stv_name":"Uncletopia | San Francisco | 1 | All Maps | STV","players":[{"user_id":270,"name":"Thexx ‚ù§","steam_id":76561198113823050,"connected_time":398000000000,"state":"active","ping":66},{"user_id":254,"name":"Sierra Foxtrot","steam_id":76561197996667382,"connected_time":1649000000000,"state":"active","ping":117},{"user_id":272,"name":"Akkawi","steam_id":76561198203159952,"connected_time":375000000000,"state":"active","ping":59},{"user_id":271,"name":"Reem0h","steam_id":76561198169848690,"connected_time":390000000000,"state":"active","ping":120},{"user_id":274,"name":"intek","steam_id":76561198052705291,"connected_time":340000000000,"state":"active","ping":99},{"user_id":280,"name":"neet","steam_id":76561197968115168,"connected_time":231000000000,"state":"active","ping":93},{"user_id":220,"name":"≈ölimak","steam_id":76561198296476784,"connected_time":4825000000000,"state":"active","ping":76},{"user_id":236,"name":"Robogineer","steam_id":76561198026994739,"connected_time":3228000000000,"state":"active","ping":60},{"user_id":210,"name":"Indicative","steam_id":76561199076612537,"connected_time":5505000000000,"state":"active","ping":86},{"user_id":273,"name":"CEOlifestyle","steam_id":76561198025747866,"connected_time":353000000000,"state":"active","ping":73},{"user_id":228,"name":"BurningPride","steam_id":76561198080592800,"connected_time":3902000000000,"state":"active","ping":72},{"user_id":275,"name":"BasedGod","steam_id":76561198061177973,"connected_time":333000000000,"state":"active","ping":46},{"user_id":252,"name":"TheMagicMrWaffle","steam_id":76561198104357256,"connected_time":2391000000000,"state":"active","ping":51},{"user_id":281,"name":"LobsterSmoothie","steam_id":76561198272539158,"connected_time":111000000000,"state":"active","ping":139},{"user_id":263,"name":"Mr. Dick‚Ñ¢","steam_id":76561198047309044,"connected_time":1160000000000,"state":"active","ping":93},{"user_id":282,"name":"Da Big Bumby","steam_id":76561198044511738,"connected_time":92000000000,"state":"active","ping":123},{"user_id":239,"name":"PossumInASock","steam_id":76561198057138795,"connected_time":3197000000000,"state":"active","ping":83},{"user_id":242,"name":"ForAPessimistImPrettyOptimistic","steam_id":76561198170128009,"connected_time":2905000000000,"state":"active","ping":55},{"user_id":283,"name":"MrBob292","steam_id":76561199347166553,"connected_time":82000000000,"state":"active","ping":86},{"user_id":244,"name":"the dishtv1605","steam_id":76561198061284371,"connected_time":2728000000000,"state":"active","ping":101},{"user_id":284,"name":"SanitysEdge","steam_id":76561198130732813,"connected_time":79000000000,"state":"active","ping":54},{"user_id":278,"name":"MinusSoup918","steam_id":76561198060902773,"connected_time":317000000000,"state":"active","ping":77},{"user_id":265,"name":"Stoopnagle","steam_id":76561198011942560,"connected_time":1115000000000,"state":"active","ping":64},{"user_id":279,"name":"[NLR]Lightning Roller","steam_id":76561198021209018,"connected_time":317000000000,"state":"active","ping":117}]},{"server_id":18,"name":"Uncletopia | San Francisco | 2 | All Maps","name_short":"sfo-2","host":"sfo-1.us.uncletopia.com","port":27025,"enabled":true,"region":"us-west","cc":"us","latitude":37.77397,"longitude":-122.4313,"reserved":0,"last_update":"0001-01-01T00:00:00Z","name_a2s":"Uncletopia | San Francisco | 2 | All Maps","protocol":17,"map":"koth_highpass","folder":"tf","game":"Team Fortress","app_id":440,"player_count":1,"max_players":24,"Bots":0,"server_type":"Dedicated","server_os":"Linux","password":true,"vac":true,"version":"7757534","steam_id":85568392924470000,"keywords":["cp","nocrits","nodmgspread","uncletopia"],"game_id":440,"stv_port":27026,"stv_name":"Uncletopia | San Francisco | 2 | All Maps | STV","players":[{"user_id":15,"name":"Ediot","steam_id":76561199349494096,"connected_time":4000000000,"state":"spawning","ping":196}]},{"server_id":19,"name":"Uncletopia | San Francisco | 3 | Stopwatch Beta","name_short":"sfo-3","host":"sfo-1.us.uncletopia.com","port":27035,"enabled":true,"region":"us-west","cc":"us","latitude":37.77397,"longitude":-122.4313,"reserved":0,"last_update":"0001-01-01T00:00:00Z","name_a2s":"Uncletopia | San Francisco | 3 | Stopwatch Beta","protocol":17,"map":"pl_borneo","folder":"tf","game":"Team Fortress","app_id":440,"player_count":0,"max_players":24,"Bots":0,"server_type":"Dedicated","server_os":"Linux","password":true,"vac":true,"version":"7757534","steam_id":85568392924742824,"keywords":["nocrits","nodmgspread","payload","uncletopia"],"game_id":440,"stv_port":27036,"stv_name":"Uncletopia | San Francisco | 3 | Stopwatch Beta | STV","players":null},{"server_id":20,"name":"Uncletopia | San Francisco | 4 | Community","name_short":"sfo-4","host":"sfo-1.us.uncletopia.com","port":27045,"enabled":true,"region":"us-west","cc":"us","latitude":37.77397,"longitude":-122.4313,"reserved":0,"last_update":"0001-01-01T00:00:00Z","name_a2s":"Uncletopia | San Francisco | 4 | Community","protocol":17,"map":"workshop/cp_bruhstbowl_b5.ugc2878604990","folder":"tf","game":"Team Fortress","app_id":440,"player_count":23,"max_players":24,"Bots":0,"server_type":"Dedicated","server_os":"Linux","password":true,"vac":true,"version":"7757534","steam_id":85568392924742826,"keywords":["cp","nocrits","nodmgspread","uncletopia"],"game_id":440,"stv_port":27046,"stv_name":"Uncletopia | San Francisco | 4 | Community | STV","players":[{"user_id":407,"name":"Smoopy","steam_id":76561198068485493,"connected_time":478000000000,"state":"active","ping":79},{"user_id":280,"name":"postgres","steam_id":76561198011204750,"connected_time":7393000000000,"state":"active","ping":90},{"user_id":410,"name":"Sprucelass","steam_id":76561197998391724,"connected_time":261000000000,"state":"active","ping":104},{"user_id":389,"name":"Bastee1021","steam_id":76561199456141163,"connected_time":1164000000000,"state":"active","ping":80},{"user_id":379,"name":"Jaymowe","steam_id":76561198353959514,"connected_time":1752000000000,"state":"active","ping":68},{"user_id":403,"name":"Roomsky","steam_id":76561198012827494,"connected_time":561000000000,"state":"active","ping":60},{"user_id":345,"name":"AlphonsetheFish","steam_id":76561198038020208,"connected_time":3189000000000,"state":"active","ping":141},{"user_id":393,"name":"NASA PEEPO","steam_id":76561198024982267,"connected_time":883000000000,"state":"active","ping":57},{"user_id":360,"name":"The Cube","steam_id":76561199382565628,"connected_time":2258000000000,"state":"active","ping":58},{"user_id":353,"name":"Unofficial","steam_id":76561198370071152,"connected_time":2602000000000,"state":"active","ping":143},{"user_id":291,"name":"PyroTechno","steam_id":76561198060929872,"connected_time":6277000000000,"state":"active","ping":95},{"user_id":413,"name":"Loudmouthed Fool","steam_id":76561198202018494,"connected_time":46000000000,"state":"active","ping":58},{"user_id":394,"name":"braisoruel","steam_id":76561198946498774,"connected_time":873000000000,"state":"active","ping":84},{"user_id":414,"name":"Lucille II","steam_id":76561198138543746,"connected_time":32000000000,"state":"active","ping":134},{"user_id":378,"name":"McDoreson McFloreson","steam_id":76561198272049926,"connected_time":1774000000000,"state":"active","ping":74},{"user_id":415,"name":"tylre","steam_id":76561198128198748,"connected_time":31000000000,"state":"active","ping":97},{"user_id":411,"name":"TheWarrior987","steam_id":76561198276440630,"connected_time":201000000000,"state":"active","ping":115},{"user_id":412,"name":"bunceian","steam_id":76561198975662918,"connected_time":189000000000,"state":"active","ping":102},{"user_id":380,"name":"Der Munchkin[2098]","steam_id":76561197998833309,"connected_time":1717000000000,"state":"active","ping":112},{"user_id":263,"name":"Oomitch","steam_id":76561198071702759,"connected_time":8618000000000,"state":"spawning","ping":202},{"user_id":406,"name":"apersonnamedrose","steam_id":76561198152639759,"connected_time":518000000000,"state":"active","ping":63},{"user_id":405,"name":"Exo-Suit Monkey","steam_id":76561198024010698,"connected_time":535000000000,"state":"active","ping":69},{"user_id":372,"name":"LazyDoll","steam_id":76561198053186338,"connected_time":1913000000000,"state":"active","ping":49}]},{"server_id":141,"name":"Uncletopia | Sydney | 1 | All Maps","name_short":"syd-1","host":"syd-1.au.uncletopia.com","port":27015,"enabled":true,"region":"au","cc":"au","latitude":-33.865143,"longitude":151.2099,"reserved":0,"last_update":"0001-01-01T00:00:00Z","name_a2s":"Uncletopia | Sydney | 1 | All Maps","protocol":17,"map":"koth_viaduct","folder":"tf","game":"Team Fortress","app_id":440,"player_count":0,"max_players":24,"Bots":0,"server_type":"Dedicated","server_os":"Linux","password":true,"vac":true,"version":"7757534","steam_id":85568392924470001,"keywords":["cp","nocrits","nodmgspread","uncletopia"],"game_id":440,"stv_port":27016,"stv_name":"Uncletopia | Sydney | 1 | All Maps | STV","players":null},{"server_id":123,"name":"Uncletopia | Sydney | 2 | All Maps","name_short":"syd-2","host":"syd-1.au.uncletopia.com","port":27025,"enabled":true,"region":"au","cc":"au","latitude":-33.865143,"longitude":151.2099,"reserved":0,"last_update":"0001-01-01T00:00:00Z","name_a2s":"Uncletopia | Sydney | 2 | All Maps","protocol":17,"map":"pl_badwater","folder":"tf","game":"Team Fortress","app_id":440,"player_count":24,"max_players":24,"Bots":0,"server_type":"Dedicated","server_os":"Linux","password":true,"vac":true,"version":"7757534","steam_id":85568392924470002,"keywords":["nocrits","nodmgspread","payload","uncletopia"],"game_id":440,"stv_port":27026,"stv_name":"Uncletopia | Sydney | 2 | All Maps | STV","players":[{"user_id":194,"name":"voxii","steam_id":76561198099698281,"connected_time":2883000000000,"state":"active","ping":66},{"user_id":210,"name":"Asl:3x","steam_id":76561198972095766,"connected_time":1166000000000,"state":"active","ping":36},{"user_id":227,"name":"Shaboi","steam_id":76561198048944885,"connected_time":61000000000,"state":"active","ping":45},{"user_id":208,"name":"xanderbenns","steam_id":76561199124533525,"connected_time":1433000000000,"state":"active","ping":99},{"user_id":218,"name":"tim","steam_id":76561199128773360,"connected_time":836000000000,"state":"active","ping":67},{"user_id":204,"name":"Zuttlicker2000","steam_id":76561198077983422,"connected_time":1677000000000,"state":"active","ping":55},{"user_id":193,"name":"hobo","steam_id":76561199046481213,"connected_time":3000000000000,"state":"active","ping":67},{"user_id":205,"name":"Squishy","steam_id":76561198985769205,"connected_time":1552000000000,"state":"active","ping":55},{"user_id":33,"name":"Shadow Puppeteer","steam_id":76561198151121997,"connected_time":13156000000000,"state":"active","ping":74},{"user_id":211,"name":"Traveller","steam_id":76561199161637215,"connected_time":1157000000000,"state":"active","ping":94},{"user_id":197,"name":"Branko","steam_id":76561199262196710,"connected_time":2674000000000,"state":"active","ping":47},{"user_id":164,"name":"DragRiper","steam_id":76561198050917553,"connected_time":5154000000000,"state":"active","ping":59},{"user_id":152,"name":"Wrainbow","steam_id":76561199039385168,"connected_time":5776000000000,"state":"active","ping":70},{"user_id":212,"name":"pants money","steam_id":76561198066256359,"connected_time":1089000000000,"state":"active","ping":53},{"user_id":219,"name":"spironolactone enjoyer","steam_id":76561198055239632,"connected_time":788000000000,"state":"active","ping":91},{"user_id":213,"name":"Blazey ‰ºäÈÅî ÊîøÂÆó","steam_id":76561197971082275,"connected_time":1064000000000,"state":"active","ping":122},{"user_id":189,"name":"Piklz","steam_id":76561198043384139,"connected_time":3314000000000,"state":"active","ping":66},{"user_id":220,"name":"MightyMistake","steam_id":76561198161196838,"connected_time":714000000000,"state":"active","ping":71},{"user_id":224,"name":"Pat","steam_id":76561198244663182,"connected_time":353000000000,"state":"active","ping":55},{"user_id":200,"name":"A threat unbeknownst","steam_id":76561198293776102,"connected_time":2427000000000,"state":"active","ping":51},{"user_id":215,"name":"mmm","steam_id":76561198151416348,"connected_time":1038000000000,"state":"active","ping":56},{"user_id":203,"name":"shaymii","steam_id":76561198058562392,"connected_time":2299000000000,"state":"active","ping":86},{"user_id":216,"name":"Bin","steam_id":76561199117653318,"connected_time":993000000000,"state":"active","ping":66},{"user_id":226,"name":"MikkyD","steam_id":76561198043452962,"connected_time":91000000000,"state":"active","ping":64}]},{"server_id":395,"name":"Uncletopia | Sydney | 3 | All Maps","name_short":"syd-3","host":"syd-1.au.uncletopia.com","port":27035,"enabled":true,"region":"au","cc":"au","latitude":-33.865143,"longitude":151.2099,"reserved":0,"last_update":"0001-01-01T00:00:00Z","name_a2s":"Uncletopia | Sydney | 3 | All Maps","protocol":17,"map":"cp_sunshine","folder":"tf","game":"Team Fortress","app_id":440,"player_count":0,"max_players":24,"Bots":0,"server_type":"Dedicated","server_os":"Linux","password":true,"vac":true,"version":"7757534","steam_id":85568392925194467,"keywords":["cp","nocrits","nodmgspread","uncletopia"],"game_id":440,"stv_port":27036,"stv_name":"Uncletopia | Sydney | 3 | All Maps | STV","players":null},{"server_id":396,"name":"Uncletopia | Sydney | 4 | All Maps","name_short":"syd-4","host":"syd-1.au.uncletopia.com","port":27045,"enabled":true,"region":"au","cc":"au","latitude":-33.865143,"longitude":151.2099,"reserved":0,"last_update":"0001-01-01T00:00:00Z","name_a2s":"Uncletopia | Sydney | 4 | All Maps","protocol":17,"map":"koth_viaduct","folder":"tf","game":"Team Fortress","app_id":440,"player_count":0,"max_players":24,"Bots":0,"server_type":"Dedicated","server_os":"Linux","password":true,"vac":true,"version":"7757534","steam_id":85568392925397958,"keywords":["cp","nocrits","nodmgspread","uncletopia"],"game_id":440,"stv_port":27046,"stv_name":"Uncletopia | Sydney | 4 | All Maps | STV","players":null},{"server_id":58,"name":"Uncletopia | Sydney | 5 | Stopwatch Beta","name_short":"syd-5","host":"syd-1.au.uncletopia.com","port":27055,"enabled":true,"region":"au","cc":"au","latitude":-33.865143,"longitude":151.2099,"reserved":0,"last_update":"0001-01-01T00:00:00Z","name_a2s":"Uncletopia | Sydney | 5 | Stopwatch Beta","protocol":17,"map":"koth_lakeside_final","folder":"tf","game":"Team Fortress","app_id":440,"player_count":0,"max_players":24,"Bots":0,"server_type":"Dedicated","server_os":"Linux","password":true,"vac":true,"version":"7757534","steam_id":85568392925397959,"keywords":["cp","nocrits","nodmgspread","uncletopia"],"game_id":440,"stv_port":27056,"stv_name":"Uncletopia | Sydney | 5 | Stopwatch Beta | STV","players":null},{"server_id":59,"name":"Uncletopia | Sydney | 6 | Community","name_short":"syd-6","host":"syd-1.au.uncletopia.com","port":27065,"enabled":true,"region":"au","cc":"au","latitude":-33.865143,"longitude":151.2099,"reserved":0,"last_update":"0001-01-01T00:00:00Z","name_a2s":"Uncletopia | Sydney | 6 | Community","protocol":17,"map":"cp_sunshine","folder":"tf","game":"Team Fortress","app_id":440,"player_count":0,"max_players":24,"Bots":0,"server_type":"Dedicated","server_os":"Linux","password":true,"vac":true,"version":"7757534","steam_id":85568392925397960,"keywords":["cp","nocrits","nodmgspread","uncletopia"],"game_id":440,"stv_port":27066,"stv_name":"Uncletopia | Sydney | 6 | Community | STV","players":null},{"server_id":49,"name":"Uncletopia | Warsaw | 1 | All Maps","name_short":"waw-1","host":"waw-1.pl.uncletopia.com","port":27015,"enabled":true,"region":"eu","cc":"pl","latitude":52.2297,"longitude":21.017532,"reserved":0,"last_update":"0001-01-01T00:00:00Z","name_a2s":"","protocol":0,"map":"","folder":"","game":"","app_id":0,"player_count":0,"max_players":0,"Bots":0,"server_type":"","server_os":"","password":false,"vac":false,"version":"","steam_id":0,"keywords":null,"game_id":0,"stv_port":0,"stv_name":"","players":null},{"server_id":50,"name":"Uncletopia | Warsaw | 2 | All Maps","name_short":"waw-2","host":"waw-1.pl.uncletopia.com","port":27025,"enabled":true,"region":"eu","cc":"pl","latitude":52.2297,"longitude":21.017532,"reserved":0,"last_update":"0001-01-01T00:00:00Z","name_a2s":"Uncletopia | Warsaw | 2 | All Maps","protocol":17,"map":"pl_barnblitz","folder":"tf","game":"Team Fortress","app_id":440,"player_count":0,"max_players":24,"Bots":0,"server_type":"Dedicated","server_os":"Linux","password":true,"vac":true,"version":"7757534","steam_id":85568392925397851,"keywords":["nocrits","nodmgspread","payload","uncletopia"],"game_id":440,"stv_port":27026,"stv_name":"Uncletopia | Warsaw | 2 | All Maps | STV","players":null},{"server_id":51,"name":"Uncletopia | Warsaw | 3 | All Maps","name_short":"waw-3","host":"waw-1.pl.uncletopia.com","port":27035,"enabled":true,"region":"eu","cc":"pl","latitude":52.2297,"longitude":21.017532,"reserved":0,"last_update":"0001-01-01T00:00:00Z","name_a2s":"Uncletopia | Warsaw | 3 | All Maps","protocol":17,"map":"pl_upward","folder":"tf","game":"Team Fortress","app_id":440,"player_count":0,"max_players":24,"Bots":0,"server_type":"Dedicated","server_os":"Linux","password":true,"vac":true,"version":"7757534","steam_id":85568392925397852,"keywords":["nocrits","nodmgspread","payload","uncletopia"],"game_id":440,"stv_port":27036,"stv_name":"Uncletopia | Warsaw | 3 | All Maps | STV","players":null},{"server_id":52,"name":"Uncletopia | Warsaw | 4 | All Maps","name_short":"waw-4","host":"waw-1.pl.uncletopia.com","port":27045,"enabled":true,"region":"eu","cc":"pl","latitude":52.2297,"longitude":21.017532,"reserved":0,"last_update":"0001-01-01T00:00:00Z","name_a2s":"Uncletopia | Warsaw | 4 | All Maps","protocol":17,"map":"pl_snowycoast","folder":"tf","game":"Team Fortress","app_id":440,"player_count":0,"max_players":24,"Bots":0,"server_type":"Dedicated","server_os":"Linux","password":true,"vac":true,"version":"7757534","steam_id":85568392925397853,"keywords":["nocrits","nodmgspread","payload","uncletopia"],"game_id":440,"stv_port":27046,"stv_name":"Uncletopia | Warsaw | 4 | All Maps | STV","players":null},{"server_id":53,"name":"Uncletopia | Warsaw | 5 | Stopwatch Beta","name_short":"waw-5","host":"waw-1.pl.uncletopia.com","port":27055,"enabled":true,"region":"eu","cc":"pl","latitude":52.2297,"longitude":21.017532,"reserved":0,"last_update":"0001-01-01T00:00:00Z","name_a2s":"Uncletopia | Warsaw | 5 | Stopwatch Beta","protocol":17,"map":"pl_barnblitz","folder":"tf","game":"Team Fortress","app_id":440,"player_count":0,"max_players":24,"Bots":0,"server_type":"Dedicated","server_os":"Linux","password":true,"vac":true,"version":"7757534","steam_id":85568392925397854,"keywords":["nocrits","nodmgspread","payload","uncletopia"],"game_id":440,"stv_port":27056,"stv_name":"Uncletopia | Warsaw | 5 | Stopwatch Beta | STV","players":null},{"server_id":54,"name":"Uncletopia | Warsaw | 6 | Community","name_short":"waw-6","host":"waw-1.pl.uncletopia.com","port":27065,"enabled":true,"region":"eu","cc":"pl","latitude":52.2297,"longitude":21.017532,"reserved":0,"last_update":"0001-01-01T00:00:00Z","name_a2s":"Uncletopia | Warsaw | 6 | Community","protocol":17,"map":"workshop/koth_trenchfoot_b1a.ugc731436616","folder":"tf","game":"Team Fortress","app_id":440,"player_count":0,"max_players":24,"Bots":0,"server_type":"Dedicated","server_os":"Linux","password":true,"vac":true,"version":"7757534","steam_id":85568392925397856,"keywords":["cp","nocrits","nodmgspread","uncletopia"],"game_id":440,"stv_port":27066,"stv_name":"Uncletopia | Warsaw | 6 | Community | STV","players":null}]}