{"status":true,"message":"","result":[{"server_id":9,"name":"Uncletopia | Atlanta | 1 | All Maps","name_short":"atl-1","host":"atl-1.us.uncletopia.com","port":27015,"enabled":true,"region":"us-east","cc":"us","latitude":33.753746,"longitude":-84.38633,"reserved":0,"last_update":"0001-01-01T00:00:00Z","name_a2s":"Uncletopia | Atlanta | 1 | All Maps","protocol":17,"map":"cp_dustbowl","folder":"tf","game":"Team Fortress","app_id":440,"player_count":24,"max_players":24,"Bots":0,"server_type":"Dedicated","server_os":"Linux","password":true,"vac":true,"version":"7757534","steam_id":85568392924469982,"keywords":["cp","nocrits","nodmgspread","uncletopia"],"game_id":440,"stv_port":27016,"stv_name":"Uncletopia | Atlanta | 1 | All Maps | STV","players":[{"user_id":159,"name":"☤Medic Jesus†","steam_id":76561197967470975,"connected_time":113000000000,"state":"active","ping":60},{"user_id":158,"name":"wire-guided","steam_id":76561198055407168,"connected_time":407000000000,"state":"active","ping":60},{"user_id":156,"name":"T Jit","steam_id":76561197993371179,"connected_time":605000000000,"state":"active","ping":45},{"user_id":123,"name":"5'2 in real life","steam_id":76561198103496593,"connected_time":3729000000000,"state":"active","ping":45},{"user_id":164,"name":"the man of coom bob","steam_id":76561199082474364,"connected_time":69000000000,"state":"active","ping":90},{"user_id":160,"name":"Zymiren","steam_id":76561198054985471,"connected_time":110000000000,"state":"active","ping":69},{"user_id":127,"name":"Ejaculation Zach","steam_id":76561198203765200,"connected_time":3637000000000,"state":"active","ping":76},{"user_id":157,"name":"Ashes!","steam_id":76561197998475441,"connected_time":572000000000,"state":"active","ping":75},{"user_id":124,"name":"melancholy","steam_id":76561198024301465,"connected_time":3726000000000,"state":"active","ping":44},{"user_id":71,"name":"Kiso 火","steam_id":76561198141026844,"connected_time":8242000000000,"state":"active","ping":120},{"user_id":142,"name":"Liinde","steam_id":76561198140837602,"connected_time":1898000000000,"state":"active","ping":81},{"user_id":119,"name":"Ziath","steam_id":76561198094009164,"connected_time":3885000000000,"state":"active","ping":63},{"user_id":150,"name":"Avem","steam_id":76561198058763710,"connected_time":1215000000000,"state":"active","ping":105},{"user_id":155,"name":"hubert","steam_id":76561198999159056,"connected_time":615000000000,"state":"active","ping":73},{"user_id":116,"name":"Lilith","steam_id":76561198125102885,"connected_time":4121000000000,"state":"active","ping":63},{"user_id":151,"name":"William Wallace","steam_id":76561199343316814,"connected_time":1147000000000,"state":"active","ping":58},{"user_id":154,"name":"bojack from the show bojack hor","steam_id":76561198053006712,"connected_time":766000000000,"state":"active","ping":60},{"user_id":40,"name":"Real?","steam_id":76561198873307741,"connected_time":10039000000000,"state":"active","ping":74},{"user_id":146,"name":"BiggFoot","steam_id":76561197998605599,"connected_time":1705000000000,"state":"active","ping":86},{"user_id":152,"name":"I can't heal","steam_id":76561198039763676,"connected_time":1094000000000,"state":"active","ping":51},{"user_id":166,"name":"Try Gardening","steam_id":76561198120311340,"connected_time":24000000000,"state":"active","ping":66},{"user_id":55,"name":"Korshal","steam_id":76561198819036121,"connected_time":9194000000000,"state":"active","ping":55},{"user_id":163,"name":"gamerlegend47","steam_id":76561198122776598,"connected_time":78000000000,"state":"active","ping":53},{"user_id":144,"name":"Dartel","steam_id":76561197963977254,"connected_time":1870000000000,"state":"active","ping":75}]},{"server_id":104,"name":"Uncletopia | Atlanta | 2 | All Maps","name_short":"atl-2","host":"atl-1.us.uncletopia.com","port":27025,"enabled":true,"region":"us-east","cc":"us","latitude":33.753746,"longitude":-84.38633,"reserved":0,"last_update":"0001-01-01T00:00:00Z","name_a2s":"Uncletopia | Atlanta | 2 | All Maps","protocol":17,"map":"pl_pier","folder":"tf","game":"Team Fortress","app_id":440,"player_count":4,"max_players":24,"Bots":0,"server_type":"Dedicated","server_os":"Linux","password":true,"vac":true,"version":"7757534","steam_id":85568392924469983,"keywords":["nocrits","nodmgspread","payload","uncletopia"],"game_id":440,"stv_port":27026,"stv_name":"Uncletopia | Atlanta | 2 | All Maps | STV","players":[{"user_id":18,"name":"abomination","steam_id":76561198167974713,"connected_time":700000000000,"state":"active","ping":50},{"user_id":19,"name":"ShadowWasUhOh","steam_id":76561198400361935,"connected_time":582000000000,"state":"active","ping":45},{"user_id":22,"name":"WhoWee","steam_id":76561198269471732,"connected_time":115000000000,"state":"active","ping":62},{"user_id":23,"name":"X0X2","steam_id":76561198418503762,"connected_time":99000000000,"state":"active","ping":107}]},{"server_id":400,"name":"Uncletopia | Atlanta | 3 | Community","name_short":"atl-3","host":"atl-1.us.uncletopia.com","port":27035,"enabled":true,"region":"us-east","cc":"us","latitude":33.753746,"longitude":-84.38633,"reserved":0,"last_update":"0001-01-01T00:00:00Z","name_a2s":"Uncletopia | Atlanta | 3 | Community","protocol":17,"map":"workshop/koth_ashville_final.ugc2130459942","folder":"tf","game":"Team Fortress","app_id":440,"player_count":0,"max_players":24,"Bots":0,"server_type":"Dedicated","server_os":"Linux","password":true,"vac":true,"version":"7757534","steam_id":85568392924515187,"keywords":["cp","nocrits","nodmgspread","uncletopia"],"game_id":440,"stv_port":27036,"stv_name":"Uncletopia | Atlanta | 3 | Community | STV","players":null},{"server_id":401,"name":"Uncletopia | Atlanta | 4 | No Payload","name_short":"atl-4","host":"atl-1.us.uncletopia.com","port":27045,"enabled":true,"region":"us-east","cc":"us","latitude":33.753746,"longitude":-84.38633,"reserved":0,"last_update":"0001-01-01T00:00:00Z","name_a2s":"","protocol":0,"map":"","folder":"","game":"","app_id":0,"player_count":0,"max_players":0,"Bots":0,"server_type":"","server_os":"","password":false,"vac":false,"version":"","steam_id":0,"keywords":null,"game_id":0,"stv_port":0,"stv_name":"","players":null},{"server_id":2,"name":"Uncletopia | Chicago | 1 | All Maps","name_short":"chi-1","host":"chi-1.us.uncletopia.com","port":27015,"enabled":true,"region":"us-central","cc":"us","latitude":41.881832,"longitude":-87.62318,"reserved":0,"last_update":"0001-01-01T00:00:00Z","name_a2s":"Uncletopia | Chicago | 1 | All Maps","protocol":17,"map":"pl_upward","folder":"tf","game":"Team Fortress","app_id":440,"player_count":24,"max_players":24,"Bots":0,"server_type":"Dedicated","server_os":"Linux","password":true,"vac":true,"version":"7757534","steam_id":85568392924469984,"keywords":["nocrits","nodmgspread","payload","uncletopia"],"game_id":440,"stv_port":27016,"stv_name":"Uncletopia | Chicago | 1 | All Maps | STV","players":[{"user_id":306,"name":"mineblast99","steam_id":76561199065648954,"connected_time":1494000000000,"state":"active","ping":76},{"user_id":282,"name":"ThatOneKnight","steam_id":76561198388583650,"connected_time":3574000000000,"state":"active","ping":53},{"user_id":311,"name":"share your drink with me","steam_id":76561198035698704,"connected_time":1143000000000,"state":"active","ping":92},{"user_id":313,"name":"chaffy","steam_id":76561198021754567,"connected_time":396000000000,"state":"active","ping":60},{"user_id":302,"name":"p i n e ↟ ↟","steam_id":76561198058199952,"connected_time":1692000000000,"state":"active","ping":79},{"user_id":305,"name":"shadow elite","steam_id":76561198165212575,"connected_time":1681000000000,"state":"active","ping":65},{"user_id":294,"name":"he drove a series ten cadillac","steam_id":76561198142756572,"connected_time":2583000000000,"state":"active","ping":70},{"user_id":283,"name":"Fluffeline","steam_id":76561198352909489,"connected_time":3572000000000,"state":"active","ping":136},{"user_id":314,"name":"Violet42","steam_id":76561198072927887,"connected_time":384000000000,"state":"active","ping":60},{"user_id":299,"name":"Morshu","steam_id":76561198081617990,"connected_time":2058000000000,"state":"active","ping":99},{"user_id":277,"name":"Doublebagel47","steam_id":76561198832021744,"connected_time":3917000000000,"state":"active","ping":73},{"user_id":298,"name":"Salad","steam_id":76561198842089895,"connected_time":2480000000000,"state":"active","ping":64},{"user_id":308,"name":"tobrehto","steam_id":76561198097544038,"connected_time":1179000000000,"state":"active","ping":94},{"user_id":312,"name":"oxbudy","steam_id":76561198022120207,"connected_time":1093000000000,"state":"active","ping":73},{"user_id":237,"name":"JestinJester","steam_id":76561198411846094,"connected_time":5696000000000,"state":"active","ping":75},{"user_id":309,"name":"TeeTree","steam_id":76561198862307874,"connected_time":1172000000000,"state":"active","ping":60},{"user_id":307,"name":"Divine Light","steam_id":76561198369477018,"connected_time":1423000000000,"state":"active","ping":61},{"user_id":297,"name":"the headphones you lost","steam_id":76561199201098634,"connected_time":2550000000000,"state":"active","ping":57},{"user_id":288,"name":"Elefanté","steam_id":76561198258765900,"connected_time":3255000000000,"state":"active","ping":85},{"user_id":248,"name":"花の派手な鼻","steam_id":76561198042735130,"connected_time":5512000000000,"state":"active","ping":114},{"user_id":301,"name":"a bag of deep-fried pickles","steam_id":76561198411870808,"connected_time":1716000000000,"state":"active","ping":44},{"user_id":291,"name":"DillZZ","steam_id":76561199067883507,"connected_time":2641000000000,"state":"active","ping":74},{"user_id":279,"name":"Omni","steam_id":76561198035774007,"connected_time":3905000000000,"state":"active","ping":77},{"user_id":281,"name":"CeigeBirb","steam_id":76561198068538473,"connected_time":3630000000000,"state":"active","ping":78}]},{"server_id":106,"name":"Uncletopia | Chicago | 2 | All Maps","name_short":"chi-2","host":"chi-1.us.uncletopia.com","port":27025,"enabled":true,"region":"us-central","cc":"us","latitude":41.881832,"longitude":-87.62318,"reserved":0,"last_update":"0001-01-01T00:00:00Z","name_a2s":"Uncletopia | Chicago | 2 | All Maps","protocol":17,"map":"cp_dustbowl","folder":"tf","game":"Team Fortress","app_id":440,"player_count":17,"max_players":24,"Bots":0,"server_type":"Dedicated","server_os":"Linux","password":true,"vac":true,"version":"7757534","steam_id":85568392924469985,"keywords":["cp","nocrits","nodmgspread","uncletopia"],"game_id":440,"stv_port":27026,"stv_name":"Uncletopia | Chicago | 2 | All Maps | STV","players":[{"user_id":262,"name":"I Am Alpharius","steam_id":76561198799197135,"connected_time":1101000000000,"state":"active","ping":55},{"user_id":268,"name":"Cyanide Cookie Dealer","steam_id":76561198273154644,"connected_time":988000000000,"state":"active","ping":48},{"user_id":275,"name":"Saint!","steam_id":76561198150438871,"connected_time":82000000000,"state":"active","ping":74},{"user_id":276,"name":"DylanGuy","steam_id":76561198800767851,"connected_time":81000000000,"state":"active","ping":75},{"user_id":277,"name":"SomeFuckingGuy #SAVETF2","steam_id":76561199239165015,"connected_time":76000000000,"state":"active","ping":75},{"user_id":278,"name":"The Italian Stig","steam_id":76561198246480090,"connected_time":9000000000,"state":"spawning","ping":66},{"user_id":243,"name":"nat","steam_id":76561198865090309,"connected_time":1607000000000,"state":"active","ping":79},{"user_id":264,"name":"Kitt-Katt","steam_id":76561198088868014,"connected_time":1079000000000,"state":"active","ping":102},{"user_id":274,"name":"PeachFlavoredBleach","steam_id":76561198116226449,"connected_time":115000000000,"state":"active","ping":57},{"user_id":267,"name":"FullAcceptability","steam_id":76561199089507144,"connected_time":1060000000000,"state":"active","ping":71},{"user_id":251,"name":"ƐՌѴƳ","steam_id":76561198099470277,"connected_time":1410000000000,"state":"active","ping":78},{"user_id":240,"name":"ThatRudeDuck","steam_id":76561199087894599,"connected_time":1622000000000,"state":"active","ping":66},{"user_id":253,"name":"ECCO","steam_id":76561198002821513,"connected_time":1378000000000,"state":"active","ping":56},{"user_id":271,"name":"TheSnipersHat","steam_id":76561198057684066,"connected_time":886000000000,"state":"active","ping":54},{"user_id":256,"name":"N̸̩̏ö̶̻́o̴̹͗t̷̼̃","steam_id":76561198023933437,"connected_time":1286000000000,"state":"active","ping":68},{"user_id":215,"name":"Drachma","steam_id":76561198007310514,"connected_time":4536000000000,"state":"active","ping":69}]},{"server_id":402,"name":"Uncletopia | Chicago | 3 | All Maps","name_short":"chi-3","host":"chi-1.us.uncletopia.com","port":27035,"enabled":true,"region":"us-central","cc":"us","latitude":41.881832,"longitude":-87.62318,"reserved":0,"last_update":"0001-01-01T00:00:00Z","name_a2s":"Uncletopia | Chicago | 3 | All Maps","protocol":17,"map":"koth_viaduct","folder":"tf","game":"Team Fortress","app_id":440,"player_count":11,"max_players":24,"Bots":0,"server_type":"Dedicated","server_os":"Linux","password":true,"vac":true,"version":"7757534","steam_id":85568392924515191,"keywords":["cp","nocrits","nodmgspread","uncletopia"],"game_id":440,"stv_port":27036,"stv_name":"Uncletopia | Chicago | 3 | All Maps | STV","players":[{"user_id":11,"name":"Soil","steam_id":76561198943879122,"connected_time":893000000000,"state":"active","ping":62},{"user_id":12,"name":"Jee","steam_id":76561198237639548,"connected_time":887000000000,"state":"active","ping":73},{"user_id":13,"name":"SEXHATER329","steam_id":76561198101093446,"connected_time":886000000000,"state":"active","ping":55},{"user_id":14,"name":"Nickel","steam_id":76561199037745941,"connected_time":689000000000,"state":"active","ping":214},{"user_id":16,"name":"Sputnuts","steam_id":76561198236857310,"connected_time":613000000000,"state":"active","ping":55},{"user_id":18,"name":"paChewychomp","steam_id":76561198068738250,"connected_time":563000000000,"state":"active","ping":109},{"user_id":19,"name":"The YamahaJoe_™","steam_id":76561198045802678,"connected_time":489000000000,"state":"active","ping":45},{"user_id":24,"name":"double with a funny hat","steam_id":76561199241322679,"connected_time":159000000000,"state":"active","ping":65},{"user_id":21,"name":"cratex","steam_id":76561198251054454,"connected_time":369000000000,"state":"active","ping":70},{"user_id":22,"name":"(WE LOVE CASTING SPELLS)","steam_id":76561198088372680,"connected_time":340000000000,"state":"active","ping":85},{"user_id":23,"name":"SHADOW WIZARD MONEY GANG","steam_id":76561198190323610,"connected_time":338000000000,"state":"active","ping":80}]},{"server_id":403,"name":"Uncletopia | Chicago | 4 | All Maps","name_short":"chi-4","host":"chi-1.us.uncletopia.com","port":27045,"enabled":true,"region":"us-central","cc":"us","latitude":41.881832,"longitude":-87.62318,"reserved":0,"last_update":"0001-01-01T00:00:00Z","name_a2s":"Uncletopia | Chicago | 4 | All Maps","protocol":17,"map":"pl_frontier_final","folder":"tf","game":"Team Fortress","app_id":440,"player_count":23,"max_players":24,"Bots":0,"server_type":"Dedicated","server_os":"Linux","password":true,"vac":true,"version":"7757534","steam_id":85568392924515193,"keywords":["nocrits","nodmgspread","payload","uncletopia"],"game_id":440,"stv_port":27046,"stv_name":"Uncletopia | Chicago | 4 | All Maps | STV","players":[{"user_id":156,"name":"Leveller","steam_id":76561198157718060,"connected_time":2348000000000,"state":"active","ping":77},{"user_id":165,"name":"Glowing5KY","steam_id":76561198850434905,"connected_time":2124000000000,"state":"active","ping":128},{"user_id":193,"name":"joethefool","steam_id":76561199015436319,"connected_time":194000000000,"state":"active","ping":62},{"user_id":179,"name":"Dr. Nobotnik","steam_id":76561198357339092,"connected_time":1068000000000,"state":"active","ping":109},{"user_id":194,"name":"Hylic","steam_id":76561199051314589,"connected_time":114000000000,"state":"active","ping":60},{"user_id":168,"name":"Trusty","steam_id":76561198035444237,"connected_time":1947000000000,"state":"active","ping":66},{"user_id":195,"name":"D K","steam_id":76561199040749437,"connected_time":94000000000,"state":"active","ping":91},{"user_id":147,"name":"Certified BigMan","steam_id":76561198095544632,"connected_time":3303000000000,"state":"active","ping":60},{"user_id":192,"name":"Scrux","steam_id":76561198129763115,"connected_time":304000000000,"state":"active","ping":102},{"user_id":188,"name":"need a dispenser here","steam_id":76561198060912995,"connected_time":650000000000,"state":"active","ping":58},{"user_id":185,"name":"tinkercrab11","steam_id":76561198881792140,"connected_time":758000000000,"state":"active","ping":88},{"user_id":164,"name":"Dreamy \u003c3","steam_id":76561198129908521,"connected_time":2161000000000,"state":"active","ping":77},{"user_id":196,"name":"Six","steam_id":76561198140584050,"connected_time":50000000000,"state":"active","ping":66},{"user_id":171,"name":"Fiendish Frog","steam_id":76561198029478821,"connected_time":1724000000000,"state":"active","ping":75},{"user_id":197,"name":"Sal Vulcano","steam_id":76561198016677665,"connected_time":48000000000,"state":"active","ping":70},{"user_id":146,"name":"Walmus","steam_id":76561198111416393,"connected_time":3338000000000,"state":"active","ping":96},{"user_id":187,"name":"Meth Goblin","steam_id":76561198086355221,"connected_time":678000000000,"state":"active","ping":82},{"user_id":198,"name":"matt","steam_id":76561198151093701,"connected_time":29000000000,"state":"active","ping":64},{"user_id":189,"name":"Fobby #Savetf2","steam_id":76561198047681469,"connected_time":579000000000,"state":"active","ping":68},{"user_id":181,"name":"Wengatang","steam_id":76561198021747059,"connected_time":841000000000,"state":"active","ping":56},{"user_id":176,"name":"Sideways Whoopi Goldberg","steam_id":76561198003736560,"connected_time":1487000000000,"state":"active","ping":60},{"user_id":167,"name":"dreguen","steam_id":76561199471148663,"connected_time":2011000000000,"state":"active","ping":70},{"user_id":182,"name":"Evolution","steam_id":76561198144767370,"connected_time":838000000000,"state":"active","ping":58}]},{"server_id":36,"name":"Uncletopia | Chicago | 5 | All Maps","name_short":"chi-5","host":"chi-2.us.uncletopia.com","port":27015,"enabled":true,"region":"us-central","cc":"us","latitude":41.881832,"longitude":-87.62318,"reserved":0,"last_update":"0001-01-01T00:00:00Z","name_a2s":"Uncletopia | Chicago | 5 | All Maps","protocol":17,"map":"koth_cascade","folder":"tf","game":"Team Fortress","app_id":440,"player_count":1,"max_players":24,"Bots":0,"server_type":"Dedicated","server_os":"Linux","password":true,"vac":true,"version":"7757534","steam_id":85568392924866362,"keywords":["cp","nocrits","nodmgspread","uncletopia"],"game_id":440,"stv_port":27016,"stv_name":"Uncletopia | Chicago | 5 | All Maps | STV","players":[{"user_id":3,"name":"trans?","steam_id":76561198407097338,"connected_time":35000000000,"state":"active","ping":69}]},{"server_id":37,"name":"Uncletopia | Chicago | 6 | All Maps","name_short":"chi-6","host":"chi-2.us.uncletopia.com","port":27025,"enabled":true,"region":"us-central","cc":"us","latitude":41.881832,"longitude":-87.62318,"reserved":0,"last_update":"0001-01-01T00:00:00Z","name_a2s":"Uncletopia | Chicago | 6 | All Maps","protocol":17,"map":"cp_snakewater_final1","folder":"tf","game":"Team Fortress","app_id":440,"player_count":0,"max_players":24,"Bots":0,"server_type":"Dedicated","server_os":"Linux","password":true,"vac":true,"version":"7757534","steam_id":85568392924866363,"keywords":["cp","nocrits","nodmgspread","uncletopia"],"game_id":440,"stv_port":27026,"stv_name":"Uncletopia | Chicago | 6 | All Maps | STV","players":null},{"server_id":38,"name":"Uncletopia | Chicago | 7 | Stopwatch Beta","name_short":"chi-7","host":"chi-2.us.uncletopia.com","port":27035,"enabled":true,"region":"us-central","cc":"us","latitude":41.881832,"longitude":-87.62318,"reserved":0,"last_update":"0001-01-01T00:00:00Z","name_a2s":"Uncletopia | Chicago | 7 | Stopwatch Beta","protocol":17,"map":"pl_barnblitz","folder":"tf","game":"Team Fortress","app_id":440,"player_count":0,"max_players":24,"Bots":0,"server_type":"Dedicated","server_os":"Linux","password":true,"vac":true,"version":"7757534","steam_id":85568392924866364,"keywords":["nocrits","nodmgspread","payload","uncletopia"],"game_id":440,"stv_port":27036,"stv_name":"Uncletopia | Chicago | 7 | Stopwatch Beta | STV","players":null},{"server_id":39,"name":"Uncletopia | Chicago | 8 | Community","name_short":"chi-8","host":"chi-2.us.uncletopia.com","port":27045,"enabled":true,"region":"us-central","cc":"us","latitude":41.881832,"longitude":-87.62318,"reserved":0,"last_update":"0001-01-01T00:00:00Z","name_a2s":"Uncletopia | Chicago | 8 | Community","protocol":17,"map":"koth_cascade","folder":"tf","game":"Team Fortress","app_id":440,"player_count":0,"max_players":24,"Bots":0,"server_type":"Dedicated","server_os":"Linux","password":true,"vac":true,"version":"7757534","steam_id":85568392924866365,"keywords":["cp","nocrits","nodmgspread","uncletopia"],"game_id":440,"stv_port":27046,"stv_name":"Uncletopia | Chicago | 8 | Community | STV","players":null},{"server_id":8,"name":"Uncletopia | Dallas | 1 | All Maps","name_short":"dal-1","host":"dal-1.us.uncletopia.com","port":27015,"enabled":true,"region":"us-central","cc":"us","latitude":32.779167,"longitude":-96.80889,"reserved":0,"last_update":"0001-01-01T00:00:00Z","name_a2s":"Uncletopia | Dallas | 1 | All Maps","protocol":17,"map":"cp_dustbowl","folder":"tf","game":"Team Fortress","app_id":440,"player_count":23,"max_players":24,"Bots":0,"server_type":"Dedicated","server_os":"Linux","password":true,"vac":true,"version":"7757534","steam_id":85568392924469986,"keywords":["cp","nocrits","nodmgspread","uncletopia"],"game_id":440,"stv_port":27016,"stv_name":"Uncletopia | Dallas | 1 | All Maps | STV","players":[{"user_id":166,"name":"Neo Noire","steam_id":76561198222930860,"connected_time":2781000000000,"state":"active","ping":90},{"user_id":181,"name":"Soju","steam_id":76561198044130442,"connected_time":1385000000000,"state":"active","ping":53},{"user_id":179,"name":"JimmySquid","steam_id":76561198254242530,"connected_time":1502000000000,"state":"active","ping":63},{"user_id":193,"name":"Dive(z)","steam_id":76561198140843225,"connected_time":282000000000,"state":"active","ping":82},{"user_id":130,"name":"Tyler\u0026Fingers","steam_id":76561198085154485,"connected_time":6223000000000,"state":"active","ping":89},{"user_id":194,"name":"Snivy64","steam_id":76561198423445376,"connected_time":71000000000,"state":"active","ping":79},{"user_id":180,"name":"Nue","steam_id":76561198174118293,"connected_time":1411000000000,"state":"active","ping":84},{"user_id":137,"name":"LerN","steam_id":76561198083463877,"connected_time":5903000000000,"state":"active","ping":76},{"user_id":174,"name":"Nebula","steam_id":76561198795878862,"connected_time":2139000000000,"state":"active","ping":84},{"user_id":188,"name":"4 Itchy Tasty","steam_id":76561198009869383,"connected_time":762000000000,"state":"active","ping":83},{"user_id":173,"name":"The Potato Romancer","steam_id":76561198204197648,"connected_time":2225000000000,"state":"active","ping":76},{"user_id":182,"name":"Drilly22","steam_id":76561198068838338,"connected_time":1373000000000,"state":"active","ping":65},{"user_id":195,"name":"Praxis","steam_id":76561197960794303,"connected_time":18000000000,"state":"spawning","ping":131},{"user_id":156,"name":"kris the deer","steam_id":76561198170928310,"connected_time":4309000000000,"state":"active","ping":89},{"user_id":190,"name":"mkl","steam_id":76561197986401685,"connected_time":685000000000,"state":"active","ping":60},{"user_id":175,"name":"DiabetesMan","steam_id":76561198075668940,"connected_time":1624000000000,"state":"active","ping":88},{"user_id":192,"name":"Jared In Target","steam_id":76561198372449718,"connected_time":318000000000,"state":"active","ping":40},{"user_id":184,"name":"Tritium","steam_id":76561198043305626,"connected_time":1341000000000,"state":"active","ping":95},{"user_id":143,"name":"your local forecast","steam_id":76561198042243083,"connected_time":5676000000000,"state":"active","ping":76},{"user_id":185,"name":"Congcrab","steam_id":76561198078687685,"connected_time":1281000000000,"state":"active","ping":93},{"user_id":186,"name":"MuffinRat","steam_id":76561197993404964,"connected_time":1280000000000,"state":"active","ping":76},{"user_id":160,"name":"the smiling zombie","steam_id":76561199246231090,"connected_time":3939000000000,"state":"active","ping":84},{"user_id":187,"name":"KhorneBread ︻デ 一","steam_id":76561198097069958,"connected_time":879000000000,"state":"active","ping":98}]},{"server_id":108,"name":"Uncletopia | Dallas | 2 | All Maps","name_short":"dal-2","host":"dal-1.us.uncletopia.com","port":27025,"enabled":true,"region":"us-central","cc":"us","latitude":32.779167,"longitude":-96.80889,"reserved":0,"last_update":"0001-01-01T00:00:00Z","name_a2s":"Uncletopia | Dallas | 2 | All Maps","protocol":17,"map":"koth_cascade","folder":"tf","game":"Team Fortress","app_id":440,"player_count":0,"max_players":24,"Bots":0,"server_type":"Dedicated","server_os":"Linux","password":true,"vac":true,"version":"7757534","steam_id":85568392924469988,"keywords":["cp","nocrits","nodmgspread","uncletopia"],"game_id":440,"stv_port":27026,"stv_name":"Uncletopia | Dallas | 2 | All Maps | STV","players":null},{"server_id":5,"name":"Uncletopia | Frankfurt | 1 | All Maps","name_short":"frk-1","host":"frk-1.de.uncletopia.com","port":27015,"enabled":true,"region":"eu","cc":"de","latitude":50.110924,"longitude":8.682127,"reserved":0,"last_update":"0001-01-01T00:00:00Z","name_a2s":"Uncletopia | Frankfurt | 1 | All Maps","protocol":17,"map":"cp_snakewater_final1","folder":"tf","game":"Team Fortress","app_id":440,"player_count":24,"max_players":24,"Bots":0,"server_type":"Dedicated","server_os":"Linux","password":true,"vac":true,"version":"7757534","steam_id":85568392924469989,"keywords":["cp","nocrits","nodmgspread","uncletopia"],"game_id":440,"stv_port":27016,"stv_name":"Uncletopia | Frankfurt | 1 | All Maps | STV","players":[{"user_id":56,"name":"GMsU | AuxiliusM","steam_id":76561198071903356,"connected_time":646000000000,"state":"active","ping":45},{"user_id":63,"name":"SHADOW WIZARD MONEY GANG","steam_id":76561198179324075,"connected_time":384000000000,"state":"active","ping":70},{"user_id":32,"name":"10 Years in the joint","steam_id":76561198371280938,"connected_time":1225000000000,"state":"active","ping":67},{"user_id":57,"name":"★","steam_id":76561198080168182,"connected_time":614000000000,"state":"active","ping":72},{"user_id":33,"name":"twitch.tv/matektf","steam_id":76561198063884235,"connected_time":1013000000000,"state":"active","ping":60},{"user_id":34,"name":"who's up ermin rn","steam_id":76561198101292843,"connected_time":982000000000,"state":"active","ping":45},{"user_id":35,"name":"KingVoker","steam_id":76561198039602539,"connected_time":979000000000,"state":"active","ping":64},{"user_id":65,"name":"Poppy Stingray","steam_id":76561198049673783,"connected_time":285000000000,"state":"active","ping":75},{"user_id":37,"name":"The Punch","steam_id":76561198212488780,"connected_time":909000000000,"state":"active","ping":60},{"user_id":45,"name":"DelT","steam_id":76561198204007537,"connected_time":815000000000,"state":"active","ping":49},{"user_id":39,"name":"Mottinen","steam_id":76561198223868928,"connected_time":883000000000,"state":"active","ping":78},{"user_id":40,"name":"walluu","steam_id":76561198121830870,"connected_time":865000000000,"state":"active","ping":71},{"user_id":41,"name":"EEEEEH","steam_id":76561198126717413,"connected_time":863000000000,"state":"active","ping":84},{"user_id":46,"name":"Capu","steam_id":76561198114301162,"connected_time":809000000000,"state":"active","ping":74},{"user_id":43,"name":"Nikcha","steam_id":76561198253300222,"connected_time":853000000000,"state":"active","ping":71},{"user_id":44,"name":"Kleiner Engel","steam_id":76561198009922500,"connected_time":851000000000,"state":"active","ping":62},{"user_id":47,"name":"GMsU | Rebikas","steam_id":76561198077053764,"connected_time":798000000000,"state":"active","ping":49},{"user_id":48,"name":"SooS","steam_id":76561198058943929,"connected_time":792000000000,"state":"active","ping":85},{"user_id":49,"name":"The Waddle Theorists","steam_id":76561198148074472,"connected_time":777000000000,"state":"active","ping":45},{"user_id":50,"name":"POG","steam_id":76561198147277460,"connected_time":748000000000,"state":"active","ping":60},{"user_id":60,"name":"sex havin'","steam_id":76561198169857427,"connected_time":443000000000,"state":"active","ping":77},{"user_id":59,"name":"♥ Aura ♥","steam_id":76561198066258544,"connected_time":510000000000,"state":"active","ping":49},{"user_id":54,"name":"Fran","steam_id":76561199070516960,"connected_time":705000000000,"state":"active","ping":62},{"user_id":64,"name":"Tyzone♥","steam_id":76561198024844539,"connected_time":365000000000,"state":"active","ping":49}]},{"server_id":110,"name":"Uncletopia | Frankfurt | 2 | All Maps","name_short":"frk-2","host":"frk-1.de.uncletopia.com","port":27025,"enabled":true,"region":"eu","cc":"de","latitude":50.110924,"longitude":8.682127,"reserved":0,"last_update":"0001-01-01T00:00:00Z","name_a2s":"Uncletopia | Frankfurt | 2 | All Maps","protocol":17,"map":"ctf_turbine","folder":"tf","game":"Team Fortress","app_id":440,"player_count":24,"max_players":24,"Bots":0,"server_type":"Dedicated","server_os":"Linux","password":true,"vac":true,"version":"7757534","steam_id":85568392924469990,"keywords":["ctf","nocrits","nodmgspread","uncletopia"],"game_id":440,"stv_port":27026,"stv_name":"Uncletopia | Frankfurt | 2 | All Maps | STV","players":[{"user_id":240,"name":"Farmercy","steam_id":76561198000038039,"connected_time":2350000000000,"state":"active","ping":53},{"user_id":269,"name":"Ander Escobar","steam_id":76561198335366902,"connected_time":598000000000,"state":"active","ping":92},{"user_id":271,"name":"FreeToPlay Garbage","steam_id":76561198839018108,"connected_time":472000000000,"state":"active","ping":76},{"user_id":260,"name":"romanstep","steam_id":76561198234388872,"connected_time":1601000000000,"state":"active","ping":75},{"user_id":279,"name":"Calamity","steam_id":76561198094879610,"connected_time":316000000000,"state":"active","ping":84},{"user_id":241,"name":"CarBombEnthusiast","steam_id":76561199448185434,"connected_time":2316000000000,"state":"active","ping":65},{"user_id":258,"name":"Potato","steam_id":76561198883934935,"connected_time":1778000000000,"state":"active","ping":59},{"user_id":267,"name":"maxharmony","steam_id":76561198233819688,"connected_time":1113000000000,"state":"active","ping":87},{"user_id":215,"name":"Chainfire","steam_id":76561198120774329,"connected_time":5086000000000,"state":"active","ping":129},{"user_id":227,"name":"finbar","steam_id":76561198056812396,"connected_time":4221000000000,"state":"active","ping":81},{"user_id":283,"name":"garry","steam_id":76561198019078145,"connected_time":113000000000,"state":"active","ping":76},{"user_id":155,"name":"New","steam_id":76561198402195911,"connected_time":7594000000000,"state":"active","ping":111},{"user_id":141,"name":"zdX","steam_id":76561198163735277,"connected_time":9089000000000,"state":"active","ping":48},{"user_id":273,"name":"The Mind Goblin But Festive","steam_id":76561199258468520,"connected_time":424000000000,"state":"active","ping":78},{"user_id":196,"name":"GuSkand","steam_id":76561198043775605,"connected_time":5559000000000,"state":"active","ping":76},{"user_id":274,"name":"tete","steam_id":76561198045222850,"connected_time":400000000000,"state":"active","ping":72},{"user_id":281,"name":"Seuzon","steam_id":76561198416448649,"connected_time":157000000000,"state":"active","ping":96},{"user_id":276,"name":"mud","steam_id":76561198141497461,"connected_time":384000000000,"state":"active","ping":61},{"user_id":239,"name":"jill valentine","steam_id":76561198075068529,"connected_time":2443000000000,"state":"active","ping":56},{"user_id":254,"name":"multiflex","steam_id":76561198049639319,"connected_time":1922000000000,"state":"active","ping":72},{"user_id":224,"name":"Rosenmontag","steam_id":76561198079477964,"connected_time":4646000000000,"state":"active","ping":43},{"user_id":282,"name":"Ork","steam_id":76561197968575924,"connected_time":136000000000,"state":"active","ping":73},{"user_id":278,"name":"OutOfRage","steam_id":76561198211205791,"connected_time":381000000000,"state":"active","ping":53},{"user_id":256,"name":"d00bie","steam_id":76561198025295218,"connected_time":1863000000000,"state":"active","ping":64}]},{"server_id":308,"name":"Uncletopia | Frankfurt | 3 | All Maps","name_short":"frk-3","host":"frk-1.de.uncletopia.com","port":27035,"enabled":true,"region":"eu","cc":"de","latitude":50.110924,"longitude":8.682127,"reserved":0,"last_update":"0001-01-01T00:00:00Z","name_a2s":"Uncletopia | Frankfurt | 3 | All Maps","protocol":17,"map":"pl_borneo","folder":"tf","game":"Team Fortress","app_id":440,"player_count":23,"max_players":24,"Bots":0,"server_type":"Dedicated","server_os":"Linux","password":true,"vac":true,"version":"7757534","steam_id":85568392924504274,"keywords":["nocrits","nodmgspread","payload","uncletopia"],"game_id":440,"stv_port":27036,"stv_name":"Uncletopia | Frankfurt | 3 | All Maps | STV","players":[{"user_id":95,"name":"Chocofrolik","steam_id":76561198454779847,"connected_time":1985000000000,"state":"active","ping":92},{"user_id":85,"name":"yiabayrak","steam_id":76561198241873438,"connected_time":2223000000000,"state":"active","ping":76},{"user_id":119,"name":"NC","steam_id":76561198130595332,"connected_time":120000000000,"state":"active","ping":64},{"user_id":120,"name":"Tomo -ƒ$-","steam_id":76561199015097595,"connected_time":60000000000,"state":"active","ping":54},{"user_id":121,"name":"Swedde","steam_id":76561198297296440,"connected_time":28000000000,"state":"active","ping":91},{"user_id":113,"name":"Gabys","steam_id":76561198282892553,"connected_time":674000000000,"state":"active","ping":73},{"user_id":108,"name":"Winter Guy","steam_id":76561198326593298,"connected_time":1170000000000,"state":"active","ping":42},{"user_id":33,"name":"Balls","steam_id":76561198086400484,"connected_time":4603000000000,"state":"active","ping":79},{"user_id":68,"name":"roblan11","steam_id":76561198066839258,"connected_time":2783000000000,"state":"active","ping":46},{"user_id":118,"name":"Adrenaline","steam_id":76561197970852048,"connected_time":159000000000,"state":"active","ping":60},{"user_id":117,"name":"Cookies and Bakies","steam_id":76561198017442928,"connected_time":205000000000,"state":"active","ping":60},{"user_id":116,"name":"Ecton","steam_id":76561198025103720,"connected_time":474000000000,"state":"active","ping":60},{"user_id":122,"name":"dust","steam_id":76561198293557665,"connected_time":13000000000,"state":"spawning","ping":125},{"user_id":106,"name":"Markein","steam_id":76561198360754280,"connected_time":1470000000000,"state":"active","ping":47},{"user_id":92,"name":"FWDTRKR","steam_id":76561198060369427,"connected_time":2028000000000,"state":"active","ping":137},{"user_id":98,"name":"Mr.TEA","steam_id":76561198014381591,"connected_time":1961000000000,"state":"active","ping":57},{"user_id":104,"name":"Toebeans","steam_id":76561198049890080,"connected_time":1625000000000,"state":"active","ping":57},{"user_id":123,"name":"Grønkjær","steam_id":76561198041075280,"connected_time":7000000000,"state":"active","ping":145},{"user_id":109,"name":"Malik794","steam_id":76561198967164437,"connected_time":1060000000000,"state":"active","ping":105},{"user_id":124,"name":"12001 yellowjackets","steam_id":76561198375599872,"connected_time":7000000000,"state":"spawning","ping":90},{"user_id":107,"name":"TKN_Paps997","steam_id":76561198419868465,"connected_time":1454000000000,"state":"active","ping":82},{"user_id":125,"name":"Honest Tom's Discount Beef","steam_id":76561198029971392,"connected_time":0,"state":"spawning","ping":0},{"user_id":105,"name":"Furno","steam_id":76561197999723047,"connected_time":1583000000000,"state":"active","ping":47}]},{"server_id":309,"name":"Uncletopia | Frankfurt | 4 | All Maps","name_short":"frk-4","host":"frk-1.de.uncletopia.com","port":27045,"enabled":true,"region":"eu","cc":"de","latitude":50.110924,"longitude":8.682127,"reserved":0,"last_update":"0001-01-01T00:00:00Z","name_a2s":"Uncletopia | Frankfurt | 4 | All Maps","protocol":17,"map":"cp_snakewater_final1","folder":"tf","game":"Team Fortress","app_id":440,"player_count":0,"max_players":24,"Bots":0,"server_type":"Dedicated","server_os":"Linux","password":true,"vac":true,"version":"7757534","steam_id":85568392924504275,"keywords":["cp","nocrits","nodmgspread","uncletopia"],"game_id":440,"stv_port":27046,"stv_name":"Uncletopia | Frankfurt | 4 | All Maps | STV","players":null},{"server_id":310,"name":"Uncletopia | Frankfurt | 5 | All Maps","name_short":"frk-5","host":"frk-1.de.uncletopia.com","port":27055,"enabled":true,"region":"eu","cc":"de","latitude":50.110924,"longitude":8.682127,"reserved":0,"last_update":"0001-01-01T00:00:00Z","name_a2s":"Uncletopia | Frankfurt | 5 | All Maps","protocol":17,"map":"cp_sunshine","folder":"tf","game":"Team Fortress","app_id":440,"player_count":24,"max_players":24,"Bots":0,"server_type":"Dedicated","server_os":"Linux","password":true,"vac":true,"version":"7757534","steam_id":85568392924504277,"keywords":["cp","nocrits","nodmgspread","uncletopia"],"game_id":440,"stv_port":27056,"stv_name":"Uncletopia | Frankfurt | 5 | All Maps | STV","players":[{"user_id":309,"name":"eduardo","steam_id":76561198014491925,"connected_time":4095000000000,"state":"active","ping":79},{"user_id":364,"name":"antlionguard","steam_id":76561198072747143,"connected_time":2104000000000,"state":"active","ping":90},{"user_id":378,"name":"Bacco","steam_id":76561198121181775,"connected_time":832000000000,"state":"active","ping":48},{"user_id":389,"name":"GregerUlander","steam_id":76561198152375055,"connected_time":608000000000,"state":"active","ping":77},{"user_id":383,"name":"Bilbo Ballbaggins","steam_id":76561198070593514,"connected_time":700000000000,"state":"active","ping":60},{"user_id":363,"name":"Valentine","steam_id":76561198121343565,"connected_time":2117000000000,"state":"active","ping":45},{"user_id":313,"name":"HOT LOIS","steam_id":76561198302623594,"connected_time":4034000000000,"state":"active","ping":91},{"user_id":384,"name":"Michael","steam_id":76561198003146906,"connected_time":684000000000,"state":"active","ping":58},{"user_id":379,"name":"JAKE.DAVIDSON.12","steam_id":76561199212896654,"connected_time":820000000000,"state":"active","ping":88},{"user_id":408,"name":"AWJ ˆ-ˆ","steam_id":76561198053628243,"connected_time":178000000000,"state":"active","ping":55},{"user_id":374,"name":"ilpapanondormemai","steam_id":76561198383926042,"connected_time":1085000000000,"state":"active","ping":85},{"user_id":355,"name":"usia","steam_id":76561198120406679,"connected_time":2463000000000,"state":"active","ping":89},{"user_id":351,"name":"Noob_with_source","steam_id":76561198870362103,"connected_time":2660000000000,"state":"active","ping":62},{"user_id":385,"name":"recoil","steam_id":76561199168419398,"connected_time":662000000000,"state":"active","ping":77},{"user_id":412,"name":"Cosmonaut","steam_id":76561198239514504,"connected_time":14000000000,"state":"active","ping":68},{"user_id":387,"name":"MGE Bro","steam_id":76561198796600155,"connected_time":631000000000,"state":"active","ping":84},{"user_id":368,"name":"Gorlyscho","steam_id":76561198398371080,"connected_time":2042000000000,"state":"active","ping":92},{"user_id":367,"name":"S3R1K","steam_id":76561197998883586,"connected_time":2052000000000,"state":"active","ping":142},{"user_id":390,"name":"knulloskar","steam_id":76561199199521502,"connected_time":586000000000,"state":"active","ping":99},{"user_id":391,"name":"MaplePome","steam_id":76561199226615022,"connected_time":556000000000,"state":"active","ping":69},{"user_id":340,"name":"Deckard","steam_id":76561198004704647,"connected_time":3112000000000,"state":"active","ping":77},{"user_id":405,"name":"KLAMA  ❤","steam_id":76561198351549661,"connected_time":310000000000,"state":"active","ping":73},{"user_id":401,"name":"Badass gangnam style minion","steam_id":76561198297602677,"connected_time":432000000000,"state":"active","ping":85},{"user_id":337,"name":"Kogu8ek #savetf2","steam_id":76561198107387766,"connected_time":3202000000000,"state":"active","ping":65}]},{"server_id":311,"name":"Uncletopia | Frankfurt | 6 | All Maps","name_short":"frk-6","host":"frk-1.de.uncletopia.com","port":27065,"enabled":true,"region":"eu","cc":"de","latitude":50.110924,"longitude":8.682127,"reserved":0,"last_update":"0001-01-01T00:00:00Z","name_a2s":"Uncletopia | Frankfurt | 6 | All Maps","protocol":17,"map":"cp_sunshine","folder":"tf","game":"Team Fortress","app_id":440,"player_count":0,"max_players":24,"Bots":0,"server_type":"Dedicated","server_os":"Linux","password":true,"vac":true,"version":"7757534","steam_id":85568392924504278,"keywords":["cp","nocrits","nodmgspread","uncletopia"],"game_id":440,"stv_port":27066,"stv_name":"Uncletopia | Frankfurt | 6 | All Maps | STV","players":null},{"server_id":23,"name":"Uncletopia | Frankfurt | 7 | Stopwatch Beta","name_short":"frk-7","host":"frk-1.de.uncletopia.com","port":27075,"enabled":true,"region":"eu","cc":"de","latitude":50.110924,"longitude":8.682127,"reserved":0,"last_update":"0001-01-01T00:00:00Z","name_a2s":"Uncletopia | Frankfurt | 7 | Stopwatch Beta","protocol":17,"map":"workshop/pl_summercoast_rc8e.ugc1761528829","folder":"tf","game":"Team Fortress","app_id":440,"player_count":0,"max_players":24,"Bots":0,"server_type":"Dedicated","server_os":"Linux","password":true,"vac":true,"version":"7757534","steam_id":85568392924742827,"keywords":["nocrits","nodmgspread","payload","uncletopia"],"game_id":440,"stv_port":27076,"stv_name":"Uncletopia | Frankfurt | 7 | Stopwatch Beta | STV","players":null},{"server_id":24,"name":"Uncletopia | Frankfurt | 8 | Community","name_short":"frk-8","host":"frk-1.de.uncletopia.com","port":27085,"enabled":true,"region":"eu","cc":"de","latitude":50.110924,"longitude":8.682127,"reserved":0,"last_update":"0001-01-01T00:00:00Z","name_a2s":"Uncletopia | Frankfurt | 8 | Community","protocol":17,"map":"koth_lakeside_final","folder":"tf","game":"Team Fortress","app_id":440,"player_count":0,"max_players":24,"Bots":0,"server_type":"Dedicated","server_os":"Linux","password":true,"vac":true,"version":"7757534","steam_id":85568392924742828,"keywords":["cp","nocrits","nodmgspread","uncletopia"],"game_id":440,"stv_port":27086,"stv_name":"Uncletopia | Frankfurt | 8 | Community | STV","players":null},{"server_id":202,"name":"Uncletopia | Hong Kong | 1 | All Maps","name_short":"hgk-1","host":"hgk-1.hk.uncletopia.com","port":27015,"enabled":true,"region":"asia","cc":"hk","latitude":22.302711,"longitude":114.177216,"reserved":0,"last_update":"0001-01-01T00:00:00Z","name_a2s":"Uncletopia | Hong Kong | 1 | All Maps","protocol":17,"map":"plr_hightower","folder":"tf","game":"Team Fortress","app_id":440,"player_count":0,"max_players":24,"Bots":0,"server_type":"Dedicated","server_os":"Linux","password":true,"vac":true,"version":"7757534","steam_id":85568392924494504,"keywords":["nocrits","nodmgspread","payload","uncletopia"],"game_id":440,"stv_port":27016,"stv_name":"Uncletopia | Hong Kong | 1 | All Maps | STV","players":null},{"server_id":1,"name":"Uncletopia | Los Angeles | 1 | All Maps","name_short":"lax-1","host":"lax-1.us.uncletopia.com","port":27015,"enabled":true,"region":"us-west","cc":"us","latitude":33.94279,"longitude":-118.41004,"reserved":0,"last_update":"0001-01-01T00:00:00Z","name_a2s":"Uncletopia | Los Angeles | 1 | All Maps","protocol":17,"map":"koth_lakeside_final","folder":"tf","game":"Team Fortress","app_id":440,"player_count":0,"max_players":24,"Bots":0,"server_type":"Dedicated","server_os":"Linux","password":true,"vac":true,"version":"7757534","steam_id":85568392924469991,"keywords":["cp","nocrits","nodmgspread","uncletopia"],"game_id":440,"stv_port":27016,"stv_name":"Uncletopia | Los Angeles | 1 | All Maps | STV","players":null},{"server_id":112,"name":"Uncletopia | Los Angeles | 2 | All Maps","name_short":"lax-2","host":"lax-1.us.uncletopia.com","port":27025,"enabled":true,"region":"us-west","cc":"us","latitude":33.94279,"longitude":-118.41004,"reserved":0,"last_update":"0001-01-01T00:00:00Z","name_a2s":"Uncletopia | Los Angeles | 2 | All Maps","protocol":17,"map":"pl_snowycoast","folder":"tf","game":"Team Fortress","app_id":440,"player_count":24,"max_players":24,"Bots":0,"server_type":"Dedicated","server_os":"Linux","password":true,"vac":true,"version":"7757534","steam_id":85568392924469992,"keywords":["nocrits","nodmgspread","payload","uncletopia"],"game_id":440,"stv_port":27026,"stv_name":"Uncletopia | Los Angeles | 2 | All Maps | STV","players":[{"user_id":243,"name":"cass","steam_id":76561198074502046,"connected_time":1238000000000,"state":"active","ping":102},{"user_id":272,"name":"Nibotshooter","steam_id":76561199284825579,"connected_time":442000000000,"state":"active","ping":74},{"user_id":244,"name":"maxeatpie","steam_id":76561198438294875,"connected_time":1229000000000,"state":"active","ping":107},{"user_id":242,"name":"Little Shuriken","steam_id":76561199020477560,"connected_time":1398000000000,"state":"active","ping":42},{"user_id":237,"name":"AmyPercent","steam_id":76561198071896932,"connected_time":1635000000000,"state":"active","ping":78},{"user_id":239,"name":"Artificial Unintelligence","steam_id":76561199056745987,"connected_time":1596000000000,"state":"active","ping":94},{"user_id":202,"name":"old birb man","steam_id":76561199410269097,"connected_time":4344000000000,"state":"active","ping":106},{"user_id":283,"name":"Eden","steam_id":76561198081284664,"connected_time":246000000000,"state":"active","ping":45},{"user_id":253,"name":"Shadow the Hedgehog","steam_id":76561198050034647,"connected_time":969000000000,"state":"active","ping":53},{"user_id":236,"name":"Hernandez$","steam_id":76561198019324588,"connected_time":1719000000000,"state":"active","ping":50},{"user_id":286,"name":"Lobotomite Scout Player","steam_id":76561198046526036,"connected_time":121000000000,"state":"active","ping":53},{"user_id":262,"name":"JohnnyBoi","steam_id":76561199082599937,"connected_time":814000000000,"state":"active","ping":51},{"user_id":200,"name":"Imitation Caucasian","steam_id":76561198320536166,"connected_time":4472000000000,"state":"active","ping":68},{"user_id":263,"name":"Lepa Radić","steam_id":76561198014698593,"connected_time":777000000000,"state":"active","ping":132},{"user_id":248,"name":"KittenLord147","steam_id":76561198378333507,"connected_time":1129000000000,"state":"active","ping":122},{"user_id":256,"name":"eraserhead brandon","steam_id":76561198062723685,"connected_time":885000000000,"state":"active","ping":105},{"user_id":229,"name":"Grecks","steam_id":76561198154766165,"connected_time":2647000000000,"state":"active","ping":127},{"user_id":234,"name":"PLak-PlaK","steam_id":76561198115688122,"connected_time":2168000000000,"state":"active","ping":69},{"user_id":177,"name":"A Shiny Meat Bicycle","steam_id":76561198358757709,"connected_time":5827000000000,"state":"active","ping":127},{"user_id":249,"name":"Kitsune","steam_id":76561198241094670,"connected_time":1049000000000,"state":"active","ping":114},{"user_id":250,"name":"Kanye’s therapist","steam_id":76561198855665947,"connected_time":1048000000000,"state":"active","ping":112},{"user_id":258,"name":"evan_is_sauce","steam_id":76561199086802383,"connected_time":853000000000,"state":"active","ping":110},{"user_id":264,"name":"K2f","steam_id":76561198049600563,"connected_time":754000000000,"state":"active","ping":37},{"user_id":261,"name":"Critical","steam_id":76561198123744966,"connected_time":828000000000,"state":"active","ping":122}]},{"server_id":324,"name":"Uncletopia | Los Angeles | 3 | All Maps","name_short":"lax-3","host":"lax-1.us.uncletopia.com","port":27035,"enabled":true,"region":"us-west","cc":"us","latitude":33.94279,"longitude":-118.41004,"reserved":0,"last_update":"0001-01-01T00:00:00Z","name_a2s":"Uncletopia | Los Angeles | 3 | All Maps","protocol":17,"map":"pl_barnblitz","folder":"tf","game":"Team Fortress","app_id":440,"player_count":0,"max_players":24,"Bots":0,"server_type":"Dedicated","server_os":"Linux","password":true,"vac":true,"version":"7757534","steam_id":85568392924510198,"keywords":["nocrits","nodmgspread","payload","uncletopia"],"game_id":440,"stv_port":27036,"stv_name":"Uncletopia | Los Angeles | 3 | All Maps | STV","players":null},{"server_id":25,"name":"Uncletopia | Los Angeles | 4 | Stopwatch Beta","name_short":"lax-4","host":"lax-1.us.uncletopia.com","port":27045,"enabled":true,"region":"us-west","cc":"us","latitude":33.94279,"longitude":-118.41004,"reserved":0,"last_update":"0001-01-01T00:00:00Z","name_a2s":"Uncletopia | Los Angeles | 4 | Stopwatch Beta","protocol":17,"map":"pl_swiftwater_final1","folder":"tf","game":"Team Fortress","app_id":440,"player_count":0,"max_players":24,"Bots":0,"server_type":"Dedicated","server_os":"Linux","password":true,"vac":true,"version":"7757534","steam_id":85568392924510199,"keywords":["nocrits","nodmgspread","payload","uncletopia"],"game_id":440,"stv_port":27046,"stv_name":"Uncletopia | Los Angeles | 4 | Stopwatch Beta | STV","players":null},{"server_id":11,"name":"Uncletopia | London | 1 | All Maps","name_short":"lon-1","host":"lon-1.uk.uncletopia.com","port":27015,"enabled":true,"region":"eu","cc":"gb","latitude":51.509865,"longitude":-0.118092,"reserved":0,"last_update":"0001-01-01T00:00:00Z","name_a2s":"Uncletopia | London | 1 | All Maps","protocol":17,"map":"pl_snowycoast","folder":"tf","game":"Team Fortress","app_id":440,"player_count":24,"max_players":24,"Bots":0,"server_type":"Dedicated","server_os":"Linux","password":true,"vac":true,"version":"7757534","steam_id":85568392924367362,"keywords":["nocrits","nodmgspread","payload","uncletopia"],"game_id":440,"stv_port":27016,"stv_name":"Uncletopia | London | 1 | All Maps | STV","players":[{"user_id":518,"name":"Smokio","steam_id":76561198069650580,"connected_time":947000000000,"state":"active","ping":81},{"user_id":525,"name":"Rodia","steam_id":76561197968293161,"connected_time":265000000000,"state":"active","ping":68},{"user_id":526,"name":"AWildTamim","steam_id":76561198048060652,"connected_time":261000000000,"state":"active","ping":45},{"user_id":417,"name":"poliakov.noam","steam_id":76561199259322961,"connected_time":7179000000000,"state":"active","ping":93},{"user_id":491,"name":"Lucan","steam_id":76561198219195135,"connected_time":1986000000000,"state":"active","ping":48},{"user_id":509,"name":"brique","steam_id":76561199103944229,"connected_time":1541000000000,"state":"active","ping":69},{"user_id":517,"name":"Lyra","steam_id":76561198043601838,"connected_time":1142000000000,"state":"active","ping":68},{"user_id":520,"name":"donk donk","steam_id":76561197980736364,"connected_time":819000000000,"state":"active","ping":85},{"user_id":527,"name":"Chad Slav","steam_id":76561198160103841,"connected_time":260000000000,"state":"active","ping":81},{"user_id":529,"name":"Slipskip","steam_id":76561198018493540,"connected_time":119000000000,"state":"active","ping":59},{"user_id":500,"name":"joseph","steam_id":76561198099132493,"connected_time":1883000000000,"state":"active","ping":61},{"user_id":528,"name":"Gormbrain","steam_id":76561198020079511,"connected_time":232000000000,"state":"active","ping":32},{"user_id":522,"name":"Teleporter (jessie)","steam_id":76561198063093802,"connected_time":475000000000,"state":"active","ping":43},{"user_id":447,"name":"neJ","steam_id":76561198003397488,"connected_time":5962000000000,"state":"active","ping":83},{"user_id":456,"name":"on1on (julienned)","steam_id":76561197995304137,"connected_time":5227000000000,"state":"active","ping":72},{"user_id":503,"name":"Sven, Åke's boyfriend","steam_id":76561198130270161,"connected_time":1845000000000,"state":"active","ping":59},{"user_id":498,"name":"Åke, Sven's boyfriend","steam_id":76561198081559669,"connected_time":1894000000000,"state":"active","ping":91},{"user_id":514,"name":"Solymr ibn Wali Barad","steam_id":76561198044008976,"connected_time":1253000000000,"state":"active","ping":66},{"user_id":478,"name":"Woa","steam_id":76561198345683201,"connected_time":3259000000000,"state":"active","ping":53},{"user_id":442,"name":"Kapitan Polska","steam_id":76561197968069413,"connected_time":6255000000000,"state":"active","ping":85},{"user_id":480,"name":"Wyro","steam_id":76561199176835169,"connected_time":2976000000000,"state":"active","ping":54},{"user_id":505,"name":"j","steam_id":76561198299474630,"connected_time":1819000000000,"state":"active","ping":57},{"user_id":524,"name":"Katie","steam_id":76561198056193753,"connected_time":366000000000,"state":"active","ping":51},{"user_id":506,"name":"_D4VID","steam_id":76561198163317060,"connected_time":1787000000000,"state":"active","ping":50}]},{"server_id":114,"name":"Uncletopia | London | 2 | All Maps","name_short":"lon-2","host":"lon-1.uk.uncletopia.com","port":27025,"enabled":true,"region":"eu","cc":"gb","latitude":51.509865,"longitude":-0.118092,"reserved":0,"last_update":"0001-01-01T00:00:00Z","name_a2s":"Uncletopia | London | 2 | All Maps","protocol":17,"map":"pl_barnblitz","folder":"tf","game":"Team Fortress","app_id":440,"player_count":24,"max_players":24,"Bots":0,"server_type":"Dedicated","server_os":"Linux","password":true,"vac":true,"version":"7757534","steam_id":85568392924470941,"keywords":["nocrits","nodmgspread","payload","uncletopia"],"game_id":440,"stv_port":27026,"stv_name":"Uncletopia | London | 2 | All Maps | STV","players":[{"user_id":561,"name":"wtabs","steam_id":76561198831766743,"connected_time":1847000000000,"state":"active","ping":82},{"user_id":554,"name":"Optimizator 50","steam_id":76561198039631442,"connected_time":2252000000000,"state":"active","ping":82},{"user_id":557,"name":"Uncle Terry","steam_id":76561198396415736,"connected_time":1966000000000,"state":"active","ping":50},{"user_id":562,"name":"Akiron","steam_id":76561199267799044,"connected_time":1846000000000,"state":"active","ping":98},{"user_id":534,"name":"night.s","steam_id":76561198326287823,"connected_time":3028000000000,"state":"active","ping":80},{"user_id":547,"name":"twitch.tv/vision515","steam_id":76561198065293729,"connected_time":2593000000000,"state":"active","ping":177},{"user_id":575,"name":"Racecar Johnny","steam_id":76561198023085258,"connected_time":704000000000,"state":"active","ping":61},{"user_id":580,"name":"GamingCarp","steam_id":76561198285235511,"connected_time":409000000000,"state":"active","ping":47},{"user_id":544,"name":"disregard space, overextend","steam_id":76561198413545609,"connected_time":2763000000000,"state":"active","ping":47},{"user_id":479,"name":"YuraGreek","steam_id":76561198050182252,"connected_time":7012000000000,"state":"active","ping":84},{"user_id":571,"name":"lolgast210(NL)","steam_id":76561198118817234,"connected_time":1459000000000,"state":"active","ping":62},{"user_id":573,"name":"Hey, I´m Andy!","steam_id":76561198060337777,"connected_time":755000000000,"state":"active","ping":85},{"user_id":581,"name":"Awenova","steam_id":76561198322928940,"connected_time":368000000000,"state":"active","ping":154},{"user_id":582,"name":"Camo Leaf","steam_id":76561197999456575,"connected_time":341000000000,"state":"active","ping":49},{"user_id":583,"name":"Swedish Vegan","steam_id":76561198042775020,"connected_time":336000000000,"state":"active","ping":82},{"user_id":564,"name":"JAMES \"JIM\" COURIER","steam_id":76561198847048146,"connected_time":1631000000000,"state":"active","ping":63},{"user_id":584,"name":"Wardruna96","steam_id":76561199057083828,"connected_time":151000000000,"state":"active","ping":86},{"user_id":579,"name":"Bucket","steam_id":76561198814907468,"connected_time":461000000000,"state":"active","ping":44},{"user_id":480,"name":"LivEssense","steam_id":76561198052476979,"connected_time":6878000000000,"state":"active","ping":90},{"user_id":496,"name":"It's a me Malario","steam_id":76561198176546013,"connected_time":5842000000000,"state":"active","ping":50},{"user_id":422,"name":"F.K. fan","steam_id":76561198032359132,"connected_time":11663000000000,"state":"active","ping":46},{"user_id":585,"name":"Oboe","steam_id":76561198062823658,"connected_time":71000000000,"state":"active","ping":61},{"user_id":568,"name":"busgrabb","steam_id":76561198055768465,"connected_time":1566000000000,"state":"active","ping":69},{"user_id":569,"name":"Rowan Atkinson","steam_id":76561199378865926,"connected_time":1557000000000,"state":"active","ping":90}]},{"server_id":320,"name":"Uncletopia | London | 3 | All Maps","name_short":"lon-3","host":"lon-1.uk.uncletopia.com","port":27035,"enabled":true,"region":"eu","cc":"gb","latitude":51.509865,"longitude":-0.118092,"reserved":0,"last_update":"0001-01-01T00:00:00Z","name_a2s":"Uncletopia | London | 3 | All Maps","protocol":17,"map":"pl_borneo","folder":"tf","game":"Team Fortress","app_id":440,"player_count":24,"max_players":24,"Bots":0,"server_type":"Dedicated","server_os":"Linux","password":true,"vac":true,"version":"7757534","steam_id":85568392924510192,"keywords":["nocrits","nodmgspread","payload","uncletopia"],"game_id":440,"stv_port":27036,"stv_name":"Uncletopia | London | 3 | All Maps | STV","players":[{"user_id":324,"name":"Farum Teh Slowianski Grzyb","steam_id":76561197997638829,"connected_time":819000000000,"state":"active","ping":87},{"user_id":338,"name":"CAR DOOR","steam_id":76561198055283295,"connected_time":298000000000,"state":"active","ping":48},{"user_id":331,"name":"k","steam_id":76561198089342103,"connected_time":445000000000,"state":"active","ping":88},{"user_id":332,"name":"who is sandy loam???","steam_id":76561198033073709,"connected_time":429000000000,"state":"active","ping":114},{"user_id":295,"name":"iamhereforgaming","steam_id":76561199372555988,"connected_time":1897000000000,"state":"active","ping":88},{"user_id":296,"name":"hipster_doofus","steam_id":76561197970902697,"connected_time":1883000000000,"state":"active","ping":58},{"user_id":333,"name":"axin forefell","steam_id":76561198074815840,"connected_time":425000000000,"state":"active","ping":143},{"user_id":328,"name":"Topia","steam_id":76561198163571788,"connected_time":627000000000,"state":"active","ping":100},{"user_id":290,"name":"Roger Slippers","steam_id":76561198188642265,"connected_time":2082000000000,"state":"active","ping":59},{"user_id":325,"name":"Zogg","steam_id":76561198352683491,"connected_time":812000000000,"state":"active","ping":41},{"user_id":320,"name":"annie","steam_id":76561197994492154,"connected_time":1024000000000,"state":"active","ping":75},{"user_id":313,"name":"Bigguysal","steam_id":76561198171204223,"connected_time":1287000000000,"state":"active","ping":65},{"user_id":334,"name":"CORONA™ and friends","steam_id":76561198342011115,"connected_time":401000000000,"state":"active","ping":133},{"user_id":178,"name":"Anonymous47007","steam_id":76561199005211417,"connected_time":8773000000000,"state":"active","ping":79},{"user_id":343,"name":"steve","steam_id":76561198335143890,"connected_time":130000000000,"state":"active","ping":46},{"user_id":339,"name":"Thors","steam_id":76561197968739075,"connected_time":230000000000,"state":"active","ping":45},{"user_id":321,"name":"Kamanie","steam_id":76561198135448255,"connected_time":1019000000000,"state":"active","ping":68},{"user_id":336,"name":"Flint","steam_id":76561197995920776,"connected_time":357000000000,"state":"active","ping":47},{"user_id":280,"name":"Weeb exterminator","steam_id":76561198078964973,"connected_time":2624000000000,"state":"active","ping":74},{"user_id":298,"name":"Mug Wump","steam_id":76561198353201957,"connected_time":1830000000000,"state":"active","ping":143},{"user_id":342,"name":"DeSepp","steam_id":76561198063149086,"connected_time":144000000000,"state":"active","ping":66},{"user_id":340,"name":"El Gato Volador","steam_id":76561198021296882,"connected_time":197000000000,"state":"active","ping":61},{"user_id":327,"name":"hora","steam_id":76561198404470526,"connected_time":697000000000,"state":"active","ping":95},{"user_id":310,"name":"LuCroGi","steam_id":76561198057283891,"connected_time":1414000000000,"state":"active","ping":57}]},{"server_id":321,"name":"Uncletopia | London | 4 | All Maps","name_short":"lon-4","host":"lon-1.uk.uncletopia.com","port":27045,"enabled":true,"region":"eu","cc":"gb","latitude":51.509865,"longitude":-0.118092,"reserved":0,"last_update":"0001-01-01T00:00:00Z","name_a2s":"Uncletopia | London | 4 | All Maps","protocol":17,"map":"pl_upward","folder":"tf","game":"Team Fortress","app_id":440,"player_count":24,"max_players":24,"Bots":0,"server_type":"Dedicated","server_os":"Linux","password":true,"vac":true,"version":"7757534","steam_id":85568392924510193,"keywords":["nocrits","nodmgspread","payload","uncletopia"],"game_id":440,"stv_port":27046,"stv_name":"Uncletopia | London | 4 | All Maps | STV","players":[{"user_id":178,"name":".::[SerafeTTiN]::.","steam_id":76561198009471724,"connected_time":401000000000,"state":"active","ping":97},{"user_id":129,"name":"cof","steam_id":76561199128417805,"connected_time":1421000000000,"state":"active","ping":57},{"user_id":165,"name":"Th3Celestial","steam_id":76561198353312252,"connected_time":832000000000,"state":"active","ping":53},{"user_id":170,"name":"micnea","steam_id":76561199069974587,"connected_time":726000000000,"state":"active","ping":90},{"user_id":171,"name":"RQsC FeQuR","steam_id":76561198090884017,"connected_time":703000000000,"state":"active","ping":50},{"user_id":182,"name":"Birch","steam_id":76561198869201474,"connected_time":86000000000,"state":"active","ping":69},{"user_id":179,"name":"Laxslow","steam_id":76561198065361846,"connected_time":344000000000,"state":"active","ping":56},{"user_id":144,"name":"the real kenyes1!1!!!1!","steam_id":76561198129726064,"connected_time":1236000000000,"state":"active","ping":59},{"user_id":172,"name":"inV pijacka","steam_id":76561198103899658,"connected_time":691000000000,"state":"active","ping":73},{"user_id":136,"name":"pansexual","steam_id":76561198047778351,"connected_time":1347000000000,"state":"active","ping":44},{"user_id":118,"name":"doodgie","steam_id":76561198264934115,"connected_time":1939000000000,"state":"active","ping":60},{"user_id":135,"name":"kallerannar","steam_id":76561199095701143,"connected_time":1353000000000,"state":"active","ping":83},{"user_id":137,"name":"Salih","steam_id":76561198287934839,"connected_time":1338000000000,"state":"active","ping":52},{"user_id":173,"name":"Your Average F2P","steam_id":76561199403752637,"connected_time":686000000000,"state":"active","ping":54},{"user_id":139,"name":"Artha","steam_id":76561198198453253,"connected_time":1326000000000,"state":"active","ping":89},{"user_id":141,"name":"Hvíthrafn","steam_id":76561198027958747,"connected_time":1311000000000,"state":"active","ping":70},{"user_id":142,"name":"Smoke","steam_id":76561198041913192,"connected_time":1304000000000,"state":"active","ping":60},{"user_id":181,"name":"Washburne","steam_id":76561198032810579,"connected_time":117000000000,"state":"active","ping":56},{"user_id":98,"name":"fallingpencil","steam_id":76561199230233148,"connected_time":3997000000000,"state":"active","ping":56},{"user_id":145,"name":"powej","steam_id":76561198056381418,"connected_time":1235000000000,"state":"active","ping":38},{"user_id":175,"name":"After8","steam_id":76561198090750865,"connected_time":672000000000,"state":"active","ping":77},{"user_id":176,"name":"Banzar1","steam_id":76561198170325423,"connected_time":666000000000,"state":"active","ping":127},{"user_id":148,"name":"Agent_Mag","steam_id":76561199051793215,"connected_time":1222000000000,"state":"active","ping":166},{"user_id":180,"name":"Vikud","steam_id":76561199110575856,"connected_time":184000000000,"state":"active","ping":165}]},{"server_id":21,"name":"Uncletopia | London | 5 | All Maps","name_short":"lon-5","host":"lon-1.uk.uncletopia.com","port":27055,"enabled":true,"region":"eu","cc":"gb","latitude":51.509865,"longitude":-0.118092,"reserved":0,"last_update":"0001-01-01T00:00:00Z","name_a2s":"Uncletopia | London | 5 | All Maps","protocol":17,"map":"pl_snowycoast","folder":"tf","game":"Team Fortress","app_id":440,"player_count":24,"max_players":24,"Bots":0,"server_type":"Dedicated","server_os":"Linux","password":true,"vac":true,"version":"7757534","steam_id":85568392924742829,"keywords":["nocrits","nodmgspread","payload","uncletopia"],"game_id":440,"stv_port":27056,"stv_name":"Uncletopia | London | 5 | All Maps | STV","players":[{"user_id":295,"name":"iattwink","steam_id":76561198963378933,"connected_time":2470000000000,"state":"active","ping":44},{"user_id":296,"name":"static","steam_id":76561198836825741,"connected_time":2459000000000,"state":"active","ping":44},{"user_id":259,"name":"2Fort Goblin","steam_id":76561198878206817,"connected_time":6325000000000,"state":"active","ping":68},{"user_id":313,"name":"kotamine","steam_id":76561198068907991,"connected_time":1384000000000,"state":"active","ping":76},{"user_id":316,"name":"The Existent One","steam_id":76561198249214344,"connected_time":477000000000,"state":"active","ping":39},{"user_id":262,"name":"onion knight","steam_id":76561198328543549,"connected_time":6300000000000,"state":"active","ping":95},{"user_id":309,"name":"Daperlin (Spiritual State)","steam_id":76561198091299113,"connected_time":1485000000000,"state":"active","ping":144},{"user_id":322,"name":"[T]aKer","steam_id":76561198001778013,"connected_time":248000000000,"state":"active","ping":46},{"user_id":320,"name":"the catboy","steam_id":76561198236015506,"connected_time":289000000000,"state":"active","ping":116},{"user_id":294,"name":"Codex","steam_id":76561198068748584,"connected_time":2546000000000,"state":"active","ping":54},{"user_id":284,"name":"Mr Lidl","steam_id":76561198426522902,"connected_time":3346000000000,"state":"active","ping":56},{"user_id":269,"name":"Dog ?","steam_id":76561198347020945,"connected_time":5492000000000,"state":"active","ping":91},{"user_id":321,"name":"Udinese Dion","steam_id":76561198067931573,"connected_time":284000000000,"state":"active","ping":56},{"user_id":319,"name":"PizzaPete123","steam_id":76561198089478290,"connected_time":332000000000,"state":"active","ping":42},{"user_id":317,"name":"DraGOs512","steam_id":76561198438519964,"connected_time":450000000000,"state":"active","ping":85},{"user_id":304,"name":"Ziemniaczki z koperkiem","steam_id":76561198829123464,"connected_time":1849000000000,"state":"active","ping":91},{"user_id":318,"name":"SaltyCupcakes","steam_id":76561198256386417,"connected_time":406000000000,"state":"active","ping":49},{"user_id":302,"name":"Daoloth, Render of the Veils","steam_id":76561198115106008,"connected_time":2262000000000,"state":"active","ping":47},{"user_id":300,"name":"Fat Pigeon","steam_id":76561198817940142,"connected_time":2365000000000,"state":"active","ping":47},{"user_id":221,"name":"Egor Pomidor","steam_id":76561199175688390,"connected_time":9019000000000,"state":"active","ping":89},{"user_id":307,"name":"usernamesrhard","steam_id":76561198182956827,"connected_time":1772000000000,"state":"active","ping":69},{"user_id":315,"name":"Storm's Foreshadow","steam_id":76561198098462526,"connected_time":1375000000000,"state":"active","ping":75},{"user_id":283,"name":"Zerfesh","steam_id":76561198117534358,"connected_time":3406000000000,"state":"active","ping":108},{"user_id":230,"name":"sareena","steam_id":76561198810194062,"connected_time":7941000000000,"state":"active","ping":74}]},{"server_id":22,"name":"Uncletopia | London | 6 | All Maps","name_short":"lon-6","host":"lon-1.uk.uncletopia.com","port":27065,"enabled":true,"region":"eu","cc":"gb","latitude":51.509865,"longitude":-0.118092,"reserved":0,"last_update":"0001-01-01T00:00:00Z","name_a2s":"Uncletopia | London | 6 | All Maps","protocol":17,"map":"pl_badwater","folder":"tf","game":"Team Fortress","app_id":440,"player_count":24,"max_players":24,"Bots":0,"server_type":"Dedicated","server_os":"Linux","password":true,"vac":true,"version":"7757534","steam_id":85568392924742830,"keywords":["nocrits","nodmgspread","payload","uncletopia"],"game_id":440,"stv_port":27066,"stv_name":"Uncletopia | London | 6 | All Maps | STV","players":[{"user_id":14,"name":"Lord_Azrael","steam_id":76561199123402707,"connected_time":2146000000000,"state":"active","ping":57},{"user_id":15,"name":"luft","steam_id":76561198114404178,"connected_time":2123000000000,"state":"active","ping":60},{"user_id":16,"name":"BoltSive","steam_id":76561199084631869,"connected_time":2123000000000,"state":"active","ping":61},{"user_id":75,"name":"Medan","steam_id":76561198997483473,"connected_time":1056000000000,"state":"active","ping":77},{"user_id":18,"name":"Hoxton","steam_id":76561198129209505,"connected_time":2105000000000,"state":"active","ping":78},{"user_id":24,"name":"Mirage","steam_id":76561199013190566,"connected_time":2091000000000,"state":"active","ping":51},{"user_id":20,"name":"Scp Red","steam_id":76561198857302726,"connected_time":2102000000000,"state":"active","ping":64},{"user_id":50,"name":"Trench_Hands","steam_id":76561198063348835,"connected_time":1475000000000,"state":"active","ping":60},{"user_id":22,"name":"Zwacky civilnetworks.net","steam_id":76561198144233123,"connected_time":2096000000000,"state":"active","ping":125},{"user_id":23,"name":"Acey","steam_id":76561198114457284,"connected_time":2092000000000,"state":"active","ping":75},{"user_id":26,"name":"Zulutron civilnetworks.net","steam_id":76561199169607968,"connected_time":2076000000000,"state":"active","ping":47},{"user_id":27,"name":"\u003ecivilnetworks.ney\u003cFahAD","steam_id":76561198146828831,"connected_time":2071000000000,"state":"active","ping":151},{"user_id":91,"name":"pfear","steam_id":76561197999207328,"connected_time":96000000000,"state":"active","ping":81},{"user_id":29,"name":"Salasken CivilGamers.com","steam_id":76561199389216856,"connected_time":2061000000000,"state":"active","ping":134},{"user_id":37,"name":"Helyo","steam_id":76561198407141066,"connected_time":1981000000000,"state":"active","ping":79},{"user_id":31,"name":"Johnson J. Marauder","steam_id":76561198834581897,"connected_time":2052000000000,"state":"active","ping":80},{"user_id":33,"name":"fontorax","steam_id":76561198450249013,"connected_time":2026000000000,"state":"active","ping":78},{"user_id":34,"name":"Auburn | CivilNetworks.net","steam_id":76561198132236975,"connected_time":2022000000000,"state":"active","ping":58},{"user_id":87,"name":"JustADutch","steam_id":76561198873164912,"connected_time":563000000000,"state":"active","ping":64},{"user_id":36,"name":"Snow","steam_id":76561198245882572,"connected_time":1990000000000,"state":"active","ping":52},{"user_id":47,"name":"John Nuts","steam_id":76561199079951047,"connected_time":1726000000000,"state":"active","ping":96},{"user_id":88,"name":"meatsoupcube","steam_id":76561198276802249,"connected_time":549000000000,"state":"active","ping":102},{"user_id":43,"name":"BobTF2EASY.COM","steam_id":76561198395938434,"connected_time":1921000000000,"state":"active","ping":79},{"user_id":85,"name":"Mop","steam_id":76561198822725169,"connected_time":708000000000,"state":"active","ping":50}]},{"server_id":40,"name":"Uncletopia | London | 7 | No Payload","name_short":"lon-7","host":"lon-1.uk.uncletopia.com","port":27075,"enabled":true,"region":"eu","cc":"gb","latitude":51.509865,"longitude":-0.118092,"reserved":0,"last_update":"0001-01-01T00:00:00Z","name_a2s":"Uncletopia | London | 7 | No Payload","protocol":17,"map":"koth_lakeside_final","folder":"tf","game":"Team Fortress","app_id":440,"player_count":0,"max_players":24,"Bots":0,"server_type":"Dedicated","server_os":"Linux","password":true,"vac":true,"version":"7757534","steam_id":85568392924964314,"keywords":["cp","nocrits","nodmgspread","uncletopia"],"game_id":440,"stv_port":27076,"stv_name":"Uncletopia | London | 7 | No Payload | STV","players":null},{"server_id":41,"name":"Uncletopia | London | 8 | Community","name_short":"lon-8","host":"lon-1.uk.uncletopia.com","port":27085,"enabled":true,"region":"eu","cc":"gb","latitude":51.509865,"longitude":-0.118092,"reserved":0,"last_update":"0001-01-01T00:00:00Z","name_a2s":"Uncletopia | London | 8 | Community","protocol":17,"map":"workshop/cp_villa_b19.ugc2113052569","folder":"tf","game":"Team Fortress","app_id":440,"player_count":1,"max_players":24,"Bots":0,"server_type":"Dedicated","server_os":"Linux","password":true,"vac":true,"version":"7757534","steam_id":85568392924964315,"keywords":["cp","nocrits","nodmgspread","uncletopia"],"game_id":440,"stv_port":27086,"stv_name":"Uncletopia | London | 8 | Community | STV","players":[{"user_id":8,"name":"Chris","steam_id":76561198018626828,"connected_time":1374000000000,"state":"active","ping":40}]},{"server_id":300,"name":"Uncletopia | Montréal | 1 | All Maps","name_short":"mtl-1","host":"mtl-1.ca.uncletopia.com","port":27015,"enabled":true,"region":"us-east","cc":"ca","latitude":45.50889,"longitude":-73.56167,"reserved":0,"last_update":"0001-01-01T00:00:00Z","name_a2s":"Uncletopia | Montréal | 1 | All Maps","protocol":17,"map":"pl_barnblitz","folder":"tf","game":"Team Fortress","app_id":440,"player_count":0,"max_players":24,"Bots":0,"server_type":"Dedicated","server_os":"Linux","password":true,"vac":true,"version":"7757534","steam_id":85568392924500087,"keywords":["nocrits","nodmgspread","payload","uncletopia"],"game_id":440,"stv_port":27016,"stv_name":"Uncletopia | Montréal | 1 | All Maps | STV","players":null},{"server_id":301,"name":"Uncletopia | Montréal | 2 | All Maps","name_short":"mtl-2","host":"mtl-1.ca.uncletopia.com","port":27025,"enabled":true,"region":"us-east","cc":"ca","latitude":45.50889,"longitude":-73.56167,"reserved":0,"last_update":"0001-01-01T00:00:00Z","name_a2s":"Uncletopia | Montréal | 2 | All Maps","protocol":17,"map":"pl_snowycoast","folder":"tf","game":"Team Fortress","app_id":440,"player_count":4,"max_players":24,"Bots":0,"server_type":"Dedicated","server_os":"Linux","password":true,"vac":true,"version":"7757534","steam_id":85568392924500088,"keywords":["nocrits","nodmgspread","payload","uncletopia"],"game_id":440,"stv_port":27026,"stv_name":"Uncletopia | Montréal | 2 | All Maps | STV","players":[{"user_id":3,"name":"\u003cInsertGenericNameHere\u003e","steam_id":76561198388244476,"connected_time":950000000000,"state":"active","ping":84},{"user_id":4,"name":"oliverj.1424","steam_id":76561199139289998,"connected_time":887000000000,"state":"active","ping":166},{"user_id":5,"name":"dantheman14cool","steam_id":76561199035815342,"connected_time":878000000000,"state":"active","ping":94},{"user_id":6,"name":"PixelboioYT","steam_id":76561199090703819,"connected_time":458000000000,"state":"active","ping":65}]},{"server_id":302,"name":"Uncletopia | Montréal | 3 | All Maps","name_short":"mtl-3","host":"mtl-1.ca.uncletopia.com","port":27035,"enabled":true,"region":"us-east","cc":"ca","latitude":45.50889,"longitude":-73.56167,"reserved":0,"last_update":"0001-01-01T00:00:00Z","name_a2s":"Uncletopia | Montréal | 3 | All Maps","protocol":17,"map":"pl_swiftwater_final1","folder":"tf","game":"Team Fortress","app_id":440,"player_count":0,"max_players":24,"Bots":0,"server_type":"Dedicated","server_os":"Linux","password":true,"vac":true,"version":"7757534","steam_id":85568392924500089,"keywords":["nocrits","nodmgspread","payload","uncletopia"],"game_id":440,"stv_port":27036,"stv_name":"Uncletopia | Montréal | 3 | All Maps | STV","players":null},{"server_id":303,"name":"Uncletopia | Montréal | 4 | No Payload","name_short":"mtl-4","host":"mtl-1.ca.uncletopia.com","port":27045,"enabled":true,"region":"us-east","cc":"ca","latitude":45.50889,"longitude":-73.56167,"reserved":0,"last_update":"0001-01-01T00:00:00Z","name_a2s":"Uncletopia | Montréal | 4 | No Payload","protocol":17,"map":"pl_pier","folder":"tf","game":"Team Fortress","app_id":440,"player_count":0,"max_players":24,"Bots":0,"server_type":"Dedicated","server_os":"Linux","password":true,"vac":true,"version":"7757534","steam_id":85568392924500090,"keywords":["nocrits","nodmgspread","payload","uncletopia"],"game_id":440,"stv_port":27046,"stv_name":"Uncletopia | Montréal | 4 | No Payload | STV","players":null},{"server_id":13,"name":"Uncletopia | New York City | 1 | All Maps","name_short":"nyc-1","host":"nyc-1.us.uncletopia.com","port":27015,"enabled":true,"region":"us-east","cc":"us","latitude":40.73061,"longitude":-73.93524,"reserved":0,"last_update":"0001-01-01T00:00:00Z","name_a2s":"Uncletopia | New York City | 1 | All Maps","protocol":17,"map":"koth_viaduct","folder":"tf","game":"Team Fortress","app_id":440,"player_count":24,"max_players":24,"Bots":0,"server_type":"Dedicated","server_os":"Linux","password":true,"vac":true,"version":"7757534","steam_id":85568392924469993,"keywords":["cp","nocrits","nodmgspread","uncletopia"],"game_id":440,"stv_port":27016,"stv_name":"Uncletopia | New York City | 1 | All Maps | STV","players":[{"user_id":15,"name":"Fart Smella","steam_id":76561198419066993,"connected_time":2582000000000,"state":"active","ping":131},{"user_id":16,"name":"THE LOATHSOME DUNG EATER","steam_id":76561198805375543,"connected_time":2560000000000,"state":"active","ping":125},{"user_id":53,"name":"Ghost","steam_id":76561198110914180,"connected_time":515000000000,"state":"active","ping":171},{"user_id":37,"name":"Twink Death","steam_id":76561198205230615,"connected_time":1003000000000,"state":"active","ping":66},{"user_id":23,"name":"Deborp","steam_id":76561198118868430,"connected_time":1738000000000,"state":"active","ping":91},{"user_id":57,"name":"DatBlodGud","steam_id":76561198867897841,"connected_time":267000000000,"state":"active","ping":92},{"user_id":60,"name":"Hi, I'm Jesus","steam_id":76561198015327152,"connected_time":178000000000,"state":"active","ping":48},{"user_id":26,"name":"Ulrich Stern","steam_id":76561198101739682,"connected_time":1481000000000,"state":"active","ping":103},{"user_id":28,"name":"PileofPolygons","steam_id":76561199321343460,"connected_time":1262000000000,"state":"active","ping":68},{"user_id":56,"name":"Gabriel Masa","steam_id":76561198211455375,"connected_time":293000000000,"state":"active","ping":151},{"user_id":34,"name":"axiomaticAnarchy","steam_id":76561198066236113,"connected_time":1043000000000,"state":"active","ping":77},{"user_id":58,"name":"Daniel Craig Fan","steam_id":76561198053467923,"connected_time":258000000000,"state":"active","ping":86},{"user_id":36,"name":"Dr. Cocktor","steam_id":76561198187744622,"connected_time":1031000000000,"state":"active","ping":68},{"user_id":39,"name":"Raizen","steam_id":76561199092445367,"connected_time":936000000000,"state":"active","ping":64},{"user_id":40,"name":"a table","steam_id":76561198158461279,"connected_time":923000000000,"state":"active","ping":72},{"user_id":41,"name":"Mr.Bag","steam_id":76561198220156849,"connected_time":887000000000,"state":"active","ping":100},{"user_id":46,"name":"hidden_games","steam_id":76561198149683392,"connected_time":696000000000,"state":"active","ping":35},{"user_id":43,"name":"Viddog","steam_id":76561198047748449,"connected_time":798000000000,"state":"active","ping":55},{"user_id":44,"name":"bobdragon27","steam_id":76561198065833387,"connected_time":767000000000,"state":"active","ping":43},{"user_id":45,"name":"ZetTheZucc","steam_id":76561198173421749,"connected_time":748000000000,"state":"active","ping":85},{"user_id":59,"name":"DerpFamous","steam_id":76561198046167888,"connected_time":194000000000,"state":"active","ping":60},{"user_id":61,"name":"Tangerine","steam_id":76561198373668488,"connected_time":164000000000,"state":"active","ping":205},{"user_id":49,"name":"JerlBays","steam_id":76561198096773292,"connected_time":628000000000,"state":"active","ping":57},{"user_id":50,"name":"capybara","steam_id":76561198182288455,"connected_time":608000000000,"state":"active","ping":71}]},{"server_id":14,"name":"Uncletopia | New York City | 2 | All Maps","name_short":"nyc-2","host":"nyc-1.us.uncletopia.com","port":27025,"enabled":true,"region":"us-east","cc":"us","latitude":40.73061,"longitude":-73.93524,"reserved":0,"last_update":"0001-01-01T00:00:00Z","name_a2s":"Uncletopia | New York City | 2 | All Maps","protocol":17,"map":"cp_process_final","folder":"tf","game":"Team Fortress","app_id":440,"player_count":24,"max_players":24,"Bots":0,"server_type":"Dedicated","server_os":"Linux","password":true,"vac":true,"version":"7757534","steam_id":85568392924469994,"keywords":["cp","nocrits","nodmgspread","uncletopia"],"game_id":440,"stv_port":27026,"stv_name":"Uncletopia | New York City | 2 | All Maps | STV","players":[{"user_id":229,"name":"rjsly","steam_id":76561198036573271,"connected_time":1875000000000,"state":"active","ping":54},{"user_id":209,"name":"Father Cocoa","steam_id":76561199023002514,"connected_time":4197000000000,"state":"active","ping":81},{"user_id":230,"name":"xen","steam_id":76561198048568188,"connected_time":1788000000000,"state":"active","ping":47},{"user_id":213,"name":"Timothy Grunclebottoms","steam_id":76561198871450477,"connected_time":3080000000000,"state":"active","ping":63},{"user_id":232,"name":"El grande 2","steam_id":76561198429949450,"connected_time":1545000000000,"state":"active","ping":51},{"user_id":216,"name":"glitch","steam_id":76561197979495589,"connected_time":3063000000000,"state":"active","ping":51},{"user_id":225,"name":"power_YAMBO","steam_id":76561198067068690,"connected_time":2374000000000,"state":"active","ping":39},{"user_id":256,"name":"Mr. Mania","steam_id":76561198278011808,"connected_time":190000000000,"state":"active","ping":59},{"user_id":233,"name":"SnapGorgon","steam_id":76561198098666020,"connected_time":1498000000000,"state":"active","ping":105},{"user_id":247,"name":"Schplichael","steam_id":76561198007792525,"connected_time":637000000000,"state":"active","ping":109},{"user_id":222,"name":"Candy Sparkles","steam_id":76561198126871264,"connected_time":2591000000000,"state":"active","ping":83},{"user_id":243,"name":"Cube","steam_id":76561199021614213,"connected_time":1089000000000,"state":"active","ping":159},{"user_id":220,"name":"Smidvargh","steam_id":76561198121298631,"connected_time":2851000000000,"state":"active","ping":74},{"user_id":248,"name":"Rex The Mouse","steam_id":76561197995569428,"connected_time":551000000000,"state":"active","ping":101},{"user_id":244,"name":"Lexiss","steam_id":76561198086211346,"connected_time":1088000000000,"state":"active","ping":146},{"user_id":238,"name":"the doo doo man","steam_id":76561198057076267,"connected_time":1339000000000,"state":"active","ping":77},{"user_id":221,"name":"enotown","steam_id":76561198109901138,"connected_time":2797000000000,"state":"active","ping":57},{"user_id":217,"name":"Defiant Statement.","steam_id":76561199101373436,"connected_time":3057000000000,"state":"active","ping":69},{"user_id":223,"name":"tydogzilla","steam_id":76561198054254518,"connected_time":2550000000000,"state":"active","ping":44},{"user_id":201,"name":"HeisenBurger","steam_id":76561198040632080,"connected_time":4483000000000,"state":"active","ping":60},{"user_id":257,"name":"Halor","steam_id":76561198082791371,"connected_time":77000000000,"state":"active","ping":176},{"user_id":242,"name":"Axities","steam_id":76561198278008225,"connected_time":1214000000000,"state":"active","ping":89},{"user_id":260,"name":"Vimh","steam_id":76561198384938589,"connected_time":18000000000,"state":"spawning","ping":120},{"user_id":254,"name":"Typhon","steam_id":76561198252124564,"connected_time":419000000000,"state":"active","ping":68}]},{"server_id":15,"name":"Uncletopia | New York City | 3 | Stopwatch Beta","name_short":"nyc-3","host":"nyc-1.us.uncletopia.com","port":27035,"enabled":true,"region":"us-east","cc":"us","latitude":40.73061,"longitude":-73.93524,"reserved":0,"last_update":"0001-01-01T00:00:00Z","name_a2s":"Uncletopia | New York City | 3 | Stopwatch Beta","protocol":17,"map":"workshop/pl_barnblitz_pro7.ugc582280235","folder":"tf","game":"Team Fortress","app_id":440,"player_count":0,"max_players":24,"Bots":0,"server_type":"Dedicated","server_os":"Linux","password":true,"vac":true,"version":"7757534","steam_id":85568392924742820,"keywords":["nocrits","nodmgspread","payload","uncletopia"],"game_id":440,"stv_port":27036,"stv_name":"Uncletopia | New York City | 3 | Stopwatch Beta | STV","players":null},{"server_id":16,"name":"Uncletopia | New York City | 4 | Community","name_short":"nyc-4","host":"nyc-1.us.uncletopia.com","port":27045,"enabled":true,"region":"us-east","cc":"us","latitude":40.73061,"longitude":-73.93524,"reserved":0,"last_update":"0001-01-01T00:00:00Z","name_a2s":"Uncletopia | New York City | 4 | Community","protocol":17,"map":"workshop/koth_trenchfoot_b1a.ugc731436616","folder":"tf","game":"Team Fortress","app_id":440,"player_count":0,"max_players":24,"Bots":0,"server_type":"Dedicated","server_os":"Linux","password":true,"vac":true,"version":"7757534","steam_id":85568392924742821,"keywords":["cp","nocrits","nodmgspread","uncletopia"],"game_id":440,"stv_port":27046,"stv_name":"Uncletopia | New York City | 4 | Community | STV","players":null},{"server_id":142,"name":"Uncletopia | São Paulo | 1 | All Maps","name_short":"sao-1","host":"sao-1.br.uncletopia.com","port":27015,"enabled":true,"region":"sa","cc":"br","latitude":-23.533773,"longitude":-46.62529,"reserved":0,"last_update":"0001-01-01T00:00:00Z","name_a2s":"Uncletopia | São Paulo | 1 | All Maps","protocol":17,"map":"koth_highpass","folder":"tf","game":"Team Fortress","app_id":440,"player_count":2,"max_players":24,"Bots":0,"server_type":"Dedicated","server_os":"Linux","password":true,"vac":true,"version":"7757534","steam_id":85568392924469996,"keywords":["cp","nocrits","nodmgspread","uncletopia"],"game_id":440,"stv_port":27016,"stv_name":"Uncletopia | São Paulo | 1 | All Maps | STV","players":[{"user_id":12,"name":"Kakaroto 286","steam_id":76561199006539437,"connected_time":4171000000000,"state":"active","ping":51},{"user_id":11,"name":"wacky woohoo pizza man","steam_id":76561198865594419,"connected_time":4259000000000,"state":"active","ping":49}]},{"server_id":143,"name":"Uncletopia | São Paulo | 2 | All Maps","name_short":"sao-2","host":"sao-2.br.uncletopia.com","port":27015,"enabled":true,"region":"sa","cc":"br","latitude":-23.533773,"longitude":-46.62529,"reserved":0,"last_update":"0001-01-01T00:00:00Z","name_a2s":"Uncletopia | São Paulo | 2 | All Maps","protocol":17,"map":"pl_frontier_final","folder":"tf","game":"Team Fortress","app_id":440,"player_count":0,"max_players":24,"Bots":0,"server_type":"Dedicated","server_os":"Linux","password":true,"vac":true,"version":"7757534","steam_id":85568392924485349,"keywords":["nocrits","nodmgspread","payload","uncletopia"],"game_id":440,"stv_port":27016,"stv_name":"Uncletopia | São Paulo | 2 | All Maps | STV","players":null},{"server_id":7,"name":"Uncletopia | Seattle | 1 | All Maps","name_short":"sea-1","host":"sea-1.us.uncletopia.com","port":27015,"enabled":true,"region":"us-west","cc":"us","latitude":47.608013,"longitude":-122.33517,"reserved":0,"last_update":"0001-01-01T00:00:00Z","name_a2s":"Uncletopia | Seattle | 1 | All Maps","protocol":17,"map":"pl_snowycoast","folder":"tf","game":"Team Fortress","app_id":440,"player_count":24,"max_players":24,"Bots":0,"server_type":"Dedicated","server_os":"Linux","password":true,"vac":true,"version":"7757534","steam_id":85568392924469997,"keywords":["nocrits","nodmgspread","payload","uncletopia"],"game_id":440,"stv_port":27016,"stv_name":"Uncletopia | Seattle | 1 | All Maps | STV","players":[{"user_id":252,"name":"Lolxdloldx","steam_id":76561198136887125,"connected_time":2783000000000,"state":"active","ping":102},{"user_id":268,"name":"gloobern","steam_id":76561198341190679,"connected_time":595000000000,"state":"active","ping":58},{"user_id":238,"name":"Daddy Topps","steam_id":76561198203594332,"connected_time":3609000000000,"state":"active","ping":44},{"user_id":247,"name":"Combustionaut","steam_id":76561198164877813,"connected_time":2898000000000,"state":"active","ping":55},{"user_id":183,"name":"Tom","steam_id":76561198070630154,"connected_time":6521000000000,"state":"active","ping":77},{"user_id":152,"name":"my monitor is off","steam_id":76561198074499537,"connected_time":7922000000000,"state":"active","ping":106},{"user_id":239,"name":"Drew","steam_id":76561198058893405,"connected_time":3607000000000,"state":"active","ping":92},{"user_id":240,"name":"rustyorion","steam_id":76561198439186347,"connected_time":3573000000000,"state":"active","ping":63},{"user_id":246,"name":"Frank","steam_id":76561198428759980,"connected_time":2902000000000,"state":"active","ping":31},{"user_id":219,"name":"catparty","steam_id":76561198209197824,"connected_time":4214000000000,"state":"active","ping":60},{"user_id":265,"name":"Keamy","steam_id":76561199471434875,"connected_time":1736000000000,"state":"active","ping":44},{"user_id":274,"name":"早上好CHINA#1WARRIOR冰淇\ufffd\ufffd","steam_id":76561198964722163,"connected_time":7000000000,"state":"spawning","ping":181},{"user_id":269,"name":"bear1boss fan","steam_id":76561198047850813,"connected_time":593000000000,"state":"active","ping":56},{"user_id":253,"name":"Grunt","steam_id":76561198200758903,"connected_time":2738000000000,"state":"active","ping":85},{"user_id":221,"name":"[TrC] Dackstrus","steam_id":76561197973518509,"connected_time":4128000000000,"state":"active","ping":57},{"user_id":266,"name":"twitch.tv/ladyloki_ch","steam_id":76561198280150602,"connected_time":1727000000000,"state":"active","ping":56},{"user_id":208,"name":"chanoc","steam_id":76561198026734746,"connected_time":5272000000000,"state":"active","ping":69},{"user_id":271,"name":"EssRebound  ツ","steam_id":76561198120792657,"connected_time":569000000000,"state":"active","ping":128},{"user_id":273,"name":"Cepheid","steam_id":76561198093333511,"connected_time":513000000000,"state":"active","ping":83},{"user_id":162,"name":"M.L.JEW","steam_id":76561198997375055,"connected_time":7542000000000,"state":"active","ping":122},{"user_id":272,"name":"Starpillow ♡","steam_id":76561198095034817,"connected_time":568000000000,"state":"active","ping":59},{"user_id":256,"name":"Wizowd","steam_id":76561198167702261,"connected_time":2551000000000,"state":"active","ping":77},{"user_id":242,"name":"°Creamy Gilligan","steam_id":76561198001569384,"connected_time":3380000000000,"state":"active","ping":127},{"user_id":262,"name":"Daz","steam_id":76561198041431938,"connected_time":2236000000000,"state":"active","ping":124}]},{"server_id":119,"name":"Uncletopia | Seattle | 2 | All Maps","name_short":"sea-2","host":"sea-1.us.uncletopia.com","port":27025,"enabled":true,"region":"us-west","cc":"us","latitude":47.608013,"longitude":-122.33517,"reserved":0,"last_update":"0001-01-01T00:00:00Z","name_a2s":"Uncletopia | Seattle | 2 | All Maps","protocol":17,"map":"pl_frontier_final","folder":"tf","game":"Team Fortress","app_id":440,"player_count":2,"max_players":24,"Bots":0,"server_type":"Dedicated","server_os":"Linux","password":true,"vac":true,"version":"7757534","steam_id":85568392924469998,"keywords":["nocrits","nodmgspread","payload","uncletopia"],"game_id":440,"stv_port":27026,"stv_name":"Uncletopia | Seattle | 2 | All Maps | STV","players":[{"user_id":6,"name":"laggy mcstab","steam_id":76561198106379962,"connected_time":1767000000000,"state":"active","ping":50},{"user_id":7,"name":"benji","steam_id":76561198084417967,"connected_time":1714000000000,"state":"active","ping":60}]},{"server_id":406,"name":"Uncletopia | Seattle | 3 | Stopwatch Beta","name_short":"sea-3","host":"sea-1.us.uncletopia.com","port":27035,"enabled":true,"region":"us-west","cc":"us","latitude":47.608013,"longitude":-122.33517,"reserved":0,"last_update":"0001-01-01T00:00:00Z","name_a2s":"Uncletopia | Seattle | 3 | Stopwatch Beta","protocol":17,"map":"cp_dustbowl","folder":"tf","game":"Team Fortress","app_id":440,"player_count":0,"max_players":24,"Bots":0,"server_type":"Dedicated","server_os":"Linux","password":true,"vac":true,"version":"7757534","steam_id":85568392924515217,"keywords":["cp","nocrits","nodmgspread","uncletopia"],"game_id":440,"stv_port":27036,"stv_name":"Uncletopia | Seattle | 3 | Stopwatch Beta | STV","players":null},{"server_id":17,"name":"Uncletopia | San Francisco | 1 | All Maps","name_short":"sfo-1","host":"sfo-1.us.uncletopia.com","port":27015,"enabled":true,"region":"us-west","cc":"us","latitude":37.77397,"longitude":-122.4313,"reserved":0,"last_update":"0001-01-01T00:00:00Z","name_a2s":"Uncletopia | San Francisco | 1 | All Maps","protocol":17,"map":"pl_upward","folder":"tf","game":"Team Fortress","app_id":440,"player_count":0,"max_players":24,"Bots":0,"server_type":"Dedicated","server_os":"Linux","password":true,"vac":true,"version":"7757534","steam_id":85568392924469999,"keywords":["nocrits","nodmgspread","payload","uncletopia"],"game_id":440,"stv_port":27016,"stv_name":"Uncletopia | San Francisco | 1 | All Maps | STV","players":null},{"server_id":18,"name":"Uncletopia | San Francisco | 2 | All Maps","name_short":"sfo-2","host":"sfo-1.us.uncletopia.com","port":27025,"enabled":true,"region":"us-west","cc":"us","latitude":37.77397,"longitude":-122.4313,"reserved":0,"last_update":"0001-01-01T00:00:00Z","name_a2s":"Uncletopia | San Francisco | 2 | All Maps","protocol":17,"map":"pl_enclosure_final","folder":"tf","game":"Team Fortress","app_id":440,"player_count":0,"max_players":24,"Bots":0,"server_type":"Dedicated","server_os":"Linux","password":true,"vac":true,"version":"7757534","steam_id":85568392924470000,"keywords":["nocrits","nodmgspread","payload","uncletopia"],"game_id":440,"stv_port":27026,"stv_name":"Uncletopia | San Francisco | 2 | All Maps | STV","players":null},{"server_id":19,"name":"Uncletopia | San Francisco | 3 | Stopwatch Beta","name_short":"sfo-3","host":"sfo-1.us.uncletopia.com","port":27035,"enabled":true,"region":"us-west","cc":"us","latitude":37.77397,"longitude":-122.4313,"reserved":0,"last_update":"0001-01-01T00:00:00Z","name_a2s":"Uncletopia | San Francisco | 3 | Stopwatch Beta","protocol":17,"map":"koth_lakeside_final","folder":"tf","game":"Team Fortress","app_id":440,"player_count":0,"max_players":24,"Bots":0,"server_type":"Dedicated","server_os":"Linux","password":true,"vac":true,"version":"7757534","steam_id":85568392924742824,"keywords":["cp","nocrits","nodmgspread","uncletopia"],"game_id":440,"stv_port":27036,"stv_name":"Uncletopia | San Francisco | 3 | Stopwatch Beta | STV","players":null},{"server_id":20,"name":"Uncletopia | San Francisco | 4 | Community","name_short":"sfo-4","host":"sfo-1.us.uncletopia.com","port":27045,"enabled":true,"region":"us-west","cc":"us","latitude":37.77397,"longitude":-122.4313,"reserved":0,"last_update":"0001-01-01T00:00:00Z","name_a2s":"Uncletopia | San Francisco | 4 | Community","protocol":17,"map":"workshop/cp_fulgur_rc2a.ugc2068252300","folder":"tf","game":"Team Fortress","app_id":440,"player_count":0,"max_players":24,"Bots":0,"server_type":"Dedicated","server_os":"Linux","password":true,"vac":true,"version":"7757534","steam_id":85568392924742826,"keywords":["cp","nocrits","nodmgspread","uncletopia"],"game_id":440,"stv_port":27046,"stv_name":"Uncletopia | San Francisco | 4 | Community | STV","players":null},{"server_id":141,"name":"Uncletopia | Sydney | 1 | All Maps","name_short":"syd-1","host":"syd-1.au.uncletopia.com","port":27015,"enabled":true,"region":"au","cc":"au","latitude":-33.865143,"longitude":151.2099,"reserved":0,"last_update":"0001-01-01T00:00:00Z","name_a2s":"Uncletopia | Sydney | 1 | All Maps","protocol":17,"map":"pl_barnblitz","folder":"tf","game":"Team Fortress","app_id":440,"player_count":0,"max_players":24,"Bots":0,"server_type":"Dedicated","server_os":"Linux","password":true,"vac":true,"version":"7757534","steam_id":85568392924470001,"keywords":["nocrits","nodmgspread","payload","uncletopia"],"game_id":440,"stv_port":27016,"stv_name":"Uncletopia | Sydney | 1 | All Maps | STV","players":null},{"server_id":123,"name":"Uncletopia | Sydney | 2 | All Maps","name_short":"syd-2","host":"syd-1.au.uncletopia.com","port":27025,"enabled":true,"region":"au","cc":"au","latitude":-33.865143,"longitude":151.2099,"reserved":0,"last_update":"0001-01-01T00:00:00Z","name_a2s":"Uncletopia | Sydney | 2 | All Maps","protocol":17,"map":"cp_snakewater_final1","folder":"tf","game":"Team Fortress","app_id":440,"player_count":0,"max_players":24,"Bots":0,"server_type":"Dedicated","server_os":"Linux","password":true,"vac":true,"version":"7757534","steam_id":85568392924470002,"keywords":["cp","nocrits","nodmgspread","uncletopia"],"game_id":440,"stv_port":27026,"stv_name":"Uncletopia | Sydney | 2 | All Maps | STV","players":null},{"server_id":395,"name":"Uncletopia | Sydney | 3 | All Maps","name_short":"syd-3","host":"syd-1.au.uncletopia.com","port":27035,"enabled":true,"region":"au","cc":"au","latitude":-33.865143,"longitude":151.2099,"reserved":0,"last_update":"0001-01-01T00:00:00Z","name_a2s":"Uncletopia | Sydney | 3 | All Maps","protocol":17,"map":"koth_lakeside_final","folder":"tf","game":"Team Fortress","app_id":440,"player_count":0,"max_players":24,"Bots":0,"server_type":"Dedicated","server_os":"Linux","password":true,"vac":true,"version":"7757534","steam_id":85568392925194467,"keywords":["cp","nocrits","nodmgspread","uncletopia"],"game_id":440,"stv_port":27036,"stv_name":"Uncletopia | Sydney | 3 | All Maps | STV","players":null},{"server_id":396,"name":"Uncletopia | Sydney | 4 | All Maps","name_short":"syd-4","host":"syd-1.au.uncletopia.com","port":27045,"enabled":true,"region":"au","cc":"au","latitude":-33.865143,"longitude":151.2099,"reserved":0,"last_update":"0001-01-01T00:00:00Z","name_a2s":"Uncletopia | Sydney | 4 | All Maps","protocol":17,"map":"cp_altitude","folder":"tf","game":"Team Fortress","app_id":440,"player_count":2,"max_players":24,"Bots":0,"server_type":"Dedicated","server_os":"Linux","password":true,"vac":true,"version":"7757534","steam_id":85568392925397958,"keywords":["cp","nocrits","nodmgspread","uncletopia"],"game_id":440,"stv_port":27046,"stv_name":"Uncletopia | Sydney | 4 | All Maps | STV","players":[{"user_id":14,"name":"Roasted Potatoes","steam_id":76561199244819489,"connected_time":1156000000000,"state":"active","ping":361},{"user_id":15,"name":"The man under the road","steam_id":76561199276035454,"connected_time":1124000000000,"state":"active","ping":303}]},{"server_id":58,"name":"Uncletopia | Sydney | 5 | Stopwatch Beta","name_short":"syd-5","host":"syd-1.au.uncletopia.com","port":27055,"enabled":true,"region":"au","cc":"au","latitude":-33.865143,"longitude":151.2099,"reserved":0,"last_update":"0001-01-01T00:00:00Z","name_a2s":"Uncletopia | Sydney | 5 | Stopwatch Beta","protocol":17,"map":"koth_cascade","folder":"tf","game":"Team Fortress","app_id":440,"player_count":0,"max_players":24,"Bots":0,"server_type":"Dedicated","server_os":"Linux","password":true,"vac":true,"version":"7757534","steam_id":85568392925397959,"keywords":["cp","nocrits","nodmgspread","uncletopia"],"game_id":440,"stv_port":27056,"stv_name":"Uncletopia | Sydney | 5 | Stopwatch Beta | STV","players":null},{"server_id":59,"name":"Uncletopia | Sydney | 6 | Community","name_short":"syd-6","host":"syd-1.au.uncletopia.com","port":27065,"enabled":true,"region":"au","cc":"au","latitude":-33.865143,"longitude":151.2099,"reserved":0,"last_update":"0001-01-01T00:00:00Z","name_a2s":"Uncletopia | Sydney | 6 | Community","protocol":17,"map":"workshop/pl_divulgence_b4b.ugc2884808746","folder":"tf","game":"Team Fortress","app_id":440,"player_count":0,"max_players":24,"Bots":0,"server_type":"Dedicated","server_os":"Linux","password":true,"vac":true,"version":"7757534","steam_id":85568392925397960,"keywords":["nocrits","nodmgspread","payload","uncletopia"],"game_id":440,"stv_port":27066,"stv_name":"Uncletopia | Sydney | 6 | Community | STV","players":null},{"server_id":49,"name":"Uncletopia | Warsaw | 1 | All Maps","name_short":"waw-1","host":"waw-1.pl.uncletopia.com","port":27015,"enabled":true,"region":"eu","cc":"pl","latitude":52.2297,"longitude":21.017532,"reserved":0,"last_update":"0001-01-01T00:00:00Z","name_a2s":"","protocol":0,"map":"","folder":"","game":"","app_id":0,"player_count":0,"max_players":0,"Bots":0,"server_type":"","server_os":"","password":false,"vac":false,"version":"","steam_id":0,"keywords":null,"game_id":0,"stv_port":0,"stv_name":"","players":null},{"server_id":50,"name":"Uncletopia | Warsaw | 2 | All Maps","name_short":"waw-2","host":"waw-1.pl.uncletopia.com","port":27025,"enabled":true,"region":"eu","cc":"pl","latitude":52.2297,"longitude":21.017532,"reserved":0,"last_update":"0001-01-01T00:00:00Z","name_a2s":"Uncletopia | Warsaw | 2 | All Maps","protocol":17,"map":"koth_viaduct","folder":"tf","game":"Team Fortress","app_id":440,"player_count":3,"max_players":24,"Bots":0,"server_type":"Dedicated","server_os":"Linux","password":true,"vac":true,"version":"7757534","steam_id":85568392925397851,"keywords":["cp","nocrits","nodmgspread","uncletopia"],"game_id":440,"stv_port":27026,"stv_name":"Uncletopia | Warsaw | 2 | All Maps | STV","players":[{"user_id":8,"name":"Wojtasek0505","steam_id":76561199236721669,"connected_time":297000000000,"state":"active","ping":88},{"user_id":9,"name":"konrad13","steam_id":76561199390469191,"connected_time":259000000000,"state":"active","ping":70},{"user_id":10,"name":"Rybigiusz","steam_id":76561198799311754,"connected_time":256000000000,"state":"active","ping":55}]},{"server_id":51,"name":"Uncletopia | Warsaw | 3 | All Maps","name_short":"waw-3","host":"waw-1.pl.uncletopia.com","port":27035,"enabled":true,"region":"eu","cc":"pl","latitude":52.2297,"longitude":21.017532,"reserved":0,"last_update":"0001-01-01T00:00:00Z","name_a2s":"Uncletopia | Warsaw | 3 | All Maps","protocol":17,"map":"cp_dustbowl","folder":"tf","game":"Team Fortress","app_id":440,"player_count":0,"max_players":24,"Bots":0,"server_type":"Dedicated","server_os":"Linux","password":true,"vac":true,"version":"7757534","steam_id":85568392925397852,"keywords":["cp","nocrits","nodmgspread","uncletopia"],"game_id":440,"stv_port":27036,"stv_name":"Uncletopia | Warsaw | 3 | All Maps | STV","players":null},{"server_id":52,"name":"Uncletopia | Warsaw | 4 | All Maps","name_short":"waw-4","host":"waw-1.pl.uncletopia.com","port":27045,"enabled":true,"region":"eu","cc":"pl","latitude":52.2297,"longitude":21.017532,"reserved":0,"last_update":"0001-01-01T00:00:00Z","name_a2s":"Uncletopia | Warsaw | 4 | All Maps","protocol":17,"map":"koth_lakeside_final","folder":"tf","game":"Team Fortress","app_id":440,"player_count":0,"max_players":24,"Bots":0,"server_type":"Dedicated","server_os":"Linux","password":true,"vac":true,"version":"7757534","steam_id":85568392925397853,"keywords":["cp","nocrits","nodmgspread","uncletopia"],"game_id":440,"stv_port":27046,"stv_name":"Uncletopia | Warsaw | 4 | All Maps | STV","players":null},{"server_id":53,"name":"Uncletopia | Warsaw | 5 | Stopwatch Beta","name_short":"waw-5","host":"waw-1.pl.uncletopia.com","port":27055,"enabled":true,"region":"eu","cc":"pl","latitude":52.2297,"longitude":21.017532,"reserved":0,"last_update":"0001-01-01T00:00:00Z","name_a2s":"Uncletopia | Warsaw | 5 | Stopwatch Beta","protocol":17,"map":"pl_borneo","folder":"tf","game":"Team Fortress","app_id":440,"player_count":0,"max_players":24,"Bots":0,"server_type":"Dedicated","server_os":"Linux","password":true,"vac":true,"version":"7757534","steam_id":85568392925397854,"keywords":["nocrits","nodmgspread","payload","uncletopia"],"game_id":440,"stv_port":27056,"stv_name":"Uncletopia | Warsaw | 5 | Stopwatch Beta | STV","players":null},{"server_id":54,"name":"Uncletopia | Warsaw | 6 | Community","name_short":"waw-6","host":"waw-1.pl.uncletopia.com","port":27065,"enabled":true,"region":"eu","cc":"pl","latitude":52.2297,"longitude":21.017532,"reserved":0,"last_update":"0001-01-01T00:00:00Z","name_a2s":"Uncletopia | Warsaw | 6 | Community","protocol":17,"map":"koth_lakeside_final","folder":"tf","game":"Team Fortress","app_id":440,"player_count":0,"max_players":24,"Bots":0,"server_type":"Dedicated","server_os":"Linux","password":true,"vac":true,"version":"7757534","steam_id":85568392925397856,"keywords":["cp","nocrits","nodmgspread","uncletopia"],"game_id":440,"stv_port":27066,"stv_name":"Uncletopia | Warsaw | 6 | Community | STV","players":null}]}