{"status":true,"message":"","result":[{"server_id":9,"name":"Uncletopia | Atlanta | 1 | All Maps","name_short":"atl-1","host":"atl-1.us.uncletopia.com","port":27015,"enabled":true,"region":"us-east","cc":"us","latitude":33.753746,"longitude":-84.38633,"reserved":0,"last_update":"0001-01-01T00:00:00Z","name_a2s":"Uncletopia | Atlanta | 1 | All Maps","protocol":17,"map":"cp_steel","folder":"tf","game":"Team Fortress","app_id":440,"player_count":23,"max_players":24,"Bots":0,"server_type":"Dedicated","server_os":"Linux","password":true,"vac":true,"version":"7757534","steam_id":85568392924469982,"keywords":["cp","nocrits","nodmgspread","uncletopia"],"game_id":440,"stv_port":27016,"stv_name":"Uncletopia | Atlanta | 1 | All Maps | STV","players":[{"user_id":262,"name":"Zillers","steam_id":76561198095248744,"connected_time":1249000000000,"state":"active","ping":89},{"user_id":246,"name":"Nephs","steam_id":76561198136763403,"connected_time":2445000000000,"state":"active","ping":83},{"user_id":270,"name":"BIG HOG","steam_id":76561198079923652,"connected_time":313000000000,"state":"active","ping":60},{"user_id":273,"name":"Frank Biggalo","steam_id":76561198084646266,"connected_time":280000000000,"state":"active","ping":72},{"user_id":252,"name":"mousejumper","steam_id":76561198220181353,"connected_time":2319000000000,"state":"active","ping":66},{"user_id":200,"name":"Speed Weed","steam_id":76561198007512620,"connected_time":7040000000000,"state":"active","ping":85},{"user_id":210,"name":"unc ror!","steam_id":76561198021227843,"connected_time":6461000000000,"state":"active","ping":67},{"user_id":243,"name":"rose","steam_id":76561198048882285,"connected_time":3174000000000,"state":"active","ping":62},{"user_id":268,"name":"Mister","steam_id":76561198097164652,"connected_time":537000000000,"state":"active","ping":69},{"user_id":274,"name":"Nukeboy","steam_id":76561198147058560,"connected_time":252000000000,"state":"active","ping":121},{"user_id":267,"name":"Deltaco","steam_id":76561198094572694,"connected_time":854000000000,"state":"active","ping":103},{"user_id":211,"name":"[Reece]","steam_id":76561198076404892,"connected_time":6420000000000,"state":"active","ping":60},{"user_id":276,"name":"plaiddd (needs friends)","steam_id":76561198353053169,"connected_time":214000000000,"state":"active","ping":77},{"user_id":238,"name":"Bocchi the Cock","steam_id":76561198152455316,"connected_time":3961000000000,"state":"active","ping":103},{"user_id":266,"name":"Femboy Garfield","steam_id":76561198356164204,"connected_time":999000000000,"state":"active","ping":59},{"user_id":269,"name":"ESS Cinderace","steam_id":76561198132899671,"connected_time":446000000000,"state":"active","ping":75},{"user_id":249,"name":"HarryjusttHarry","steam_id":76561198982810452,"connected_time":2352000000000,"state":"active","ping":77},{"user_id":250,"name":"Sinnamon","steam_id":76561199152576378,"connected_time":2352000000000,"state":"active","ping":79},{"user_id":277,"name":"Alejandro","steam_id":76561198097730927,"connected_time":197000000000,"state":"active","ping":75},{"user_id":263,"name":"lil hog","steam_id":76561199230929836,"connected_time":1223000000000,"state":"active","ping":90},{"user_id":278,"name":"beans","steam_id":76561199082781884,"connected_time":140000000000,"state":"active","ping":43},{"user_id":279,"name":"Xx_UrineEnjoyer_xX","steam_id":76561198397991402,"connected_time":140000000000,"state":"active","ping":110},{"user_id":272,"name":"battle clown","steam_id":76561198045788371,"connected_time":309000000000,"state":"active","ping":86}]},{"server_id":104,"name":"Uncletopia | Atlanta | 2 | All Maps","name_short":"atl-2","host":"atl-1.us.uncletopia.com","port":27025,"enabled":true,"region":"us-east","cc":"us","latitude":33.753746,"longitude":-84.38633,"reserved":0,"last_update":"0001-01-01T00:00:00Z","name_a2s":"Uncletopia | Atlanta | 2 | All Maps","protocol":17,"map":"cp_mountainlab","folder":"tf","game":"Team Fortress","app_id":440,"player_count":9,"max_players":24,"Bots":0,"server_type":"Dedicated","server_os":"Linux","password":true,"vac":true,"version":"7757534","steam_id":85568392924469983,"keywords":["cp","nocrits","nodmgspread","uncletopia"],"game_id":440,"stv_port":27026,"stv_name":"Uncletopia | Atlanta | 2 | All Maps | STV","players":[{"user_id":13,"name":"jerry","steam_id":76561198422891994,"connected_time":1785000000000,"state":"spawning","ping":99},{"user_id":28,"name":"FT_LesserChungus","steam_id":76561198336527744,"connected_time":272000000000,"state":"spawning","ping":89},{"user_id":16,"name":"da pwo","steam_id":76561198963115673,"connected_time":1252000000000,"state":"active","ping":84},{"user_id":19,"name":"Porcupine's Revenge!","steam_id":76561199121615234,"connected_time":894000000000,"state":"spawning","ping":69},{"user_id":21,"name":"Fish","steam_id":76561199016308078,"connected_time":639000000000,"state":"active","ping":124},{"user_id":22,"name":"Potassium_","steam_id":76561199085021046,"connected_time":607000000000,"state":"spawning","ping":144},{"user_id":27,"name":"Star1248","steam_id":76561199013342395,"connected_time":344000000000,"state":"active","ping":217},{"user_id":24,"name":"MadDog519","steam_id":76561198300793796,"connected_time":584000000000,"state":"spawning","ping":76},{"user_id":29,"name":"Aptmass","steam_id":76561198381475870,"connected_time":81000000000,"state":"connecting","ping":97}]},{"server_id":400,"name":"Uncletopia | Atlanta | 3 | Community","name_short":"atl-3","host":"atl-1.us.uncletopia.com","port":27035,"enabled":true,"region":"us-east","cc":"us","latitude":33.753746,"longitude":-84.38633,"reserved":0,"last_update":"0001-01-01T00:00:00Z","name_a2s":"Uncletopia | Atlanta | 3 | Community","protocol":17,"map":"workshop/koth_bagel_rc6.ugc2514036946","folder":"tf","game":"Team Fortress","app_id":440,"player_count":1,"max_players":24,"Bots":0,"server_type":"Dedicated","server_os":"Linux","password":true,"vac":true,"version":"7757534","steam_id":85568392924515187,"keywords":["cp","nocrits","nodmgspread","uncletopia"],"game_id":440,"stv_port":27036,"stv_name":"Uncletopia | Atlanta | 3 | Community | STV","players":[{"user_id":8,"name":"Eternal","steam_id":76561199156739290,"connected_time":263000000000,"state":"active","ping":63}]},{"server_id":401,"name":"Uncletopia | Atlanta | 4 | No Payload","name_short":"atl-4","host":"atl-1.us.uncletopia.com","port":27045,"enabled":true,"region":"us-east","cc":"us","latitude":33.753746,"longitude":-84.38633,"reserved":0,"last_update":"0001-01-01T00:00:00Z","name_a2s":"","protocol":0,"map":"","folder":"","game":"","app_id":0,"player_count":0,"max_players":0,"Bots":0,"server_type":"","server_os":"","password":false,"vac":false,"version":"","steam_id":0,"keywords":null,"game_id":0,"stv_port":0,"stv_name":"","players":null},{"server_id":2,"name":"Uncletopia | Chicago | 1 | All Maps","name_short":"chi-1","host":"chi-1.us.uncletopia.com","port":27015,"enabled":true,"region":"us-central","cc":"us","latitude":41.881832,"longitude":-87.62318,"reserved":0,"last_update":"0001-01-01T00:00:00Z","name_a2s":"Uncletopia | Chicago | 1 | All Maps","protocol":17,"map":"pl_thundermountain","folder":"tf","game":"Team Fortress","app_id":440,"player_count":24,"max_players":24,"Bots":0,"server_type":"Dedicated","server_os":"Linux","password":true,"vac":true,"version":"7757534","steam_id":85568392924469984,"keywords":["nocrits","nodmgspread","payload","uncletopia"],"game_id":440,"stv_port":27016,"stv_name":"Uncletopia | Chicago | 1 | All Maps | STV","players":[{"user_id":275,"name":"girlpeen supreme","steam_id":76561198031242903,"connected_time":6845000000000,"state":"active","ping":61},{"user_id":328,"name":"PKBEAST_7","steam_id":76561198177136537,"connected_time":1522000000000,"state":"active","ping":90},{"user_id":333,"name":"corntent","steam_id":76561198824847948,"connected_time":555000000000,"state":"active","ping":58},{"user_id":314,"name":"Jyggalag","steam_id":76561198014672516,"connected_time":4078000000000,"state":"active","ping":62},{"user_id":306,"name":"coodge","steam_id":76561198139080439,"connected_time":4350000000000,"state":"active","ping":80},{"user_id":323,"name":"Lia_Rein","steam_id":76561198151569597,"connected_time":2334000000000,"state":"active","ping":143},{"user_id":308,"name":"Raptortastico","steam_id":76561198105613110,"connected_time":4334000000000,"state":"active","ping":49},{"user_id":304,"name":"Doublebagel47","steam_id":76561198832021744,"connected_time":4391000000000,"state":"active","ping":76},{"user_id":274,"name":"Meringue","steam_id":76561198067899943,"connected_time":6872000000000,"state":"active","ping":89},{"user_id":309,"name":"babastramacc12","steam_id":76561199437951175,"connected_time":4319000000000,"state":"active","ping":69},{"user_id":300,"name":"Dr_Spek","steam_id":76561198128667701,"connected_time":5179000000000,"state":"active","ping":94},{"user_id":336,"name":"Mug Moment Gaming","steam_id":76561198233098136,"connected_time":466000000000,"state":"active","ping":53},{"user_id":302,"name":"blob","steam_id":76561198122375328,"connected_time":4670000000000,"state":"active","ping":61},{"user_id":303,"name":"kermitcreeper(ZAZA)","steam_id":76561199222829972,"connected_time":4492000000000,"state":"active","ping":54},{"user_id":319,"name":"C Papi","steam_id":76561198027779564,"connected_time":2975000000000,"state":"active","ping":57},{"user_id":329,"name":"oh fuck im in","steam_id":76561198277163301,"connected_time":976000000000,"state":"active","ping":64},{"user_id":332,"name":"forkes","steam_id":76561198130478202,"connected_time":581000000000,"state":"active","ping":139},{"user_id":331,"name":"Wardin","steam_id":76561198096881855,"connected_time":737000000000,"state":"active","ping":70},{"user_id":335,"name":"Gods Drunkest Driver","steam_id":76561198390108910,"connected_time":532000000000,"state":"active","ping":71},{"user_id":311,"name":"ark","steam_id":76561198041066271,"connected_time":4290000000000,"state":"active","ping":77},{"user_id":318,"name":"SmokeyGalaxy","steam_id":76561198118780516,"connected_time":3396000000000,"state":"active","ping":81},{"user_id":313,"name":"Sgt. Oddball","steam_id":76561198036096912,"connected_time":4287000000000,"state":"active","ping":80},{"user_id":326,"name":"DarthEthanBoy","steam_id":76561198441643581,"connected_time":1683000000000,"state":"active","ping":73},{"user_id":298,"name":"icewallowpis","steam_id":76561199190685448,"connected_time":5376000000000,"state":"active","ping":49}]},{"server_id":106,"name":"Uncletopia | Chicago | 2 | All Maps","name_short":"chi-2","host":"chi-1.us.uncletopia.com","port":27025,"enabled":true,"region":"us-central","cc":"us","latitude":41.881832,"longitude":-87.62318,"reserved":0,"last_update":"0001-01-01T00:00:00Z","name_a2s":"Uncletopia | Chicago | 2 | All Maps","protocol":17,"map":"cp_snakewater_final1","folder":"tf","game":"Team Fortress","app_id":440,"player_count":11,"max_players":24,"Bots":0,"server_type":"Dedicated","server_os":"Linux","password":true,"vac":true,"version":"7757534","steam_id":85568392924469985,"keywords":["cp","nocrits","nodmgspread","uncletopia"],"game_id":440,"stv_port":27026,"stv_name":"Uncletopia | Chicago | 2 | All Maps | STV","players":[{"user_id":28,"name":"Pork Tenderloin","steam_id":76561198138663842,"connected_time":1651000000000,"state":"active","ping":45},{"user_id":29,"name":"Yayifications","steam_id":76561198066227208,"connected_time":1438000000000,"state":"active","ping":60},{"user_id":30,"name":"Influrrno","steam_id":76561198398893302,"connected_time":1366000000000,"state":"active","ping":71},{"user_id":45,"name":"marcoszalop","steam_id":76561198426161475,"connected_time":82000000000,"state":"active","ping":157},{"user_id":32,"name":"mmrabet","steam_id":76561198073032124,"connected_time":921000000000,"state":"active","ping":79},{"user_id":37,"name":"Ellis","steam_id":76561198993634489,"connected_time":628000000000,"state":"active","ping":99},{"user_id":38,"name":"double sunglasses terrorist","steam_id":76561198146965165,"connected_time":618000000000,"state":"active","ping":74},{"user_id":36,"name":"Klip","steam_id":76561198316254429,"connected_time":772000000000,"state":"active","ping":75},{"user_id":39,"name":"Iron Argus","steam_id":76561198181088245,"connected_time":594000000000,"state":"active","ping":73},{"user_id":46,"name":"Bonk Co.","steam_id":76561198009355408,"connected_time":27000000000,"state":"active","ping":97},{"user_id":44,"name":"CreativeUsername","steam_id":76561198186045503,"connected_time":266000000000,"state":"active","ping":48}]},{"server_id":402,"name":"Uncletopia | Chicago | 3 | All Maps","name_short":"chi-3","host":"chi-1.us.uncletopia.com","port":27035,"enabled":true,"region":"us-central","cc":"us","latitude":41.881832,"longitude":-87.62318,"reserved":0,"last_update":"0001-01-01T00:00:00Z","name_a2s":"Uncletopia | Chicago | 3 | All Maps","protocol":17,"map":"koth_cascade","folder":"tf","game":"Team Fortress","app_id":440,"player_count":0,"max_players":24,"Bots":0,"server_type":"Dedicated","server_os":"Linux","password":true,"vac":true,"version":"7757534","steam_id":85568392924515191,"keywords":["cp","nocrits","nodmgspread","uncletopia"],"game_id":440,"stv_port":27036,"stv_name":"Uncletopia | Chicago | 3 | All Maps | STV","players":null},{"server_id":403,"name":"Uncletopia | Chicago | 4 | All Maps","name_short":"chi-4","host":"chi-1.us.uncletopia.com","port":27045,"enabled":true,"region":"us-central","cc":"us","latitude":41.881832,"longitude":-87.62318,"reserved":0,"last_update":"0001-01-01T00:00:00Z","name_a2s":"Uncletopia | Chicago | 4 | All Maps","protocol":17,"map":"koth_lakeside_final","folder":"tf","game":"Team Fortress","app_id":440,"player_count":0,"max_players":24,"Bots":0,"server_type":"Dedicated","server_os":"Linux","password":true,"vac":true,"version":"7757534","steam_id":85568392924515193,"keywords":["cp","nocrits","nodmgspread","uncletopia"],"game_id":440,"stv_port":27046,"stv_name":"Uncletopia | Chicago | 4 | All Maps | STV","players":null},{"server_id":36,"name":"Uncletopia | Chicago | 5 | All Maps","name_short":"chi-5","host":"chi-2.us.uncletopia.com","port":27015,"enabled":true,"region":"us-central","cc":"us","latitude":41.881832,"longitude":-87.62318,"reserved":0,"last_update":"0001-01-01T00:00:00Z","name_a2s":"Uncletopia | Chicago | 5 | All Maps","protocol":17,"map":"cp_dustbowl","folder":"tf","game":"Team Fortress","app_id":440,"player_count":24,"max_players":24,"Bots":0,"server_type":"Dedicated","server_os":"Linux","password":true,"vac":true,"version":"7757534","steam_id":85568392924866362,"keywords":["cp","nocrits","nodmgspread","uncletopia"],"game_id":440,"stv_port":27016,"stv_name":"Uncletopia | Chicago | 5 | All Maps | STV","players":[{"user_id":73,"name":"Bad Rollout","steam_id":76561197971948876,"connected_time":577000000000,"state":"active","ping":72},{"user_id":64,"name":"Sunshine","steam_id":76561198885528098,"connected_time":1678000000000,"state":"active","ping":71},{"user_id":54,"name":"Pan The Sheep","steam_id":76561198817515534,"connected_time":2292000000000,"state":"active","ping":90},{"user_id":67,"name":"[hammer]DMX","steam_id":76561198033476718,"connected_time":1432000000000,"state":"active","ping":175},{"user_id":78,"name":"Burrbank","steam_id":76561198042888060,"connected_time":491000000000,"state":"active","ping":83},{"user_id":80,"name":"American Dad","steam_id":76561198059711448,"connected_time":416000000000,"state":"active","ping":83},{"user_id":86,"name":"Big kahuna","steam_id":76561198142024812,"connected_time":324000000000,"state":"active","ping":85},{"user_id":71,"name":"Goobus","steam_id":76561198013808088,"connected_time":704000000000,"state":"active","ping":60},{"user_id":30,"name":"CertifiedCereal","steam_id":76561198055027895,"connected_time":3132000000000,"state":"active","ping":68},{"user_id":32,"name":"Zoo Keeper Engie","steam_id":76561198064380111,"connected_time":3104000000000,"state":"active","ping":81},{"user_id":77,"name":"WarMace","steam_id":76561198395937853,"connected_time":507000000000,"state":"active","ping":100},{"user_id":87,"name":"Soju","steam_id":76561198044130442,"connected_time":133000000000,"state":"active","ping":76},{"user_id":57,"name":"|WS| Don't_Taze_Me_Bro","steam_id":76561198043289495,"connected_time":2218000000000,"state":"active","ping":70},{"user_id":38,"name":"TJThomas","steam_id":76561198038292405,"connected_time":2995000000000,"state":"active","ping":73},{"user_id":79,"name":"Hovg9000.TV","steam_id":76561199191556710,"connected_time":473000000000,"state":"active","ping":85},{"user_id":40,"name":"teamspeakisbeter","steam_id":76561198994349483,"connected_time":2919000000000,"state":"active","ping":97},{"user_id":70,"name":"Brie","steam_id":76561198444959375,"connected_time":979000000000,"state":"active","ping":78},{"user_id":42,"name":"Aeonspassed","steam_id":76561198014016451,"connected_time":2807000000000,"state":"active","ping":54},{"user_id":81,"name":"Lawrence Pemberton","steam_id":76561198180863090,"connected_time":412000000000,"state":"active","ping":82},{"user_id":52,"name":"A Can of Arizona Green Tea","steam_id":76561198062481133,"connected_time":2375000000000,"state":"active","ping":82},{"user_id":45,"name":"roby","steam_id":76561198044660393,"connected_time":2728000000000,"state":"active","ping":155},{"user_id":85,"name":"Kaluka","steam_id":76561198036861445,"connected_time":360000000000,"state":"active","ping":72},{"user_id":48,"name":"faxxy","steam_id":76561198079621240,"connected_time":2663000000000,"state":"active","ping":70},{"user_id":82,"name":"Would You Make Me A Sandwich?","steam_id":76561198152332211,"connected_time":392000000000,"state":"active","ping":59}]},{"server_id":37,"name":"Uncletopia | Chicago | 6 | All Maps","name_short":"chi-6","host":"chi-2.us.uncletopia.com","port":27025,"enabled":true,"region":"us-central","cc":"us","latitude":41.881832,"longitude":-87.62318,"reserved":0,"last_update":"0001-01-01T00:00:00Z","name_a2s":"Uncletopia | Chicago | 6 | All Maps","protocol":17,"map":"pl_barnblitz","folder":"tf","game":"Team Fortress","app_id":440,"player_count":24,"max_players":24,"Bots":0,"server_type":"Dedicated","server_os":"Linux","password":true,"vac":true,"version":"7757534","steam_id":85568392924866363,"keywords":["nocrits","nodmgspread","payload","uncletopia"],"game_id":440,"stv_port":27026,"stv_name":"Uncletopia | Chicago | 6 | All Maps | STV","players":[{"user_id":322,"name":"ooblz","steam_id":76561198361326855,"connected_time":214000000000,"state":"active","ping":63},{"user_id":323,"name":"SaucySandwichKid","steam_id":76561199372590934,"connected_time":209000000000,"state":"active","ping":73},{"user_id":331,"name":"CuSO4","steam_id":76561199278147589,"connected_time":15000000000,"state":"spawning","ping":53},{"user_id":330,"name":"6t26j","steam_id":76561198278282836,"connected_time":45000000000,"state":"active","ping":46},{"user_id":320,"name":"ContinuedBear","steam_id":76561198265176919,"connected_time":246000000000,"state":"active","ping":61},{"user_id":307,"name":"Lowvast","steam_id":76561198068455981,"connected_time":1926000000000,"state":"active","ping":75},{"user_id":288,"name":"Spanky","steam_id":76561198037780636,"connected_time":2806000000000,"state":"active","ping":65},{"user_id":325,"name":"FakeBot","steam_id":76561197961193303,"connected_time":182000000000,"state":"active","ping":126},{"user_id":294,"name":"Ringo x Seiran","steam_id":76561198357437908,"connected_time":2448000000000,"state":"active","ping":62},{"user_id":283,"name":"FoodzAreGoodz","steam_id":76561198309262052,"connected_time":2946000000000,"state":"active","ping":106},{"user_id":284,"name":"African","steam_id":76561198362872929,"connected_time":2931000000000,"state":"active","ping":97},{"user_id":309,"name":"Roobinisdabomb","steam_id":76561198355725129,"connected_time":1608000000000,"state":"active","ping":64},{"user_id":326,"name":"the piss man","steam_id":76561199039152146,"connected_time":121000000000,"state":"active","ping":88},{"user_id":279,"name":"enmgxcltayiqoacx","steam_id":76561197974965536,"connected_time":3069000000000,"state":"active","ping":63},{"user_id":319,"name":"Uncle Dale","steam_id":76561199144302768,"connected_time":275000000000,"state":"active","ping":77},{"user_id":327,"name":"420blzItM8","steam_id":76561198137983285,"connected_time":96000000000,"state":"active","ping":149},{"user_id":311,"name":"Mr. Dry Lips","steam_id":76561198028157625,"connected_time":1590000000000,"state":"active","ping":112},{"user_id":314,"name":"JerlBays","steam_id":76561198096773292,"connected_time":834000000000,"state":"active","ping":48},{"user_id":328,"name":"Cooldude_15","steam_id":76561198346713382,"connected_time":96000000000,"state":"active","ping":44},{"user_id":318,"name":"Poodwaddle","steam_id":76561198060384838,"connected_time":303000000000,"state":"active","ping":81},{"user_id":285,"name":"Prophet","steam_id":76561198134948582,"connected_time":2929000000000,"state":"active","ping":732},{"user_id":308,"name":"i am not goated with the sauce","steam_id":76561198256742302,"connected_time":1669000000000,"state":"active","ping":74},{"user_id":300,"name":"Walkiing","steam_id":76561198074473413,"connected_time":2292000000000,"state":"active","ping":44},{"user_id":329,"name":"sansa musa","steam_id":76561198163723555,"connected_time":93000000000,"state":"active","ping":61}]},{"server_id":38,"name":"Uncletopia | Chicago | 7 | Stopwatch Beta","name_short":"chi-7","host":"chi-2.us.uncletopia.com","port":27035,"enabled":true,"region":"us-central","cc":"us","latitude":41.881832,"longitude":-87.62318,"reserved":0,"last_update":"0001-01-01T00:00:00Z","name_a2s":"Uncletopia | Chicago | 7 | Stopwatch Beta","protocol":17,"map":"pl_barnblitz","folder":"tf","game":"Team Fortress","app_id":440,"player_count":0,"max_players":24,"Bots":0,"server_type":"Dedicated","server_os":"Linux","password":true,"vac":true,"version":"7757534","steam_id":85568392924866364,"keywords":["nocrits","nodmgspread","payload","uncletopia"],"game_id":440,"stv_port":27036,"stv_name":"Uncletopia | Chicago | 7 | Stopwatch Beta | STV","players":null},{"server_id":39,"name":"Uncletopia | Chicago | 8 | Community","name_short":"chi-8","host":"chi-2.us.uncletopia.com","port":27045,"enabled":true,"region":"us-central","cc":"us","latitude":41.881832,"longitude":-87.62318,"reserved":0,"last_update":"0001-01-01T00:00:00Z","name_a2s":"Uncletopia | Chicago | 8 | Community","protocol":17,"map":"koth_cascade","folder":"tf","game":"Team Fortress","app_id":440,"player_count":0,"max_players":24,"Bots":0,"server_type":"Dedicated","server_os":"Linux","password":true,"vac":true,"version":"7757534","steam_id":85568392924866365,"keywords":["cp","nocrits","nodmgspread","uncletopia"],"game_id":440,"stv_port":27046,"stv_name":"Uncletopia | Chicago | 8 | Community | STV","players":null},{"server_id":8,"name":"Uncletopia | Dallas | 1 | All Maps","name_short":"dal-1","host":"dal-1.us.uncletopia.com","port":27015,"enabled":true,"region":"us-central","cc":"us","latitude":32.779167,"longitude":-96.80889,"reserved":0,"last_update":"0001-01-01T00:00:00Z","name_a2s":"Uncletopia | Dallas | 1 | All Maps","protocol":17,"map":"pl_pier","folder":"tf","game":"Team Fortress","app_id":440,"player_count":24,"max_players":24,"Bots":0,"server_type":"Dedicated","server_os":"Linux","password":true,"vac":true,"version":"7757534","steam_id":85568392924469986,"keywords":["nocrits","nodmgspread","payload","uncletopia"],"game_id":440,"stv_port":27016,"stv_name":"Uncletopia | Dallas | 1 | All Maps | STV","players":[{"user_id":39,"name":"Cringe Nae Nae Baby","steam_id":76561198942358541,"connected_time":1970000000000,"state":"active","ping":67},{"user_id":28,"name":"soapboxracer360","steam_id":76561198316394688,"connected_time":3197000000000,"state":"active","ping":98},{"user_id":30,"name":"MoreRaptor360","steam_id":76561198318219638,"connected_time":3182000000000,"state":"active","ping":81},{"user_id":36,"name":"techturkey","steam_id":76561199154637989,"connected_time":2333000000000,"state":"active","ping":118},{"user_id":50,"name":"double tap 2.0","steam_id":76561198062146253,"connected_time":991000000000,"state":"active","ping":95},{"user_id":65,"name":"Apollo","steam_id":76561198162364702,"connected_time":512000000000,"state":"active","ping":105},{"user_id":40,"name":"schnedwob","steam_id":76561197999146588,"connected_time":1899000000000,"state":"active","ping":56},{"user_id":43,"name":"SMHTMFTTF","steam_id":76561199079614516,"connected_time":1323000000000,"state":"active","ping":55},{"user_id":69,"name":"Ryo31337","steam_id":76561198063083553,"connected_time":207000000000,"state":"active","ping":55},{"user_id":45,"name":"Lord Garrard","steam_id":76561198212184303,"connected_time":1143000000000,"state":"active","ping":54},{"user_id":46,"name":"Lollichop Propaganda","steam_id":76561199221742390,"connected_time":1137000000000,"state":"active","ping":110},{"user_id":47,"name":"iaPK","steam_id":76561198056618642,"connected_time":1102000000000,"state":"active","ping":51},{"user_id":48,"name":"Fencer!","steam_id":76561198029081038,"connected_time":1073000000000,"state":"active","ping":85},{"user_id":66,"name":"andyiscolorless","steam_id":76561199239870921,"connected_time":471000000000,"state":"active","ping":146},{"user_id":67,"name":"thatbedrockblock","steam_id":76561199069286524,"connected_time":460000000000,"state":"active","ping":100},{"user_id":52,"name":"MeMyBongusAndTheGreatOutdoors","steam_id":76561198097708978,"connected_time":945000000000,"state":"active","ping":47},{"user_id":53,"name":"TechnoBear2099","steam_id":76561198238863596,"connected_time":937000000000,"state":"active","ping":42},{"user_id":62,"name":"schizophrenic Stack stan","steam_id":76561198214370515,"connected_time":748000000000,"state":"active","ping":76},{"user_id":56,"name":"Cheesi","steam_id":76561199417190840,"connected_time":887000000000,"state":"active","ping":85},{"user_id":57,"name":"Industrial Meat Grinder (real)","steam_id":76561199365172252,"connected_time":885000000000,"state":"active","ping":81},{"user_id":58,"name":"beatrix","steam_id":76561199057103062,"connected_time":878000000000,"state":"active","ping":70},{"user_id":63,"name":"BearAteMahoney","steam_id":76561198020439356,"connected_time":741000000000,"state":"active","ping":85},{"user_id":60,"name":"CaptainOxyContin","steam_id":76561198308717307,"connected_time":804000000000,"state":"active","ping":65},{"user_id":61,"name":"Notation","steam_id":76561198119509319,"connected_time":803000000000,"state":"active","ping":67}]},{"server_id":108,"name":"Uncletopia | Dallas | 2 | All Maps","name_short":"dal-2","host":"dal-1.us.uncletopia.com","port":27025,"enabled":true,"region":"us-central","cc":"us","latitude":32.779167,"longitude":-96.80889,"reserved":0,"last_update":"0001-01-01T00:00:00Z","name_a2s":"Uncletopia | Dallas | 2 | All Maps","protocol":17,"map":"pl_pier","folder":"tf","game":"Team Fortress","app_id":440,"player_count":24,"max_players":24,"Bots":0,"server_type":"Dedicated","server_os":"Linux","password":true,"vac":true,"version":"7757534","steam_id":85568392924469988,"keywords":["nocrits","nodmgspread","payload","uncletopia"],"game_id":440,"stv_port":27026,"stv_name":"Uncletopia | Dallas | 2 | All Maps | STV","players":[{"user_id":304,"name":"Mellou","steam_id":76561198212048740,"connected_time":45000000000,"state":"active","ping":45},{"user_id":198,"name":"Wormhole","steam_id":76561199008302939,"connected_time":7799000000000,"state":"active","ping":104},{"user_id":293,"name":"Galaxy","steam_id":76561198158149348,"connected_time":995000000000,"state":"active","ping":70},{"user_id":279,"name":"AmericanAutobot","steam_id":76561198102398820,"connected_time":2709000000000,"state":"active","ping":38},{"user_id":303,"name":"EL spike XD","steam_id":76561199384417314,"connected_time":68000000000,"state":"spawning","ping":96},{"user_id":295,"name":"T̵̲̒H̶̪̐E̴͉͂̊M̶̾͆\ufffd","steam_id":76561198091875604,"connected_time":934000000000,"state":"active","ping":73},{"user_id":299,"name":"Muffin","steam_id":76561198209987299,"connected_time":695000000000,"state":"active","ping":153},{"user_id":305,"name":"wezeer","steam_id":76561198407577922,"connected_time":38000000000,"state":"spawning","ping":100},{"user_id":300,"name":"dong","steam_id":76561199030207481,"connected_time":606000000000,"state":"active","ping":44},{"user_id":301,"name":"Tots","steam_id":76561198027485007,"connected_time":605000000000,"state":"active","ping":59},{"user_id":287,"name":"vanilla linguine","steam_id":76561198155661890,"connected_time":1544000000000,"state":"active","ping":58},{"user_id":275,"name":"Yosh","steam_id":76561198027078899,"connected_time":3163000000000,"state":"active","ping":75},{"user_id":286,"name":"Karma","steam_id":76561199112057184,"connected_time":1608000000000,"state":"active","ping":61},{"user_id":274,"name":"Scorpie Doodle","steam_id":76561198021845763,"connected_time":3206000000000,"state":"active","ping":82},{"user_id":302,"name":"cesartele3000","steam_id":76561198142149479,"connected_time":137000000000,"state":"active","ping":88},{"user_id":282,"name":"Natura","steam_id":76561198035698704,"connected_time":1977000000000,"state":"active","ping":90},{"user_id":203,"name":"Apoc","steam_id":76561198376855927,"connected_time":7275000000000,"state":"active","ping":53},{"user_id":283,"name":"BANGARANG","steam_id":76561198816597453,"connected_time":1927000000000,"state":"active","ping":73},{"user_id":250,"name":"Project_Counter","steam_id":76561198152786076,"connected_time":4089000000000,"state":"active","ping":48},{"user_id":266,"name":"Arthur Boyle","steam_id":76561199071991661,"connected_time":3592000000000,"state":"active","ping":59},{"user_id":288,"name":"ecto cooler","steam_id":76561198068409067,"connected_time":1542000000000,"state":"active","ping":84},{"user_id":242,"name":"highmechs","steam_id":76561198013650292,"connected_time":4631000000000,"state":"active","ping":106},{"user_id":296,"name":"Shamrock Shake Oct.10.2020 @8pm","steam_id":76561198833313201,"connected_time":915000000000,"state":"active","ping":88},{"user_id":290,"name":"Eins","steam_id":76561199030343810,"connected_time":1450000000000,"state":"active","ping":68}]},{"server_id":5,"name":"Uncletopia | Frankfurt | 1 | All Maps","name_short":"frk-1","host":"frk-1.de.uncletopia.com","port":27015,"enabled":true,"region":"eu","cc":"de","latitude":50.110924,"longitude":8.682127,"reserved":0,"last_update":"0001-01-01T00:00:00Z","name_a2s":"Uncletopia | Frankfurt | 1 | All Maps","protocol":17,"map":"pl_borneo","folder":"tf","game":"Team Fortress","app_id":440,"player_count":24,"max_players":24,"Bots":0,"server_type":"Dedicated","server_os":"Linux","password":true,"vac":true,"version":"7757534","steam_id":85568392924469989,"keywords":["nocrits","nodmgspread","payload","uncletopia"],"game_id":440,"stv_port":27016,"stv_name":"Uncletopia | Frankfurt | 1 | All Maps | STV","players":[{"user_id":554,"name":"Seb","steam_id":76561198262273233,"connected_time":5835000000000,"state":"active","ping":64},{"user_id":604,"name":"Vanta_BlackLD","steam_id":76561198346271576,"connected_time":698000000000,"state":"active","ping":64},{"user_id":614,"name":"Bonca","steam_id":76561198137503531,"connected_time":334000000000,"state":"active","ping":75},{"user_id":588,"name":"painting4","steam_id":76561198067554256,"connected_time":1792000000000,"state":"active","ping":67},{"user_id":557,"name":"roblan11","steam_id":76561198066839258,"connected_time":5154000000000,"state":"active","ping":44},{"user_id":615,"name":"lamalakamala","steam_id":76561198314076661,"connected_time":325000000000,"state":"active","ping":105},{"user_id":592,"name":"ifre3","steam_id":76561198052545817,"connected_time":1026000000000,"state":"active","ping":101},{"user_id":593,"name":"Raulca25","steam_id":76561199068256964,"connected_time":1026000000000,"state":"active","ping":87},{"user_id":594,"name":"johnny dorito","steam_id":76561198148074472,"connected_time":930000000000,"state":"active","ping":38},{"user_id":595,"name":"Ita","steam_id":76561198147277460,"connected_time":928000000000,"state":"active","ping":59},{"user_id":596,"name":"i will eat your (b)ass","steam_id":76561198023211417,"connected_time":913000000000,"state":"active","ping":60},{"user_id":597,"name":"i can be ur amp or ur pedal...","steam_id":76561198256619964,"connected_time":894000000000,"state":"active","ping":76},{"user_id":598,"name":"trout population","steam_id":76561198163244605,"connected_time":874000000000,"state":"active","ping":68},{"user_id":622,"name":"BlinkedUp","steam_id":76561198249985618,"connected_time":50000000000,"state":"active","ping":66},{"user_id":600,"name":"doker","steam_id":76561198251840154,"connected_time":837000000000,"state":"active","ping":61},{"user_id":620,"name":"COLAN","steam_id":76561198111255418,"connected_time":117000000000,"state":"active","ping":56},{"user_id":602,"name":"Swift","steam_id":76561197998799889,"connected_time":756000000000,"state":"active","ping":59},{"user_id":616,"name":"dafydd","steam_id":76561198052200325,"connected_time":225000000000,"state":"active","ping":75},{"user_id":617,"name":"TidB","steam_id":76561198055342304,"connected_time":215000000000,"state":"active","ping":48},{"user_id":607,"name":"Ixsus\u003c3","steam_id":76561198094756869,"connected_time":588000000000,"state":"active","ping":59},{"user_id":608,"name":"Dzan50","steam_id":76561198059758591,"connected_time":558000000000,"state":"active","ping":92},{"user_id":618,"name":"Lyell","steam_id":76561198350329389,"connected_time":214000000000,"state":"active","ping":80},{"user_id":610,"name":"knees","steam_id":76561198005924647,"connected_time":485000000000,"state":"active","ping":74},{"user_id":613,"name":"Acanda","steam_id":76561198123246537,"connected_time":356000000000,"state":"active","ping":56}]},{"server_id":110,"name":"Uncletopia | Frankfurt | 2 | All Maps","name_short":"frk-2","host":"frk-1.de.uncletopia.com","port":27025,"enabled":true,"region":"eu","cc":"de","latitude":50.110924,"longitude":8.682127,"reserved":0,"last_update":"0001-01-01T00:00:00Z","name_a2s":"Uncletopia | Frankfurt | 2 | All Maps","protocol":17,"map":"pl_swiftwater_final1","folder":"tf","game":"Team Fortress","app_id":440,"player_count":24,"max_players":24,"Bots":0,"server_type":"Dedicated","server_os":"Linux","password":true,"vac":true,"version":"7757534","steam_id":85568392924469990,"keywords":["nocrits","nodmgspread","payload","uncletopia"],"game_id":440,"stv_port":27026,"stv_name":"Uncletopia | Frankfurt | 2 | All Maps | STV","players":[{"user_id":371,"name":"Iountzul","steam_id":76561198956308470,"connected_time":5399000000000,"state":"active","ping":100},{"user_id":340,"name":"thepro-strong","steam_id":76561198047359132,"connected_time":7359000000000,"state":"active","ping":63},{"user_id":426,"name":"Sclonè","steam_id":76561199359215901,"connected_time":992000000000,"state":"active","ping":95},{"user_id":396,"name":"RocK Knight","steam_id":76561198186054573,"connected_time":3566000000000,"state":"active","ping":61},{"user_id":437,"name":"KFD","steam_id":76561198157183003,"connected_time":69000000000,"state":"active","ping":76},{"user_id":394,"name":"Sir Kiops","steam_id":76561198022769275,"connected_time":3730000000000,"state":"active","ping":104},{"user_id":423,"name":"Killer8880","steam_id":76561199094449560,"connected_time":1056000000000,"state":"active","ping":119},{"user_id":308,"name":"Drazmax","steam_id":76561198116750395,"connected_time":9603000000000,"state":"active","ping":74},{"user_id":429,"name":"Lennox","steam_id":76561198069063554,"connected_time":746000000000,"state":"active","ping":43},{"user_id":268,"name":"Finnish Farmer","steam_id":76561198205366043,"connected_time":11999000000000,"state":"active","ping":88},{"user_id":417,"name":"monster","steam_id":76561199042470246,"connected_time":1558000000000,"state":"active","ping":55},{"user_id":422,"name":"The noob who Upspikes","steam_id":76561198418538887,"connected_time":1058000000000,"state":"active","ping":93},{"user_id":433,"name":"Ott","steam_id":76561198276464481,"connected_time":180000000000,"state":"active","ping":68},{"user_id":418,"name":"TheEventGuy","steam_id":76561197972797744,"connected_time":1407000000000,"state":"active","ping":59},{"user_id":432,"name":"PlacebO.-","steam_id":76561197973577950,"connected_time":445000000000,"state":"active","ping":57},{"user_id":415,"name":"Ⲙⲓⲁ","steam_id":76561199005875559,"connected_time":1707000000000,"state":"active","ping":45},{"user_id":431,"name":"LordTrap.exe","steam_id":76561198318089716,"connected_time":709000000000,"state":"active","ping":59},{"user_id":424,"name":"sam-","steam_id":76561198013770973,"connected_time":1052000000000,"state":"active","ping":74},{"user_id":434,"name":"Rad","steam_id":76561198001101843,"connected_time":174000000000,"state":"active","ping":63},{"user_id":436,"name":"Toxicò","steam_id":76561199031920676,"connected_time":91000000000,"state":"active","ping":75},{"user_id":419,"name":"tallen","steam_id":76561198061708595,"connected_time":1295000000000,"state":"active","ping":79},{"user_id":408,"name":"Rusty Pickaxe Head","steam_id":76561198039254636,"connected_time":2368000000000,"state":"active","ping":71},{"user_id":439,"name":"Daga","steam_id":76561198055450219,"connected_time":37000000000,"state":"active","ping":59},{"user_id":410,"name":"Caliban","steam_id":76561197999696839,"connected_time":2273000000000,"state":"active","ping":99}]},{"server_id":308,"name":"Uncletopia | Frankfurt | 3 | All Maps","name_short":"frk-3","host":"frk-1.de.uncletopia.com","port":27035,"enabled":true,"region":"eu","cc":"de","latitude":50.110924,"longitude":8.682127,"reserved":0,"last_update":"0001-01-01T00:00:00Z","name_a2s":"Uncletopia | Frankfurt | 3 | All Maps","protocol":17,"map":"cp_process_final","folder":"tf","game":"Team Fortress","app_id":440,"player_count":3,"max_players":24,"Bots":0,"server_type":"Dedicated","server_os":"Linux","password":true,"vac":true,"version":"7757534","steam_id":85568392924504274,"keywords":["cp","nocrits","nodmgspread","uncletopia"],"game_id":440,"stv_port":27036,"stv_name":"Uncletopia | Frankfurt | 3 | All Maps | STV","players":[{"user_id":193,"name":"WeArMature","steam_id":76561198046116420,"connected_time":186000000000,"state":"active","ping":55},{"user_id":182,"name":"Sensei","steam_id":76561198383582429,"connected_time":1578000000000,"state":"active","ping":87},{"user_id":141,"name":"ARTI","steam_id":76561199446989613,"connected_time":5049000000000,"state":"active","ping":70}]},{"server_id":309,"name":"Uncletopia | Frankfurt | 4 | All Maps","name_short":"frk-4","host":"frk-1.de.uncletopia.com","port":27045,"enabled":true,"region":"eu","cc":"de","latitude":50.110924,"longitude":8.682127,"reserved":0,"last_update":"0001-01-01T00:00:00Z","name_a2s":"Uncletopia | Frankfurt | 4 | All Maps","protocol":17,"map":"koth_nucleus","folder":"tf","game":"Team Fortress","app_id":440,"player_count":14,"max_players":24,"Bots":0,"server_type":"Dedicated","server_os":"Linux","password":true,"vac":true,"version":"7757534","steam_id":85568392924504275,"keywords":["cp","nocrits","nodmgspread","uncletopia"],"game_id":440,"stv_port":27046,"stv_name":"Uncletopia | Frankfurt | 4 | All Maps | STV","players":[{"user_id":64,"name":"KPL","steam_id":76561198431529348,"connected_time":612000000000,"state":"active","ping":126},{"user_id":59,"name":"pizzaboob","steam_id":76561198097507847,"connected_time":704000000000,"state":"active","ping":71},{"user_id":43,"name":"толя","steam_id":76561199098518615,"connected_time":4583000000000,"state":"active","ping":73},{"user_id":44,"name":"Nyhde","steam_id":76561198012771416,"connected_time":4250000000000,"state":"active","ping":78},{"user_id":53,"name":"StandAlloy","steam_id":76561199466218699,"connected_time":875000000000,"state":"active","ping":99},{"user_id":54,"name":"MagalaxShiro","steam_id":76561198079071492,"connected_time":837000000000,"state":"active","ping":74},{"user_id":55,"name":"Knocker","steam_id":76561198141908698,"connected_time":833000000000,"state":"active","ping":86},{"user_id":56,"name":"Kuchar.png","steam_id":76561198039528739,"connected_time":774000000000,"state":"active","ping":81},{"user_id":68,"name":"☆MiNTERRRRR☆","steam_id":76561198799866156,"connected_time":155000000000,"state":"active","ping":97},{"user_id":60,"name":"Cheshireycat","steam_id":76561198067204908,"connected_time":686000000000,"state":"active","ping":73},{"user_id":61,"name":"damn daniel","steam_id":76561198170609049,"connected_time":681000000000,"state":"active","ping":76},{"user_id":63,"name":"Vi","steam_id":76561198036546142,"connected_time":664000000000,"state":"active","ping":47},{"user_id":66,"name":"Rickario","steam_id":76561199068338969,"connected_time":499000000000,"state":"active","ping":52},{"user_id":67,"name":"Raldow","steam_id":76561198021389301,"connected_time":484000000000,"state":"active","ping":72}]},{"server_id":310,"name":"Uncletopia | Frankfurt | 5 | All Maps","name_short":"frk-5","host":"frk-1.de.uncletopia.com","port":27055,"enabled":true,"region":"eu","cc":"de","latitude":50.110924,"longitude":8.682127,"reserved":0,"last_update":"0001-01-01T00:00:00Z","name_a2s":"Uncletopia | Frankfurt | 5 | All Maps","protocol":17,"map":"koth_highpass","folder":"tf","game":"Team Fortress","app_id":440,"player_count":0,"max_players":24,"Bots":0,"server_type":"Dedicated","server_os":"Linux","password":true,"vac":true,"version":"7757534","steam_id":85568392924504277,"keywords":["cp","nocrits","nodmgspread","uncletopia"],"game_id":440,"stv_port":27056,"stv_name":"Uncletopia | Frankfurt | 5 | All Maps | STV","players":null},{"server_id":311,"name":"Uncletopia | Frankfurt | 6 | All Maps","name_short":"frk-6","host":"frk-1.de.uncletopia.com","port":27065,"enabled":true,"region":"eu","cc":"de","latitude":50.110924,"longitude":8.682127,"reserved":0,"last_update":"0001-01-01T00:00:00Z","name_a2s":"Uncletopia | Frankfurt | 6 | All Maps","protocol":17,"map":"pl_snowycoast","folder":"tf","game":"Team Fortress","app_id":440,"player_count":24,"max_players":24,"Bots":0,"server_type":"Dedicated","server_os":"Linux","password":true,"vac":true,"version":"7757534","steam_id":85568392924504278,"keywords":["nocrits","nodmgspread","payload","uncletopia"],"game_id":440,"stv_port":27066,"stv_name":"Uncletopia | Frankfurt | 6 | All Maps | STV","players":[{"user_id":293,"name":"PEXON","steam_id":76561198045035611,"connected_time":2600000000000,"state":"active","ping":65},{"user_id":303,"name":"Towercat","steam_id":76561198013141793,"connected_time":1587000000000,"state":"active","ping":70},{"user_id":257,"name":"Mr.TEA","steam_id":76561198014381591,"connected_time":4187000000000,"state":"active","ping":64},{"user_id":298,"name":"KingofCubes","steam_id":76561198258037513,"connected_time":1995000000000,"state":"active","ping":76},{"user_id":317,"name":"flange","steam_id":76561198040182692,"connected_time":441000000000,"state":"active","ping":54},{"user_id":299,"name":"why rum gone","steam_id":76561198158484784,"connected_time":1894000000000,"state":"active","ping":60},{"user_id":300,"name":"DesmondTheBear","steam_id":76561198038847568,"connected_time":1878000000000,"state":"active","ping":61},{"user_id":304,"name":"Jam_225","steam_id":76561198876851470,"connected_time":1579000000000,"state":"active","ping":149},{"user_id":226,"name":"Seb, Comrade","steam_id":76561198040279587,"connected_time":7716000000000,"state":"active","ping":99},{"user_id":314,"name":"randompixel","steam_id":76561198003941207,"connected_time":919000000000,"state":"active","ping":73},{"user_id":264,"name":"20BB Raxor","steam_id":76561198239927434,"connected_time":3698000000000,"state":"active","ping":90},{"user_id":265,"name":"Miiukade","steam_id":76561198089157860,"connected_time":3572000000000,"state":"active","ping":145},{"user_id":318,"name":"♂ Necronomico ♂","steam_id":76561198079272212,"connected_time":422000000000,"state":"active","ping":99},{"user_id":271,"name":"Lemon","steam_id":76561198188535947,"connected_time":3352000000000,"state":"active","ping":84},{"user_id":316,"name":"誰かが見ている","steam_id":76561198834913692,"connected_time":594000000000,"state":"active","ping":67},{"user_id":312,"name":"Django","steam_id":76561198090143282,"connected_time":999000000000,"state":"active","ping":61},{"user_id":275,"name":"Soerlssoelssöen","steam_id":76561197993060585,"connected_time":3270000000000,"state":"active","ping":74},{"user_id":306,"name":"xTheDarkLight","steam_id":76561198239128298,"connected_time":1545000000000,"state":"active","ping":48},{"user_id":278,"name":"Balls","steam_id":76561198086400484,"connected_time":3233000000000,"state":"active","ping":75},{"user_id":290,"name":"DarkSoulBG24","steam_id":76561198273701478,"connected_time":2637000000000,"state":"active","ping":81},{"user_id":307,"name":"Tesla","steam_id":76561198378649144,"connected_time":1508000000000,"state":"active","ping":61},{"user_id":311,"name":"smell_my_cheese","steam_id":76561198008517427,"connected_time":1162000000000,"state":"active","ping":72},{"user_id":286,"name":"B@yka","steam_id":76561198986736592,"connected_time":3117000000000,"state":"active","ping":79},{"user_id":287,"name":"Badrock 1","steam_id":76561198368513115,"connected_time":3110000000000,"state":"active","ping":109}]},{"server_id":23,"name":"Uncletopia | Frankfurt | 7 | Stopwatch Beta","name_short":"frk-7","host":"frk-1.de.uncletopia.com","port":27075,"enabled":true,"region":"eu","cc":"de","latitude":50.110924,"longitude":8.682127,"reserved":0,"last_update":"0001-01-01T00:00:00Z","name_a2s":"Uncletopia | Frankfurt | 7 | Stopwatch Beta","protocol":17,"map":"cp_gullywash_final1","folder":"tf","game":"Team Fortress","app_id":440,"player_count":16,"max_players":24,"Bots":0,"server_type":"Dedicated","server_os":"Linux","password":true,"vac":true,"version":"7757534","steam_id":85568392924742827,"keywords":["cp","nocrits","nodmgspread","uncletopia"],"game_id":440,"stv_port":27076,"stv_name":"Uncletopia | Frankfurt | 7 | Stopwatch Beta | STV","players":[{"user_id":497,"name":"Raingnome @SaveTF2","steam_id":76561198007394958,"connected_time":2862000000000,"state":"active","ping":70},{"user_id":524,"name":"mespe","steam_id":76561198121530649,"connected_time":436000000000,"state":"active","ping":61},{"user_id":510,"name":"WhiteCircle","steam_id":76561198115018843,"connected_time":1356000000000,"state":"active","ping":66},{"user_id":525,"name":"Nithle","steam_id":76561198025372740,"connected_time":421000000000,"state":"active","ping":45},{"user_id":486,"name":"lacurio","steam_id":76561198059701776,"connected_time":4429000000000,"state":"active","ping":53},{"user_id":517,"name":"bird","steam_id":76561198072166743,"connected_time":1066000000000,"state":"active","ping":154},{"user_id":509,"name":"metamikko","steam_id":76561198324704234,"connected_time":1683000000000,"state":"active","ping":124},{"user_id":527,"name":"RoboKugelfisch","steam_id":76561198871855734,"connected_time":92000000000,"state":"active","ping":60},{"user_id":499,"name":"sHIFTINGvORTEX","steam_id":76561198231648332,"connected_time":2801000000000,"state":"active","ping":71},{"user_id":501,"name":"Fish","steam_id":76561198182278770,"connected_time":2721000000000,"state":"active","ping":72},{"user_id":506,"name":"woahmememan","steam_id":76561199006935363,"connected_time":2443000000000,"state":"active","ping":68},{"user_id":513,"name":"Kodutah","steam_id":76561198203405574,"connected_time":1270000000000,"state":"active","ping":76},{"user_id":522,"name":"Tywhip","steam_id":76561199207545191,"connected_time":580000000000,"state":"active","ping":58},{"user_id":494,"name":"Wiki","steam_id":76561198106666604,"connected_time":3161000000000,"state":"active","ping":67},{"user_id":493,"name":"plepek","steam_id":76561198042959598,"connected_time":3441000000000,"state":"active","ping":82},{"user_id":449,"name":"zek","steam_id":76561198862763731,"connected_time":6057000000000,"state":"active","ping":59}]},{"server_id":24,"name":"Uncletopia | Frankfurt | 8 | Community","name_short":"frk-8","host":"frk-1.de.uncletopia.com","port":27085,"enabled":true,"region":"eu","cc":"de","latitude":50.110924,"longitude":8.682127,"reserved":0,"last_update":"0001-01-01T00:00:00Z","name_a2s":"Uncletopia | Frankfurt | 8 | Community","protocol":17,"map":"koth_lakeside_final","folder":"tf","game":"Team Fortress","app_id":440,"player_count":0,"max_players":24,"Bots":0,"server_type":"Dedicated","server_os":"Linux","password":true,"vac":true,"version":"7757534","steam_id":85568392924742828,"keywords":["cp","nocrits","nodmgspread","uncletopia"],"game_id":440,"stv_port":27086,"stv_name":"Uncletopia | Frankfurt | 8 | Community | STV","players":null},{"server_id":202,"name":"Uncletopia | Hong Kong | 1 | All Maps","name_short":"hgk-1","host":"hgk-1.hk.uncletopia.com","port":27015,"enabled":true,"region":"asia","cc":"hk","latitude":22.302711,"longitude":114.177216,"reserved":0,"last_update":"0001-01-01T00:00:00Z","name_a2s":"Uncletopia | Hong Kong | 1 | All Maps","protocol":17,"map":"pl_borneo","folder":"tf","game":"Team Fortress","app_id":440,"player_count":0,"max_players":24,"Bots":0,"server_type":"Dedicated","server_os":"Linux","password":true,"vac":true,"version":"7757534","steam_id":85568392924494504,"keywords":["nocrits","nodmgspread","payload","uncletopia"],"game_id":440,"stv_port":27016,"stv_name":"Uncletopia | Hong Kong | 1 | All Maps | STV","players":null},{"server_id":1,"name":"Uncletopia | Los Angeles | 1 | All Maps","name_short":"lax-1","host":"lax-1.us.uncletopia.com","port":27015,"enabled":true,"region":"us-west","cc":"us","latitude":33.94279,"longitude":-118.41004,"reserved":0,"last_update":"0001-01-01T00:00:00Z","name_a2s":"Uncletopia | Los Angeles | 1 | All Maps","protocol":17,"map":"pl_upward","folder":"tf","game":"Team Fortress","app_id":440,"player_count":0,"max_players":24,"Bots":0,"server_type":"Dedicated","server_os":"Linux","password":true,"vac":true,"version":"7757534","steam_id":85568392924469991,"keywords":["nocrits","nodmgspread","payload","uncletopia"],"game_id":440,"stv_port":27016,"stv_name":"Uncletopia | Los Angeles | 1 | All Maps | STV","players":null},{"server_id":112,"name":"Uncletopia | Los Angeles | 2 | All Maps","name_short":"lax-2","host":"lax-1.us.uncletopia.com","port":27025,"enabled":true,"region":"us-west","cc":"us","latitude":33.94279,"longitude":-118.41004,"reserved":0,"last_update":"0001-01-01T00:00:00Z","name_a2s":"Uncletopia | Los Angeles | 2 | All Maps","protocol":17,"map":"pl_upward","folder":"tf","game":"Team Fortress","app_id":440,"player_count":24,"max_players":24,"Bots":0,"server_type":"Dedicated","server_os":"Linux","password":true,"vac":true,"version":"7757534","steam_id":85568392924469992,"keywords":["nocrits","nodmgspread","payload","uncletopia"],"game_id":440,"stv_port":27026,"stv_name":"Uncletopia | Los Angeles | 2 | All Maps | STV","players":[{"user_id":61,"name":"Dangir","steam_id":76561198205543200,"connected_time":3612000000000,"state":"active","ping":116},{"user_id":46,"name":"Big Jon","steam_id":76561198402285099,"connected_time":4628000000000,"state":"active","ping":69},{"user_id":86,"name":"xx360noscope","steam_id":76561198018018106,"connected_time":1402000000000,"state":"active","ping":122},{"user_id":69,"name":"MBK®Furryy","steam_id":76561198200785531,"connected_time":2999000000000,"state":"active","ping":30},{"user_id":79,"name":"veryscaryreaper","steam_id":76561198380018244,"connected_time":2252000000000,"state":"active","ping":99},{"user_id":88,"name":"certified munch","steam_id":76561198059921781,"connected_time":999000000000,"state":"active","ping":59},{"user_id":81,"name":"ForAPessimistImPrettyOptimistic","steam_id":76561198170128009,"connected_time":2021000000000,"state":"active","ping":67},{"user_id":64,"name":"Banjo","steam_id":76561198004652853,"connected_time":3561000000000,"state":"active","ping":75},{"user_id":93,"name":"Colonel Crazy","steam_id":76561198262296550,"connected_time":691000000000,"state":"active","ping":119},{"user_id":70,"name":"xbox record that","steam_id":76561198150117455,"connected_time":2680000000000,"state":"active","ping":48},{"user_id":90,"name":"Triforce141","steam_id":76561198063896776,"connected_time":727000000000,"state":"active","ping":68},{"user_id":98,"name":"Sidekick","steam_id":76561198392740835,"connected_time":108000000000,"state":"active","ping":76},{"user_id":74,"name":"Gut125Cin","steam_id":76561198101787225,"connected_time":2538000000000,"state":"active","ping":47},{"user_id":85,"name":"♥Cat in a Tub♥","steam_id":76561198170443243,"connected_time":1466000000000,"state":"active","ping":56},{"user_id":75,"name":"butthole967","steam_id":76561198986534519,"connected_time":2525000000000,"state":"active","ping":69},{"user_id":95,"name":"tropis","steam_id":76561198067365603,"connected_time":683000000000,"state":"active","ping":67},{"user_id":62,"name":"abra","steam_id":76561198064558316,"connected_time":3577000000000,"state":"active","ping":59},{"user_id":58,"name":"Auggy","steam_id":76561198041816037,"connected_time":3776000000000,"state":"active","ping":73},{"user_id":97,"name":"oil","steam_id":76561198099980149,"connected_time":116000000000,"state":"active","ping":46},{"user_id":28,"name":"abed","steam_id":76561198072856511,"connected_time":5581000000000,"state":"active","ping":136},{"user_id":100,"name":"Vlad","steam_id":76561198072334604,"connected_time":85000000000,"state":"active","ping":86},{"user_id":80,"name":"Grilled Jizo","steam_id":76561199250875340,"connected_time":2056000000000,"state":"active","ping":93},{"user_id":82,"name":"Apprentice Pybro","steam_id":76561197996353534,"connected_time":1684000000000,"state":"active","ping":46},{"user_id":34,"name":"AnonymouzR011","steam_id":76561198262685906,"connected_time":5497000000000,"state":"active","ping":60}]},{"server_id":324,"name":"Uncletopia | Los Angeles | 3 | All Maps","name_short":"lax-3","host":"lax-1.us.uncletopia.com","port":27035,"enabled":true,"region":"us-west","cc":"us","latitude":33.94279,"longitude":-118.41004,"reserved":0,"last_update":"0001-01-01T00:00:00Z","name_a2s":"Uncletopia | Los Angeles | 3 | All Maps","protocol":17,"map":"pl_thundermountain","folder":"tf","game":"Team Fortress","app_id":440,"player_count":24,"max_players":24,"Bots":0,"server_type":"Dedicated","server_os":"Linux","password":true,"vac":true,"version":"7757534","steam_id":85568392924510198,"keywords":["nocrits","nodmgspread","payload","uncletopia"],"game_id":440,"stv_port":27036,"stv_name":"Uncletopia | Los Angeles | 3 | All Maps | STV","players":[{"user_id":157,"name":"Blaze","steam_id":76561199057409736,"connected_time":2149000000000,"state":"active","ping":91},{"user_id":164,"name":"What's his Name?","steam_id":76561198315533146,"connected_time":1832000000000,"state":"active","ping":121},{"user_id":175,"name":"M4xW3LL","steam_id":76561198828562719,"connected_time":1244000000000,"state":"active","ping":74},{"user_id":149,"name":"Andreshatesmondays","steam_id":76561198889349797,"connected_time":3766000000000,"state":"active","ping":51},{"user_id":132,"name":"oxbudy","steam_id":76561198022120207,"connected_time":4539000000000,"state":"active","ping":78},{"user_id":156,"name":"Fat Boy Bully","steam_id":76561198151700708,"connected_time":2222000000000,"state":"active","ping":73},{"user_id":166,"name":"PissLørd","steam_id":76561198843074410,"connected_time":1697000000000,"state":"active","ping":46},{"user_id":161,"name":"Snazz","steam_id":76561198106458195,"connected_time":1895000000000,"state":"active","ping":73},{"user_id":148,"name":"nothowon","steam_id":76561198937601452,"connected_time":3899000000000,"state":"active","ping":105},{"user_id":163,"name":"bulborb","steam_id":76561198367271050,"connected_time":1852000000000,"state":"active","ping":55},{"user_id":165,"name":"Cave Dweller","steam_id":76561198374825685,"connected_time":1759000000000,"state":"active","ping":95},{"user_id":186,"name":"bonk schnoffer","steam_id":76561198301598124,"connected_time":232000000000,"state":"active","ping":85},{"user_id":168,"name":"Sol","steam_id":76561199064688612,"connected_time":1638000000000,"state":"active","ping":122},{"user_id":172,"name":"Red","steam_id":76561198255311543,"connected_time":1512000000000,"state":"active","ping":139},{"user_id":173,"name":"gwiggle","steam_id":76561198337692867,"connected_time":1509000000000,"state":"active","ping":122},{"user_id":187,"name":"Deputy Dog","steam_id":76561197960441667,"connected_time":202000000000,"state":"active","ping":94},{"user_id":189,"name":"Perilous_N-gus_Lau","steam_id":76561198395490266,"connected_time":37000000000,"state":"spawning","ping":58},{"user_id":191,"name":"DylChill616","steam_id":76561198194576953,"connected_time":28000000000,"state":"active","ping":101},{"user_id":178,"name":"BurntBacon","steam_id":76561198409008960,"connected_time":1175000000000,"state":"active","ping":104},{"user_id":180,"name":"Wedgelord0™","steam_id":76561198307648112,"connected_time":1105000000000,"state":"active","ping":51},{"user_id":59,"name":"Ockulus","steam_id":76561199069638460,"connected_time":10133000000000,"state":"active","ping":37},{"user_id":181,"name":"darktheif54","steam_id":76561198043650119,"connected_time":1062000000000,"state":"active","ping":46},{"user_id":185,"name":"HOG RIDER","steam_id":76561198298589502,"connected_time":701000000000,"state":"active","ping":52},{"user_id":188,"name":"SoupDelivery","steam_id":76561198064906818,"connected_time":197000000000,"state":"active","ping":54}]},{"server_id":25,"name":"Uncletopia | Los Angeles | 4 | Stopwatch Beta","name_short":"lax-4","host":"lax-1.us.uncletopia.com","port":27045,"enabled":true,"region":"us-west","cc":"us","latitude":33.94279,"longitude":-118.41004,"reserved":0,"last_update":"0001-01-01T00:00:00Z","name_a2s":"Uncletopia | Los Angeles | 4 | Stopwatch Beta","protocol":17,"map":"pl_swiftwater_final1","folder":"tf","game":"Team Fortress","app_id":440,"player_count":0,"max_players":24,"Bots":0,"server_type":"Dedicated","server_os":"Linux","password":true,"vac":true,"version":"7757534","steam_id":85568392924510199,"keywords":["nocrits","nodmgspread","payload","uncletopia"],"game_id":440,"stv_port":27046,"stv_name":"Uncletopia | Los Angeles | 4 | Stopwatch Beta | STV","players":null},{"server_id":11,"name":"Uncletopia | London | 1 | All Maps","name_short":"lon-1","host":"lon-1.uk.uncletopia.com","port":27015,"enabled":true,"region":"eu","cc":"gb","latitude":51.509865,"longitude":-0.118092,"reserved":0,"last_update":"0001-01-01T00:00:00Z","name_a2s":"Uncletopia | London | 1 | All Maps","protocol":17,"map":"cp_powerhouse","folder":"tf","game":"Team Fortress","app_id":440,"player_count":24,"max_players":24,"Bots":0,"server_type":"Dedicated","server_os":"Linux","password":true,"vac":true,"version":"7757534","steam_id":85568392924367362,"keywords":["cp","nocrits","nodmgspread","uncletopia"],"game_id":440,"stv_port":27016,"stv_name":"Uncletopia | London | 1 | All Maps | STV","players":[{"user_id":822,"name":"Mug+Warp","steam_id":76561198120555272,"connected_time":3807000000000,"state":"active","ping":65},{"user_id":934,"name":"Lyncurion","steam_id":76561199260022725,"connected_time":1290000000000,"state":"active","ping":86},{"user_id":923,"name":"Sorky","steam_id":76561198007502339,"connected_time":2084000000000,"state":"active","ping":74},{"user_id":933,"name":"Mr. Burp","steam_id":76561198042927314,"connected_time":1443000000000,"state":"active","ping":49},{"user_id":848,"name":"Hive","steam_id":76561199480966681,"connected_time":3282000000000,"state":"active","ping":74},{"user_id":744,"name":"This way is good","steam_id":76561199383437138,"connected_time":5740000000000,"state":"active","ping":119},{"user_id":939,"name":"casual schizophrenic","steam_id":76561198255357694,"connected_time":639000000000,"state":"active","ping":89},{"user_id":924,"name":"Creamy","steam_id":76561198063907478,"connected_time":2080000000000,"state":"active","ping":55},{"user_id":945,"name":"Suomipe #TF2Center","steam_id":76561198816127818,"connected_time":183000000000,"state":"active","ping":102},{"user_id":799,"name":"shh... tiny carrots r sleeping","steam_id":76561198069649097,"connected_time":4494000000000,"state":"active","ping":52},{"user_id":800,"name":"Mayor Wank from Wanker Town","steam_id":76561197998253588,"connected_time":4431000000000,"state":"active","ping":59},{"user_id":927,"name":"revsport.racing","steam_id":76561198317424558,"connected_time":1511000000000,"state":"active","ping":59},{"user_id":943,"name":"Moth_fellofacliff","steam_id":76561199438966999,"connected_time":317000000000,"state":"active","ping":94},{"user_id":942,"name":"-_-Steve-_-","steam_id":76561198318786687,"connected_time":381000000000,"state":"active","ping":54},{"user_id":583,"name":"fieldbox","steam_id":76561198101893112,"connected_time":14263000000000,"state":"active","ping":47},{"user_id":944,"name":"Locke","steam_id":76561198339408300,"connected_time":304000000000,"state":"active","ping":60},{"user_id":851,"name":"zvekan","steam_id":76561198381101196,"connected_time":3243000000000,"state":"active","ping":72},{"user_id":826,"name":"dec","steam_id":76561198009660168,"connected_time":3751000000000,"state":"active","ping":54},{"user_id":938,"name":"arcSolver","steam_id":76561198212013944,"connected_time":921000000000,"state":"active","ping":53},{"user_id":898,"name":"mary","steam_id":76561198014828037,"connected_time":2508000000000,"state":"active","ping":54},{"user_id":861,"name":"Hoff","steam_id":76561198138540938,"connected_time":3086000000000,"state":"active","ping":74},{"user_id":936,"name":"Baki ඞ","steam_id":76561198193615529,"connected_time":1073000000000,"state":"active","ping":63},{"user_id":929,"name":"SOPHIIEE","steam_id":76561198443798981,"connected_time":1493000000000,"state":"active","ping":54},{"user_id":926,"name":"J3LLY","steam_id":76561198048453764,"connected_time":1824000000000,"state":"active","ping":51}]},{"server_id":114,"name":"Uncletopia | London | 2 | All Maps","name_short":"lon-2","host":"lon-1.uk.uncletopia.com","port":27025,"enabled":true,"region":"eu","cc":"gb","latitude":51.509865,"longitude":-0.118092,"reserved":0,"last_update":"0001-01-01T00:00:00Z","name_a2s":"Uncletopia | London | 2 | All Maps","protocol":17,"map":"pl_upward","folder":"tf","game":"Team Fortress","app_id":440,"player_count":24,"max_players":24,"Bots":0,"server_type":"Dedicated","server_os":"Linux","password":true,"vac":true,"version":"7757534","steam_id":85568392924470941,"keywords":["nocrits","nodmgspread","payload","uncletopia"],"game_id":440,"stv_port":27026,"stv_name":"Uncletopia | London | 2 | All Maps | STV","players":[{"user_id":775,"name":"Mr_Pulse_","steam_id":76561198095001602,"connected_time":1710000000000,"state":"active","ping":113},{"user_id":727,"name":"5tv^","steam_id":76561198063129586,"connected_time":3956000000000,"state":"active","ping":44},{"user_id":607,"name":"ThatGamingKiwi","steam_id":76561199170522237,"connected_time":12511000000000,"state":"active","ping":149},{"user_id":757,"name":"gofdrey","steam_id":76561198121941052,"connected_time":2892000000000,"state":"active","ping":57},{"user_id":709,"name":"Piteras","steam_id":76561198858532207,"connected_time":4723000000000,"state":"active","ping":84},{"user_id":781,"name":"rezenvovani","steam_id":76561198353290753,"connected_time":1210000000000,"state":"active","ping":75},{"user_id":787,"name":"oldy","steam_id":76561198031899043,"connected_time":1060000000000,"state":"active","ping":91},{"user_id":799,"name":"ugly","steam_id":76561199050412617,"connected_time":478000000000,"state":"active","ping":108},{"user_id":778,"name":"Schwarzschild radius(Rg=2GM/c^2","steam_id":76561198179463343,"connected_time":1490000000000,"state":"active","ping":41},{"user_id":729,"name":"The Appleguy","steam_id":76561198444982569,"connected_time":3915000000000,"state":"active","ping":112},{"user_id":786,"name":"nicki \u003c3","steam_id":76561199070959164,"connected_time":1115000000000,"state":"active","ping":63},{"user_id":801,"name":"Juiceydough","steam_id":76561197997323419,"connected_time":353000000000,"state":"active","ping":88},{"user_id":784,"name":"Sippie","steam_id":76561198130393388,"connected_time":1136000000000,"state":"active","ping":63},{"user_id":804,"name":"Psycho","steam_id":76561198084918608,"connected_time":56000000000,"state":"active","ping":64},{"user_id":800,"name":"skitarii enjoyer","steam_id":76561198220245604,"connected_time":369000000000,"state":"active","ping":67},{"user_id":762,"name":"big t","steam_id":76561198067179454,"connected_time":2749000000000,"state":"active","ping":44},{"user_id":805,"name":"✪ Danny","steam_id":76561198104483241,"connected_time":27000000000,"state":"spawning","ping":87},{"user_id":764,"name":"molly","steam_id":76561198029399151,"connected_time":2718000000000,"state":"active","ping":64},{"user_id":705,"name":"Gekoloniseerd","steam_id":76561198819871606,"connected_time":5053000000000,"state":"active","ping":95},{"user_id":765,"name":"Punchy","steam_id":76561197961020896,"connected_time":2675000000000,"state":"active","ping":62},{"user_id":806,"name":"Hunter64","steam_id":76561199121947938,"connected_time":7000000000,"state":"spawning","ping":43},{"user_id":776,"name":"Excessive Clownery","steam_id":76561198130404188,"connected_time":1708000000000,"state":"active","ping":61},{"user_id":789,"name":"Absolute Stupid Player.","steam_id":76561198855386699,"connected_time":991000000000,"state":"active","ping":53},{"user_id":802,"name":"tm`","steam_id":76561197993580412,"connected_time":322000000000,"state":"active","ping":70}]},{"server_id":320,"name":"Uncletopia | London | 3 | All Maps","name_short":"lon-3","host":"lon-1.uk.uncletopia.com","port":27035,"enabled":true,"region":"eu","cc":"gb","latitude":51.509865,"longitude":-0.118092,"reserved":0,"last_update":"0001-01-01T00:00:00Z","name_a2s":"Uncletopia | London | 3 | All Maps","protocol":17,"map":"pl_upward","folder":"tf","game":"Team Fortress","app_id":440,"player_count":24,"max_players":24,"Bots":0,"server_type":"Dedicated","server_os":"Linux","password":true,"vac":true,"version":"7757534","steam_id":85568392924510192,"keywords":["nocrits","nodmgspread","payload","uncletopia"],"game_id":440,"stv_port":27036,"stv_name":"Uncletopia | London | 3 | All Maps | STV","players":[{"user_id":506,"name":"juntao","steam_id":76561198363882056,"connected_time":165000000000,"state":"active","ping":41},{"user_id":496,"name":"do you believe in magic?","steam_id":76561198193357946,"connected_time":1991000000000,"state":"active","ping":116},{"user_id":494,"name":"Unstable Goat","steam_id":76561197985788557,"connected_time":2158000000000,"state":"active","ping":87},{"user_id":501,"name":"Thors","steam_id":76561197968739075,"connected_time":1062000000000,"state":"active","ping":44},{"user_id":445,"name":"Can I get a Beep Beep","steam_id":76561198010730967,"connected_time":5402000000000,"state":"active","ping":66},{"user_id":502,"name":"8 Ball","steam_id":76561197960988736,"connected_time":1054000000000,"state":"active","ping":45},{"user_id":484,"name":"THEJamiboi","steam_id":76561198034696965,"connected_time":2637000000000,"state":"active","ping":65},{"user_id":371,"name":"Dr. Mike Litoris","steam_id":76561197991205793,"connected_time":10477000000000,"state":"active","ping":77},{"user_id":449,"name":"Dewotter","steam_id":76561198007653168,"connected_time":5310000000000,"state":"active","ping":60},{"user_id":462,"name":"V1","steam_id":76561198845397091,"connected_time":4505000000000,"state":"active","ping":47},{"user_id":505,"name":"Hannü","steam_id":76561197969886128,"connected_time":173000000000,"state":"active","ping":59},{"user_id":482,"name":"Qwichi","steam_id":76561198264893430,"connected_time":2648000000000,"state":"active","ping":81},{"user_id":507,"name":"Enforcer02","steam_id":76561197966045944,"connected_time":145000000000,"state":"active","ping":68},{"user_id":491,"name":"Have A Blessed Day","steam_id":76561198030956814,"connected_time":2425000000000,"state":"active","ping":68},{"user_id":458,"name":"Forklift Certified","steam_id":76561198001816577,"connected_time":4948000000000,"state":"active","ping":90},{"user_id":490,"name":"1 toke 4 mars bars","steam_id":76561198056460000,"connected_time":2438000000000,"state":"active","ping":53},{"user_id":504,"name":"Circular","steam_id":76561198001536710,"connected_time":270000000000,"state":"active","ping":45},{"user_id":465,"name":"One Shiny Boi™","steam_id":76561198199193627,"connected_time":4442000000000,"state":"active","ping":75},{"user_id":508,"name":"professional car consumer","steam_id":76561198977420882,"connected_time":114000000000,"state":"active","ping":37},{"user_id":451,"name":"す LightFlight し","steam_id":76561198079007530,"connected_time":5276000000000,"state":"active","ping":59},{"user_id":454,"name":"UltraCoolKiddo","steam_id":76561198102025290,"connected_time":5045000000000,"state":"active","ping":64},{"user_id":426,"name":"tomi heavy","steam_id":76561198025916703,"connected_time":6823000000000,"state":"active","ping":81},{"user_id":459,"name":"Shadowengell","steam_id":76561198019284410,"connected_time":4773000000000,"state":"active","ping":121},{"user_id":477,"name":"Aight","steam_id":76561198300453404,"connected_time":3720000000000,"state":"active","ping":89}]},{"server_id":321,"name":"Uncletopia | London | 4 | All Maps","name_short":"lon-4","host":"lon-1.uk.uncletopia.com","port":27045,"enabled":true,"region":"eu","cc":"gb","latitude":51.509865,"longitude":-0.118092,"reserved":0,"last_update":"0001-01-01T00:00:00Z","name_a2s":"Uncletopia | London | 4 | All Maps","protocol":17,"map":"pl_pier","folder":"tf","game":"Team Fortress","app_id":440,"player_count":0,"max_players":24,"Bots":0,"server_type":"Dedicated","server_os":"Linux","password":true,"vac":true,"version":"7757534","steam_id":85568392924510193,"keywords":["nocrits","nodmgspread","payload","uncletopia"],"game_id":440,"stv_port":27046,"stv_name":"Uncletopia | London | 4 | All Maps | STV","players":null},{"server_id":21,"name":"Uncletopia | London | 5 | All Maps","name_short":"lon-5","host":"lon-1.uk.uncletopia.com","port":27055,"enabled":true,"region":"eu","cc":"gb","latitude":51.509865,"longitude":-0.118092,"reserved":0,"last_update":"0001-01-01T00:00:00Z","name_a2s":"Uncletopia | London | 5 | All Maps","protocol":17,"map":"pl_barnblitz","folder":"tf","game":"Team Fortress","app_id":440,"player_count":24,"max_players":24,"Bots":0,"server_type":"Dedicated","server_os":"Linux","password":true,"vac":true,"version":"7757534","steam_id":85568392924742829,"keywords":["nocrits","nodmgspread","payload","uncletopia"],"game_id":440,"stv_port":27056,"stv_name":"Uncletopia | London | 5 | All Maps | STV","players":[{"user_id":443,"name":"Economic crisis","steam_id":76561198063562843,"connected_time":1108000000000,"state":"active","ping":64},{"user_id":427,"name":"the stinky","steam_id":76561198035518160,"connected_time":2691000000000,"state":"active","ping":68},{"user_id":429,"name":"cherry coal","steam_id":76561198822725169,"connected_time":2633000000000,"state":"active","ping":45},{"user_id":453,"name":"MAKENTAKEN","steam_id":76561199127359587,"connected_time":274000000000,"state":"active","ping":105},{"user_id":422,"name":"hora","steam_id":76561198404470526,"connected_time":2716000000000,"state":"active","ping":98},{"user_id":416,"name":"Ohad","steam_id":76561198067989324,"connected_time":3554000000000,"state":"active","ping":111},{"user_id":441,"name":"Hey, I´m Andy!","steam_id":76561198060337777,"connected_time":1295000000000,"state":"active","ping":85},{"user_id":450,"name":"bomberman #savetf2","steam_id":76561199066513442,"connected_time":887000000000,"state":"active","ping":69},{"user_id":446,"name":"Mr.killer","steam_id":76561198290584189,"connected_time":1064000000000,"state":"active","ping":89},{"user_id":433,"name":"The Pestilence","steam_id":76561199081252282,"connected_time":2505000000000,"state":"active","ping":167},{"user_id":447,"name":"Toofy","steam_id":76561197989727907,"connected_time":1063000000000,"state":"active","ping":38},{"user_id":412,"name":"Tort","steam_id":76561198329646769,"connected_time":4009000000000,"state":"active","ping":55},{"user_id":400,"name":"right winger","steam_id":76561199402697160,"connected_time":4832000000000,"state":"active","ping":105},{"user_id":419,"name":"Washburne","steam_id":76561198032810579,"connected_time":2927000000000,"state":"active","ping":53},{"user_id":451,"name":"Spliffendor","steam_id":76561198144020209,"connected_time":852000000000,"state":"active","ping":46},{"user_id":448,"name":"ricky pee pee","steam_id":76561198152620745,"connected_time":1047000000000,"state":"active","ping":59},{"user_id":454,"name":"Big Al","steam_id":76561198079585198,"connected_time":111000000000,"state":"active","ping":55},{"user_id":425,"name":"Davey","steam_id":76561198256879107,"connected_time":2696000000000,"state":"active","ping":84},{"user_id":426,"name":"the silly","steam_id":76561198289285025,"connected_time":2695000000000,"state":"active","ping":58},{"user_id":418,"name":"j o n","steam_id":76561199229511741,"connected_time":3159000000000,"state":"active","ping":55},{"user_id":452,"name":"RIFT","steam_id":76561198991622379,"connected_time":849000000000,"state":"active","ping":41},{"user_id":330,"name":"Whisper","steam_id":76561197990890595,"connected_time":8342000000000,"state":"active","ping":66},{"user_id":449,"name":"maybe blw.tf","steam_id":76561199028670732,"connected_time":1036000000000,"state":"active","ping":62},{"user_id":432,"name":"AsuX","steam_id":76561197990333289,"connected_time":2577000000000,"state":"active","ping":61}]},{"server_id":22,"name":"Uncletopia | London | 6 | All Maps","name_short":"lon-6","host":"lon-1.uk.uncletopia.com","port":27065,"enabled":true,"region":"eu","cc":"gb","latitude":51.509865,"longitude":-0.118092,"reserved":0,"last_update":"0001-01-01T00:00:00Z","name_a2s":"Uncletopia | London | 6 | All Maps","protocol":17,"map":"pl_barnblitz","folder":"tf","game":"Team Fortress","app_id":440,"player_count":24,"max_players":24,"Bots":0,"server_type":"Dedicated","server_os":"Linux","password":true,"vac":true,"version":"7757534","steam_id":85568392924742830,"keywords":["nocrits","nodmgspread","payload","uncletopia"],"game_id":440,"stv_port":27066,"stv_name":"Uncletopia | London | 6 | All Maps | STV","players":[{"user_id":263,"name":"obi","steam_id":76561198040154461,"connected_time":2159000000000,"state":"active","ping":62},{"user_id":289,"name":"Dr Ludwig","steam_id":76561198426522902,"connected_time":945000000000,"state":"active","ping":53},{"user_id":290,"name":"MR DADDY","steam_id":76561198350794663,"connected_time":926000000000,"state":"active","ping":114},{"user_id":266,"name":"Hadmund Gaming","steam_id":76561198119454822,"connected_time":1952000000000,"state":"active","ping":69},{"user_id":299,"name":"zak","steam_id":76561197998895428,"connected_time":334000000000,"state":"active","ping":62},{"user_id":300,"name":"Thewhiteraven","steam_id":76561198196852659,"connected_time":310000000000,"state":"active","ping":49},{"user_id":257,"name":"Derexas","steam_id":76561198010438489,"connected_time":3030000000000,"state":"active","ping":68},{"user_id":261,"name":"Twisted Logic ∞","steam_id":76561198002245428,"connected_time":2244000000000,"state":"active","ping":42},{"user_id":262,"name":"sticky aimer","steam_id":76561198126008470,"connected_time":2239000000000,"state":"active","ping":35},{"user_id":301,"name":"Prox","steam_id":76561198351490981,"connected_time":250000000000,"state":"active","ping":40},{"user_id":303,"name":"Vanilla","steam_id":76561198073933435,"connected_time":176000000000,"state":"active","ping":66},{"user_id":304,"name":"Udinese Dion","steam_id":76561198067931573,"connected_time":168000000000,"state":"active","ping":64},{"user_id":305,"name":"Heavy Ordnance Charger","steam_id":76561198879107565,"connected_time":167000000000,"state":"active","ping":62},{"user_id":272,"name":"Bingus is WAM","steam_id":76561199131547722,"connected_time":1834000000000,"state":"active","ping":67},{"user_id":298,"name":"✪ Karma ✪","steam_id":76561198169475882,"connected_time":541000000000,"state":"active","ping":77},{"user_id":274,"name":"dochris.2","steam_id":76561198026478625,"connected_time":1662000000000,"state":"active","ping":51},{"user_id":286,"name":"joachym","steam_id":76561198428579761,"connected_time":1398000000000,"state":"active","ping":73},{"user_id":306,"name":"Dreamyous","steam_id":76561198081753298,"connected_time":81000000000,"state":"active","ping":168},{"user_id":307,"name":"poliakov.noam","steam_id":76561199259322961,"connected_time":77000000000,"state":"active","ping":267},{"user_id":278,"name":"sareena","steam_id":76561198810194062,"connected_time":1552000000000,"state":"active","ping":69},{"user_id":281,"name":"Darkumineru","steam_id":76561198269566113,"connected_time":1513000000000,"state":"active","ping":139},{"user_id":294,"name":"moððe","steam_id":76561199006462039,"connected_time":739000000000,"state":"active","ping":71},{"user_id":282,"name":"Engie","steam_id":76561198099213168,"connected_time":1502000000000,"state":"active","ping":55},{"user_id":295,"name":"RuneShine","steam_id":76561198007098323,"connected_time":717000000000,"state":"active","ping":49}]},{"server_id":40,"name":"Uncletopia | London | 7 | No Payload","name_short":"lon-7","host":"lon-1.uk.uncletopia.com","port":27075,"enabled":true,"region":"eu","cc":"gb","latitude":51.509865,"longitude":-0.118092,"reserved":0,"last_update":"0001-01-01T00:00:00Z","name_a2s":"Uncletopia | London | 7 | No Payload","protocol":17,"map":"cp_badlands","folder":"tf","game":"Team Fortress","app_id":440,"player_count":17,"max_players":24,"Bots":0,"server_type":"Dedicated","server_os":"Linux","password":true,"vac":true,"version":"7757534","steam_id":85568392924964314,"keywords":["cp","nocrits","nodmgspread","uncletopia"],"game_id":440,"stv_port":27076,"stv_name":"Uncletopia | London | 7 | No Payload | STV","players":[{"user_id":148,"name":"Absolute_clamp","steam_id":76561198958563865,"connected_time":566000000000,"state":"active","ping":31},{"user_id":139,"name":"Ficko","steam_id":76561198856075685,"connected_time":1228000000000,"state":"active","ping":116},{"user_id":141,"name":"Eing","steam_id":76561198253125820,"connected_time":1099000000000,"state":"active","ping":82},{"user_id":111,"name":"Nero Claudius","steam_id":76561198173936397,"connected_time":2857000000000,"state":"active","ping":96},{"user_id":150,"name":"Labial","steam_id":76561198385163046,"connected_time":504000000000,"state":"active","ping":38},{"user_id":98,"name":"cl","steam_id":76561199436640904,"connected_time":3649000000000,"state":"active","ping":82},{"user_id":133,"name":"nvmHastee","steam_id":76561199371458295,"connected_time":1752000000000,"state":"active","ping":85},{"user_id":151,"name":"Petight","steam_id":76561197999438798,"connected_time":495000000000,"state":"active","ping":38},{"user_id":124,"name":"Envy","steam_id":76561198132723219,"connected_time":2081000000000,"state":"active","ping":107},{"user_id":152,"name":"A Wild Ferrothorn","steam_id":76561198042261828,"connected_time":461000000000,"state":"active","ping":63},{"user_id":126,"name":"Saul Goodman","steam_id":76561198346169853,"connected_time":2069000000000,"state":"active","ping":94},{"user_id":145,"name":"Goose of Wisdom","steam_id":76561198233465044,"connected_time":670000000000,"state":"active","ping":145},{"user_id":65,"name":"Ember from Hungary","steam_id":76561198269211299,"connected_time":5562000000000,"state":"active","ping":84},{"user_id":135,"name":"eeeeee","steam_id":76561198017786875,"connected_time":1692000000000,"state":"active","ping":71},{"user_id":136,"name":"Carrotcracker","steam_id":76561198034862396,"connected_time":1672000000000,"state":"active","ping":78},{"user_id":38,"name":"and i'm javert!","steam_id":76561198117033273,"connected_time":6592000000000,"state":"active","ping":50},{"user_id":94,"name":"Unvid","steam_id":76561198031588080,"connected_time":4021000000000,"state":"active","ping":58}]},{"server_id":41,"name":"Uncletopia | London | 8 | Community","name_short":"lon-8","host":"lon-1.uk.uncletopia.com","port":27085,"enabled":true,"region":"eu","cc":"gb","latitude":51.509865,"longitude":-0.118092,"reserved":0,"last_update":"0001-01-01T00:00:00Z","name_a2s":"Uncletopia | London | 8 | Community","protocol":17,"map":"workshop/koth_bagel_rc6.ugc2514036946","folder":"tf","game":"Team Fortress","app_id":440,"player_count":21,"max_players":24,"Bots":0,"server_type":"Dedicated","server_os":"Linux","password":true,"vac":true,"version":"7757534","steam_id":85568392924964315,"keywords":["cp","nocrits","nodmgspread","uncletopia"],"game_id":440,"stv_port":27086,"stv_name":"Uncletopia | London | 8 | Community | STV","players":[{"user_id":129,"name":"Tails8521","steam_id":76561198051747164,"connected_time":1623000000000,"state":"active","ping":54},{"user_id":137,"name":"Lukas","steam_id":76561198009118452,"connected_time":586000000000,"state":"active","ping":66},{"user_id":113,"name":"floppyfish","steam_id":76561198131717039,"connected_time":2482000000000,"state":"active","ping":152},{"user_id":93,"name":"Kleiner Engel","steam_id":76561198009922500,"connected_time":3751000000000,"state":"active","ping":73},{"user_id":114,"name":"pako","steam_id":76561198429046379,"connected_time":2458000000000,"state":"active","ping":58},{"user_id":136,"name":"HurrpNana","steam_id":76561199102156562,"connected_time":691000000000,"state":"active","ping":97},{"user_id":117,"name":"Piquesque","steam_id":76561198286763046,"connected_time":2335000000000,"state":"active","ping":108},{"user_id":90,"name":"Birdseye","steam_id":76561198025852216,"connected_time":3891000000000,"state":"active","ping":45},{"user_id":138,"name":"Vershal Smershal","steam_id":76561198116223995,"connected_time":547000000000,"state":"active","ping":58},{"user_id":76,"name":"DelaNo","steam_id":76561199125086655,"connected_time":4976000000000,"state":"active","ping":39},{"user_id":139,"name":"roni","steam_id":76561198808303787,"connected_time":522000000000,"state":"active","ping":93},{"user_id":130,"name":"78","steam_id":76561198208328357,"connected_time":1610000000000,"state":"active","ping":84},{"user_id":109,"name":"mumbler","steam_id":76561197970641239,"connected_time":2696000000000,"state":"active","ping":55},{"user_id":111,"name":"godmodule","steam_id":76561198165995444,"connected_time":2650000000000,"state":"active","ping":79},{"user_id":32,"name":"Space","steam_id":76561198021572167,"connected_time":8323000000000,"state":"active","ping":45},{"user_id":34,"name":"orange_blossom","steam_id":76561198060141884,"connected_time":8044000000000,"state":"active","ping":64},{"user_id":121,"name":"ROX","steam_id":76561198272289320,"connected_time":2221000000000,"state":"active","ping":59},{"user_id":110,"name":"chatteringduck","steam_id":76561198131778772,"connected_time":2666000000000,"state":"active","ping":144},{"user_id":132,"name":"certified","steam_id":76561198181368101,"connected_time":1539000000000,"state":"active","ping":62},{"user_id":131,"name":"tWx","steam_id":76561198123145824,"connected_time":1605000000000,"state":"active","ping":75},{"user_id":125,"name":"LVIXX","steam_id":76561198188767928,"connected_time":2071000000000,"state":"active","ping":67}]},{"server_id":300,"name":"Uncletopia | Montréal | 1 | All Maps","name_short":"mtl-1","host":"mtl-1.ca.uncletopia.com","port":27015,"enabled":true,"region":"us-east","cc":"ca","latitude":45.50889,"longitude":-73.56167,"reserved":0,"last_update":"0001-01-01T00:00:00Z","name_a2s":"Uncletopia | Montréal | 1 | All Maps","protocol":17,"map":"pl_badwater","folder":"tf","game":"Team Fortress","app_id":440,"player_count":24,"max_players":24,"Bots":0,"server_type":"Dedicated","server_os":"Linux","password":true,"vac":true,"version":"7757534","steam_id":85568392924500087,"keywords":["nocrits","nodmgspread","payload","uncletopia"],"game_id":440,"stv_port":27016,"stv_name":"Uncletopia | Montréal | 1 | All Maps | STV","players":[{"user_id":21,"name":"Zenabie","steam_id":76561198088372680,"connected_time":4183000000000,"state":"active","ping":75},{"user_id":22,"name":"「ꜱᴛɪɴᴋʏ」","steam_id":76561198190323610,"connected_time":4167000000000,"state":"active","ping":77},{"user_id":86,"name":"Guppy","steam_id":76561198094512992,"connected_time":230000000000,"state":"active","ping":72},{"user_id":51,"name":"who is gavin?","steam_id":76561198069415057,"connected_time":2617000000000,"state":"active","ping":51},{"user_id":59,"name":"Cherry Bomb!","steam_id":76561198017947020,"connected_time":1910000000000,"state":"active","ping":69},{"user_id":89,"name":"Ignatius J. Reilly","steam_id":76561198066958868,"connected_time":72000000000,"state":"active","ping":71},{"user_id":68,"name":"allie","steam_id":76561198105658448,"connected_time":1307000000000,"state":"active","ping":45},{"user_id":74,"name":"Kazoo Child","steam_id":76561198874917905,"connected_time":1083000000000,"state":"active","ping":161},{"user_id":83,"name":"Pikajump","steam_id":76561198024626166,"connected_time":407000000000,"state":"active","ping":73},{"user_id":60,"name":"Kasodani Kyouko","steam_id":76561198023178589,"connected_time":1909000000000,"state":"active","ping":80},{"user_id":84,"name":"McSweaney","steam_id":76561198071975692,"connected_time":390000000000,"state":"active","ping":110},{"user_id":79,"name":"Rick Assley","steam_id":76561198365019199,"connected_time":795000000000,"state":"active","ping":72},{"user_id":85,"name":"Bushkey1","steam_id":76561198105672913,"connected_time":385000000000,"state":"active","ping":65},{"user_id":61,"name":"UZR","steam_id":76561198799343084,"connected_time":1906000000000,"state":"active","ping":127},{"user_id":81,"name":"skittle ducks jr.","steam_id":76561198309823950,"connected_time":486000000000,"state":"active","ping":105},{"user_id":67,"name":"radiation","steam_id":76561198001157602,"connected_time":1320000000000,"state":"active","ping":84},{"user_id":37,"name":"Vince Offer","steam_id":76561198991008825,"connected_time":3385000000000,"state":"active","ping":70},{"user_id":70,"name":"mic you","steam_id":76561198120735848,"connected_time":1134000000000,"state":"active","ping":68},{"user_id":62,"name":"Winkrill #transrights","steam_id":76561198108515561,"connected_time":1889000000000,"state":"active","ping":71},{"user_id":88,"name":"dipp","steam_id":76561198395577807,"connected_time":188000000000,"state":"active","ping":45},{"user_id":41,"name":"WeegeePJ","steam_id":76561199383362382,"connected_time":3297000000000,"state":"active","ping":69},{"user_id":80,"name":"idarmed","steam_id":76561198420064361,"connected_time":499000000000,"state":"active","ping":119},{"user_id":49,"name":"Honeybunch","steam_id":76561198014850580,"connected_time":2813000000000,"state":"active","ping":120},{"user_id":78,"name":"Swifgz","steam_id":76561198162875756,"connected_time":994000000000,"state":"active","ping":53}]},{"server_id":301,"name":"Uncletopia | Montréal | 2 | All Maps","name_short":"mtl-2","host":"mtl-1.ca.uncletopia.com","port":27025,"enabled":true,"region":"us-east","cc":"ca","latitude":45.50889,"longitude":-73.56167,"reserved":0,"last_update":"0001-01-01T00:00:00Z","name_a2s":"Uncletopia | Montréal | 2 | All Maps","protocol":17,"map":"cp_mountainlab","folder":"tf","game":"Team Fortress","app_id":440,"player_count":0,"max_players":24,"Bots":0,"server_type":"Dedicated","server_os":"Linux","password":true,"vac":true,"version":"7757534","steam_id":85568392924500088,"keywords":["cp","nocrits","nodmgspread","uncletopia"],"game_id":440,"stv_port":27026,"stv_name":"Uncletopia | Montréal | 2 | All Maps | STV","players":null},{"server_id":302,"name":"Uncletopia | Montréal | 3 | All Maps","name_short":"mtl-3","host":"mtl-1.ca.uncletopia.com","port":27035,"enabled":true,"region":"us-east","cc":"ca","latitude":45.50889,"longitude":-73.56167,"reserved":0,"last_update":"0001-01-01T00:00:00Z","name_a2s":"Uncletopia | Montréal | 3 | All Maps","protocol":17,"map":"pl_swiftwater_final1","folder":"tf","game":"Team Fortress","app_id":440,"player_count":0,"max_players":24,"Bots":0,"server_type":"Dedicated","server_os":"Linux","password":true,"vac":true,"version":"7757534","steam_id":85568392924500089,"keywords":["nocrits","nodmgspread","payload","uncletopia"],"game_id":440,"stv_port":27036,"stv_name":"Uncletopia | Montréal | 3 | All Maps | STV","players":null},{"server_id":303,"name":"Uncletopia | Montréal | 4 | No Payload","name_short":"mtl-4","host":"mtl-1.ca.uncletopia.com","port":27045,"enabled":true,"region":"us-east","cc":"ca","latitude":45.50889,"longitude":-73.56167,"reserved":0,"last_update":"0001-01-01T00:00:00Z","name_a2s":"Uncletopia | Montréal | 4 | No Payload","protocol":17,"map":"pl_pier","folder":"tf","game":"Team Fortress","app_id":440,"player_count":0,"max_players":24,"Bots":0,"server_type":"Dedicated","server_os":"Linux","password":true,"vac":true,"version":"7757534","steam_id":85568392924500090,"keywords":["nocrits","nodmgspread","payload","uncletopia"],"game_id":440,"stv_port":27046,"stv_name":"Uncletopia | Montréal | 4 | No Payload | STV","players":null},{"server_id":13,"name":"Uncletopia | New York City | 1 | All Maps","name_short":"nyc-1","host":"nyc-1.us.uncletopia.com","port":27015,"enabled":true,"region":"us-east","cc":"us","latitude":40.73061,"longitude":-73.93524,"reserved":0,"last_update":"0001-01-01T00:00:00Z","name_a2s":"Uncletopia | New York City | 1 | All Maps","protocol":17,"map":"cp_powerhouse","folder":"tf","game":"Team Fortress","app_id":440,"player_count":23,"max_players":24,"Bots":0,"server_type":"Dedicated","server_os":"Linux","password":true,"vac":true,"version":"7757534","steam_id":85568392924469993,"keywords":["cp","nocrits","nodmgspread","uncletopia"],"game_id":440,"stv_port":27016,"stv_name":"Uncletopia | New York City | 1 | All Maps | STV","players":[{"user_id":148,"name":"F_L Ken","steam_id":76561198233988068,"connected_time":947000000000,"state":"active","ping":64},{"user_id":160,"name":"Frankenbook","steam_id":76561197991400109,"connected_time":77000000000,"state":"active","ping":47},{"user_id":143,"name":"pepsibobby","steam_id":76561198853864511,"connected_time":1567000000000,"state":"active","ping":75},{"user_id":130,"name":"Snoball","steam_id":76561198205838372,"connected_time":1794000000000,"state":"active","ping":100},{"user_id":139,"name":"FATHER GARCIA","steam_id":76561198871897563,"connected_time":1616000000000,"state":"active","ping":40},{"user_id":127,"name":"ilosebetsfast","steam_id":76561199191791808,"connected_time":1926000000000,"state":"active","ping":77},{"user_id":162,"name":"Soundwave Gaming","steam_id":76561199013299586,"connected_time":41000000000,"state":"active","ping":57},{"user_id":134,"name":"ThePoisonForKuzco","steam_id":76561199081641282,"connected_time":1709000000000,"state":"active","ping":60},{"user_id":154,"name":"Bottom Ramen","steam_id":76561197970450546,"connected_time":698000000000,"state":"active","ping":127},{"user_id":158,"name":"Lost CS player","steam_id":76561198892387723,"connected_time":158000000000,"state":"active","ping":72},{"user_id":161,"name":"Fetus in a paper bag","steam_id":76561199047286823,"connected_time":72000000000,"state":"active","ping":46},{"user_id":152,"name":"Snyderthing","steam_id":76561197997277855,"connected_time":779000000000,"state":"active","ping":113},{"user_id":144,"name":"[BBW] Justario","steam_id":76561198016095410,"connected_time":1293000000000,"state":"active","ping":45},{"user_id":99,"name":"Drone","steam_id":76561198022920857,"connected_time":5409000000000,"state":"active","ping":105},{"user_id":137,"name":"Large Man","steam_id":76561198880396651,"connected_time":1678000000000,"state":"active","ping":87},{"user_id":95,"name":"CreateADebate","steam_id":76561198115760035,"connected_time":6129000000000,"state":"active","ping":60},{"user_id":123,"name":"Cult of neurodivergency 🏳","steam_id":76561199112194007,"connected_time":2860000000000,"state":"active","ping":68},{"user_id":157,"name":"TheBurningPhoenix","steam_id":76561198123620770,"connected_time":233000000000,"state":"active","ping":84},{"user_id":116,"name":"Winter the Witchie","steam_id":76561198151971178,"connected_time":3651000000000,"state":"active","ping":73},{"user_id":151,"name":"Deltatux","steam_id":76561199267448642,"connected_time":828000000000,"state":"active","ping":159},{"user_id":141,"name":"Grebnedulgo The Elder","steam_id":76561199123285878,"connected_time":1592000000000,"state":"active","ping":66},{"user_id":156,"name":"goofy boofy monster","steam_id":76561199481391567,"connected_time":252000000000,"state":"active","ping":31},{"user_id":57,"name":"DaMultiversalist","steam_id":76561198239552412,"connected_time":9270000000000,"state":"active","ping":84}]},{"server_id":14,"name":"Uncletopia | New York City | 2 | All Maps","name_short":"nyc-2","host":"nyc-1.us.uncletopia.com","port":27025,"enabled":true,"region":"us-east","cc":"us","latitude":40.73061,"longitude":-73.93524,"reserved":0,"last_update":"0001-01-01T00:00:00Z","name_a2s":"Uncletopia | New York City | 2 | All Maps","protocol":17,"map":"koth_nucleus","folder":"tf","game":"Team Fortress","app_id":440,"player_count":24,"max_players":24,"Bots":0,"server_type":"Dedicated","server_os":"Linux","password":true,"vac":true,"version":"7757534","steam_id":85568392924469994,"keywords":["cp","nocrits","nodmgspread","uncletopia"],"game_id":440,"stv_port":27026,"stv_name":"Uncletopia | New York City | 2 | All Maps | STV","players":[{"user_id":168,"name":"Clickle","steam_id":76561198449628030,"connected_time":404000000000,"state":"active","ping":49},{"user_id":115,"name":"Snail","steam_id":76561198153026006,"connected_time":3625000000000,"state":"active","ping":78},{"user_id":175,"name":"FessionalProSpyGun","steam_id":76561198295280927,"connected_time":248000000000,"state":"active","ping":93},{"user_id":167,"name":"❤Breadshot (She)❤","steam_id":76561199005756738,"connected_time":728000000000,"state":"active","ping":79},{"user_id":119,"name":"Ltn. What's-his-Nuts","steam_id":76561198133834262,"connected_time":3579000000000,"state":"active","ping":78},{"user_id":169,"name":"nori_420","steam_id":76561199117134203,"connected_time":394000000000,"state":"active","ping":134},{"user_id":152,"name":"Lish","steam_id":76561198133985045,"connected_time":1912000000000,"state":"active","ping":53},{"user_id":170,"name":"Oni","steam_id":76561198112066584,"connected_time":386000000000,"state":"active","ping":86},{"user_id":116,"name":"Ramblet","steam_id":76561199026783260,"connected_time":3625000000000,"state":"active","ping":60},{"user_id":137,"name":"Not_Douglas","steam_id":76561199024184136,"connected_time":2666000000000,"state":"active","ping":74},{"user_id":177,"name":"doop","steam_id":76561198370487545,"connected_time":85000000000,"state":"active","ping":59},{"user_id":162,"name":"Vaudeville Villain","steam_id":76561199212093339,"connected_time":1545000000000,"state":"active","ping":88},{"user_id":114,"name":"Tea Enthusiast","steam_id":76561198185583925,"connected_time":4221000000000,"state":"active","ping":33},{"user_id":171,"name":"Model CHP-3Y","steam_id":76561198107806145,"connected_time":373000000000,"state":"active","ping":68},{"user_id":148,"name":"mika kagehira","steam_id":76561198799326339,"connected_time":2203000000000,"state":"active","ping":37},{"user_id":178,"name":"kursed","steam_id":76561198992371495,"connected_time":84000000000,"state":"active","ping":40},{"user_id":172,"name":"Jmciano24","steam_id":76561198050723212,"connected_time":368000000000,"state":"active","ping":51},{"user_id":174,"name":"Oh no","steam_id":76561198123441203,"connected_time":293000000000,"state":"active","ping":71},{"user_id":166,"name":"Lin","steam_id":76561198143746480,"connected_time":807000000000,"state":"active","ping":133},{"user_id":176,"name":"Master John Thursday","steam_id":76561197987593154,"connected_time":156000000000,"state":"active","ping":75},{"user_id":157,"name":"Mr_Frosty","steam_id":76561199380389079,"connected_time":1777000000000,"state":"active","ping":98},{"user_id":158,"name":"Aurro (achievement hunting)","steam_id":76561198315692300,"connected_time":1762000000000,"state":"active","ping":59},{"user_id":51,"name":"Shipmunk","steam_id":76561198063062670,"connected_time":7762000000000,"state":"active","ping":53},{"user_id":165,"name":"Pettifogging Milksop","steam_id":76561198074560331,"connected_time":944000000000,"state":"active","ping":86}]},{"server_id":15,"name":"Uncletopia | New York City | 3 | Stopwatch Beta","name_short":"nyc-3","host":"nyc-1.us.uncletopia.com","port":27035,"enabled":true,"region":"us-east","cc":"us","latitude":40.73061,"longitude":-73.93524,"reserved":0,"last_update":"0001-01-01T00:00:00Z","name_a2s":"Uncletopia | New York City | 3 | Stopwatch Beta","protocol":17,"map":"cp_sunshine","folder":"tf","game":"Team Fortress","app_id":440,"player_count":23,"max_players":24,"Bots":0,"server_type":"Dedicated","server_os":"Linux","password":true,"vac":true,"version":"7757534","steam_id":85568392924742820,"keywords":["cp","nocrits","nodmgspread","uncletopia"],"game_id":440,"stv_port":27036,"stv_name":"Uncletopia | New York City | 3 | Stopwatch Beta | STV","players":[{"user_id":189,"name":"ok","steam_id":76561198445140249,"connected_time":1869000000000,"state":"active","ping":66},{"user_id":32,"name":"Night-o EVP","steam_id":76561198166640022,"connected_time":11795000000000,"state":"active","ping":81},{"user_id":201,"name":"Dr. Enforcicle (real)","steam_id":76561198964471859,"connected_time":1209000000000,"state":"active","ping":78},{"user_id":33,"name":"FrostBurn","steam_id":76561198847259953,"connected_time":11771000000000,"state":"active","ping":92},{"user_id":212,"name":"mfrancisco","steam_id":76561199025308139,"connected_time":389000000000,"state":"active","ping":80},{"user_id":197,"name":"esoobac","steam_id":76561198010370396,"connected_time":1566000000000,"state":"active","ping":61},{"user_id":190,"name":"I have popcorn","steam_id":76561198433696424,"connected_time":1857000000000,"state":"active","ping":60},{"user_id":176,"name":"Al Cabone","steam_id":76561198956823243,"connected_time":2720000000000,"state":"active","ping":59},{"user_id":180,"name":"Fresh Lychee","steam_id":76561198045399559,"connected_time":2462000000000,"state":"active","ping":71},{"user_id":213,"name":"Kritzburgh","steam_id":76561198149466938,"connected_time":173000000000,"state":"active","ping":64},{"user_id":192,"name":"oomper","steam_id":76561199189982701,"connected_time":1832000000000,"state":"active","ping":72},{"user_id":207,"name":"The World's Softest Sandwich","steam_id":76561198015577707,"connected_time":816000000000,"state":"active","ping":92},{"user_id":108,"name":"bryyte","steam_id":76561198012377833,"connected_time":6772000000000,"state":"active","ping":65},{"user_id":122,"name":"４０ ＦＰＳ","steam_id":76561198272394965,"connected_time":6101000000000,"state":"active","ping":114},{"user_id":161,"name":"Fuzzy","steam_id":76561199100612353,"connected_time":4311000000000,"state":"active","ping":75},{"user_id":193,"name":"Sabaman55","steam_id":76561198212267979,"connected_time":1770000000000,"state":"active","ping":68},{"user_id":211,"name":"Dom","steam_id":76561198331444240,"connected_time":504000000000,"state":"active","ping":54},{"user_id":202,"name":"Yoru","steam_id":76561198119698950,"connected_time":1174000000000,"state":"active","ping":120},{"user_id":169,"name":"gIBBY","steam_id":76561198080099598,"connected_time":3362000000000,"state":"active","ping":46},{"user_id":215,"name":"jack〜o〜lantern","steam_id":76561198108685037,"connected_time":142000000000,"state":"active","ping":85},{"user_id":175,"name":"LemonZest","steam_id":76561199196369249,"connected_time":2898000000000,"state":"active","ping":61},{"user_id":205,"name":"Slashes","steam_id":76561197968573499,"connected_time":998000000000,"state":"active","ping":41},{"user_id":182,"name":"Xtra","steam_id":76561198161189579,"connected_time":2451000000000,"state":"active","ping":40}]},{"server_id":16,"name":"Uncletopia | New York City | 4 | Community","name_short":"nyc-4","host":"nyc-1.us.uncletopia.com","port":27045,"enabled":true,"region":"us-east","cc":"us","latitude":40.73061,"longitude":-73.93524,"reserved":0,"last_update":"0001-01-01T00:00:00Z","name_a2s":"Uncletopia | New York City | 4 | Community","protocol":17,"map":"workshop/rd_asteroid_redux_b1.ugc2154902912","folder":"tf","game":"Team Fortress","app_id":440,"player_count":0,"max_players":24,"Bots":0,"server_type":"Dedicated","server_os":"Linux","password":true,"vac":true,"version":"7757534","steam_id":85568392924742821,"keywords":["beta","nocrits","nodmgspread","rd","uncletopia"],"game_id":440,"stv_port":27046,"stv_name":"Uncletopia | New York City | 4 | Community | STV","players":null},{"server_id":142,"name":"Uncletopia | São Paulo | 1 | All Maps","name_short":"sao-1","host":"sao-1.br.uncletopia.com","port":27015,"enabled":true,"region":"sa","cc":"br","latitude":-23.533773,"longitude":-46.62529,"reserved":0,"last_update":"0001-01-01T00:00:00Z","name_a2s":"Uncletopia | São Paulo | 1 | All Maps","protocol":17,"map":"koth_lakeside_final","folder":"tf","game":"Team Fortress","app_id":440,"player_count":0,"max_players":24,"Bots":0,"server_type":"Dedicated","server_os":"Linux","password":true,"vac":true,"version":"7757534","steam_id":85568392924469996,"keywords":["cp","nocrits","nodmgspread","uncletopia"],"game_id":440,"stv_port":27016,"stv_name":"Uncletopia | São Paulo | 1 | All Maps | STV","players":null},{"server_id":143,"name":"Uncletopia | São Paulo | 2 | All Maps","name_short":"sao-2","host":"sao-2.br.uncletopia.com","port":27015,"enabled":true,"region":"sa","cc":"br","latitude":-23.533773,"longitude":-46.62529,"reserved":0,"last_update":"0001-01-01T00:00:00Z","name_a2s":"Uncletopia | São Paulo | 2 | All Maps","protocol":17,"map":"koth_viaduct","folder":"tf","game":"Team Fortress","app_id":440,"player_count":0,"max_players":24,"Bots":0,"server_type":"Dedicated","server_os":"Linux","password":true,"vac":true,"version":"7757534","steam_id":85568392924485349,"keywords":["cp","nocrits","nodmgspread","uncletopia"],"game_id":440,"stv_port":27016,"stv_name":"Uncletopia | São Paulo | 2 | All Maps | STV","players":null},{"server_id":7,"name":"Uncletopia | Seattle | 1 | All Maps","name_short":"sea-1","host":"sea-1.us.uncletopia.com","port":27015,"enabled":true,"region":"us-west","cc":"us","latitude":47.608013,"longitude":-122.33517,"reserved":0,"last_update":"0001-01-01T00:00:00Z","name_a2s":"Uncletopia | Seattle | 1 | All Maps","protocol":17,"map":"pl_frontier_final","folder":"tf","game":"Team Fortress","app_id":440,"player_count":24,"max_players":24,"Bots":0,"server_type":"Dedicated","server_os":"Linux","password":true,"vac":true,"version":"7757534","steam_id":85568392924469997,"keywords":["nocrits","nodmgspread","payload","uncletopia"],"game_id":440,"stv_port":27016,"stv_name":"Uncletopia | Seattle | 1 | All Maps | STV","players":[{"user_id":332,"name":"pandy fackler","steam_id":76561198833099152,"connected_time":1396000000000,"state":"active","ping":59},{"user_id":339,"name":"Greskrendtregk","steam_id":76561197969553142,"connected_time":1044000000000,"state":"active","ping":55},{"user_id":348,"name":"Algibruh","steam_id":76561199221599415,"connected_time":190000000000,"state":"active","ping":86},{"user_id":333,"name":"Cryogarden","steam_id":76561198348436700,"connected_time":1342000000000,"state":"active","ping":73},{"user_id":345,"name":"soda","steam_id":76561198105924953,"connected_time":452000000000,"state":"active","ping":69},{"user_id":344,"name":"Mr defrost","steam_id":76561198322125657,"connected_time":536000000000,"state":"active","ping":64},{"user_id":299,"name":"Superman123389","steam_id":76561198267472539,"connected_time":3766000000000,"state":"active","ping":92},{"user_id":340,"name":"silly jester","steam_id":76561198079609974,"connected_time":806000000000,"state":"active","ping":84},{"user_id":349,"name":"jayeskae","steam_id":76561198144220801,"connected_time":35000000000,"state":"active","ping":44},{"user_id":327,"name":"dust | she/it","steam_id":76561198045218909,"connected_time":1472000000000,"state":"active","ping":44},{"user_id":341,"name":"resting neutral face","steam_id":76561197999259502,"connected_time":793000000000,"state":"active","ping":60},{"user_id":330,"name":"drevott74","steam_id":76561199262592779,"connected_time":1440000000000,"state":"active","ping":112},{"user_id":322,"name":"glue eater","steam_id":76561198210322871,"connected_time":2295000000000,"state":"active","ping":75},{"user_id":346,"name":"doomshroom","steam_id":76561198092827250,"connected_time":449000000000,"state":"active","ping":60},{"user_id":331,"name":"ROGUE-PLANET","steam_id":76561198116023052,"connected_time":1430000000000,"state":"active","ping":75},{"user_id":334,"name":"iggybones (girl with balls)","steam_id":76561198101610291,"connected_time":1330000000000,"state":"active","ping":84},{"user_id":343,"name":"喂•ᴋʏʟᴇツ","steam_id":76561198853965433,"connected_time":608000000000,"state":"active","ping":42},{"user_id":325,"name":"Haydob13","steam_id":76561198110378191,"connected_time":2002000000000,"state":"active","ping":54},{"user_id":335,"name":"Robert E.T.","steam_id":76561197986439371,"connected_time":1252000000000,"state":"active","ping":53},{"user_id":336,"name":"Jovo","steam_id":76561197993265970,"connected_time":1242000000000,"state":"active","ping":35},{"user_id":297,"name":"SibilantSerpent","steam_id":76561198154488754,"connected_time":3800000000000,"state":"active","ping":54},{"user_id":347,"name":"Mormon Discoball","steam_id":76561198028006216,"connected_time":413000000000,"state":"active","ping":71},{"user_id":309,"name":"Strikerbolt","steam_id":76561199095622897,"connected_time":3005000000000,"state":"active","ping":81},{"user_id":276,"name":"5392vin","steam_id":76561198880493511,"connected_time":5890000000000,"state":"active","ping":63}]},{"server_id":119,"name":"Uncletopia | Seattle | 2 | All Maps","name_short":"sea-2","host":"sea-1.us.uncletopia.com","port":27025,"enabled":true,"region":"us-west","cc":"us","latitude":47.608013,"longitude":-122.33517,"reserved":0,"last_update":"0001-01-01T00:00:00Z","name_a2s":"Uncletopia | Seattle | 2 | All Maps","protocol":17,"map":"koth_lakeside_final","folder":"tf","game":"Team Fortress","app_id":440,"player_count":0,"max_players":24,"Bots":0,"server_type":"Dedicated","server_os":"Linux","password":true,"vac":true,"version":"7757534","steam_id":85568392924469998,"keywords":["cp","nocrits","nodmgspread","uncletopia"],"game_id":440,"stv_port":27026,"stv_name":"Uncletopia | Seattle | 2 | All Maps | STV","players":null},{"server_id":406,"name":"Uncletopia | Seattle | 3 | Stopwatch Beta","name_short":"sea-3","host":"sea-1.us.uncletopia.com","port":27035,"enabled":true,"region":"us-west","cc":"us","latitude":47.608013,"longitude":-122.33517,"reserved":0,"last_update":"0001-01-01T00:00:00Z","name_a2s":"Uncletopia | Seattle | 3 | Stopwatch Beta","protocol":17,"map":"cp_dustbowl","folder":"tf","game":"Team Fortress","app_id":440,"player_count":0,"max_players":24,"Bots":0,"server_type":"Dedicated","server_os":"Linux","password":true,"vac":true,"version":"7757534","steam_id":85568392924515217,"keywords":["cp","nocrits","nodmgspread","uncletopia"],"game_id":440,"stv_port":27036,"stv_name":"Uncletopia | Seattle | 3 | Stopwatch Beta | STV","players":null},{"server_id":17,"name":"Uncletopia | San Francisco | 1 | All Maps","name_short":"sfo-1","host":"sfo-1.us.uncletopia.com","port":27015,"enabled":true,"region":"us-west","cc":"us","latitude":37.77397,"longitude":-122.4313,"reserved":0,"last_update":"0001-01-01T00:00:00Z","name_a2s":"Uncletopia | San Francisco | 1 | All Maps","protocol":17,"map":"pl_swiftwater_final1","folder":"tf","game":"Team Fortress","app_id":440,"player_count":0,"max_players":24,"Bots":0,"server_type":"Dedicated","server_os":"Linux","password":true,"vac":true,"version":"7757534","steam_id":85568392924469999,"keywords":["nocrits","nodmgspread","payload","uncletopia"],"game_id":440,"stv_port":27016,"stv_name":"Uncletopia | San Francisco | 1 | All Maps | STV","players":null},{"server_id":18,"name":"Uncletopia | San Francisco | 2 | All Maps","name_short":"sfo-2","host":"sfo-1.us.uncletopia.com","port":27025,"enabled":true,"region":"us-west","cc":"us","latitude":37.77397,"longitude":-122.4313,"reserved":0,"last_update":"0001-01-01T00:00:00Z","name_a2s":"Uncletopia | San Francisco | 2 | All Maps","protocol":17,"map":"koth_highpass","folder":"tf","game":"Team Fortress","app_id":440,"player_count":0,"max_players":24,"Bots":0,"server_type":"Dedicated","server_os":"Linux","password":true,"vac":true,"version":"7757534","steam_id":85568392924470000,"keywords":["cp","nocrits","nodmgspread","uncletopia"],"game_id":440,"stv_port":27026,"stv_name":"Uncletopia | San Francisco | 2 | All Maps | STV","players":null},{"server_id":19,"name":"Uncletopia | San Francisco | 3 | Stopwatch Beta","name_short":"sfo-3","host":"sfo-1.us.uncletopia.com","port":27035,"enabled":true,"region":"us-west","cc":"us","latitude":37.77397,"longitude":-122.4313,"reserved":0,"last_update":"0001-01-01T00:00:00Z","name_a2s":"Uncletopia | San Francisco | 3 | Stopwatch Beta","protocol":17,"map":"koth_lakeside_final","folder":"tf","game":"Team Fortress","app_id":440,"player_count":0,"max_players":24,"Bots":0,"server_type":"Dedicated","server_os":"Linux","password":true,"vac":true,"version":"7757534","steam_id":85568392924742824,"keywords":["cp","nocrits","nodmgspread","uncletopia"],"game_id":440,"stv_port":27036,"stv_name":"Uncletopia | San Francisco | 3 | Stopwatch Beta | STV","players":null},{"server_id":20,"name":"Uncletopia | San Francisco | 4 | Community","name_short":"sfo-4","host":"sfo-1.us.uncletopia.com","port":27045,"enabled":true,"region":"us-west","cc":"us","latitude":37.77397,"longitude":-122.4313,"reserved":0,"last_update":"0001-01-01T00:00:00Z","name_a2s":"Uncletopia | San Francisco | 4 | Community","protocol":17,"map":"workshop/cp_logjam_rc12.ugc454812035","folder":"tf","game":"Team Fortress","app_id":440,"player_count":1,"max_players":24,"Bots":0,"server_type":"Dedicated","server_os":"Linux","password":true,"vac":true,"version":"7757534","steam_id":85568392924742826,"keywords":["cp","nocrits","nodmgspread","uncletopia"],"game_id":440,"stv_port":27046,"stv_name":"Uncletopia | San Francisco | 4 | Community | STV","players":[{"user_id":4,"name":"BoX_hEaD101","steam_id":76561198200875467,"connected_time":303000000000,"state":"active","ping":69}]},{"server_id":141,"name":"Uncletopia | Sydney | 1 | All Maps","name_short":"syd-1","host":"syd-1.au.uncletopia.com","port":27015,"enabled":true,"region":"au","cc":"au","latitude":-33.865143,"longitude":151.2099,"reserved":0,"last_update":"0001-01-01T00:00:00Z","name_a2s":"Uncletopia | Sydney | 1 | All Maps","protocol":17,"map":"koth_viaduct","folder":"tf","game":"Team Fortress","app_id":440,"player_count":0,"max_players":24,"Bots":0,"server_type":"Dedicated","server_os":"Linux","password":true,"vac":true,"version":"7757534","steam_id":85568392924470001,"keywords":["cp","nocrits","nodmgspread","uncletopia"],"game_id":440,"stv_port":27016,"stv_name":"Uncletopia | Sydney | 1 | All Maps | STV","players":null},{"server_id":123,"name":"Uncletopia | Sydney | 2 | All Maps","name_short":"syd-2","host":"syd-1.au.uncletopia.com","port":27025,"enabled":true,"region":"au","cc":"au","latitude":-33.865143,"longitude":151.2099,"reserved":0,"last_update":"0001-01-01T00:00:00Z","name_a2s":"Uncletopia | Sydney | 2 | All Maps","protocol":17,"map":"pl_barnblitz","folder":"tf","game":"Team Fortress","app_id":440,"player_count":0,"max_players":24,"Bots":0,"server_type":"Dedicated","server_os":"Linux","password":true,"vac":true,"version":"7757534","steam_id":85568392924470002,"keywords":["nocrits","nodmgspread","payload","uncletopia"],"game_id":440,"stv_port":27026,"stv_name":"Uncletopia | Sydney | 2 | All Maps | STV","players":null},{"server_id":395,"name":"Uncletopia | Sydney | 3 | All Maps","name_short":"syd-3","host":"syd-1.au.uncletopia.com","port":27035,"enabled":true,"region":"au","cc":"au","latitude":-33.865143,"longitude":151.2099,"reserved":0,"last_update":"0001-01-01T00:00:00Z","name_a2s":"Uncletopia | Sydney | 3 | All Maps","protocol":17,"map":"pl_barnblitz","folder":"tf","game":"Team Fortress","app_id":440,"player_count":0,"max_players":24,"Bots":0,"server_type":"Dedicated","server_os":"Linux","password":true,"vac":true,"version":"7757534","steam_id":85568392925194467,"keywords":["nocrits","nodmgspread","payload","uncletopia"],"game_id":440,"stv_port":27036,"stv_name":"Uncletopia | Sydney | 3 | All Maps | STV","players":null},{"server_id":396,"name":"Uncletopia | Sydney | 4 | All Maps","name_short":"syd-4","host":"syd-1.au.uncletopia.com","port":27045,"enabled":true,"region":"au","cc":"au","latitude":-33.865143,"longitude":151.2099,"reserved":0,"last_update":"0001-01-01T00:00:00Z","name_a2s":"Uncletopia | Sydney | 4 | All Maps","protocol":17,"map":"koth_highpass","folder":"tf","game":"Team Fortress","app_id":440,"player_count":0,"max_players":24,"Bots":0,"server_type":"Dedicated","server_os":"Linux","password":true,"vac":true,"version":"7757534","steam_id":85568392925397958,"keywords":["cp","nocrits","nodmgspread","uncletopia"],"game_id":440,"stv_port":27046,"stv_name":"Uncletopia | Sydney | 4 | All Maps | STV","players":null},{"server_id":58,"name":"Uncletopia | Sydney | 5 | Stopwatch Beta","name_short":"syd-5","host":"syd-1.au.uncletopia.com","port":27055,"enabled":true,"region":"au","cc":"au","latitude":-33.865143,"longitude":151.2099,"reserved":0,"last_update":"0001-01-01T00:00:00Z","name_a2s":"Uncletopia | Sydney | 5 | Stopwatch Beta","protocol":17,"map":"koth_cascade","folder":"tf","game":"Team Fortress","app_id":440,"player_count":0,"max_players":24,"Bots":0,"server_type":"Dedicated","server_os":"Linux","password":true,"vac":true,"version":"7757534","steam_id":85568392925397959,"keywords":["cp","nocrits","nodmgspread","uncletopia"],"game_id":440,"stv_port":27056,"stv_name":"Uncletopia | Sydney | 5 | Stopwatch Beta | STV","players":null},{"server_id":59,"name":"Uncletopia | Sydney | 6 | Community","name_short":"syd-6","host":"syd-1.au.uncletopia.com","port":27065,"enabled":true,"region":"au","cc":"au","latitude":-33.865143,"longitude":151.2099,"reserved":0,"last_update":"0001-01-01T00:00:00Z","name_a2s":"Uncletopia | Sydney | 6 | Community","protocol":17,"map":"cp_snakewater_final1","folder":"tf","game":"Team Fortress","app_id":440,"player_count":0,"max_players":24,"Bots":0,"server_type":"Dedicated","server_os":"Linux","password":true,"vac":true,"version":"7757534","steam_id":85568392925397960,"keywords":["cp","nocrits","nodmgspread","uncletopia"],"game_id":440,"stv_port":27066,"stv_name":"Uncletopia | Sydney | 6 | Community | STV","players":null},{"server_id":49,"name":"Uncletopia | Warsaw | 1 | All Maps","name_short":"waw-1","host":"waw-1.pl.uncletopia.com","port":27015,"enabled":true,"region":"eu","cc":"pl","latitude":52.2297,"longitude":21.017532,"reserved":0,"last_update":"0001-01-01T00:00:00Z","name_a2s":"","protocol":0,"map":"","folder":"","game":"","app_id":0,"player_count":0,"max_players":0,"Bots":0,"server_type":"","server_os":"","password":false,"vac":false,"version":"","steam_id":0,"keywords":null,"game_id":0,"stv_port":0,"stv_name":"","players":null},{"server_id":50,"name":"Uncletopia | Warsaw | 2 | All Maps","name_short":"waw-2","host":"waw-1.pl.uncletopia.com","port":27025,"enabled":true,"region":"eu","cc":"pl","latitude":52.2297,"longitude":21.017532,"reserved":0,"last_update":"0001-01-01T00:00:00Z","name_a2s":"Uncletopia | Warsaw | 2 | All Maps","protocol":17,"map":"cp_altitude","folder":"tf","game":"Team Fortress","app_id":440,"player_count":0,"max_players":24,"Bots":0,"server_type":"Dedicated","server_os":"Linux","password":true,"vac":true,"version":"7757534","steam_id":85568392925397851,"keywords":["cp","nocrits","nodmgspread","uncletopia"],"game_id":440,"stv_port":27026,"stv_name":"Uncletopia | Warsaw | 2 | All Maps | STV","players":null},{"server_id":51,"name":"Uncletopia | Warsaw | 3 | All Maps","name_short":"waw-3","host":"waw-1.pl.uncletopia.com","port":27035,"enabled":true,"region":"eu","cc":"pl","latitude":52.2297,"longitude":21.017532,"reserved":0,"last_update":"0001-01-01T00:00:00Z","name_a2s":"Uncletopia | Warsaw | 3 | All Maps","protocol":17,"map":"koth_viaduct","folder":"tf","game":"Team Fortress","app_id":440,"player_count":2,"max_players":24,"Bots":0,"server_type":"Dedicated","server_os":"Linux","password":true,"vac":true,"version":"7757534","steam_id":85568392925397852,"keywords":["cp","nocrits","nodmgspread","uncletopia"],"game_id":440,"stv_port":27036,"stv_name":"Uncletopia | Warsaw | 3 | All Maps | STV","players":[{"user_id":15,"name":"Rico il raccoglitore","steam_id":76561198873292426,"connected_time":905000000000,"state":"active","ping":65},{"user_id":16,"name":"Doctore Da Firenze","steam_id":76561198876800284,"connected_time":893000000000,"state":"active","ping":45}]},{"server_id":52,"name":"Uncletopia | Warsaw | 4 | All Maps","name_short":"waw-4","host":"waw-1.pl.uncletopia.com","port":27045,"enabled":true,"region":"eu","cc":"pl","latitude":52.2297,"longitude":21.017532,"reserved":0,"last_update":"0001-01-01T00:00:00Z","name_a2s":"Uncletopia | Warsaw | 4 | All Maps","protocol":17,"map":"koth_lakeside_final","folder":"tf","game":"Team Fortress","app_id":440,"player_count":0,"max_players":24,"Bots":0,"server_type":"Dedicated","server_os":"Linux","password":true,"vac":true,"version":"7757534","steam_id":85568392925397853,"keywords":["cp","nocrits","nodmgspread","uncletopia"],"game_id":440,"stv_port":27046,"stv_name":"Uncletopia | Warsaw | 4 | All Maps | STV","players":null},{"server_id":53,"name":"Uncletopia | Warsaw | 5 | Stopwatch Beta","name_short":"waw-5","host":"waw-1.pl.uncletopia.com","port":27055,"enabled":true,"region":"eu","cc":"pl","latitude":52.2297,"longitude":21.017532,"reserved":0,"last_update":"0001-01-01T00:00:00Z","name_a2s":"Uncletopia | Warsaw | 5 | Stopwatch Beta","protocol":17,"map":"workshop/koth_clearcut_b15.ugc2107050255","folder":"tf","game":"Team Fortress","app_id":440,"player_count":0,"max_players":24,"Bots":0,"server_type":"Dedicated","server_os":"Linux","password":true,"vac":true,"version":"7757534","steam_id":85568392925397854,"keywords":["cp","nocrits","nodmgspread","uncletopia"],"game_id":440,"stv_port":27056,"stv_name":"Uncletopia | Warsaw | 5 | Stopwatch Beta | STV","players":null},{"server_id":54,"name":"Uncletopia | Warsaw | 6 | Community","name_short":"waw-6","host":"waw-1.pl.uncletopia.com","port":27065,"enabled":true,"region":"eu","cc":"pl","latitude":52.2297,"longitude":21.017532,"reserved":0,"last_update":"0001-01-01T00:00:00Z","name_a2s":"Uncletopia | Warsaw | 6 | Community","protocol":17,"map":"koth_lakeside_final","folder":"tf","game":"Team Fortress","app_id":440,"player_count":0,"max_players":24,"Bots":0,"server_type":"Dedicated","server_os":"Linux","password":true,"vac":true,"version":"7757534","steam_id":85568392925397856,"keywords":["cp","nocrits","nodmgspread","uncletopia"],"game_id":440,"stv_port":27066,"stv_name":"Uncletopia | Warsaw | 6 | Community | STV","players":null}]}