{"status":true,"message":"","result":[{"server_id":9,"name":"Uncletopia | Atlanta | 1 | All Maps","name_short":"atl-1","host":"atl-1.us.uncletopia.com","port":27015,"enabled":true,"region":"us-east","cc":"us","latitude":33.753746,"longitude":-84.38633,"reserved":0,"last_update":"0001-01-01T00:00:00Z","name_a2s":"Uncletopia | Atlanta | 1 | All Maps","protocol":17,"map":"koth_viaduct","folder":"tf","game":"Team Fortress","app_id":440,"player_count":0,"max_players":24,"Bots":0,"server_type":"Dedicated","server_os":"Linux","password":true,"vac":true,"version":"7961495","steam_id":85568392924469982,"keywords":["cp","nocrits","nodmgspread","uncletopia"],"game_id":440,"stv_port":27016,"stv_name":"Uncletopia | Atlanta | 1 | All Maps | STV","players":null},{"server_id":104,"name":"Uncletopia | Atlanta | 2 | All Maps","name_short":"atl-2","host":"atl-1.us.uncletopia.com","port":27025,"enabled":true,"region":"us-east","cc":"us","latitude":33.753746,"longitude":-84.38633,"reserved":0,"last_update":"0001-01-01T00:00:00Z","name_a2s":"Uncletopia | Atlanta | 2 | All Maps","protocol":17,"map":"koth_viaduct","folder":"tf","game":"Team Fortress","app_id":440,"player_count":0,"max_players":24,"Bots":0,"server_type":"Dedicated","server_os":"Linux","password":true,"vac":true,"version":"7961495","steam_id":85568392924469983,"keywords":["cp","nocrits","nodmgspread","uncletopia"],"game_id":440,"stv_port":27026,"stv_name":"Uncletopia | Atlanta | 2 | All Maps | STV","players":null},{"server_id":400,"name":"Uncletopia | Atlanta | 3 | Stopwatch","name_short":"atl-3","host":"atl-1.us.uncletopia.com","port":27035,"enabled":true,"region":"us-east","cc":"us","latitude":33.753746,"longitude":-84.38633,"reserved":0,"last_update":"0001-01-01T00:00:00Z","name_a2s":"Uncletopia | Atlanta | 3 | Stopwatch","protocol":17,"map":"pl_badwater","folder":"tf","game":"Team Fortress","app_id":440,"player_count":0,"max_players":24,"Bots":0,"server_type":"Dedicated","server_os":"Linux","password":true,"vac":true,"version":"7961495","steam_id":85568392924515187,"keywords":["nocrits","nodmgspread","payload","uncletopia"],"game_id":440,"stv_port":27036,"stv_name":"Uncletopia | Atlanta | 3 | Stopwatch | STV","players":null},{"server_id":401,"name":"Uncletopia | Atlanta | 4 | Community","name_short":"atl-4","host":"atl-1.us.uncletopia.com","port":27045,"enabled":true,"region":"us-east","cc":"us","latitude":33.753746,"longitude":-84.38633,"reserved":0,"last_update":"0001-01-01T00:00:00Z","name_a2s":"Uncletopia | Atlanta | 4 | Community","protocol":17,"map":"pl_emerge_rc2","folder":"tf","game":"Team Fortress","app_id":440,"player_count":0,"max_players":24,"Bots":0,"server_type":"Dedicated","server_os":"Linux","password":true,"vac":true,"version":"7961495","steam_id":85568392924515188,"keywords":["nocrits","nodmgspread","payload","uncletopia"],"game_id":440,"stv_port":27046,"stv_name":"Uncletopia | Atlanta | 4 | Community | STV","players":null},{"server_id":2,"name":"Uncletopia | Chicago | 1 | All Maps","name_short":"chi-1","host":"chi-1.us.uncletopia.com","port":27015,"enabled":true,"region":"us-central","cc":"us","latitude":41.881832,"longitude":-87.62318,"reserved":0,"last_update":"0001-01-01T00:00:00Z","name_a2s":"Uncletopia | Chicago | 1 | All Maps","protocol":17,"map":"pl_upward","folder":"tf","game":"Team Fortress","app_id":440,"player_count":24,"max_players":24,"Bots":0,"server_type":"Dedicated","server_os":"Linux","password":true,"vac":true,"version":"7961495","steam_id":85568392924469984,"keywords":["nocrits","nodmgspread","payload","uncletopia"],"game_id":440,"stv_port":27016,"stv_name":"Uncletopia | Chicago | 1 | All Maps | STV","players":[{"user_id":1213,"name":"Ayylmao","steam_id":76561198104780147,"connected_time":1576000000000,"state":"active","ping":45},{"user_id":1194,"name":"sAmasam","steam_id":76561198114953928,"connected_time":3262000000000,"state":"active","ping":143},{"user_id":1193,"name":"staks","steam_id":76561198059570070,"connected_time":3325000000000,"state":"active","ping":45},{"user_id":1205,"name":"BlazingWaters","steam_id":76561198136322660,"connected_time":2341000000000,"state":"active","ping":87},{"user_id":1215,"name":"Matt","steam_id":76561198102154265,"connected_time":1508000000000,"state":"active","ping":116},{"user_id":1064,"name":"hamletespacial","steam_id":76561199084414649,"connected_time":13349000000000,"state":"active","ping":53},{"user_id":1209,"name":"Jerry","steam_id":76561198253546017,"connected_time":2185000000000,"state":"active","ping":66},{"user_id":1220,"name":"Kazmirl | Youtube","steam_id":76561198116008410,"connected_time":1190000000000,"state":"active","ping":107},{"user_id":1211,"name":"Bo Bo's Chinese Express","steam_id":76561198129055951,"connected_time":1965000000000,"state":"active","ping":73},{"user_id":1189,"name":"TinyTator","steam_id":76561198799282234,"connected_time":4375000000000,"state":"active","ping":89},{"user_id":1221,"name":"will pocket if you (redacted)","steam_id":76561198377868275,"connected_time":1160000000000,"state":"active","ping":99},{"user_id":1222,"name":"donn","steam_id":76561198113080083,"connected_time":1077000000000,"state":"active","ping":57},{"user_id":1106,"name":"Oswald","steam_id":76561198136642793,"connected_time":10364000000000,"state":"active","ping":80},{"user_id":1223,"name":"ultralisk52","steam_id":76561198051666604,"connected_time":779000000000,"state":"active","ping":58},{"user_id":1201,"name":"Melody","steam_id":76561198407789232,"connected_time":2823000000000,"state":"active","ping":118},{"user_id":1177,"name":"Meow Skulls","steam_id":76561198204641019,"connected_time":5160000000000,"state":"active","ping":72},{"user_id":1091,"name":"B4NNY UNIVERSITY GRADUATE","steam_id":76561198144766439,"connected_time":11150000000000,"state":"active","ping":48},{"user_id":1184,"name":"leaving lunar orbit","steam_id":76561199085974120,"connected_time":4685000000000,"state":"active","ping":76},{"user_id":1207,"name":"rice white","steam_id":76561198320732910,"connected_time":2252000000000,"state":"active","ping":76},{"user_id":1219,"name":"stinker","steam_id":76561198295640486,"connected_time":1304000000000,"state":"active","ping":97},{"user_id":1163,"name":"Dexidus","steam_id":76561198021840495,"connected_time":5958000000000,"state":"active","ping":62},{"user_id":1224,"name":"chum (she.her)","steam_id":76561197974924583,"connected_time":383000000000,"state":"active","ping":77},{"user_id":1212,"name":"she [REDACTED] my [REDACTED]","steam_id":76561198143132686,"connected_time":1786000000000,"state":"active","ping":83},{"user_id":1191,"name":"Whatsapp Spy","steam_id":76561198085410969,"connected_time":3986000000000,"state":"active","ping":54}]},{"server_id":106,"name":"Uncletopia | Chicago | 2 | All Maps","name_short":"chi-2","host":"chi-1.us.uncletopia.com","port":27025,"enabled":true,"region":"us-central","cc":"us","latitude":41.881832,"longitude":-87.62318,"reserved":0,"last_update":"0001-01-01T00:00:00Z","name_a2s":"Uncletopia | Chicago | 2 | All Maps","protocol":17,"map":"koth_viaduct","folder":"tf","game":"Team Fortress","app_id":440,"player_count":0,"max_players":24,"Bots":0,"server_type":"Dedicated","server_os":"Linux","password":true,"vac":true,"version":"7961495","steam_id":85568392924469985,"keywords":["cp","nocrits","nodmgspread","uncletopia"],"game_id":440,"stv_port":27026,"stv_name":"Uncletopia | Chicago | 2 | All Maps | STV","players":null},{"server_id":402,"name":"Uncletopia | Chicago | 3 | All Maps","name_short":"chi-3","host":"chi-1.us.uncletopia.com","port":27035,"enabled":true,"region":"us-central","cc":"us","latitude":41.881832,"longitude":-87.62318,"reserved":0,"last_update":"0001-01-01T00:00:00Z","name_a2s":"Uncletopia | Chicago | 3 | All Maps","protocol":17,"map":"cp_process_final","folder":"tf","game":"Team Fortress","app_id":440,"player_count":0,"max_players":24,"Bots":0,"server_type":"Dedicated","server_os":"Linux","password":true,"vac":true,"version":"7961495","steam_id":85568392924515191,"keywords":["cp","nocrits","nodmgspread","uncletopia"],"game_id":440,"stv_port":27036,"stv_name":"Uncletopia | Chicago | 3 | All Maps | STV","players":null},{"server_id":403,"name":"Uncletopia | Chicago | 4 | All Maps","name_short":"chi-4","host":"chi-1.us.uncletopia.com","port":27045,"enabled":true,"region":"us-central","cc":"us","latitude":41.881832,"longitude":-87.62318,"reserved":0,"last_update":"0001-01-01T00:00:00Z","name_a2s":"Uncletopia | Chicago | 4 | All Maps","protocol":17,"map":"pl_frontier_final","folder":"tf","game":"Team Fortress","app_id":440,"player_count":24,"max_players":24,"Bots":0,"server_type":"Dedicated","server_os":"Linux","password":true,"vac":true,"version":"7961495","steam_id":85568392924515193,"keywords":["nocrits","nodmgspread","payload","uncletopia"],"game_id":440,"stv_port":27046,"stv_name":"Uncletopia | Chicago | 4 | All Maps | STV","players":[{"user_id":464,"name":"yeahelliot","steam_id":76561198167299951,"connected_time":2660000000000,"state":"active","ping":74},{"user_id":449,"name":"The Gnome in your Walls","steam_id":76561198251672386,"connected_time":4150000000000,"state":"active","ping":41},{"user_id":455,"name":"Bryguy","steam_id":76561198092096120,"connected_time":3454000000000,"state":"active","ping":41},{"user_id":482,"name":"Engideer","steam_id":76561198145733164,"connected_time":1509000000000,"state":"active","ping":68},{"user_id":481,"name":"+","steam_id":76561198262422184,"connected_time":1969000000000,"state":"active","ping":68},{"user_id":472,"name":"Mk","steam_id":76561198139790822,"connected_time":2107000000000,"state":"active","ping":166},{"user_id":483,"name":"FazeCartmanTTV","steam_id":76561199086064850,"connected_time":1202000000000,"state":"active","ping":88},{"user_id":487,"name":"Tabris","steam_id":76561198123608690,"connected_time":674000000000,"state":"active","ping":75},{"user_id":484,"name":"Slippin' Jimmy","steam_id":76561198324749126,"connected_time":1186000000000,"state":"active","ping":78},{"user_id":488,"name":"IJUSTATEAPENUT123","steam_id":76561198312298912,"connected_time":639000000000,"state":"active","ping":85},{"user_id":485,"name":"The Rock","steam_id":76561198433328517,"connected_time":1179000000000,"state":"active","ping":69},{"user_id":489,"name":"Juiced","steam_id":76561198975824400,"connected_time":604000000000,"state":"active","ping":40},{"user_id":299,"name":"alN","steam_id":76561198329171346,"connected_time":15464000000000,"state":"active","ping":47},{"user_id":459,"name":"MG.Z-Blitz","steam_id":76561198028577473,"connected_time":3338000000000,"state":"active","ping":98},{"user_id":440,"name":"KnuckleSandwich59","steam_id":76561198120684348,"connected_time":5758000000000,"state":"active","ping":52},{"user_id":476,"name":"Shopkeeper","steam_id":76561198105888756,"connected_time":2034000000000,"state":"active","ping":87},{"user_id":469,"name":"Zorlovo","steam_id":76561198006443283,"connected_time":2291000000000,"state":"active","ping":84},{"user_id":490,"name":"Sullen","steam_id":76561199208025300,"connected_time":598000000000,"state":"active","ping":102},{"user_id":438,"name":"gorpus","steam_id":76561198413125750,"connected_time":5826000000000,"state":"active","ping":66},{"user_id":478,"name":"Tenzin Gyatso","steam_id":76561198258980884,"connected_time":2005000000000,"state":"active","ping":100},{"user_id":486,"name":"Captain Emerald The Changeling","steam_id":76561198320651177,"connected_time":1164000000000,"state":"active","ping":62},{"user_id":491,"name":"üü†„ÉÑ","steam_id":76561198018213050,"connected_time":574000000000,"state":"active","ping":44},{"user_id":492,"name":"PackingPeanutt :]","steam_id":76561199053229413,"connected_time":557000000000,"state":"active","ping":86},{"user_id":468,"name":"Team Fartpiss Poo","steam_id":76561199163591880,"connected_time":2528000000000,"state":"active","ping":98}]},{"server_id":36,"name":"Uncletopia | Chicago | 5 | All Maps","name_short":"chi-5","host":"chi-2.us.uncletopia.com","port":27015,"enabled":true,"region":"us-central","cc":"us","latitude":41.881832,"longitude":-87.62318,"reserved":0,"last_update":"0001-01-01T00:00:00Z","name_a2s":"Uncletopia | Chicago | 5 | All Maps","protocol":17,"map":"cp_mountainlab","folder":"tf","game":"Team Fortress","app_id":440,"player_count":0,"max_players":24,"Bots":0,"server_type":"Dedicated","server_os":"Linux","password":true,"vac":true,"version":"7961495","steam_id":85568392924866362,"keywords":["cp","nocrits","nodmgspread","uncletopia"],"game_id":440,"stv_port":27016,"stv_name":"Uncletopia | Chicago | 5 | All Maps | STV","players":null},{"server_id":37,"name":"Uncletopia | Chicago | 6 | All Maps","name_short":"chi-6","host":"chi-2.us.uncletopia.com","port":27025,"enabled":true,"region":"us-central","cc":"us","latitude":41.881832,"longitude":-87.62318,"reserved":0,"last_update":"0001-01-01T00:00:00Z","name_a2s":"Uncletopia | Chicago | 6 | All Maps","protocol":17,"map":"cp_dustbowl","folder":"tf","game":"Team Fortress","app_id":440,"player_count":4,"max_players":24,"Bots":0,"server_type":"Dedicated","server_os":"Linux","password":true,"vac":true,"version":"7961495","steam_id":85568392924866363,"keywords":["cp","nocrits","nodmgspread","uncletopia"],"game_id":440,"stv_port":27026,"stv_name":"Uncletopia | Chicago | 6 | All Maps | STV","players":[{"user_id":437,"name":"The Barrel General","steam_id":76561198133684687,"connected_time":2316000000000,"state":"active","ping":103},{"user_id":438,"name":"Brad.EXE","steam_id":76561198048351190,"connected_time":2302000000000,"state":"active","ping":62},{"user_id":440,"name":"Sgt Ruffles","steam_id":76561198060103292,"connected_time":1819000000000,"state":"active","ping":55},{"user_id":441,"name":"Bone_Yoinker","steam_id":76561198052376335,"connected_time":1786000000000,"state":"active","ping":61}]},{"server_id":38,"name":"Uncletopia | Chicago | 7 | Stopwatch","name_short":"chi-7","host":"chi-2.us.uncletopia.com","port":27035,"enabled":true,"region":"us-central","cc":"us","latitude":41.881832,"longitude":-87.62318,"reserved":0,"last_update":"0001-01-01T00:00:00Z","name_a2s":"Uncletopia | Chicago | 7 | Stopwatch","protocol":17,"map":"cp_process_final","folder":"tf","game":"Team Fortress","app_id":440,"player_count":0,"max_players":24,"Bots":0,"server_type":"Dedicated","server_os":"Linux","password":true,"vac":true,"version":"7961495","steam_id":85568392924866364,"keywords":["cp","nocrits","nodmgspread","uncletopia"],"game_id":440,"stv_port":27036,"stv_name":"Uncletopia | Chicago | 7 | Stopwatch | STV","players":null},{"server_id":39,"name":"Uncletopia | Chicago | 8 | Community","name_short":"chi-8","host":"chi-2.us.uncletopia.com","port":27045,"enabled":true,"region":"us-central","cc":"us","latitude":41.881832,"longitude":-87.62318,"reserved":0,"last_update":"0001-01-01T00:00:00Z","name_a2s":"Uncletopia | Chicago | 8 | Community","protocol":17,"map":"workshop/koth_slaughter_rc1.ugc1712845210","folder":"tf","game":"Team Fortress","app_id":440,"player_count":0,"max_players":24,"Bots":0,"server_type":"Dedicated","server_os":"Linux","password":true,"vac":true,"version":"7961495","steam_id":85568392924866365,"keywords":["cp","nocrits","nodmgspread","uncletopia"],"game_id":440,"stv_port":27046,"stv_name":"Uncletopia | Chicago | 8 | Community | STV","players":null},{"server_id":8,"name":"Uncletopia | Dallas | 1 | All Maps","name_short":"dal-1","host":"dal-1.us.uncletopia.com","port":27015,"enabled":true,"region":"us-central","cc":"us","latitude":32.779167,"longitude":-96.80889,"reserved":0,"last_update":"0001-01-01T00:00:00Z","name_a2s":"Uncletopia | Dallas | 1 | All Maps","protocol":17,"map":"pl_badwater","folder":"tf","game":"Team Fortress","app_id":440,"player_count":24,"max_players":24,"Bots":0,"server_type":"Dedicated","server_os":"Linux","password":true,"vac":true,"version":"7961495","steam_id":85568392924469986,"keywords":["nocrits","nodmgspread","payload","uncletopia"],"game_id":440,"stv_port":27016,"stv_name":"Uncletopia | Dallas | 1 | All Maps | STV","players":[{"user_id":646,"name":"BACKSHOTG0D","steam_id":76561198201659457,"connected_time":1749000000000,"state":"active","ping":79},{"user_id":606,"name":"None of that $9.99 bullshit","steam_id":76561198116169903,"connected_time":4805000000000,"state":"active","ping":68},{"user_id":573,"name":"Reality Loser","steam_id":76561198001541433,"connected_time":7905000000000,"state":"active","ping":75},{"user_id":621,"name":"MistakesWereMade","steam_id":76561199059220481,"connected_time":4009000000000,"state":"active","ping":83},{"user_id":645,"name":"HALFCOURT ATROCITY [RECORD DEAL","steam_id":76561198022819106,"connected_time":1759000000000,"state":"active","ping":75},{"user_id":625,"name":"River Rat","steam_id":76561198116383976,"connected_time":3374000000000,"state":"active","ping":120},{"user_id":574,"name":"aaron","steam_id":76561198113364714,"connected_time":7865000000000,"state":"active","ping":81},{"user_id":628,"name":"Eloi","steam_id":76561198081193565,"connected_time":3240000000000,"state":"active","ping":56},{"user_id":657,"name":"Toon","steam_id":76561198227601072,"connected_time":588000000000,"state":"active","ping":44},{"user_id":588,"name":"gretchling","steam_id":76561198046111695,"connected_time":6875000000000,"state":"active","ping":47},{"user_id":659,"name":"RLLwB","steam_id":76561198021132868,"connected_time":392000000000,"state":"active","ping":54},{"user_id":610,"name":"AnnieM","steam_id":76561199435467297,"connected_time":4690000000000,"state":"active","ping":73},{"user_id":658,"name":"gyat","steam_id":76561198043684960,"connected_time":543000000000,"state":"active","ping":48},{"user_id":654,"name":"Swae Lee","steam_id":76561198046554905,"connected_time":1434000000000,"state":"active","ping":83},{"user_id":631,"name":"Pepino","steam_id":76561198044365042,"connected_time":3122000000000,"state":"active","ping":68},{"user_id":632,"name":"DaFt_JunKee","steam_id":76561198300643359,"connected_time":3122000000000,"state":"active","ping":105},{"user_id":643,"name":"Incredible Donk","steam_id":76561198427360423,"connected_time":2289000000000,"state":"active","ping":75},{"user_id":650,"name":"Leapinglionz11","steam_id":76561199216740065,"connected_time":1610000000000,"state":"active","ping":112},{"user_id":598,"name":"SaaxoM","steam_id":76561198208256603,"connected_time":5757000000000,"state":"active","ping":91},{"user_id":640,"name":"seats","steam_id":76561197998756039,"connected_time":2625000000000,"state":"active","ping":74},{"user_id":641,"name":"hardfork","steam_id":76561197960958019,"connected_time":2553000000000,"state":"active","ping":104},{"user_id":655,"name":"KevilPo","steam_id":76561199244507267,"connected_time":779000000000,"state":"active","ping":87},{"user_id":656,"name":"DededeMain | trade.tf","steam_id":76561198310951632,"connected_time":704000000000,"state":"active","ping":85},{"user_id":653,"name":"-","steam_id":76561198149993837,"connected_time":1521000000000,"state":"active","ping":115}]},{"server_id":108,"name":"Uncletopia | Dallas | 2 | All Maps","name_short":"dal-2","host":"dal-1.us.uncletopia.com","port":27025,"enabled":true,"region":"us-central","cc":"us","latitude":32.779167,"longitude":-96.80889,"reserved":0,"last_update":"0001-01-01T00:00:00Z","name_a2s":"Uncletopia | Dallas | 2 | All Maps","protocol":17,"map":"pl_badwater","folder":"tf","game":"Team Fortress","app_id":440,"player_count":0,"max_players":24,"Bots":0,"server_type":"Dedicated","server_os":"Linux","password":true,"vac":true,"version":"7961495","steam_id":85568392924469988,"keywords":["nocrits","nodmgspread","payload","uncletopia"],"game_id":440,"stv_port":27026,"stv_name":"Uncletopia | Dallas | 2 | All Maps | STV","players":null},{"server_id":404,"name":"Uncletopia | Dallas | 3 | All Maps","name_short":"dal-3","host":"dal-1.us.uncletopia.com","port":27035,"enabled":true,"region":"us-central","cc":"us","latitude":32.779167,"longitude":-96.80889,"reserved":0,"last_update":"0001-01-01T00:00:00Z","name_a2s":"Uncletopia | Dallas | 3 | All Maps","protocol":17,"map":"cp_altitude","folder":"tf","game":"Team Fortress","app_id":440,"player_count":0,"max_players":24,"Bots":0,"server_type":"Dedicated","server_os":"Linux","password":true,"vac":true,"version":"7961495","steam_id":85568392924515219,"keywords":["cp","nocrits","nodmgspread","uncletopia"],"game_id":440,"stv_port":27036,"stv_name":"Uncletopia | Dallas | 3 | All Maps | STV","players":null},{"server_id":405,"name":"Uncletopia | Dallas | 4 | Community","name_short":"dal-4","host":"dal-1.us.uncletopia.com","port":27045,"enabled":true,"region":"us-central","cc":"us","latitude":32.779167,"longitude":-96.80889,"reserved":0,"last_update":"0001-01-01T00:00:00Z","name_a2s":"Uncletopia | Dallas | 4 | Community","protocol":17,"map":"workshop/rd_asteroid_redux_b1.ugc2154902912","folder":"tf","game":"Team Fortress","app_id":440,"player_count":0,"max_players":24,"Bots":0,"server_type":"Dedicated","server_os":"Linux","password":true,"vac":true,"version":"7961495","steam_id":85568392924515220,"keywords":["beta","nocrits","nodmgspread","rd","uncletopia"],"game_id":440,"stv_port":27046,"stv_name":"Uncletopia | Dallas | 4 | Community | STV","players":null},{"server_id":5,"name":"Uncletopia | Frankfurt | 1 | All Maps","name_short":"frk-1","host":"frk-1.de.uncletopia.com","port":27015,"enabled":true,"region":"eu","cc":"de","latitude":50.110924,"longitude":8.682127,"reserved":0,"last_update":"0001-01-01T00:00:00Z","name_a2s":"Uncletopia | Frankfurt | 1 | All Maps","protocol":17,"map":"koth_highpass","folder":"tf","game":"Team Fortress","app_id":440,"player_count":0,"max_players":24,"Bots":0,"server_type":"Dedicated","server_os":"Linux","password":true,"vac":true,"version":"7961495","steam_id":85568392924469989,"keywords":["cp","nocrits","nodmgspread","uncletopia"],"game_id":440,"stv_port":27016,"stv_name":"Uncletopia | Frankfurt | 1 | All Maps | STV","players":null},{"server_id":110,"name":"Uncletopia | Frankfurt | 2 | All Maps","name_short":"frk-2","host":"frk-1.de.uncletopia.com","port":27025,"enabled":true,"region":"eu","cc":"de","latitude":50.110924,"longitude":8.682127,"reserved":0,"last_update":"0001-01-01T00:00:00Z","name_a2s":"Uncletopia | Frankfurt | 2 | All Maps","protocol":17,"map":"cp_dustbowl","folder":"tf","game":"Team Fortress","app_id":440,"player_count":0,"max_players":24,"Bots":0,"server_type":"Dedicated","server_os":"Linux","password":true,"vac":true,"version":"7961495","steam_id":85568392924469990,"keywords":["cp","nocrits","nodmgspread","uncletopia"],"game_id":440,"stv_port":27026,"stv_name":"Uncletopia | Frankfurt | 2 | All Maps | STV","players":null},{"server_id":308,"name":"Uncletopia | Frankfurt | 3 | All Maps","name_short":"frk-3","host":"frk-1.de.uncletopia.com","port":27035,"enabled":true,"region":"eu","cc":"de","latitude":50.110924,"longitude":8.682127,"reserved":0,"last_update":"0001-01-01T00:00:00Z","name_a2s":"Uncletopia | Frankfurt | 3 | All Maps","protocol":17,"map":"plr_hightower","folder":"tf","game":"Team Fortress","app_id":440,"player_count":0,"max_players":24,"Bots":0,"server_type":"Dedicated","server_os":"Linux","password":true,"vac":true,"version":"7961495","steam_id":85568392924504274,"keywords":["nocrits","nodmgspread","payload","uncletopia"],"game_id":440,"stv_port":27036,"stv_name":"Uncletopia | Frankfurt | 3 | All Maps | STV","players":null},{"server_id":309,"name":"Uncletopia | Frankfurt | 4 | All Maps","name_short":"frk-4","host":"frk-1.de.uncletopia.com","port":27045,"enabled":true,"region":"eu","cc":"de","latitude":50.110924,"longitude":8.682127,"reserved":0,"last_update":"0001-01-01T00:00:00Z","name_a2s":"Uncletopia | Frankfurt | 4 | All Maps","protocol":17,"map":"koth_highpass","folder":"tf","game":"Team Fortress","app_id":440,"player_count":0,"max_players":24,"Bots":0,"server_type":"Dedicated","server_os":"Linux","password":true,"vac":true,"version":"7961495","steam_id":85568392924504275,"keywords":["cp","nocrits","nodmgspread","uncletopia"],"game_id":440,"stv_port":27046,"stv_name":"Uncletopia | Frankfurt | 4 | All Maps | STV","players":null},{"server_id":310,"name":"Uncletopia | Frankfurt | 5 | All Maps","name_short":"frk-5","host":"frk-1.de.uncletopia.com","port":27055,"enabled":true,"region":"eu","cc":"de","latitude":50.110924,"longitude":8.682127,"reserved":0,"last_update":"0001-01-01T00:00:00Z","name_a2s":"Uncletopia | Frankfurt | 5 | All Maps","protocol":17,"map":"pl_badwater","folder":"tf","game":"Team Fortress","app_id":440,"player_count":0,"max_players":24,"Bots":0,"server_type":"Dedicated","server_os":"Linux","password":true,"vac":true,"version":"7961495","steam_id":85568392924504277,"keywords":["nocrits","nodmgspread","payload","uncletopia"],"game_id":440,"stv_port":27056,"stv_name":"Uncletopia | Frankfurt | 5 | All Maps | STV","players":null},{"server_id":311,"name":"Uncletopia | Frankfurt | 6 | All Maps","name_short":"frk-6","host":"frk-1.de.uncletopia.com","port":27065,"enabled":true,"region":"eu","cc":"de","latitude":50.110924,"longitude":8.682127,"reserved":0,"last_update":"0001-01-01T00:00:00Z","name_a2s":"Uncletopia | Frankfurt | 6 | All Maps","protocol":17,"map":"cp_altitude","folder":"tf","game":"Team Fortress","app_id":440,"player_count":0,"max_players":24,"Bots":0,"server_type":"Dedicated","server_os":"Linux","password":true,"vac":true,"version":"7961495","steam_id":85568392924504278,"keywords":["cp","nocrits","nodmgspread","uncletopia"],"game_id":440,"stv_port":27066,"stv_name":"Uncletopia | Frankfurt | 6 | All Maps | STV","players":null},{"server_id":23,"name":"Uncletopia | Frankfurt | 7 | Stopwatch","name_short":"frk-7","host":"frk-1.de.uncletopia.com","port":27075,"enabled":true,"region":"eu","cc":"de","latitude":50.110924,"longitude":8.682127,"reserved":0,"last_update":"0001-01-01T00:00:00Z","name_a2s":"Uncletopia | Frankfurt | 7 | Stopwatch","protocol":17,"map":"workshop/pl_vigil_rc10.ugc1266210012","folder":"tf","game":"Team Fortress","app_id":440,"player_count":0,"max_players":24,"Bots":0,"server_type":"Dedicated","server_os":"Linux","password":true,"vac":true,"version":"7961495","steam_id":85568392924742827,"keywords":["nocrits","nodmgspread","payload","uncletopia"],"game_id":440,"stv_port":27076,"stv_name":"Uncletopia | Frankfurt | 7 | Stopwatch | STV","players":null},{"server_id":24,"name":"Uncletopia | Frankfurt | 8 | Community","name_short":"frk-8","host":"frk-1.de.uncletopia.com","port":27085,"enabled":true,"region":"eu","cc":"de","latitude":50.110924,"longitude":8.682127,"reserved":0,"last_update":"0001-01-01T00:00:00Z","name_a2s":"Uncletopia | Frankfurt | 8 | Community","protocol":17,"map":"cp_mountainlab","folder":"tf","game":"Team Fortress","app_id":440,"player_count":0,"max_players":24,"Bots":0,"server_type":"Dedicated","server_os":"Linux","password":true,"vac":true,"version":"7961495","steam_id":85568392924742828,"keywords":["cp","nocrits","nodmgspread","uncletopia"],"game_id":440,"stv_port":27086,"stv_name":"Uncletopia | Frankfurt | 8 | Community | STV","players":null},{"server_id":202,"name":"Uncletopia | Hong Kong | 1 | All Maps","name_short":"hgk-1","host":"hgk-1.hk.uncletopia.com","port":27015,"enabled":true,"region":"asia","cc":"hk","latitude":22.302711,"longitude":114.177216,"reserved":0,"last_update":"0001-01-01T00:00:00Z","name_a2s":"Uncletopia | Hong Kong | 1 | All Maps","protocol":17,"map":"koth_suijin","folder":"tf","game":"Team Fortress","app_id":440,"player_count":24,"max_players":24,"Bots":0,"server_type":"Dedicated","server_os":"Linux","password":true,"vac":true,"version":"7961495","steam_id":85568392924494504,"keywords":["cp","nocrits","nodmgspread","uncletopia"],"game_id":440,"stv_port":27016,"stv_name":"Uncletopia | Hong Kong | 1 | All Maps | STV","players":[{"user_id":292,"name":"p1st0n","steam_id":76561198992723983,"connected_time":608000000000,"state":"active","ping":93},{"user_id":281,"name":"toad„ÉÑ","steam_id":76561198082199290,"connected_time":1230000000000,"state":"active","ping":42},{"user_id":241,"name":"Hanta","steam_id":76561199031390218,"connected_time":5789000000000,"state":"active","ping":118},{"user_id":283,"name":"SunShine","steam_id":76561198323642446,"connected_time":1194000000000,"state":"active","ping":102},{"user_id":255,"name":"brizzard","steam_id":76561198048438653,"connected_time":3658000000000,"state":"active","ping":48},{"user_id":213,"name":"vintage","steam_id":76561198230213828,"connected_time":7192000000000,"state":"active","ping":61},{"user_id":275,"name":"TomProPlayer","steam_id":76561199223292521,"connected_time":1602000000000,"state":"active","ping":69},{"user_id":251,"name":"Wakiiiz","steam_id":76561198850134590,"connected_time":4746000000000,"state":"active","ping":65},{"user_id":274,"name":"Doormann","steam_id":76561199219230108,"connected_time":1634000000000,"state":"active","ping":75},{"user_id":236,"name":"17","steam_id":76561198241530712,"connected_time":6182000000000,"state":"active","ping":56},{"user_id":276,"name":"Dr. Piss Rat","steam_id":76561199074809838,"connected_time":1577000000000,"state":"active","ping":75},{"user_id":256,"name":"Luisy","steam_id":76561198185148713,"connected_time":3650000000000,"state":"active","ping":68},{"user_id":293,"name":"Gefin","steam_id":76561198944317181,"connected_time":492000000000,"state":"active","ping":74},{"user_id":242,"name":"ArcticDolphin","steam_id":76561198203626319,"connected_time":5766000000000,"state":"active","ping":162},{"user_id":285,"name":"force","steam_id":76561199109339247,"connected_time":982000000000,"state":"active","ping":78},{"user_id":278,"name":"Brightside","steam_id":76561198017293596,"connected_time":1245000000000,"state":"active","ping":92},{"user_id":268,"name":"Male Detected!","steam_id":76561199082459598,"connected_time":2311000000000,"state":"active","ping":80},{"user_id":289,"name":"Ìï¥Î≥ÄÏùò Íøà","steam_id":76561199474092971,"connected_time":858000000000,"state":"active","ping":99},{"user_id":288,"name":"ivarplayz","steam_id":76561199059132625,"connected_time":865000000000,"state":"active","ping":102},{"user_id":291,"name":"Momoxhien","steam_id":76561198414997429,"connected_time":635000000000,"state":"active","ping":61},{"user_id":257,"name":"Drutzhfer","steam_id":76561198299948446,"connected_time":3645000000000,"state":"active","ping":111},{"user_id":198,"name":"hakos balls","steam_id":76561198074339034,"connected_time":9465000000000,"state":"active","ping":76},{"user_id":270,"name":"Â∏ï","steam_id":76561198439343999,"connected_time":1949000000000,"state":"active","ping":78},{"user_id":259,"name":"obama boss fight simulator 3D","steam_id":76561199209331489,"connected_time":3367000000000,"state":"active","ping":101}]},{"server_id":1,"name":"Uncletopia | Los Angeles | 1 | All Maps","name_short":"lax-1","host":"lax-1.us.uncletopia.com","port":27015,"enabled":true,"region":"us-west","cc":"us","latitude":33.94279,"longitude":-118.41004,"reserved":0,"last_update":"0001-01-01T00:00:00Z","name_a2s":"Uncletopia | Los Angeles | 1 | All Maps","protocol":17,"map":"pl_pier","folder":"tf","game":"Team Fortress","app_id":440,"player_count":0,"max_players":24,"Bots":0,"server_type":"Dedicated","server_os":"Linux","password":true,"vac":true,"version":"7961495","steam_id":85568392924469991,"keywords":["nocrits","nodmgspread","payload","uncletopia"],"game_id":440,"stv_port":27016,"stv_name":"Uncletopia | Los Angeles | 1 | All Maps | STV","players":null},{"server_id":112,"name":"Uncletopia | Los Angeles | 2 | All Maps","name_short":"lax-2","host":"lax-1.us.uncletopia.com","port":27025,"enabled":true,"region":"us-west","cc":"us","latitude":33.94279,"longitude":-118.41004,"reserved":0,"last_update":"0001-01-01T00:00:00Z","name_a2s":"Uncletopia | Los Angeles | 2 | All Maps","protocol":17,"map":"koth_lakeside_final","folder":"tf","game":"Team Fortress","app_id":440,"player_count":0,"max_players":24,"Bots":0,"server_type":"Dedicated","server_os":"Linux","password":true,"vac":true,"version":"7961495","steam_id":85568392924469992,"keywords":["cp","nocrits","nodmgspread","uncletopia"],"game_id":440,"stv_port":27026,"stv_name":"Uncletopia | Los Angeles | 2 | All Maps | STV","players":null},{"server_id":324,"name":"Uncletopia | Los Angeles | 3 | All Maps","name_short":"lax-3","host":"lax-1.us.uncletopia.com","port":27035,"enabled":true,"region":"us-west","cc":"us","latitude":33.94279,"longitude":-118.41004,"reserved":0,"last_update":"0001-01-01T00:00:00Z","name_a2s":"Uncletopia | Los Angeles | 3 | All Maps","protocol":17,"map":"pl_badwater","folder":"tf","game":"Team Fortress","app_id":440,"player_count":24,"max_players":24,"Bots":0,"server_type":"Dedicated","server_os":"Linux","password":true,"vac":true,"version":"7961495","steam_id":85568392924510198,"keywords":["nocrits","nodmgspread","payload","uncletopia"],"game_id":440,"stv_port":27036,"stv_name":"Uncletopia | Los Angeles | 3 | All Maps | STV","players":[{"user_id":355,"name":"dugdug","steam_id":76561198320988937,"connected_time":1048000000000,"state":"active","ping":40},{"user_id":370,"name":"bigpoo (lean addict)","steam_id":76561198864139320,"connected_time":387000000000,"state":"active","ping":148},{"user_id":353,"name":"no vc no c","steam_id":76561197989503095,"connected_time":1063000000000,"state":"active","ping":163},{"user_id":371,"name":"weed is for sinners","steam_id":76561198357132470,"connected_time":316000000000,"state":"active","ping":59},{"user_id":356,"name":"Venom Snake","steam_id":76561199093496169,"connected_time":927000000000,"state":"active","ping":60},{"user_id":369,"name":"Thane","steam_id":76561198402645718,"connected_time":433000000000,"state":"active","ping":66},{"user_id":372,"name":"Mr. Bean","steam_id":76561198146240309,"connected_time":251000000000,"state":"active","ping":56},{"user_id":298,"name":"Anon","steam_id":76561198109740776,"connected_time":4759000000000,"state":"active","ping":57},{"user_id":357,"name":"Aguas De Marco","steam_id":76561198410957728,"connected_time":890000000000,"state":"active","ping":103},{"user_id":358,"name":"flame","steam_id":76561198079321914,"connected_time":887000000000,"state":"active","ping":79},{"user_id":342,"name":"Schizophrenic Lesbian","steam_id":76561198162559143,"connected_time":1731000000000,"state":"active","ping":76},{"user_id":368,"name":"James","steam_id":76561198077251918,"connected_time":496000000000,"state":"active","ping":59},{"user_id":323,"name":"Duck","steam_id":76561198045773814,"connected_time":3536000000000,"state":"active","ping":67},{"user_id":359,"name":"Trips","steam_id":76561198054581597,"connected_time":875000000000,"state":"active","ping":50},{"user_id":304,"name":"Zesty Zucchini Ziti","steam_id":76561198092494136,"connected_time":4250000000000,"state":"active","ping":75},{"user_id":333,"name":"PROFILE NAME","steam_id":76561199438851854,"connected_time":2670000000000,"state":"active","ping":86},{"user_id":349,"name":"sol badguy","steam_id":76561198128164970,"connected_time":1193000000000,"state":"active","ping":52},{"user_id":376,"name":"Sozuki","steam_id":76561198961150367,"connected_time":137000000000,"state":"active","ping":60},{"user_id":361,"name":"Dr_Minty","steam_id":76561199043644449,"connected_time":841000000000,"state":"active","ping":55},{"user_id":317,"name":"Zurg","steam_id":76561198316995374,"connected_time":3724000000000,"state":"active","ping":88},{"user_id":362,"name":"crunchy obama","steam_id":76561198044485217,"connected_time":840000000000,"state":"active","ping":72},{"user_id":374,"name":"Cuddies","steam_id":76561198119304895,"connected_time":217000000000,"state":"active","ping":45},{"user_id":363,"name":"‡∏∏","steam_id":76561198404271005,"connected_time":803000000000,"state":"active","ping":47},{"user_id":364,"name":"FI LO","steam_id":76561198976530881,"connected_time":801000000000,"state":"active","ping":40}]},{"server_id":25,"name":"Uncletopia | Los Angeles | 4 | Stopwatch","name_short":"lax-4","host":"lax-1.us.uncletopia.com","port":27045,"enabled":true,"region":"us-west","cc":"us","latitude":33.94279,"longitude":-118.41004,"reserved":0,"last_update":"0001-01-01T00:00:00Z","name_a2s":"Uncletopia | Los Angeles | 4 | Stopwatch","protocol":17,"map":"workshop/pl_barnblitz_pro7.ugc582280235","folder":"tf","game":"Team Fortress","app_id":440,"player_count":0,"max_players":24,"Bots":0,"server_type":"Dedicated","server_os":"Linux","password":true,"vac":true,"version":"7961495","steam_id":85568392924510199,"keywords":["nocrits","nodmgspread","payload","uncletopia"],"game_id":440,"stv_port":27046,"stv_name":"Uncletopia | Los Angeles | 4 | Stopwatch | STV","players":null},{"server_id":11,"name":"Uncletopia | London | 1 | All Maps","name_short":"lon-1","host":"lon-1.uk.uncletopia.com","port":27015,"enabled":true,"region":"eu","cc":"gb","latitude":51.509865,"longitude":-0.118092,"reserved":0,"last_update":"0001-01-01T00:00:00Z","name_a2s":"Uncletopia | London | 1 | All Maps","protocol":17,"map":"koth_highpass","folder":"tf","game":"Team Fortress","app_id":440,"player_count":0,"max_players":24,"Bots":0,"server_type":"Dedicated","server_os":"Linux","password":true,"vac":true,"version":"7961495","steam_id":85568392924367362,"keywords":["cp","nocrits","nodmgspread","uncletopia"],"game_id":440,"stv_port":27016,"stv_name":"Uncletopia | London | 1 | All Maps | STV","players":null},{"server_id":114,"name":"Uncletopia | London | 2 | All Maps","name_short":"lon-2","host":"lon-1.uk.uncletopia.com","port":27025,"enabled":true,"region":"eu","cc":"gb","latitude":51.509865,"longitude":-0.118092,"reserved":0,"last_update":"0001-01-01T00:00:00Z","name_a2s":"Uncletopia | London | 2 | All Maps","protocol":17,"map":"koth_lakeside_final","folder":"tf","game":"Team Fortress","app_id":440,"player_count":0,"max_players":24,"Bots":0,"server_type":"Dedicated","server_os":"Linux","password":true,"vac":true,"version":"7961495","steam_id":85568392924470941,"keywords":["cp","nocrits","nodmgspread","uncletopia"],"game_id":440,"stv_port":27026,"stv_name":"Uncletopia | London | 2 | All Maps | STV","players":null},{"server_id":320,"name":"Uncletopia | London | 3 | All Maps","name_short":"lon-3","host":"lon-1.uk.uncletopia.com","port":27035,"enabled":true,"region":"eu","cc":"gb","latitude":51.509865,"longitude":-0.118092,"reserved":0,"last_update":"0001-01-01T00:00:00Z","name_a2s":"Uncletopia | London | 3 | All Maps","protocol":17,"map":"pl_barnblitz","folder":"tf","game":"Team Fortress","app_id":440,"player_count":0,"max_players":24,"Bots":0,"server_type":"Dedicated","server_os":"Linux","password":true,"vac":true,"version":"7961495","steam_id":85568392924510192,"keywords":["nocrits","nodmgspread","payload","uncletopia"],"game_id":440,"stv_port":27036,"stv_name":"Uncletopia | London | 3 | All Maps | STV","players":null},{"server_id":321,"name":"Uncletopia | London | 4 | All Maps","name_short":"lon-4","host":"lon-1.uk.uncletopia.com","port":27045,"enabled":true,"region":"eu","cc":"gb","latitude":51.509865,"longitude":-0.118092,"reserved":0,"last_update":"0001-01-01T00:00:00Z","name_a2s":"Uncletopia | London | 4 | All Maps","protocol":17,"map":"koth_badlands","folder":"tf","game":"Team Fortress","app_id":440,"player_count":24,"max_players":24,"Bots":0,"server_type":"Dedicated","server_os":"Linux","password":true,"vac":true,"version":"7961495","steam_id":85568392924510193,"keywords":["cp","nocrits","nodmgspread","uncletopia"],"game_id":440,"stv_port":27046,"stv_name":"Uncletopia | London | 4 | All Maps | STV","players":[{"user_id":123,"name":"Akira (they/them)","steam_id":76561198294601519,"connected_time":287000000000,"state":"active","ping":179},{"user_id":120,"name":"im tired","steam_id":76561198812159557,"connected_time":326000000000,"state":"active","ping":77},{"user_id":84,"name":"[FD] Tomatohead","steam_id":76561198099682237,"connected_time":2633000000000,"state":"active","ping":55},{"user_id":129,"name":"kilo","steam_id":76561198015641339,"connected_time":15000000000,"state":"spawning","ping":74},{"user_id":116,"name":"Akis—è–Ω","steam_id":76561198078706435,"connected_time":577000000000,"state":"active","ping":82},{"user_id":124,"name":"Bobo","steam_id":76561198052308399,"connected_time":259000000000,"state":"active","ping":66},{"user_id":108,"name":"I have 42 pipe bombs in my ass","steam_id":76561199111979000,"connected_time":966000000000,"state":"active","ping":58},{"user_id":114,"name":"PGAndy","steam_id":76561199218070297,"connected_time":679000000000,"state":"active","ping":91},{"user_id":111,"name":"jovi_","steam_id":76561198449280552,"connected_time":770000000000,"state":"active","ping":46},{"user_id":125,"name":"stefanbejenari","steam_id":76561199466718294,"connected_time":247000000000,"state":"active","ping":85},{"user_id":126,"name":"MidMidd","steam_id":76561198155533471,"connected_time":240000000000,"state":"active","ping":63},{"user_id":33,"name":"Alyx","steam_id":76561198064654326,"connected_time":5790000000000,"state":"active","ping":61},{"user_id":127,"name":"Mannshees of Inisherin","steam_id":76561198146194820,"connected_time":185000000000,"state":"active","ping":58},{"user_id":130,"name":"unconditional love","steam_id":76561199026097466,"connected_time":3000000000,"state":"spawning","ping":67},{"user_id":115,"name":"Joo ‚ô¶","steam_id":76561197987609203,"connected_time":656000000000,"state":"active","ping":74},{"user_id":94,"name":"night.s","steam_id":76561198326287823,"connected_time":2151000000000,"state":"active","ping":76},{"user_id":80,"name":"Faxter","steam_id":76561198011771605,"connected_time":2937000000000,"state":"active","ping":63},{"user_id":101,"name":"marvs","steam_id":76561198851777617,"connected_time":1464000000000,"state":"active","ping":58},{"user_id":117,"name":"iq drops","steam_id":76561198035795130,"connected_time":495000000000,"state":"active","ping":55},{"user_id":112,"name":"Fox","steam_id":76561198052541711,"connected_time":729000000000,"state":"active","ping":62},{"user_id":109,"name":"Matbanan","steam_id":76561198228537672,"connected_time":937000000000,"state":"active","ping":80},{"user_id":128,"name":"kondonek","steam_id":76561198115248051,"connected_time":165000000000,"state":"active","ping":76},{"user_id":118,"name":"Leibeigener","steam_id":76561199275478305,"connected_time":476000000000,"state":"active","ping":53},{"user_id":56,"name":"GZimmer","steam_id":76561198088794767,"connected_time":4706000000000,"state":"active","ping":61}]},{"server_id":21,"name":"Uncletopia | London | 5 | All Maps","name_short":"lon-5","host":"lon-1.uk.uncletopia.com","port":27055,"enabled":true,"region":"eu","cc":"gb","latitude":51.509865,"longitude":-0.118092,"reserved":0,"last_update":"0001-01-01T00:00:00Z","name_a2s":"Uncletopia | London | 5 | All Maps","protocol":17,"map":"koth_lakeside_final","folder":"tf","game":"Team Fortress","app_id":440,"player_count":0,"max_players":24,"Bots":0,"server_type":"Dedicated","server_os":"Linux","password":true,"vac":true,"version":"7961495","steam_id":85568392924742829,"keywords":["cp","nocrits","nodmgspread","uncletopia"],"game_id":440,"stv_port":27056,"stv_name":"Uncletopia | London | 5 | All Maps | STV","players":null},{"server_id":22,"name":"Uncletopia | London | 6 | All Maps","name_short":"lon-6","host":"lon-1.uk.uncletopia.com","port":27065,"enabled":true,"region":"eu","cc":"gb","latitude":51.509865,"longitude":-0.118092,"reserved":0,"last_update":"0001-01-01T00:00:00Z","name_a2s":"Uncletopia | London | 6 | All Maps","protocol":17,"map":"cp_dustbowl","folder":"tf","game":"Team Fortress","app_id":440,"player_count":0,"max_players":24,"Bots":0,"server_type":"Dedicated","server_os":"Linux","password":true,"vac":true,"version":"7961495","steam_id":85568392924742830,"keywords":["cp","nocrits","nodmgspread","uncletopia"],"game_id":440,"stv_port":27066,"stv_name":"Uncletopia | London | 6 | All Maps | STV","players":null},{"server_id":40,"name":"Uncletopia | London | 7 | Stopwatch","name_short":"lon-7","host":"lon-1.uk.uncletopia.com","port":27075,"enabled":true,"region":"eu","cc":"gb","latitude":51.509865,"longitude":-0.118092,"reserved":0,"last_update":"0001-01-01T00:00:00Z","name_a2s":"Uncletopia | London | 7 | Stopwatch","protocol":17,"map":"koth_lakeside_final","folder":"tf","game":"Team Fortress","app_id":440,"player_count":0,"max_players":24,"Bots":0,"server_type":"Dedicated","server_os":"Linux","password":true,"vac":true,"version":"7961495","steam_id":85568392924964314,"keywords":["cp","nocrits","nodmgspread","uncletopia"],"game_id":440,"stv_port":27076,"stv_name":"Uncletopia | London | 7 | Stopwatch | STV","players":null},{"server_id":41,"name":"Uncletopia | London | 8 | Community","name_short":"lon-8","host":"lon-1.uk.uncletopia.com","port":27085,"enabled":true,"region":"eu","cc":"gb","latitude":51.509865,"longitude":-0.118092,"reserved":0,"last_update":"0001-01-01T00:00:00Z","name_a2s":"Uncletopia | London | 8 | Community","protocol":17,"map":"cp_snakewater_final1","folder":"tf","game":"Team Fortress","app_id":440,"player_count":0,"max_players":24,"Bots":0,"server_type":"Dedicated","server_os":"Linux","password":true,"vac":true,"version":"7961495","steam_id":85568392924964315,"keywords":["cp","nocrits","nodmgspread","uncletopia"],"game_id":440,"stv_port":27086,"stv_name":"Uncletopia | London | 8 | Community | STV","players":null},{"server_id":300,"name":"Uncletopia | Montr√©al | 1 | One Thousand Uncles","name_short":"mtl-1","host":"mtl-1.ca.uncletopia.com","port":27015,"enabled":true,"region":"us-east","cc":"ca","latitude":45.50889,"longitude":-73.56167,"reserved":0,"last_update":"0001-01-01T00:00:00Z","name_a2s":"","protocol":0,"map":"","folder":"","game":"","app_id":0,"player_count":3,"max_players":0,"Bots":0,"server_type":"","server_os":"","password":false,"vac":false,"version":"","steam_id":0,"keywords":null,"game_id":0,"stv_port":0,"stv_name":"","players":[{"user_id":397,"name":"Huey","steam_id":76561198972816386,"connected_time":1920000000000,"state":"active","ping":85},{"user_id":416,"name":"Derp71","steam_id":76561199217236271,"connected_time":764000000000,"state":"active","ping":71},{"user_id":415,"name":"Congcrab","steam_id":76561198078687685,"connected_time":1173000000000,"state":"active","ping":81}]},{"server_id":301,"name":"Uncletopia | Montr√©al | 2 | One Thousand Uncles","name_short":"mtl-2","host":"mtl-1.ca.uncletopia.com","port":27025,"enabled":true,"region":"us-east","cc":"ca","latitude":45.50889,"longitude":-73.56167,"reserved":0,"last_update":"0001-01-01T00:00:00Z","name_a2s":"","protocol":0,"map":"","folder":"","game":"","app_id":0,"player_count":0,"max_players":0,"Bots":0,"server_type":"","server_os":"","password":false,"vac":false,"version":"","steam_id":0,"keywords":null,"game_id":0,"stv_port":0,"stv_name":"","players":null},{"server_id":302,"name":"Uncletopia | Montr√©al | 3 | One Thousand Uncles","name_short":"mtl-3","host":"mtl-1.ca.uncletopia.com","port":27035,"enabled":true,"region":"us-east","cc":"ca","latitude":45.50889,"longitude":-73.56167,"reserved":0,"last_update":"0001-01-01T00:00:00Z","name_a2s":"","protocol":0,"map":"","folder":"","game":"","app_id":0,"player_count":0,"max_players":0,"Bots":0,"server_type":"","server_os":"","password":false,"vac":false,"version":"","steam_id":0,"keywords":null,"game_id":0,"stv_port":0,"stv_name":"","players":null},{"server_id":13,"name":"Uncletopia | New York City | 1 | All Maps","name_short":"nyc-1","host":"nyc-1.us.uncletopia.com","port":27015,"enabled":true,"region":"us-east","cc":"us","latitude":40.73061,"longitude":-73.93524,"reserved":0,"last_update":"0001-01-01T00:00:00Z","name_a2s":"Uncletopia | New York City | 1 | All Maps","protocol":17,"map":"pl_upward","folder":"tf","game":"Team Fortress","app_id":440,"player_count":0,"max_players":24,"Bots":0,"server_type":"Dedicated","server_os":"Linux","password":true,"vac":true,"version":"7961495","steam_id":85568392924469993,"keywords":["nocrits","nodmgspread","payload","uncletopia"],"game_id":440,"stv_port":27016,"stv_name":"Uncletopia | New York City | 1 | All Maps | STV","players":null},{"server_id":14,"name":"Uncletopia | New York City | 2 | All Maps","name_short":"nyc-2","host":"nyc-1.us.uncletopia.com","port":27025,"enabled":true,"region":"us-east","cc":"us","latitude":40.73061,"longitude":-73.93524,"reserved":0,"last_update":"0001-01-01T00:00:00Z","name_a2s":"Uncletopia | New York City | 2 | All Maps","protocol":17,"map":"koth_viaduct","folder":"tf","game":"Team Fortress","app_id":440,"player_count":0,"max_players":24,"Bots":0,"server_type":"Dedicated","server_os":"Linux","password":true,"vac":true,"version":"7961495","steam_id":85568392924469994,"keywords":["cp","nocrits","nodmgspread","uncletopia"],"game_id":440,"stv_port":27026,"stv_name":"Uncletopia | New York City | 2 | All Maps | STV","players":null},{"server_id":15,"name":"Uncletopia | New York City | 3 | Stopwatch","name_short":"nyc-3","host":"nyc-1.us.uncletopia.com","port":27035,"enabled":true,"region":"us-east","cc":"us","latitude":40.73061,"longitude":-73.93524,"reserved":0,"last_update":"0001-01-01T00:00:00Z","name_a2s":"Uncletopia | New York City | 3 | Stopwatch","protocol":17,"map":"koth_lakeside_final","folder":"tf","game":"Team Fortress","app_id":440,"player_count":0,"max_players":24,"Bots":0,"server_type":"Dedicated","server_os":"Linux","password":true,"vac":true,"version":"7961495","steam_id":85568392924742820,"keywords":["cp","nocrits","nodmgspread","uncletopia"],"game_id":440,"stv_port":27036,"stv_name":"Uncletopia | New York City | 3 | Stopwatch | STV","players":null},{"server_id":16,"name":"Uncletopia | New York City | 4 | Community","name_short":"nyc-4","host":"nyc-1.us.uncletopia.com","port":27045,"enabled":true,"region":"us-east","cc":"us","latitude":40.73061,"longitude":-73.93524,"reserved":0,"last_update":"0001-01-01T00:00:00Z","name_a2s":"Uncletopia | New York City | 4 | Community","protocol":17,"map":"workshop/cp_sulfur_rc2.ugc619869471","folder":"tf","game":"Team Fortress","app_id":440,"player_count":0,"max_players":24,"Bots":0,"server_type":"Dedicated","server_os":"Linux","password":true,"vac":true,"version":"7961495","steam_id":85568392924742821,"keywords":["cp","nocrits","nodmgspread","uncletopia"],"game_id":440,"stv_port":27046,"stv_name":"Uncletopia | New York City | 4 | Community | STV","players":null},{"server_id":142,"name":"Uncletopia | S√£o Paulo | 1 | All Maps","name_short":"sao-1","host":"sao-1.br.uncletopia.com","port":27015,"enabled":true,"region":"sa","cc":"br","latitude":-23.533773,"longitude":-46.62529,"reserved":0,"last_update":"0001-01-01T00:00:00Z","name_a2s":"Uncletopia | S√£o Paulo | 1 | All Maps","protocol":17,"map":"koth_harvest_final","folder":"tf","game":"Team Fortress","app_id":440,"player_count":0,"max_players":24,"Bots":0,"server_type":"Dedicated","server_os":"Linux","password":true,"vac":true,"version":"7961495","steam_id":85568392924469996,"keywords":["cp","nocrits","nodmgspread","uncletopia"],"game_id":440,"stv_port":27016,"stv_name":"Uncletopia | S√£o Paulo | 1 | All Maps | STV","players":null},{"server_id":143,"name":"Uncletopia | S√£o Paulo | 2 | Community","name_short":"sao-2","host":"sao-2.br.uncletopia.com","port":27015,"enabled":true,"region":"sa","cc":"br","latitude":-23.533773,"longitude":-46.62529,"reserved":0,"last_update":"0001-01-01T00:00:00Z","name_a2s":"Uncletopia | S√£o Paulo | 2 | Community","protocol":17,"map":"workshop/koth_product_final.ugc454272353","folder":"tf","game":"Team Fortress","app_id":440,"player_count":0,"max_players":24,"Bots":0,"server_type":"Dedicated","server_os":"Linux","password":true,"vac":true,"version":"7961495","steam_id":85568392924485349,"keywords":["cp","nocrits","nodmgspread","uncletopia"],"game_id":440,"stv_port":27016,"stv_name":"Uncletopia | S√£o Paulo | 2 | Community | STV","players":null},{"server_id":7,"name":"Uncletopia | Seattle | 1 | All Maps","name_short":"sea-1","host":"sea-1.us.uncletopia.com","port":27015,"enabled":true,"region":"us-west","cc":"us","latitude":47.608013,"longitude":-122.33517,"reserved":0,"last_update":"0001-01-01T00:00:00Z","name_a2s":"Uncletopia | Seattle | 1 | All Maps","protocol":17,"map":"pl_borneo","folder":"tf","game":"Team Fortress","app_id":440,"player_count":24,"max_players":24,"Bots":0,"server_type":"Dedicated","server_os":"Linux","password":true,"vac":true,"version":"7961495","steam_id":85568392924469997,"keywords":["nocrits","nodmgspread","payload","uncletopia"],"game_id":440,"stv_port":27016,"stv_name":"Uncletopia | Seattle | 1 | All Maps | STV","players":[{"user_id":481,"name":"Grand","steam_id":76561198290143399,"connected_time":7414000000000,"state":"active","ping":69},{"user_id":521,"name":"ShackerJack","steam_id":76561198118017448,"connected_time":1864000000000,"state":"active","ping":57},{"user_id":530,"name":"Lilith","steam_id":76561198120362654,"connected_time":1386000000000,"state":"active","ping":45},{"user_id":536,"name":"Tideflat","steam_id":76561198179850851,"connected_time":407000000000,"state":"active","ping":47},{"user_id":519,"name":"Barress","steam_id":76561198011728743,"connected_time":1935000000000,"state":"active","ping":55},{"user_id":535,"name":"EforEstrogen","steam_id":76561198086787295,"connected_time":494000000000,"state":"active","ping":42},{"user_id":522,"name":"sqomboashous snickerdoodle","steam_id":76561198346001637,"connected_time":1846000000000,"state":"active","ping":93},{"user_id":517,"name":"tobrehto","steam_id":76561198097544038,"connected_time":2175000000000,"state":"active","ping":86},{"user_id":523,"name":"Jade Jetts [She/They]","steam_id":76561198206130076,"connected_time":1788000000000,"state":"active","ping":75},{"user_id":509,"name":"Pho","steam_id":76561198306515742,"connected_time":3439000000000,"state":"active","ping":72},{"user_id":538,"name":"the nutty professor","steam_id":76561198968129815,"connected_time":206000000000,"state":"active","ping":153},{"user_id":527,"name":"Omegashart","steam_id":76561198209393060,"connected_time":1554000000000,"state":"active","ping":37},{"user_id":459,"name":"Sweets(?)","steam_id":76561198998446307,"connected_time":11235000000000,"state":"active","ping":66},{"user_id":497,"name":"jim awesome","steam_id":76561198337486020,"connected_time":5261000000000,"state":"active","ping":74},{"user_id":537,"name":"Dr. Inkulus | snln ûuI Àô…π·ó°","steam_id":76561198212231033,"connected_time":366000000000,"state":"active","ping":42},{"user_id":516,"name":"steezy","steam_id":76561198263134652,"connected_time":2504000000000,"state":"active","ping":54},{"user_id":514,"name":"Havi","steam_id":76561198197832829,"connected_time":3098000000000,"state":"active","ping":46},{"user_id":541,"name":"Paradon","steam_id":76561198242214772,"connected_time":38000000000,"state":"active","ping":69},{"user_id":531,"name":"Amazing476","steam_id":76561198103937489,"connected_time":1357000000000,"state":"active","ping":90},{"user_id":420,"name":"Daz","steam_id":76561198041431938,"connected_time":14840000000000,"state":"active","ping":52},{"user_id":540,"name":"shadow money wizard gang","steam_id":76561199138290670,"connected_time":148000000000,"state":"active","ping":101},{"user_id":542,"name":"paj","steam_id":76561198080026026,"connected_time":2000000000,"state":"spawning","ping":76},{"user_id":476,"name":"lker","steam_id":76561197976975075,"connected_time":8415000000000,"state":"active","ping":113},{"user_id":507,"name":"Octopus","steam_id":76561198114639980,"connected_time":3818000000000,"state":"active","ping":64}]},{"server_id":119,"name":"Uncletopia | Seattle | 2 | All Maps","name_short":"sea-2","host":"sea-1.us.uncletopia.com","port":27025,"enabled":true,"region":"us-west","cc":"us","latitude":47.608013,"longitude":-122.33517,"reserved":0,"last_update":"0001-01-01T00:00:00Z","name_a2s":"Uncletopia | Seattle | 2 | All Maps","protocol":17,"map":"koth_cascade","folder":"tf","game":"Team Fortress","app_id":440,"player_count":0,"max_players":24,"Bots":0,"server_type":"Dedicated","server_os":"Linux","password":true,"vac":true,"version":"7961495","steam_id":85568392924469998,"keywords":["cp","nocrits","nodmgspread","uncletopia"],"game_id":440,"stv_port":27026,"stv_name":"Uncletopia | Seattle | 2 | All Maps | STV","players":null},{"server_id":406,"name":"Uncletopia | Seattle | 3 | Stopwatch","name_short":"sea-3","host":"sea-1.us.uncletopia.com","port":27035,"enabled":true,"region":"us-west","cc":"us","latitude":47.608013,"longitude":-122.33517,"reserved":0,"last_update":"0001-01-01T00:00:00Z","name_a2s":"Uncletopia | Seattle | 3 | Stopwatch","protocol":17,"map":"workshop/koth_product_final.ugc454272353","folder":"tf","game":"Team Fortress","app_id":440,"player_count":0,"max_players":24,"Bots":0,"server_type":"Dedicated","server_os":"Linux","password":true,"vac":true,"version":"7961495","steam_id":85568392924515217,"keywords":["cp","nocrits","nodmgspread","uncletopia"],"game_id":440,"stv_port":27036,"stv_name":"Uncletopia | Seattle | 3 | Stopwatch | STV","players":null},{"server_id":17,"name":"Uncletopia | San Francisco | 1 | All Maps","name_short":"sfo-1","host":"sfo-1.us.uncletopia.com","port":27015,"enabled":true,"region":"us-west","cc":"us","latitude":37.77397,"longitude":-122.4313,"reserved":0,"last_update":"0001-01-01T00:00:00Z","name_a2s":"Uncletopia | San Francisco | 1 | All Maps","protocol":17,"map":"cp_process_final","folder":"tf","game":"Team Fortress","app_id":440,"player_count":0,"max_players":24,"Bots":0,"server_type":"Dedicated","server_os":"Linux","password":true,"vac":true,"version":"7961495","steam_id":85568392924469999,"keywords":["cp","nocrits","nodmgspread","uncletopia"],"game_id":440,"stv_port":27016,"stv_name":"Uncletopia | San Francisco | 1 | All Maps | STV","players":null},{"server_id":18,"name":"Uncletopia | San Francisco | 2 | All Maps","name_short":"sfo-2","host":"sfo-1.us.uncletopia.com","port":27025,"enabled":true,"region":"us-west","cc":"us","latitude":37.77397,"longitude":-122.4313,"reserved":0,"last_update":"0001-01-01T00:00:00Z","name_a2s":"Uncletopia | San Francisco | 2 | All Maps","protocol":17,"map":"koth_viaduct","folder":"tf","game":"Team Fortress","app_id":440,"player_count":0,"max_players":24,"Bots":0,"server_type":"Dedicated","server_os":"Linux","password":true,"vac":true,"version":"7961495","steam_id":85568392924470000,"keywords":["cp","nocrits","nodmgspread","uncletopia"],"game_id":440,"stv_port":27026,"stv_name":"Uncletopia | San Francisco | 2 | All Maps | STV","players":null},{"server_id":19,"name":"Uncletopia | San Francisco | 3 | Stopwatch","name_short":"sfo-3","host":"sfo-1.us.uncletopia.com","port":27035,"enabled":true,"region":"us-west","cc":"us","latitude":37.77397,"longitude":-122.4313,"reserved":0,"last_update":"0001-01-01T00:00:00Z","name_a2s":"Uncletopia | San Francisco | 3 | Stopwatch","protocol":17,"map":"workshop/pl_vigil_rc10.ugc1266210012","folder":"tf","game":"Team Fortress","app_id":440,"player_count":0,"max_players":24,"Bots":0,"server_type":"Dedicated","server_os":"Linux","password":true,"vac":true,"version":"7961495","steam_id":85568392924742824,"keywords":["nocrits","nodmgspread","payload","uncletopia"],"game_id":440,"stv_port":27036,"stv_name":"Uncletopia | San Francisco | 3 | Stopwatch | STV","players":null},{"server_id":20,"name":"Uncletopia | San Francisco | 4 | Community","name_short":"sfo-4","host":"sfo-1.us.uncletopia.com","port":27045,"enabled":true,"region":"us-west","cc":"us","latitude":37.77397,"longitude":-122.4313,"reserved":0,"last_update":"0001-01-01T00:00:00Z","name_a2s":"Uncletopia | San Francisco | 4 | Community","protocol":17,"map":"workshop/koth_slaughter_rc1.ugc1712845210","folder":"tf","game":"Team Fortress","app_id":440,"player_count":0,"max_players":24,"Bots":0,"server_type":"Dedicated","server_os":"Linux","password":true,"vac":true,"version":"7961495","steam_id":85568392924742826,"keywords":["cp","nocrits","nodmgspread","uncletopia"],"game_id":440,"stv_port":27046,"stv_name":"Uncletopia | San Francisco | 4 | Community | STV","players":null},{"server_id":141,"name":"Uncletopia | Sydney | 1 | All Maps","name_short":"syd-1","host":"syd-1.au.uncletopia.com","port":27015,"enabled":true,"region":"au","cc":"au","latitude":-33.865143,"longitude":151.2099,"reserved":0,"last_update":"0001-01-01T00:00:00Z","name_a2s":"Uncletopia | Sydney | 1 | All Maps","protocol":17,"map":"pl_swiftwater_final1","folder":"tf","game":"Team Fortress","app_id":440,"player_count":24,"max_players":24,"Bots":0,"server_type":"Dedicated","server_os":"Linux","password":true,"vac":true,"version":"7961495","steam_id":85568392924470001,"keywords":["nocrits","nodmgspread","payload","uncletopia"],"game_id":440,"stv_port":27016,"stv_name":"Uncletopia | Sydney | 1 | All Maps | STV","players":[{"user_id":156,"name":"saturation","steam_id":76561199457046392,"connected_time":5407000000000,"state":"active","ping":80},{"user_id":229,"name":"Dupiter","steam_id":76561198108820767,"connected_time":711000000000,"state":"active","ping":45},{"user_id":193,"name":"ViVi ‚òÑ","steam_id":76561198044727237,"connected_time":3091000000000,"state":"active","ping":54},{"user_id":187,"name":"michael","steam_id":76561198052848358,"connected_time":3505000000000,"state":"active","ping":65},{"user_id":216,"name":"Chooka","steam_id":76561197992307814,"connected_time":1491000000000,"state":"active","ping":81},{"user_id":218,"name":"smegmoid","steam_id":76561198060612098,"connected_time":1366000000000,"state":"active","ping":67},{"user_id":237,"name":"Christopher Gordon Gaming","steam_id":76561198336999112,"connected_time":300000000000,"state":"active","ping":45},{"user_id":233,"name":"Dan","steam_id":76561198005739224,"connected_time":511000000000,"state":"active","ping":68},{"user_id":239,"name":"mangorion","steam_id":76561199118001195,"connected_time":205000000000,"state":"active","ping":55},{"user_id":217,"name":"Hippity_Hoppity","steam_id":76561198861050395,"connected_time":1490000000000,"state":"active","ping":69},{"user_id":194,"name":"sweet mouse ‚òÑ","steam_id":76561198013779321,"connected_time":3090000000000,"state":"active","ping":58},{"user_id":202,"name":"no teles 4 u","steam_id":76561198018478297,"connected_time":2396000000000,"state":"active","ping":67},{"user_id":200,"name":"A Burnt Cheeseburger","steam_id":76561198044178223,"connected_time":2570000000000,"state":"active","ping":74},{"user_id":180,"name":"dr. sne","steam_id":76561198022485319,"connected_time":4433000000000,"state":"active","ping":59},{"user_id":197,"name":"Nugget","steam_id":76561197961747465,"connected_time":2756000000000,"state":"active","ping":86},{"user_id":203,"name":"sknude","steam_id":76561198136866711,"connected_time":2390000000000,"state":"active","ping":52},{"user_id":238,"name":"Minty Reefers","steam_id":76561198166254486,"connected_time":268000000000,"state":"active","ping":56},{"user_id":195,"name":"dubs","steam_id":76561197999326069,"connected_time":2959000000000,"state":"active","ping":68},{"user_id":227,"name":"BackyardBonanza19943214","steam_id":76561198383642609,"connected_time":939000000000,"state":"active","ping":66},{"user_id":232,"name":"Skree'kaw","steam_id":76561199415758131,"connected_time":641000000000,"state":"active","ping":66},{"user_id":240,"name":"dbx","steam_id":76561198034306834,"connected_time":126000000000,"state":"active","ping":48},{"user_id":223,"name":"bbooey","steam_id":76561198109272505,"connected_time":1252000000000,"state":"active","ping":61},{"user_id":236,"name":"Finios","steam_id":76561198209013071,"connected_time":381000000000,"state":"active","ping":52},{"user_id":170,"name":"Bhris Cumstead","steam_id":76561198046825292,"connected_time":5037000000000,"state":"active","ping":60}]},{"server_id":123,"name":"Uncletopia | Sydney | 2 | All Maps","name_short":"syd-2","host":"syd-1.au.uncletopia.com","port":27025,"enabled":true,"region":"au","cc":"au","latitude":-33.865143,"longitude":151.2099,"reserved":0,"last_update":"0001-01-01T00:00:00Z","name_a2s":"Uncletopia | Sydney | 2 | All Maps","protocol":17,"map":"pl_badwater","folder":"tf","game":"Team Fortress","app_id":440,"player_count":24,"max_players":24,"Bots":0,"server_type":"Dedicated","server_os":"Linux","password":true,"vac":true,"version":"7961495","steam_id":85568392924470002,"keywords":["nocrits","nodmgspread","payload","uncletopia"],"game_id":440,"stv_port":27026,"stv_name":"Uncletopia | Sydney | 2 | All Maps | STV","players":[{"user_id":142,"name":"bear128690","steam_id":76561199087356351,"connected_time":363000000000,"state":"active","ping":69},{"user_id":136,"name":"iM sheep intel","steam_id":76561198000568803,"connected_time":751000000000,"state":"active","ping":45},{"user_id":119,"name":"hydrogen bomb","steam_id":76561198132937542,"connected_time":1595000000000,"state":"active","ping":53},{"user_id":135,"name":"super battle droid","steam_id":76561198073922951,"connected_time":772000000000,"state":"active","ping":43},{"user_id":102,"name":"Captain Calamity","steam_id":76561198169940182,"connected_time":2071000000000,"state":"active","ping":62},{"user_id":128,"name":"Ajtuay","steam_id":76561198221550108,"connected_time":1215000000000,"state":"active","ping":49},{"user_id":133,"name":"rudra","steam_id":76561198067731912,"connected_time":1001000000000,"state":"active","ping":73},{"user_id":141,"name":"immateriale","steam_id":76561198026854668,"connected_time":430000000000,"state":"active","ping":32},{"user_id":139,"name":"H√∏se_","steam_id":76561198987926475,"connected_time":661000000000,"state":"active","ping":76},{"user_id":143,"name":"ecc√∂","steam_id":76561198090180844,"connected_time":345000000000,"state":"active","ping":53},{"user_id":89,"name":"[T√êK] KeRpaL","steam_id":76561197974427061,"connected_time":3147000000000,"state":"active","ping":53},{"user_id":105,"name":"EarlyElite4199","steam_id":76561198432308585,"connected_time":2042000000000,"state":"active","ping":47},{"user_id":150,"name":"Dr. Hoppity","steam_id":76561197999715646,"connected_time":61000000000,"state":"active","ping":59},{"user_id":108,"name":"Destroy Lonely","steam_id":76561198183714687,"connected_time":1971000000000,"state":"active","ping":42},{"user_id":140,"name":"upward slash","steam_id":76561198007947876,"connected_time":638000000000,"state":"active","ping":75},{"user_id":147,"name":"Connor","steam_id":76561198088318589,"connected_time":228000000000,"state":"active","ping":51},{"user_id":111,"name":"SwagLord1008 Flux","steam_id":76561198297850208,"connected_time":1880000000000,"state":"active","ping":65},{"user_id":153,"name":"miyamoto is daddy","steam_id":76561199483818230,"connected_time":1000000000,"state":"spawning","ping":54},{"user_id":151,"name":"Serceina","steam_id":76561197993240474,"connected_time":53000000000,"state":"active","ping":52},{"user_id":148,"name":"Daniel Chong (Del Davis)","steam_id":76561199009189725,"connected_time":214000000000,"state":"active","ping":86},{"user_id":114,"name":"Linear","steam_id":76561198273006011,"connected_time":1833000000000,"state":"active","ping":75},{"user_id":132,"name":"2200","steam_id":76561198048634605,"connected_time":1127000000000,"state":"active","ping":41},{"user_id":152,"name":"DIY Miracle","steam_id":76561198046228152,"connected_time":31000000000,"state":"active","ping":59},{"user_id":122,"name":"Really(Del Davis)","steam_id":76561198153397177,"connected_time":1534000000000,"state":"active","ping":55}]},{"server_id":395,"name":"Uncletopia | Sydney | 3 | All Maps","name_short":"syd-3","host":"syd-1.au.uncletopia.com","port":27035,"enabled":true,"region":"au","cc":"au","latitude":-33.865143,"longitude":151.2099,"reserved":0,"last_update":"0001-01-01T00:00:00Z","name_a2s":"Uncletopia | Sydney | 3 | All Maps","protocol":17,"map":"koth_highpass","folder":"tf","game":"Team Fortress","app_id":440,"player_count":4,"max_players":24,"Bots":0,"server_type":"Dedicated","server_os":"Linux","password":true,"vac":true,"version":"7961495","steam_id":85568392925194467,"keywords":["cp","nocrits","nodmgspread","uncletopia"],"game_id":440,"stv_port":27036,"stv_name":"Uncletopia | Sydney | 3 | All Maps | STV","players":[{"user_id":7,"name":"ILoveMyBees","steam_id":76561199074505018,"connected_time":453000000000,"state":"active","ping":67},{"user_id":8,"name":"OverTasked „ÉÉ","steam_id":76561198829465540,"connected_time":443000000000,"state":"active","ping":69},{"user_id":9,"name":"CodeShadow","steam_id":76561198208958145,"connected_time":433000000000,"state":"active","ping":75},{"user_id":10,"name":"mystogenplayz","steam_id":76561199247837007,"connected_time":376000000000,"state":"active","ping":71}]},{"server_id":396,"name":"Uncletopia | Sydney | 4 | All Maps","name_short":"syd-4","host":"syd-1.au.uncletopia.com","port":27045,"enabled":true,"region":"au","cc":"au","latitude":-33.865143,"longitude":151.2099,"reserved":0,"last_update":"0001-01-01T00:00:00Z","name_a2s":"Uncletopia | Sydney | 4 | All Maps","protocol":17,"map":"plr_hightower","folder":"tf","game":"Team Fortress","app_id":440,"player_count":2,"max_players":24,"Bots":0,"server_type":"Dedicated","server_os":"Linux","password":true,"vac":true,"version":"7961495","steam_id":85568392925397958,"keywords":["nocrits","nodmgspread","payload","uncletopia"],"game_id":440,"stv_port":27046,"stv_name":"Uncletopia | Sydney | 4 | All Maps | STV","players":[{"user_id":65,"name":"Lachy","steam_id":76561199039125185,"connected_time":622000000000,"state":"active","ping":152},{"user_id":51,"name":"Mikey","steam_id":76561198438203131,"connected_time":4510000000000,"state":"active","ping":60}]},{"server_id":58,"name":"Uncletopia | Sydney | 5 | Stopwatch","name_short":"syd-5","host":"syd-1.au.uncletopia.com","port":27055,"enabled":true,"region":"au","cc":"au","latitude":-33.865143,"longitude":151.2099,"reserved":0,"last_update":"0001-01-01T00:00:00Z","name_a2s":"Uncletopia | Sydney | 5 | Stopwatch","protocol":17,"map":"pl_frontier_final","folder":"tf","game":"Team Fortress","app_id":440,"player_count":0,"max_players":24,"Bots":0,"server_type":"Dedicated","server_os":"Linux","password":true,"vac":true,"version":"7961495","steam_id":85568392925397959,"keywords":["nocrits","nodmgspread","payload","uncletopia"],"game_id":440,"stv_port":27056,"stv_name":"Uncletopia | Sydney | 5 | Stopwatch | STV","players":null},{"server_id":59,"name":"Uncletopia | Sydney | 6 | Community","name_short":"syd-6","host":"syd-1.au.uncletopia.com","port":27065,"enabled":true,"region":"au","cc":"au","latitude":-33.865143,"longitude":151.2099,"reserved":0,"last_update":"0001-01-01T00:00:00Z","name_a2s":"Uncletopia | Sydney | 6 | Community","protocol":17,"map":"cp_sunshine","folder":"tf","game":"Team Fortress","app_id":440,"player_count":0,"max_players":24,"Bots":0,"server_type":"Dedicated","server_os":"Linux","password":true,"vac":true,"version":"7961495","steam_id":85568392925397960,"keywords":["cp","nocrits","nodmgspread","uncletopia"],"game_id":440,"stv_port":27066,"stv_name":"Uncletopia | Sydney | 6 | Community | STV","players":null},{"server_id":49,"name":"Uncletopia | Warsaw | 1 | One Thousand Uncles","name_short":"waw-1","host":"waw-1.pl.uncletopia.com","port":27015,"enabled":true,"region":"eu","cc":"pl","latitude":52.2297,"longitude":21.017532,"reserved":0,"last_update":"0001-01-01T00:00:00Z","name_a2s":"Uncletopia | Warsaw | 1 | One Thousand Uncles","protocol":17,"map":"koth_highpass","folder":"tf","game":"Team Fortress","app_id":440,"player_count":18,"max_players":32,"Bots":16,"server_type":"Dedicated","server_os":"Linux","password":true,"vac":true,"version":"7961495","steam_id":85568392925397850,"keywords":["alltalk","bots","cp","danepve","increased_maxplayers","nocrits","norespawntime","uncletopia"],"game_id":440,"stv_port":0,"stv_name":"","players":[{"user_id":37,"name":"SaSSolino","steam_id":76561198011308018,"connected_time":1646000000000,"state":"active","ping":64},{"user_id":58,"name":"LORD OF HELL","steam_id":76561199043574712,"connected_time":537000000000,"state":"active","ping":39}]},{"server_id":50,"name":"Uncletopia | Warsaw | 2 | One Thousand Uncles","name_short":"waw-2","host":"waw-1.pl.uncletopia.com","port":27025,"enabled":true,"region":"eu","cc":"pl","latitude":52.2297,"longitude":21.017532,"reserved":0,"last_update":"0001-01-01T00:00:00Z","name_a2s":"Uncletopia | Warsaw | 2 | One Thousand Uncles","protocol":17,"map":"pl_goldrush","folder":"tf","game":"Team Fortress","app_id":440,"player_count":30,"max_players":32,"Bots":16,"server_type":"Dedicated","server_os":"Linux","password":true,"vac":true,"version":"7961495","steam_id":85568392925397851,"keywords":["alltalk","bots","danepve","increased_maxplayers","nocrits","norespawntime","payload","uncletopia"],"game_id":440,"stv_port":0,"stv_name":"","players":[{"user_id":155,"name":"Nika","steam_id":76561198355965587,"connected_time":2208000000000,"state":"active","ping":86},{"user_id":206,"name":"„Äå jeff „Äç","steam_id":76561198048816757,"connected_time":630000000000,"state":"active","ping":83},{"user_id":76,"name":"Yuzu","steam_id":76561198121694613,"connected_time":10369000000000,"state":"active","ping":60},{"user_id":77,"name":"JVLIVS","steam_id":76561198366167099,"connected_time":10361000000000,"state":"active","ping":61},{"user_id":149,"name":"Jennifer","steam_id":76561199474556920,"connected_time":3590000000000,"state":"active","ping":110},{"user_id":207,"name":"sam-","steam_id":76561198013770973,"connected_time":531000000000,"state":"active","ping":89},{"user_id":94,"name":"Dont Rely on me, im very bad","steam_id":76561198362116755,"connected_time":6823000000000,"state":"active","ping":179},{"user_id":157,"name":"Dark Wizart","steam_id":76561198377689439,"connected_time":1922000000000,"state":"active","ping":52},{"user_id":208,"name":"GoCommitGibby","steam_id":76561198853933595,"connected_time":459000000000,"state":"active","ping":88},{"user_id":168,"name":"board","steam_id":76561198031682308,"connected_time":1320000000000,"state":"active","ping":62},{"user_id":209,"name":"Uzi","steam_id":76561198436817109,"connected_time":375000000000,"state":"active","ping":83},{"user_id":213,"name":"‚ò≠W≈Çodzimierz Lenin‚ò≠","steam_id":76561199211351609,"connected_time":12000000000,"state":"active","ping":64},{"user_id":167,"name":"Sato","steam_id":76561199042847761,"connected_time":1510000000000,"state":"active","ping":131},{"user_id":187,"name":"SantiTzePug","steam_id":76561199049615996,"connected_time":1155000000000,"state":"active","ping":77}]},{"server_id":51,"name":"Uncletopia | Warsaw | 3 | All Maps","name_short":"waw-3","host":"waw-1.pl.uncletopia.com","port":27035,"enabled":true,"region":"eu","cc":"pl","latitude":52.2297,"longitude":21.017532,"reserved":0,"last_update":"0001-01-01T00:00:00Z","name_a2s":"Uncletopia | Warsaw | 3 | All Maps","protocol":17,"map":"plr_hightower","folder":"tf","game":"Team Fortress","app_id":440,"player_count":0,"max_players":24,"Bots":0,"server_type":"Dedicated","server_os":"Linux","password":true,"vac":true,"version":"7961495","steam_id":85568392925397852,"keywords":["nocrits","nodmgspread","payload","uncletopia"],"game_id":440,"stv_port":27036,"stv_name":"Uncletopia | Warsaw | 3 | All Maps | STV","players":null},{"server_id":52,"name":"Uncletopia | Warsaw | 4 | All Maps","name_short":"waw-4","host":"waw-1.pl.uncletopia.com","port":27045,"enabled":true,"region":"eu","cc":"pl","latitude":52.2297,"longitude":21.017532,"reserved":0,"last_update":"0001-01-01T00:00:00Z","name_a2s":"Uncletopia | Warsaw | 4 | All Maps","protocol":17,"map":"cp_coldfront","folder":"tf","game":"Team Fortress","app_id":440,"player_count":0,"max_players":24,"Bots":0,"server_type":"Dedicated","server_os":"Linux","password":true,"vac":true,"version":"7961495","steam_id":85568392925397853,"keywords":["cp","nocrits","nodmgspread","uncletopia"],"game_id":440,"stv_port":27046,"stv_name":"Uncletopia | Warsaw | 4 | All Maps | STV","players":null},{"server_id":53,"name":"Uncletopia | Warsaw | 5 | Stopwatch","name_short":"waw-5","host":"waw-1.pl.uncletopia.com","port":27055,"enabled":true,"region":"eu","cc":"pl","latitude":52.2297,"longitude":21.017532,"reserved":0,"last_update":"0001-01-01T00:00:00Z","name_a2s":"Uncletopia | Warsaw | 5 | Stopwatch","protocol":17,"map":"workshop/koth_product_final.ugc454272353","folder":"tf","game":"Team Fortress","app_id":440,"player_count":0,"max_players":24,"Bots":0,"server_type":"Dedicated","server_os":"Linux","password":true,"vac":true,"version":"7961495","steam_id":85568392925397854,"keywords":["cp","nocrits","nodmgspread","uncletopia"],"game_id":440,"stv_port":27056,"stv_name":"Uncletopia | Warsaw | 5 | Stopwatch | STV","players":null},{"server_id":54,"name":"Uncletopia | Warsaw | 6 | Community","name_short":"waw-6","host":"waw-1.pl.uncletopia.com","port":27065,"enabled":true,"region":"eu","cc":"pl","latitude":52.2297,"longitude":21.017532,"reserved":0,"last_update":"0001-01-01T00:00:00Z","name_a2s":"Uncletopia | Warsaw | 6 | Community","protocol":17,"map":"workshop/pl_badwater_pro_v12.ugc2142942074","folder":"tf","game":"Team Fortress","app_id":440,"player_count":0,"max_players":24,"Bots":0,"server_type":"Dedicated","server_os":"Linux","password":true,"vac":true,"version":"7961495","steam_id":85568392925397856,"keywords":["nocrits","nodmgspread","payload","uncletopia"],"game_id":440,"stv_port":27066,"stv_name":"Uncletopia | Warsaw | 6 | Community | STV","players":null}]}