{"status":true,"message":"","result":[{"server_id":9,"name":"Uncletopia | Atlanta | 1 | All Maps","name_short":"atl-1","host":"atl-1.us.uncletopia.com","port":27015,"enabled":true,"region":"us-east","cc":"us","latitude":33.753746,"longitude":-84.38633,"reserved":0,"last_update":"0001-01-01T00:00:00Z","name_a2s":"Uncletopia | Atlanta | 1 | All Maps","protocol":17,"map":"pl_swiftwater_final1","folder":"tf","game":"Team Fortress","app_id":440,"player_count":17,"max_players":24,"Bots":0,"server_type":"Dedicated","server_os":"Linux","password":true,"vac":true,"version":"7961495","steam_id":85568392924469982,"keywords":["nocrits","nodmgspread","payload","uncletopia"],"game_id":440,"stv_port":27016,"stv_name":"Uncletopia | Atlanta | 1 | All Maps | STV","players":[{"user_id":666,"name":"Nasatron7","steam_id":76561198217185169,"connected_time":2009000000000,"state":"active","ping":54},{"user_id":698,"name":"MW","steam_id":76561198028481109,"connected_time":102000000000,"state":"active","ping":232},{"user_id":687,"name":"Nash","steam_id":76561198056871257,"connected_time":699000000000,"state":"active","ping":75},{"user_id":612,"name":"rose","steam_id":76561198048882285,"connected_time":5300000000000,"state":"active","ping":75},{"user_id":690,"name":"Ojen","steam_id":76561197998414482,"connected_time":440000000000,"state":"active","ping":75},{"user_id":697,"name":"Cherubi","steam_id":76561199015772917,"connected_time":191000000000,"state":"active","ping":105},{"user_id":638,"name":"BIG HOG","steam_id":76561198079923652,"connected_time":4302000000000,"state":"active","ping":61},{"user_id":699,"name":"Belloq","steam_id":76561198060279052,"connected_time":81000000000,"state":"active","ping":59},{"user_id":700,"name":"Galactamarx","steam_id":76561198028065755,"connected_time":72000000000,"state":"active","ping":90},{"user_id":693,"name":"Tammy!","steam_id":76561198322969864,"connected_time":332000000000,"state":"active","ping":76},{"user_id":695,"name":"Foolie","steam_id":76561198291741747,"connected_time":248000000000,"state":"active","ping":77},{"user_id":636,"name":"snail from ear AT(cochlea)","steam_id":76561198184900753,"connected_time":4357000000000,"state":"active","ping":74},{"user_id":649,"name":"Onyx","steam_id":76561198275349640,"connected_time":3488000000000,"state":"active","ping":78},{"user_id":609,"name":"joe","steam_id":76561198045781320,"connected_time":5783000000000,"state":"spawning","ping":67},{"user_id":678,"name":"warren","steam_id":76561198136331136,"connected_time":1589000000000,"state":"active","ping":75},{"user_id":662,"name":"∰","steam_id":76561198064424202,"connected_time":2986000000000,"state":"active","ping":48},{"user_id":661,"name":"jayyteeAT #fleon","steam_id":76561198059575962,"connected_time":3011000000000,"state":"active","ping":76}]},{"server_id":104,"name":"Uncletopia | Atlanta | 2 | All Maps","name_short":"atl-2","host":"atl-1.us.uncletopia.com","port":27025,"enabled":true,"region":"us-east","cc":"us","latitude":33.753746,"longitude":-84.38633,"reserved":0,"last_update":"0001-01-01T00:00:00Z","name_a2s":"Uncletopia | Atlanta | 2 | All Maps","protocol":17,"map":"cp_snakewater_final1","folder":"tf","game":"Team Fortress","app_id":440,"player_count":1,"max_players":24,"Bots":0,"server_type":"Dedicated","server_os":"Linux","password":true,"vac":true,"version":"7961495","steam_id":85568392924469983,"keywords":["cp","nocrits","nodmgspread","uncletopia"],"game_id":440,"stv_port":27026,"stv_name":"Uncletopia | Atlanta | 2 | All Maps | STV","players":[{"user_id":495,"name":"Big Titty Goth Boy","steam_id":76561198429471475,"connected_time":34000000000,"state":"active","ping":75}]},{"server_id":400,"name":"Uncletopia | Atlanta | 3 | Stopwatch","name_short":"atl-3","host":"atl-1.us.uncletopia.com","port":27035,"enabled":true,"region":"us-east","cc":"us","latitude":33.753746,"longitude":-84.38633,"reserved":0,"last_update":"0001-01-01T00:00:00Z","name_a2s":"Uncletopia | Atlanta | 3 | Stopwatch","protocol":17,"map":"workshop/koth_clearcut_b15.ugc2107050255","folder":"tf","game":"Team Fortress","app_id":440,"player_count":0,"max_players":24,"Bots":0,"server_type":"Dedicated","server_os":"Linux","password":true,"vac":true,"version":"7961495","steam_id":85568392924515187,"keywords":["cp","nocrits","nodmgspread","uncletopia"],"game_id":440,"stv_port":27036,"stv_name":"Uncletopia | Atlanta | 3 | Stopwatch | STV","players":null},{"server_id":401,"name":"Uncletopia | Atlanta | 4 | Community","name_short":"atl-4","host":"atl-1.us.uncletopia.com","port":27045,"enabled":true,"region":"us-east","cc":"us","latitude":33.753746,"longitude":-84.38633,"reserved":0,"last_update":"0001-01-01T00:00:00Z","name_a2s":"Uncletopia | Atlanta | 4 | Community","protocol":17,"map":"cp_sunshine","folder":"tf","game":"Team Fortress","app_id":440,"player_count":0,"max_players":24,"Bots":0,"server_type":"Dedicated","server_os":"Linux","password":true,"vac":true,"version":"7961495","steam_id":85568392924515188,"keywords":["cp","nocrits","nodmgspread","uncletopia"],"game_id":440,"stv_port":27046,"stv_name":"Uncletopia | Atlanta | 4 | Community | STV","players":null},{"server_id":2,"name":"Uncletopia | Chicago | 1 | All Maps","name_short":"chi-1","host":"chi-1.us.uncletopia.com","port":27015,"enabled":true,"region":"us-central","cc":"us","latitude":41.881832,"longitude":-87.62318,"reserved":0,"last_update":"0001-01-01T00:00:00Z","name_a2s":"Uncletopia | Chicago | 1 | All Maps","protocol":17,"map":"pl_frontier_final","folder":"tf","game":"Team Fortress","app_id":440,"player_count":24,"max_players":24,"Bots":0,"server_type":"Dedicated","server_os":"Linux","password":true,"vac":true,"version":"7961495","steam_id":85568392924469984,"keywords":["nocrits","nodmgspread","payload","uncletopia"],"game_id":440,"stv_port":27016,"stv_name":"Uncletopia | Chicago | 1 | All Maps | STV","players":[{"user_id":969,"name":"ms. capgras","steam_id":76561199080209996,"connected_time":3007000000000,"state":"active","ping":46},{"user_id":984,"name":"Philomentus","steam_id":76561198067714196,"connected_time":1889000000000,"state":"active","ping":70},{"user_id":971,"name":"Cliffigriff","steam_id":76561198121924499,"connected_time":2561000000000,"state":"active","ping":75},{"user_id":985,"name":"Eloi","steam_id":76561198081193565,"connected_time":1845000000000,"state":"active","ping":83},{"user_id":970,"name":"Blargh","steam_id":76561198044095816,"connected_time":2801000000000,"state":"active","ping":60},{"user_id":987,"name":"Larry Laffer","steam_id":76561198046832069,"connected_time":1402000000000,"state":"active","ping":59},{"user_id":1001,"name":"48","steam_id":76561198156422760,"connected_time":125000000000,"state":"active","ping":59},{"user_id":993,"name":"VidzCMC","steam_id":76561198848142973,"connected_time":1005000000000,"state":"active","ping":52},{"user_id":988,"name":"JustANormalOlive-ia","steam_id":76561198809645656,"connected_time":1349000000000,"state":"active","ping":77},{"user_id":989,"name":"Quirinus","steam_id":76561198011516889,"connected_time":1222000000000,"state":"active","ping":52},{"user_id":991,"name":"Artic_Ryuu","steam_id":76561198182194918,"connected_time":1100000000000,"state":"active","ping":98},{"user_id":975,"name":"Ashton","steam_id":76561198300590302,"connected_time":2474000000000,"state":"active","ping":67},{"user_id":999,"name":"I love you","steam_id":76561198250371792,"connected_time":355000000000,"state":"active","ping":60},{"user_id":953,"name":"debin","steam_id":76561198070711217,"connected_time":3904000000000,"state":"active","ping":55},{"user_id":1000,"name":"Tibalt Nyahuma","steam_id":76561198034779431,"connected_time":342000000000,"state":"active","ping":80},{"user_id":994,"name":"SgtSardine","steam_id":76561198254729868,"connected_time":981000000000,"state":"active","ping":106},{"user_id":976,"name":"Yoshimelon","steam_id":76561198253054325,"connected_time":2467000000000,"state":"active","ping":63},{"user_id":995,"name":"Mainframe","steam_id":76561198097154599,"connected_time":978000000000,"state":"active","ping":71},{"user_id":980,"name":"Rat Bastard","steam_id":76561198153443658,"connected_time":2091000000000,"state":"active","ping":85},{"user_id":996,"name":"TallBadUserName","steam_id":76561198399685508,"connected_time":931000000000,"state":"active","ping":82},{"user_id":998,"name":"MasterGoop","steam_id":76561198285594777,"connected_time":925000000000,"state":"active","ping":93},{"user_id":959,"name":"The Great Eagle Scourge of 1822","steam_id":76561198325086209,"connected_time":3717000000000,"state":"active","ping":115},{"user_id":978,"name":"Dunkle","steam_id":76561198041903573,"connected_time":2417000000000,"state":"active","ping":91},{"user_id":983,"name":"SHADY SWEATER SALESMAN","steam_id":76561198014616865,"connected_time":2034000000000,"state":"active","ping":71}]},{"server_id":106,"name":"Uncletopia | Chicago | 2 | All Maps","name_short":"chi-2","host":"chi-1.us.uncletopia.com","port":27025,"enabled":true,"region":"us-central","cc":"us","latitude":41.881832,"longitude":-87.62318,"reserved":0,"last_update":"0001-01-01T00:00:00Z","name_a2s":"Uncletopia | Chicago | 2 | All Maps","protocol":17,"map":"cp_dustbowl","folder":"tf","game":"Team Fortress","app_id":440,"player_count":24,"max_players":24,"Bots":0,"server_type":"Dedicated","server_os":"Linux","password":true,"vac":true,"version":"7961495","steam_id":85568392924469985,"keywords":["cp","nocrits","nodmgspread","uncletopia"],"game_id":440,"stv_port":27026,"stv_name":"Uncletopia | Chicago | 2 | All Maps | STV","players":[{"user_id":653,"name":"big ass baby ass head","steam_id":76561198353456379,"connected_time":274000000000,"state":"active","ping":65},{"user_id":659,"name":"Badrian","steam_id":76561199262957649,"connected_time":46000000000,"state":"active","ping":188},{"user_id":631,"name":"Jim The Stranger","steam_id":76561198075670724,"connected_time":1988000000000,"state":"active","ping":66},{"user_id":654,"name":"name","steam_id":76561198040982397,"connected_time":205000000000,"state":"active","ping":80},{"user_id":658,"name":"Kaelinahave","steam_id":76561199481952125,"connected_time":96000000000,"state":"active","ping":191},{"user_id":633,"name":"Dofyx18","steam_id":76561198065552899,"connected_time":1943000000000,"state":"active","ping":107},{"user_id":621,"name":"monkey nuts on big choppers","steam_id":76561197984579630,"connected_time":3335000000000,"state":"active","ping":94},{"user_id":634,"name":"EggBoi","steam_id":76561198122691694,"connected_time":1922000000000,"state":"active","ping":200},{"user_id":521,"name":"zpalmtree","steam_id":76561198134307620,"connected_time":10985000000000,"state":"active","ping":58},{"user_id":626,"name":"LAP 500 VICTORY","steam_id":76561198051421643,"connected_time":2744000000000,"state":"active","ping":60},{"user_id":646,"name":"Cat","steam_id":76561198132362099,"connected_time":1682000000000,"state":"active","ping":116},{"user_id":651,"name":"HumFreY","steam_id":76561198076639682,"connected_time":307000000000,"state":"active","ping":75},{"user_id":641,"name":"eeebydeeby","steam_id":76561198135736718,"connected_time":1815000000000,"state":"active","ping":76},{"user_id":613,"name":"LacunaModusArdent","steam_id":76561198133102865,"connected_time":3793000000000,"state":"active","ping":63},{"user_id":528,"name":"Mufalito","steam_id":76561198951889482,"connected_time":10560000000000,"state":"active","ping":130},{"user_id":648,"name":"flip flop man(Lee)","steam_id":76561198374860339,"connected_time":1323000000000,"state":"active","ping":159},{"user_id":640,"name":"Coms","steam_id":76561198204995668,"connected_time":1823000000000,"state":"active","ping":77},{"user_id":629,"name":"puke","steam_id":76561197999279693,"connected_time":2396000000000,"state":"active","ping":77},{"user_id":656,"name":"wetto makaveli","steam_id":76561198224811504,"connected_time":165000000000,"state":"active","ping":63},{"user_id":623,"name":"kittycatkilla","steam_id":76561198277979851,"connected_time":3081000000000,"state":"active","ping":84},{"user_id":660,"name":"roast pig with apple in mouth","steam_id":76561198051353647,"connected_time":44000000000,"state":"active","ping":65},{"user_id":650,"name":"Flap","steam_id":76561198078889633,"connected_time":352000000000,"state":"active","ping":63},{"user_id":657,"name":"gugcat","steam_id":76561198129822860,"connected_time":114000000000,"state":"active","ping":91},{"user_id":647,"name":"Lemon Soda","steam_id":76561198140208761,"connected_time":1662000000000,"state":"active","ping":68}]},{"server_id":402,"name":"Uncletopia | Chicago | 3 | All Maps","name_short":"chi-3","host":"chi-1.us.uncletopia.com","port":27035,"enabled":true,"region":"us-central","cc":"us","latitude":41.881832,"longitude":-87.62318,"reserved":0,"last_update":"0001-01-01T00:00:00Z","name_a2s":"Uncletopia | Chicago | 3 | All Maps","protocol":17,"map":"koth_highpass","folder":"tf","game":"Team Fortress","app_id":440,"player_count":0,"max_players":24,"Bots":0,"server_type":"Dedicated","server_os":"Linux","password":true,"vac":true,"version":"7961495","steam_id":85568392924515191,"keywords":["cp","nocrits","nodmgspread","uncletopia"],"game_id":440,"stv_port":27036,"stv_name":"Uncletopia | Chicago | 3 | All Maps | STV","players":null},{"server_id":403,"name":"Uncletopia | Chicago | 4 | All Maps","name_short":"chi-4","host":"chi-1.us.uncletopia.com","port":27045,"enabled":true,"region":"us-central","cc":"us","latitude":41.881832,"longitude":-87.62318,"reserved":0,"last_update":"0001-01-01T00:00:00Z","name_a2s":"Uncletopia | Chicago | 4 | All Maps","protocol":17,"map":"pl_swiftwater_final1","folder":"tf","game":"Team Fortress","app_id":440,"player_count":5,"max_players":24,"Bots":0,"server_type":"Dedicated","server_os":"Linux","password":true,"vac":true,"version":"7961495","steam_id":85568392924515193,"keywords":["nocrits","nodmgspread","payload","uncletopia"],"game_id":440,"stv_port":27046,"stv_name":"Uncletopia | Chicago | 4 | All Maps | STV","players":[{"user_id":716,"name":"toe™","steam_id":76561198137404791,"connected_time":1999000000000,"state":"active","ping":99},{"user_id":731,"name":"Mitchell","steam_id":76561197972922328,"connected_time":145000000000,"state":"active","ping":100},{"user_id":712,"name":"QUEERBO","steam_id":76561198422181236,"connected_time":2216000000000,"state":"active","ping":67},{"user_id":710,"name":"Zont","steam_id":76561197985526581,"connected_time":2260000000000,"state":"active","ping":65},{"user_id":674,"name":"I have a serious skill issue...","steam_id":76561198074992626,"connected_time":4560000000000,"state":"active","ping":54}]},{"server_id":36,"name":"Uncletopia | Chicago | 5 | All Maps","name_short":"chi-5","host":"chi-2.us.uncletopia.com","port":27015,"enabled":true,"region":"us-central","cc":"us","latitude":41.881832,"longitude":-87.62318,"reserved":0,"last_update":"0001-01-01T00:00:00Z","name_a2s":"Uncletopia | Chicago | 5 | All Maps","protocol":17,"map":"koth_lakeside_final","folder":"tf","game":"Team Fortress","app_id":440,"player_count":0,"max_players":24,"Bots":0,"server_type":"Dedicated","server_os":"Linux","password":true,"vac":true,"version":"7961495","steam_id":85568392924866362,"keywords":["cp","nocrits","nodmgspread","uncletopia"],"game_id":440,"stv_port":27016,"stv_name":"Uncletopia | Chicago | 5 | All Maps | STV","players":null},{"server_id":37,"name":"Uncletopia | Chicago | 6 | All Maps","name_short":"chi-6","host":"chi-2.us.uncletopia.com","port":27025,"enabled":true,"region":"us-central","cc":"us","latitude":41.881832,"longitude":-87.62318,"reserved":0,"last_update":"0001-01-01T00:00:00Z","name_a2s":"Uncletopia | Chicago | 6 | All Maps","protocol":17,"map":"pl_upward","folder":"tf","game":"Team Fortress","app_id":440,"player_count":4,"max_players":24,"Bots":0,"server_type":"Dedicated","server_os":"Linux","password":true,"vac":true,"version":"7961495","steam_id":85568392924866363,"keywords":["nocrits","nodmgspread","payload","uncletopia"],"game_id":440,"stv_port":27026,"stv_name":"Uncletopia | Chicago | 6 | All Maps | STV","players":[{"user_id":483,"name":"+Gummy+","steam_id":76561199200969139,"connected_time":3991000000000,"state":"active","ping":111},{"user_id":486,"name":"Burny Sanders","steam_id":76561197961879048,"connected_time":1883000000000,"state":"active","ping":60},{"user_id":419,"name":"Capitán Äxis-Flores Kuroki","steam_id":76561198353865006,"connected_time":11184000000000,"state":"active","ping":71},{"user_id":420,"name":"tubby","steam_id":76561198174982661,"connected_time":11171000000000,"state":"active","ping":83}]},{"server_id":38,"name":"Uncletopia | Chicago | 7 | Stopwatch","name_short":"chi-7","host":"chi-2.us.uncletopia.com","port":27035,"enabled":true,"region":"us-central","cc":"us","latitude":41.881832,"longitude":-87.62318,"reserved":0,"last_update":"0001-01-01T00:00:00Z","name_a2s":"Uncletopia | Chicago | 7 | Stopwatch","protocol":17,"map":"workshop/koth_ramjam_rc1.ugc459778887","folder":"tf","game":"Team Fortress","app_id":440,"player_count":0,"max_players":24,"Bots":0,"server_type":"Dedicated","server_os":"Linux","password":true,"vac":true,"version":"7961495","steam_id":85568392924866364,"keywords":["cp","nocrits","nodmgspread","uncletopia"],"game_id":440,"stv_port":27036,"stv_name":"Uncletopia | Chicago | 7 | Stopwatch | STV","players":null},{"server_id":39,"name":"Uncletopia | Chicago | 8 | Community","name_short":"chi-8","host":"chi-2.us.uncletopia.com","port":27045,"enabled":true,"region":"us-central","cc":"us","latitude":41.881832,"longitude":-87.62318,"reserved":0,"last_update":"0001-01-01T00:00:00Z","name_a2s":"Uncletopia | Chicago | 8 | Community","protocol":17,"map":"workshop/pl_cactuscanyon_redux_final2.ugc2579644293","folder":"tf","game":"Team Fortress","app_id":440,"player_count":0,"max_players":24,"Bots":0,"server_type":"Dedicated","server_os":"Linux","password":true,"vac":true,"version":"7961495","steam_id":85568392924866365,"keywords":["nocrits","nodmgspread","payload","uncletopia"],"game_id":440,"stv_port":27046,"stv_name":"Uncletopia | Chicago | 8 | Community | STV","players":null},{"server_id":8,"name":"Uncletopia | Dallas | 1 | All Maps","name_short":"dal-1","host":"dal-1.us.uncletopia.com","port":27015,"enabled":true,"region":"us-central","cc":"us","latitude":32.779167,"longitude":-96.80889,"reserved":0,"last_update":"0001-01-01T00:00:00Z","name_a2s":"Uncletopia | Dallas | 1 | All Maps","protocol":17,"map":"koth_viaduct","folder":"tf","game":"Team Fortress","app_id":440,"player_count":24,"max_players":24,"Bots":0,"server_type":"Dedicated","server_os":"Linux","password":true,"vac":true,"version":"7961495","steam_id":85568392924469986,"keywords":["cp","nocrits","nodmgspread","uncletopia"],"game_id":440,"stv_port":27016,"stv_name":"Uncletopia | Dallas | 1 | All Maps | STV","players":[{"user_id":563,"name":"NexFrost","steam_id":76561197985774837,"connected_time":794000000000,"state":"active","ping":40},{"user_id":564,"name":"Siah","steam_id":76561197990045774,"connected_time":735000000000,"state":"active","ping":110},{"user_id":565,"name":"Punchy","steam_id":76561198997979373,"connected_time":728000000000,"state":"active","ping":79},{"user_id":566,"name":"Kantamoe","steam_id":76561198046661611,"connected_time":607000000000,"state":"active","ping":79},{"user_id":567,"name":"Creature","steam_id":76561198194585781,"connected_time":599000000000,"state":"active","ping":79},{"user_id":562,"name":"Pizza Party","steam_id":76561198165730754,"connected_time":904000000000,"state":"active","ping":96},{"user_id":575,"name":"EMBRYOGLYPH","steam_id":76561198167583291,"connected_time":284000000000,"state":"active","ping":121},{"user_id":553,"name":"Thunder","steam_id":76561198097721532,"connected_time":2060000000000,"state":"active","ping":77},{"user_id":540,"name":"my b","steam_id":76561198007464245,"connected_time":2614000000000,"state":"active","ping":78},{"user_id":568,"name":"Weed Dealer","steam_id":76561198418604400,"connected_time":598000000000,"state":"active","ping":109},{"user_id":576,"name":"mudspaw","steam_id":76561198101327448,"connected_time":245000000000,"state":"active","ping":91},{"user_id":542,"name":"Franticraven177","steam_id":76561198334105579,"connected_time":2567000000000,"state":"active","ping":74},{"user_id":548,"name":"cheesebooger","steam_id":76561198041770884,"connected_time":2305000000000,"state":"active","ping":79},{"user_id":572,"name":"Scorch_","steam_id":76561197977611078,"connected_time":491000000000,"state":"active","ping":84},{"user_id":555,"name":"phantom","steam_id":76561197963860777,"connected_time":1497000000000,"state":"active","ping":77},{"user_id":573,"name":"shakoiwa","steam_id":76561199059441773,"connected_time":456000000000,"state":"active","ping":86},{"user_id":577,"name":"Gwuf","steam_id":76561198091503282,"connected_time":77000000000,"state":"active","ping":104},{"user_id":545,"name":"Pip","steam_id":76561198044944326,"connected_time":2538000000000,"state":"active","ping":86},{"user_id":503,"name":"Pie™","steam_id":76561198158312625,"connected_time":5346000000000,"state":"active","ping":130},{"user_id":574,"name":"Grandpa Baozhai","steam_id":76561198086667725,"connected_time":432000000000,"state":"active","ping":110},{"user_id":527,"name":"Cloey","steam_id":76561199161591235,"connected_time":3653000000000,"state":"active","ping":61},{"user_id":570,"name":"The Horselords and Animal Gods","steam_id":76561197975094050,"connected_time":562000000000,"state":"active","ping":87},{"user_id":530,"name":"CBKain","steam_id":76561198075562546,"connected_time":3521000000000,"state":"active","ping":95},{"user_id":571,"name":"Rafl","steam_id":76561198055222756,"connected_time":555000000000,"state":"active","ping":45}]},{"server_id":108,"name":"Uncletopia | Dallas | 2 | All Maps","name_short":"dal-2","host":"dal-1.us.uncletopia.com","port":27025,"enabled":true,"region":"us-central","cc":"us","latitude":32.779167,"longitude":-96.80889,"reserved":0,"last_update":"0001-01-01T00:00:00Z","name_a2s":"Uncletopia | Dallas | 2 | All Maps","protocol":17,"map":"pl_swiftwater_final1","folder":"tf","game":"Team Fortress","app_id":440,"player_count":24,"max_players":24,"Bots":0,"server_type":"Dedicated","server_os":"Linux","password":true,"vac":true,"version":"7961495","steam_id":85568392924469988,"keywords":["nocrits","nodmgspread","payload","uncletopia"],"game_id":440,"stv_port":27026,"stv_name":"Uncletopia | Dallas | 2 | All Maps | STV","players":[{"user_id":681,"name":"Neato!","steam_id":76561198043548668,"connected_time":1890000000000,"state":"active","ping":73},{"user_id":690,"name":"Russell","steam_id":76561198024159373,"connected_time":1332000000000,"state":"active","ping":75},{"user_id":705,"name":"Team Fartpiss Poo","steam_id":76561199163591880,"connected_time":423000000000,"state":"active","ping":89},{"user_id":664,"name":"plink","steam_id":76561198057829889,"connected_time":3561000000000,"state":"active","ping":52},{"user_id":684,"name":"HOVY GAMING (REAL)","steam_id":76561199210311096,"connected_time":1821000000000,"state":"active","ping":113},{"user_id":617,"name":"The Caretaker","steam_id":76561198125241411,"connected_time":7061000000000,"state":"active","ping":101},{"user_id":709,"name":"goopgrabber","steam_id":76561199029951083,"connected_time":142000000000,"state":"active","ping":85},{"user_id":698,"name":"daemon","steam_id":76561198001541433,"connected_time":527000000000,"state":"active","ping":75},{"user_id":650,"name":"Jolly #Murdererrights","steam_id":76561198064214000,"connected_time":5443000000000,"state":"active","ping":85},{"user_id":655,"name":"Hitori Gotou","steam_id":76561199067734053,"connected_time":4866000000000,"state":"active","ping":100},{"user_id":679,"name":"bongwater","steam_id":76561198101899047,"connected_time":2123000000000,"state":"active","ping":76},{"user_id":699,"name":"Jeremy","steam_id":76561198286240347,"connected_time":524000000000,"state":"active","ping":87},{"user_id":700,"name":"Strange Festive Femboy","steam_id":76561198050385093,"connected_time":519000000000,"state":"active","ping":109},{"user_id":676,"name":"Zesty Zucchini Ziti","steam_id":76561198092494136,"connected_time":2333000000000,"state":"active","ping":45},{"user_id":674,"name":"the scranton dirt smoker","steam_id":76561198305796131,"connected_time":2822000000000,"state":"active","ping":65},{"user_id":668,"name":"Silly Shark","steam_id":76561198130714378,"connected_time":3436000000000,"state":"active","ping":116},{"user_id":687,"name":"Soap","steam_id":76561198065339248,"connected_time":1622000000000,"state":"active","ping":83},{"user_id":707,"name":"Sweater-Fan","steam_id":76561199389567214,"connected_time":324000000000,"state":"active","ping":63},{"user_id":669,"name":"Bones0010","steam_id":76561198096186958,"connected_time":3430000000000,"state":"active","ping":70},{"user_id":701,"name":"elder scrolls 6","steam_id":76561198113364714,"connected_time":517000000000,"state":"active","ping":81},{"user_id":702,"name":"zod","steam_id":76561198071374501,"connected_time":497000000000,"state":"active","ping":44},{"user_id":703,"name":"Descenso","steam_id":76561198059290812,"connected_time":480000000000,"state":"active","ping":132},{"user_id":710,"name":"Gardangle","steam_id":76561198394173831,"connected_time":140000000000,"state":"active","ping":95},{"user_id":695,"name":"Trail","steam_id":76561198777107076,"connected_time":1013000000000,"state":"active","ping":47}]},{"server_id":404,"name":"Uncletopia | Dallas | 3 | All Maps","name_short":"dal-3","host":"dal-1.us.uncletopia.com","port":27035,"enabled":true,"region":"us-central","cc":"us","latitude":32.779167,"longitude":-96.80889,"reserved":0,"last_update":"0001-01-01T00:00:00Z","name_a2s":"Uncletopia | Dallas | 3 | All Maps","protocol":17,"map":"ctf_doublecross","folder":"tf","game":"Team Fortress","app_id":440,"player_count":0,"max_players":24,"Bots":0,"server_type":"Dedicated","server_os":"Linux","password":true,"vac":true,"version":"7961495","steam_id":85568392924515219,"keywords":["ctf","nocrits","nodmgspread","uncletopia"],"game_id":440,"stv_port":27036,"stv_name":"Uncletopia | Dallas | 3 | All Maps | STV","players":null},{"server_id":405,"name":"Uncletopia | Dallas | 4 | Community","name_short":"dal-4","host":"dal-1.us.uncletopia.com","port":27045,"enabled":true,"region":"us-central","cc":"us","latitude":32.779167,"longitude":-96.80889,"reserved":0,"last_update":"0001-01-01T00:00:00Z","name_a2s":"Uncletopia | Dallas | 4 | Community","protocol":17,"map":"workshop/koth_bagel_rc6.ugc2514036946","folder":"tf","game":"Team Fortress","app_id":440,"player_count":0,"max_players":24,"Bots":0,"server_type":"Dedicated","server_os":"Linux","password":true,"vac":true,"version":"7961495","steam_id":85568392924515220,"keywords":["cp","nocrits","nodmgspread","uncletopia"],"game_id":440,"stv_port":27046,"stv_name":"Uncletopia | Dallas | 4 | Community | STV","players":null},{"server_id":5,"name":"Uncletopia | Frankfurt | 1 | All Maps","name_short":"frk-1","host":"frk-1.de.uncletopia.com","port":27015,"enabled":true,"region":"eu","cc":"de","latitude":50.110924,"longitude":8.682127,"reserved":0,"last_update":"0001-01-01T00:00:00Z","name_a2s":"Uncletopia | Frankfurt | 1 | All Maps","protocol":17,"map":"koth_highpass","folder":"tf","game":"Team Fortress","app_id":440,"player_count":0,"max_players":24,"Bots":0,"server_type":"Dedicated","server_os":"Linux","password":true,"vac":true,"version":"7961495","steam_id":85568392924469989,"keywords":["cp","nocrits","nodmgspread","uncletopia"],"game_id":440,"stv_port":27016,"stv_name":"Uncletopia | Frankfurt | 1 | All Maps | STV","players":null},{"server_id":110,"name":"Uncletopia | Frankfurt | 2 | All Maps","name_short":"frk-2","host":"frk-1.de.uncletopia.com","port":27025,"enabled":true,"region":"eu","cc":"de","latitude":50.110924,"longitude":8.682127,"reserved":0,"last_update":"0001-01-01T00:00:00Z","name_a2s":"Uncletopia | Frankfurt | 2 | All Maps","protocol":17,"map":"cp_dustbowl","folder":"tf","game":"Team Fortress","app_id":440,"player_count":0,"max_players":24,"Bots":0,"server_type":"Dedicated","server_os":"Linux","password":true,"vac":true,"version":"7961495","steam_id":85568392924469990,"keywords":["cp","nocrits","nodmgspread","uncletopia"],"game_id":440,"stv_port":27026,"stv_name":"Uncletopia | Frankfurt | 2 | All Maps | STV","players":null},{"server_id":308,"name":"Uncletopia | Frankfurt | 3 | All Maps","name_short":"frk-3","host":"frk-1.de.uncletopia.com","port":27035,"enabled":true,"region":"eu","cc":"de","latitude":50.110924,"longitude":8.682127,"reserved":0,"last_update":"0001-01-01T00:00:00Z","name_a2s":"Uncletopia | Frankfurt | 3 | All Maps","protocol":17,"map":"pl_barnblitz","folder":"tf","game":"Team Fortress","app_id":440,"player_count":0,"max_players":24,"Bots":0,"server_type":"Dedicated","server_os":"Linux","password":true,"vac":true,"version":"7961495","steam_id":85568392924504274,"keywords":["nocrits","nodmgspread","payload","uncletopia"],"game_id":440,"stv_port":27036,"stv_name":"Uncletopia | Frankfurt | 3 | All Maps | STV","players":null},{"server_id":309,"name":"Uncletopia | Frankfurt | 4 | All Maps","name_short":"frk-4","host":"frk-1.de.uncletopia.com","port":27045,"enabled":true,"region":"eu","cc":"de","latitude":50.110924,"longitude":8.682127,"reserved":0,"last_update":"0001-01-01T00:00:00Z","name_a2s":"Uncletopia | Frankfurt | 4 | All Maps","protocol":17,"map":"koth_highpass","folder":"tf","game":"Team Fortress","app_id":440,"player_count":0,"max_players":24,"Bots":0,"server_type":"Dedicated","server_os":"Linux","password":true,"vac":true,"version":"7961495","steam_id":85568392924504275,"keywords":["cp","nocrits","nodmgspread","uncletopia"],"game_id":440,"stv_port":27046,"stv_name":"Uncletopia | Frankfurt | 4 | All Maps | STV","players":null},{"server_id":310,"name":"Uncletopia | Frankfurt | 5 | All Maps","name_short":"frk-5","host":"frk-1.de.uncletopia.com","port":27055,"enabled":true,"region":"eu","cc":"de","latitude":50.110924,"longitude":8.682127,"reserved":0,"last_update":"0001-01-01T00:00:00Z","name_a2s":"Uncletopia | Frankfurt | 5 | All Maps","protocol":17,"map":"pl_badwater","folder":"tf","game":"Team Fortress","app_id":440,"player_count":0,"max_players":24,"Bots":0,"server_type":"Dedicated","server_os":"Linux","password":true,"vac":true,"version":"7961495","steam_id":85568392924504277,"keywords":["nocrits","nodmgspread","payload","uncletopia"],"game_id":440,"stv_port":27056,"stv_name":"Uncletopia | Frankfurt | 5 | All Maps | STV","players":null},{"server_id":311,"name":"Uncletopia | Frankfurt | 6 | All Maps","name_short":"frk-6","host":"frk-1.de.uncletopia.com","port":27065,"enabled":true,"region":"eu","cc":"de","latitude":50.110924,"longitude":8.682127,"reserved":0,"last_update":"0001-01-01T00:00:00Z","name_a2s":"Uncletopia | Frankfurt | 6 | All Maps","protocol":17,"map":"cp_altitude","folder":"tf","game":"Team Fortress","app_id":440,"player_count":0,"max_players":24,"Bots":0,"server_type":"Dedicated","server_os":"Linux","password":true,"vac":true,"version":"7961495","steam_id":85568392924504278,"keywords":["cp","nocrits","nodmgspread","uncletopia"],"game_id":440,"stv_port":27066,"stv_name":"Uncletopia | Frankfurt | 6 | All Maps | STV","players":null},{"server_id":23,"name":"Uncletopia | Frankfurt | 7 | Stopwatch","name_short":"frk-7","host":"frk-1.de.uncletopia.com","port":27075,"enabled":true,"region":"eu","cc":"de","latitude":50.110924,"longitude":8.682127,"reserved":0,"last_update":"0001-01-01T00:00:00Z","name_a2s":"Uncletopia | Frankfurt | 7 | Stopwatch","protocol":17,"map":"pl_frontier_final","folder":"tf","game":"Team Fortress","app_id":440,"player_count":0,"max_players":24,"Bots":0,"server_type":"Dedicated","server_os":"Linux","password":true,"vac":true,"version":"7961495","steam_id":85568392924742827,"keywords":["nocrits","nodmgspread","payload","uncletopia"],"game_id":440,"stv_port":27076,"stv_name":"Uncletopia | Frankfurt | 7 | Stopwatch | STV","players":null},{"server_id":24,"name":"Uncletopia | Frankfurt | 8 | Community","name_short":"frk-8","host":"frk-1.de.uncletopia.com","port":27085,"enabled":true,"region":"eu","cc":"de","latitude":50.110924,"longitude":8.682127,"reserved":0,"last_update":"0001-01-01T00:00:00Z","name_a2s":"Uncletopia | Frankfurt | 8 | Community","protocol":17,"map":"cp_mountainlab","folder":"tf","game":"Team Fortress","app_id":440,"player_count":0,"max_players":24,"Bots":0,"server_type":"Dedicated","server_os":"Linux","password":true,"vac":true,"version":"7961495","steam_id":85568392924742828,"keywords":["cp","nocrits","nodmgspread","uncletopia"],"game_id":440,"stv_port":27086,"stv_name":"Uncletopia | Frankfurt | 8 | Community | STV","players":null},{"server_id":202,"name":"Uncletopia | Hong Kong | 1 | All Maps","name_short":"hgk-1","host":"hgk-1.hk.uncletopia.com","port":27015,"enabled":true,"region":"asia","cc":"hk","latitude":22.302711,"longitude":114.177216,"reserved":0,"last_update":"0001-01-01T00:00:00Z","name_a2s":"Uncletopia | Hong Kong | 1 | All Maps","protocol":17,"map":"koth_highpass","folder":"tf","game":"Team Fortress","app_id":440,"player_count":0,"max_players":24,"Bots":0,"server_type":"Dedicated","server_os":"Linux","password":true,"vac":true,"version":"7961495","steam_id":85568392924494504,"keywords":["cp","nocrits","nodmgspread","uncletopia"],"game_id":440,"stv_port":27016,"stv_name":"Uncletopia | Hong Kong | 1 | All Maps | STV","players":null},{"server_id":1,"name":"Uncletopia | Los Angeles | 1 | All Maps","name_short":"lax-1","host":"lax-1.us.uncletopia.com","port":27015,"enabled":true,"region":"us-west","cc":"us","latitude":33.94279,"longitude":-118.41004,"reserved":0,"last_update":"0001-01-01T00:00:00Z","name_a2s":"Uncletopia | Los Angeles | 1 | All Maps","protocol":17,"map":"pl_swiftwater_final1","folder":"tf","game":"Team Fortress","app_id":440,"player_count":0,"max_players":24,"Bots":0,"server_type":"Dedicated","server_os":"Linux","password":true,"vac":true,"version":"7961495","steam_id":85568392924469991,"keywords":["nocrits","nodmgspread","payload","uncletopia"],"game_id":440,"stv_port":27016,"stv_name":"Uncletopia | Los Angeles | 1 | All Maps | STV","players":null},{"server_id":112,"name":"Uncletopia | Los Angeles | 2 | All Maps","name_short":"lax-2","host":"lax-1.us.uncletopia.com","port":27025,"enabled":true,"region":"us-west","cc":"us","latitude":33.94279,"longitude":-118.41004,"reserved":0,"last_update":"0001-01-01T00:00:00Z","name_a2s":"Uncletopia | Los Angeles | 2 | All Maps","protocol":17,"map":"pl_thundermountain","folder":"tf","game":"Team Fortress","app_id":440,"player_count":24,"max_players":24,"Bots":0,"server_type":"Dedicated","server_os":"Linux","password":true,"vac":true,"version":"7961495","steam_id":85568392924469992,"keywords":["nocrits","nodmgspread","payload","uncletopia"],"game_id":440,"stv_port":27026,"stv_name":"Uncletopia | Los Angeles | 2 | All Maps | STV","players":[{"user_id":329,"name":"FriskyDemon","steam_id":76561198043684646,"connected_time":2109000000000,"state":"active","ping":69},{"user_id":325,"name":"Can You Feel It Mr.Krabs","steam_id":76561198128302414,"connected_time":2384000000000,"state":"active","ping":53},{"user_id":275,"name":"Frank Accardi","steam_id":76561198017275707,"connected_time":5602000000000,"state":"active","ping":67},{"user_id":348,"name":"Sheep","steam_id":76561198161218914,"connected_time":324000000000,"state":"active","ping":57},{"user_id":331,"name":"1337H4xx0r","steam_id":76561198071400841,"connected_time":1966000000000,"state":"active","ping":129},{"user_id":347,"name":"pup","steam_id":76561198206523304,"connected_time":546000000000,"state":"active","ping":76},{"user_id":333,"name":"Serris","steam_id":76561198184900670,"connected_time":1912000000000,"state":"active","ping":102},{"user_id":323,"name":"HOMELESS MILLIONAIRE","steam_id":76561198145669711,"connected_time":2583000000000,"state":"active","ping":43},{"user_id":343,"name":"Turts","steam_id":76561197998448097,"connected_time":1109000000000,"state":"active","ping":90},{"user_id":318,"name":"Username","steam_id":76561198198918781,"connected_time":4266000000000,"state":"active","ping":74},{"user_id":345,"name":"HotTips","steam_id":76561198161390735,"connected_time":781000000000,"state":"active","ping":99},{"user_id":306,"name":"HaruhiSuzumiyaFan2007","steam_id":76561198799269836,"connected_time":5029000000000,"state":"active","ping":50},{"user_id":322,"name":"The Gitrog Monster","steam_id":76561198026941076,"connected_time":3040000000000,"state":"active","ping":60},{"user_id":308,"name":"johnny","steam_id":76561198050225055,"connected_time":4862000000000,"state":"active","ping":57},{"user_id":339,"name":"wugmup","steam_id":76561199096287734,"connected_time":1496000000000,"state":"active","ping":67},{"user_id":351,"name":"cookiewings209","steam_id":76561199228482391,"connected_time":141000000000,"state":"active","ping":190},{"user_id":337,"name":"Ice","steam_id":76561198045076794,"connected_time":1625000000000,"state":"active","ping":98},{"user_id":344,"name":"the pizza","steam_id":76561198221331476,"connected_time":976000000000,"state":"active","ping":45},{"user_id":338,"name":"Context","steam_id":76561197972634187,"connected_time":1615000000000,"state":"active","ping":52},{"user_id":295,"name":"Spare(8)Ball","steam_id":76561197982432995,"connected_time":5241000000000,"state":"active","ping":61},{"user_id":350,"name":"Wiggs is the Shiggs","steam_id":76561198078379719,"connected_time":178000000000,"state":"active","ping":62},{"user_id":346,"name":"Juan M. Maldacena","steam_id":76561198066883814,"connected_time":605000000000,"state":"active","ping":63},{"user_id":341,"name":"Whisper!","steam_id":76561198119609795,"connected_time":1467000000000,"state":"active","ping":53},{"user_id":280,"name":"Batso","steam_id":76561198106589452,"connected_time":5555000000000,"state":"active","ping":55}]},{"server_id":324,"name":"Uncletopia | Los Angeles | 3 | All Maps","name_short":"lax-3","host":"lax-1.us.uncletopia.com","port":27035,"enabled":true,"region":"us-west","cc":"us","latitude":33.94279,"longitude":-118.41004,"reserved":0,"last_update":"0001-01-01T00:00:00Z","name_a2s":"Uncletopia | Los Angeles | 3 | All Maps","protocol":17,"map":"koth_viaduct","folder":"tf","game":"Team Fortress","app_id":440,"player_count":0,"max_players":24,"Bots":0,"server_type":"Dedicated","server_os":"Linux","password":true,"vac":true,"version":"7961495","steam_id":85568392924510198,"keywords":["cp","nocrits","nodmgspread","uncletopia"],"game_id":440,"stv_port":27036,"stv_name":"Uncletopia | Los Angeles | 3 | All Maps | STV","players":null},{"server_id":25,"name":"Uncletopia | Los Angeles | 4 | Stopwatch","name_short":"lax-4","host":"lax-1.us.uncletopia.com","port":27045,"enabled":true,"region":"us-west","cc":"us","latitude":33.94279,"longitude":-118.41004,"reserved":0,"last_update":"0001-01-01T00:00:00Z","name_a2s":"Uncletopia | Los Angeles | 4 | Stopwatch","protocol":17,"map":"cp_process_final","folder":"tf","game":"Team Fortress","app_id":440,"player_count":0,"max_players":24,"Bots":0,"server_type":"Dedicated","server_os":"Linux","password":true,"vac":true,"version":"7961495","steam_id":85568392924510199,"keywords":["cp","nocrits","nodmgspread","uncletopia"],"game_id":440,"stv_port":27046,"stv_name":"Uncletopia | Los Angeles | 4 | Stopwatch | STV","players":null},{"server_id":11,"name":"Uncletopia | London | 1 | All Maps","name_short":"lon-1","host":"lon-1.uk.uncletopia.com","port":27015,"enabled":true,"region":"eu","cc":"gb","latitude":51.509865,"longitude":-0.118092,"reserved":0,"last_update":"0001-01-01T00:00:00Z","name_a2s":"Uncletopia | London | 1 | All Maps","protocol":17,"map":"koth_harvest_final","folder":"tf","game":"Team Fortress","app_id":440,"player_count":5,"max_players":24,"Bots":0,"server_type":"Dedicated","server_os":"Linux","password":true,"vac":true,"version":"7961495","steam_id":85568392924367362,"keywords":["cp","nocrits","nodmgspread","uncletopia"],"game_id":440,"stv_port":27016,"stv_name":"Uncletopia | London | 1 | All Maps | STV","players":[{"user_id":54,"name":"grr","steam_id":76561199429407130,"connected_time":31000000000,"state":"active","ping":76},{"user_id":51,"name":"FurbyZone","steam_id":76561198268344503,"connected_time":599000000000,"state":"active","ping":49},{"user_id":52,"name":"antlionguard","steam_id":76561198072747143,"connected_time":590000000000,"state":"active","ping":120},{"user_id":46,"name":"cat step","steam_id":76561198118412910,"connected_time":1408000000000,"state":"active","ping":49},{"user_id":34,"name":"󠀡󠀡","steam_id":76561198399390201,"connected_time":3106000000000,"state":"active","ping":75}]},{"server_id":114,"name":"Uncletopia | London | 2 | All Maps","name_short":"lon-2","host":"lon-1.uk.uncletopia.com","port":27025,"enabled":true,"region":"eu","cc":"gb","latitude":51.509865,"longitude":-0.118092,"reserved":0,"last_update":"0001-01-01T00:00:00Z","name_a2s":"Uncletopia | London | 2 | All Maps","protocol":17,"map":"koth_lakeside_final","folder":"tf","game":"Team Fortress","app_id":440,"player_count":0,"max_players":24,"Bots":0,"server_type":"Dedicated","server_os":"Linux","password":true,"vac":true,"version":"7961495","steam_id":85568392924470941,"keywords":["cp","nocrits","nodmgspread","uncletopia"],"game_id":440,"stv_port":27026,"stv_name":"Uncletopia | London | 2 | All Maps | STV","players":null},{"server_id":320,"name":"Uncletopia | London | 3 | All Maps","name_short":"lon-3","host":"lon-1.uk.uncletopia.com","port":27035,"enabled":true,"region":"eu","cc":"gb","latitude":51.509865,"longitude":-0.118092,"reserved":0,"last_update":"0001-01-01T00:00:00Z","name_a2s":"Uncletopia | London | 3 | All Maps","protocol":17,"map":"cp_process_final","folder":"tf","game":"Team Fortress","app_id":440,"player_count":0,"max_players":24,"Bots":0,"server_type":"Dedicated","server_os":"Linux","password":true,"vac":true,"version":"7961495","steam_id":85568392924510192,"keywords":["cp","nocrits","nodmgspread","uncletopia"],"game_id":440,"stv_port":27036,"stv_name":"Uncletopia | London | 3 | All Maps | STV","players":null},{"server_id":321,"name":"Uncletopia | London | 4 | All Maps","name_short":"lon-4","host":"lon-1.uk.uncletopia.com","port":27045,"enabled":true,"region":"eu","cc":"gb","latitude":51.509865,"longitude":-0.118092,"reserved":0,"last_update":"0001-01-01T00:00:00Z","name_a2s":"Uncletopia | London | 4 | All Maps","protocol":17,"map":"koth_cascade","folder":"tf","game":"Team Fortress","app_id":440,"player_count":0,"max_players":24,"Bots":0,"server_type":"Dedicated","server_os":"Linux","password":true,"vac":true,"version":"7961495","steam_id":85568392924510193,"keywords":["cp","nocrits","nodmgspread","uncletopia"],"game_id":440,"stv_port":27046,"stv_name":"Uncletopia | London | 4 | All Maps | STV","players":null},{"server_id":21,"name":"Uncletopia | London | 5 | All Maps","name_short":"lon-5","host":"lon-1.uk.uncletopia.com","port":27055,"enabled":true,"region":"eu","cc":"gb","latitude":51.509865,"longitude":-0.118092,"reserved":0,"last_update":"0001-01-01T00:00:00Z","name_a2s":"Uncletopia | London | 5 | All Maps","protocol":17,"map":"koth_lakeside_final","folder":"tf","game":"Team Fortress","app_id":440,"player_count":0,"max_players":24,"Bots":0,"server_type":"Dedicated","server_os":"Linux","password":true,"vac":true,"version":"7961495","steam_id":85568392924742829,"keywords":["cp","nocrits","nodmgspread","uncletopia"],"game_id":440,"stv_port":27056,"stv_name":"Uncletopia | London | 5 | All Maps | STV","players":null},{"server_id":22,"name":"Uncletopia | London | 6 | All Maps","name_short":"lon-6","host":"lon-1.uk.uncletopia.com","port":27065,"enabled":true,"region":"eu","cc":"gb","latitude":51.509865,"longitude":-0.118092,"reserved":0,"last_update":"0001-01-01T00:00:00Z","name_a2s":"Uncletopia | London | 6 | All Maps","protocol":17,"map":"cp_dustbowl","folder":"tf","game":"Team Fortress","app_id":440,"player_count":0,"max_players":24,"Bots":0,"server_type":"Dedicated","server_os":"Linux","password":true,"vac":true,"version":"7961495","steam_id":85568392924742830,"keywords":["cp","nocrits","nodmgspread","uncletopia"],"game_id":440,"stv_port":27066,"stv_name":"Uncletopia | London | 6 | All Maps | STV","players":null},{"server_id":40,"name":"Uncletopia | London | 7 | Stopwatch","name_short":"lon-7","host":"lon-1.uk.uncletopia.com","port":27075,"enabled":true,"region":"eu","cc":"gb","latitude":51.509865,"longitude":-0.118092,"reserved":0,"last_update":"0001-01-01T00:00:00Z","name_a2s":"Uncletopia | London | 7 | Stopwatch","protocol":17,"map":"koth_lakeside_final","folder":"tf","game":"Team Fortress","app_id":440,"player_count":0,"max_players":24,"Bots":0,"server_type":"Dedicated","server_os":"Linux","password":true,"vac":true,"version":"7961495","steam_id":85568392924964314,"keywords":["cp","nocrits","nodmgspread","uncletopia"],"game_id":440,"stv_port":27076,"stv_name":"Uncletopia | London | 7 | Stopwatch | STV","players":null},{"server_id":41,"name":"Uncletopia | London | 8 | Community","name_short":"lon-8","host":"lon-1.uk.uncletopia.com","port":27085,"enabled":true,"region":"eu","cc":"gb","latitude":51.509865,"longitude":-0.118092,"reserved":0,"last_update":"0001-01-01T00:00:00Z","name_a2s":"Uncletopia | London | 8 | Community","protocol":17,"map":"cp_snakewater_final1","folder":"tf","game":"Team Fortress","app_id":440,"player_count":0,"max_players":24,"Bots":0,"server_type":"Dedicated","server_os":"Linux","password":true,"vac":true,"version":"7961495","steam_id":85568392924964315,"keywords":["cp","nocrits","nodmgspread","uncletopia"],"game_id":440,"stv_port":27086,"stv_name":"Uncletopia | London | 8 | Community | STV","players":null},{"server_id":300,"name":"Uncletopia | Montréal | 1 | One Thousand Uncles","name_short":"mtl-1","host":"mtl-1.ca.uncletopia.com","port":27015,"enabled":true,"region":"us-east","cc":"ca","latitude":45.50889,"longitude":-73.56167,"reserved":0,"last_update":"0001-01-01T00:00:00Z","name_a2s":"","protocol":0,"map":"","folder":"","game":"","app_id":0,"player_count":0,"max_players":0,"Bots":0,"server_type":"","server_os":"","password":false,"vac":false,"version":"","steam_id":0,"keywords":null,"game_id":0,"stv_port":0,"stv_name":"","players":null},{"server_id":301,"name":"Uncletopia | Montréal | 2 | One Thousand Uncles","name_short":"mtl-2","host":"mtl-1.ca.uncletopia.com","port":27025,"enabled":true,"region":"us-east","cc":"ca","latitude":45.50889,"longitude":-73.56167,"reserved":0,"last_update":"0001-01-01T00:00:00Z","name_a2s":"","protocol":0,"map":"","folder":"","game":"","app_id":0,"player_count":3,"max_players":0,"Bots":0,"server_type":"","server_os":"","password":false,"vac":false,"version":"","steam_id":0,"keywords":null,"game_id":0,"stv_port":0,"stv_name":"","players":[{"user_id":128,"name":"Dj_Bear","steam_id":76561198149865187,"connected_time":2736000000000,"state":"active","ping":134},{"user_id":110,"name":"Artificial Unintelligence","steam_id":76561199056745987,"connected_time":3068000000000,"state":"active","ping":120},{"user_id":111,"name":"Sheo","steam_id":76561198142599906,"connected_time":3043000000000,"state":"active","ping":117}]},{"server_id":302,"name":"Uncletopia | Montréal | 3 | One Thousand Uncles","name_short":"mtl-3","host":"mtl-1.ca.uncletopia.com","port":27035,"enabled":true,"region":"us-east","cc":"ca","latitude":45.50889,"longitude":-73.56167,"reserved":0,"last_update":"0001-01-01T00:00:00Z","name_a2s":"","protocol":0,"map":"","folder":"","game":"","app_id":0,"player_count":0,"max_players":0,"Bots":0,"server_type":"","server_os":"","password":false,"vac":false,"version":"","steam_id":0,"keywords":null,"game_id":0,"stv_port":0,"stv_name":"","players":null},{"server_id":13,"name":"Uncletopia | New York City | 1 | All Maps","name_short":"nyc-1","host":"nyc-1.us.uncletopia.com","port":27015,"enabled":true,"region":"us-east","cc":"us","latitude":40.73061,"longitude":-73.93524,"reserved":0,"last_update":"0001-01-01T00:00:00Z","name_a2s":"Uncletopia | New York City | 1 | All Maps","protocol":17,"map":"cp_mountainlab","folder":"tf","game":"Team Fortress","app_id":440,"player_count":0,"max_players":24,"Bots":0,"server_type":"Dedicated","server_os":"Linux","password":true,"vac":true,"version":"7961495","steam_id":85568392924469993,"keywords":["cp","nocrits","nodmgspread","uncletopia"],"game_id":440,"stv_port":27016,"stv_name":"Uncletopia | New York City | 1 | All Maps | STV","players":null},{"server_id":14,"name":"Uncletopia | New York City | 2 | All Maps","name_short":"nyc-2","host":"nyc-1.us.uncletopia.com","port":27025,"enabled":true,"region":"us-east","cc":"us","latitude":40.73061,"longitude":-73.93524,"reserved":0,"last_update":"0001-01-01T00:00:00Z","name_a2s":"Uncletopia | New York City | 2 | All Maps","protocol":17,"map":"pl_upward","folder":"tf","game":"Team Fortress","app_id":440,"player_count":1,"max_players":24,"Bots":0,"server_type":"Dedicated","server_os":"Linux","password":true,"vac":true,"version":"7961495","steam_id":85568392924469994,"keywords":["nocrits","nodmgspread","payload","uncletopia"],"game_id":440,"stv_port":27026,"stv_name":"Uncletopia | New York City | 2 | All Maps | STV","players":[{"user_id":759,"name":"JTP7x","steam_id":76561198836467731,"connected_time":58000000000,"state":"active","ping":77}]},{"server_id":15,"name":"Uncletopia | New York City | 3 | Stopwatch","name_short":"nyc-3","host":"nyc-1.us.uncletopia.com","port":27035,"enabled":true,"region":"us-east","cc":"us","latitude":40.73061,"longitude":-73.93524,"reserved":0,"last_update":"0001-01-01T00:00:00Z","name_a2s":"Uncletopia | New York City | 3 | Stopwatch","protocol":17,"map":"koth_highpass","folder":"tf","game":"Team Fortress","app_id":440,"player_count":0,"max_players":24,"Bots":0,"server_type":"Dedicated","server_os":"Linux","password":true,"vac":true,"version":"7961495","steam_id":85568392924742820,"keywords":["cp","nocrits","nodmgspread","uncletopia"],"game_id":440,"stv_port":27036,"stv_name":"Uncletopia | New York City | 3 | Stopwatch | STV","players":null},{"server_id":16,"name":"Uncletopia | New York City | 4 | Community","name_short":"nyc-4","host":"nyc-1.us.uncletopia.com","port":27045,"enabled":true,"region":"us-east","cc":"us","latitude":40.73061,"longitude":-73.93524,"reserved":0,"last_update":"0001-01-01T00:00:00Z","name_a2s":"Uncletopia | New York City | 4 | Community","protocol":17,"map":"workshop/koth_product_final.ugc454272353","folder":"tf","game":"Team Fortress","app_id":440,"player_count":0,"max_players":24,"Bots":0,"server_type":"Dedicated","server_os":"Linux","password":true,"vac":true,"version":"7961495","steam_id":85568392924742821,"keywords":["cp","nocrits","nodmgspread","uncletopia"],"game_id":440,"stv_port":27046,"stv_name":"Uncletopia | New York City | 4 | Community | STV","players":null},{"server_id":142,"name":"Uncletopia | São Paulo | 1 | All Maps","name_short":"sao-1","host":"sao-1.br.uncletopia.com","port":27015,"enabled":true,"region":"sa","cc":"br","latitude":-23.533773,"longitude":-46.62529,"reserved":0,"last_update":"0001-01-01T00:00:00Z","name_a2s":"Uncletopia | São Paulo | 1 | All Maps","protocol":17,"map":"koth_cascade","folder":"tf","game":"Team Fortress","app_id":440,"player_count":0,"max_players":24,"Bots":0,"server_type":"Dedicated","server_os":"Linux","password":true,"vac":true,"version":"7961495","steam_id":85568392924469996,"keywords":["cp","nocrits","nodmgspread","uncletopia"],"game_id":440,"stv_port":27016,"stv_name":"Uncletopia | São Paulo | 1 | All Maps | STV","players":null},{"server_id":143,"name":"Uncletopia | São Paulo | 2 | Community","name_short":"sao-2","host":"sao-2.br.uncletopia.com","port":27015,"enabled":true,"region":"sa","cc":"br","latitude":-23.533773,"longitude":-46.62529,"reserved":0,"last_update":"0001-01-01T00:00:00Z","name_a2s":"Uncletopia | São Paulo | 2 | Community","protocol":17,"map":"workshop/koth_slaughter_rc1.ugc1712845210","folder":"tf","game":"Team Fortress","app_id":440,"player_count":0,"max_players":24,"Bots":0,"server_type":"Dedicated","server_os":"Linux","password":true,"vac":true,"version":"7961495","steam_id":85568392924485349,"keywords":["cp","nocrits","nodmgspread","uncletopia"],"game_id":440,"stv_port":27016,"stv_name":"Uncletopia | São Paulo | 2 | Community | STV","players":null},{"server_id":7,"name":"Uncletopia | Seattle | 1 | All Maps","name_short":"sea-1","host":"sea-1.us.uncletopia.com","port":27015,"enabled":true,"region":"us-west","cc":"us","latitude":47.608013,"longitude":-122.33517,"reserved":0,"last_update":"0001-01-01T00:00:00Z","name_a2s":"Uncletopia | Seattle | 1 | All Maps","protocol":17,"map":"pl_badwater","folder":"tf","game":"Team Fortress","app_id":440,"player_count":24,"max_players":24,"Bots":0,"server_type":"Dedicated","server_os":"Linux","password":true,"vac":true,"version":"7961495","steam_id":85568392924469997,"keywords":["nocrits","nodmgspread","payload","uncletopia"],"game_id":440,"stv_port":27016,"stv_name":"Uncletopia | Seattle | 1 | All Maps | STV","players":[{"user_id":677,"name":"oil","steam_id":76561198278426327,"connected_time":3733000000000,"state":"active","ping":45},{"user_id":694,"name":"DaddyGalaxy","steam_id":76561198139697796,"connected_time":2506000000000,"state":"active","ping":51},{"user_id":706,"name":"Kaiga","steam_id":76561198044052046,"connected_time":1409000000000,"state":"active","ping":123},{"user_id":717,"name":"Gruntilda Tim","steam_id":76561198000852537,"connected_time":222000000000,"state":"active","ping":68},{"user_id":671,"name":"dougrocks421","steam_id":76561198165063918,"connected_time":4688000000000,"state":"active","ping":31},{"user_id":709,"name":"Grand","steam_id":76561198290143399,"connected_time":1038000000000,"state":"active","ping":70},{"user_id":683,"name":"butterlordthing???????","steam_id":76561198069745191,"connected_time":3582000000000,"state":"active","ping":35},{"user_id":698,"name":"Sweets","steam_id":76561198998446307,"connected_time":2383000000000,"state":"active","ping":68},{"user_id":711,"name":"Nathan Yeet","steam_id":76561198883966591,"connected_time":868000000000,"state":"active","ping":105},{"user_id":712,"name":"SoldJar","steam_id":76561198364523450,"connected_time":846000000000,"state":"active","ping":55},{"user_id":714,"name":"The Eels of Forgiveness","steam_id":76561198016588501,"connected_time":795000000000,"state":"active","ping":72},{"user_id":696,"name":"Brathic","steam_id":76561198966232163,"connected_time":2401000000000,"state":"active","ping":87},{"user_id":715,"name":"Callie Cat 999","steam_id":76561198131833567,"connected_time":793000000000,"state":"active","ping":73},{"user_id":697,"name":"Cheezbeargur","steam_id":76561198164702899,"connected_time":2387000000000,"state":"active","ping":69},{"user_id":681,"name":"Mr8bittripper","steam_id":76561198133894229,"connected_time":3687000000000,"state":"active","ping":46},{"user_id":682,"name":"Hawksgamer","steam_id":76561198152405941,"connected_time":3665000000000,"state":"active","ping":49},{"user_id":663,"name":"lker","steam_id":76561197976975075,"connected_time":6392000000000,"state":"active","ping":113},{"user_id":710,"name":"poundcake","steam_id":76561198796548083,"connected_time":878000000000,"state":"active","ping":45},{"user_id":640,"name":"HopeTheNeko","steam_id":76561199159285465,"connected_time":8346000000000,"state":"active","ping":74},{"user_id":707,"name":"Friday (they/them)\u0026","steam_id":76561198027321950,"connected_time":1357000000000,"state":"active","ping":84},{"user_id":699,"name":"Tideflat","steam_id":76561198179850851,"connected_time":2369000000000,"state":"active","ping":45},{"user_id":700,"name":"Be Gay, Do Crimes, Smoke Weed!","steam_id":76561198092419868,"connected_time":2349000000000,"state":"active","ping":82},{"user_id":716,"name":"gorlab","steam_id":76561198025089694,"connected_time":699000000000,"state":"active","ping":60},{"user_id":544,"name":"baedeker","steam_id":76561199081837220,"connected_time":16926000000000,"state":"active","ping":95}]},{"server_id":119,"name":"Uncletopia | Seattle | 2 | All Maps","name_short":"sea-2","host":"sea-1.us.uncletopia.com","port":27025,"enabled":true,"region":"us-west","cc":"us","latitude":47.608013,"longitude":-122.33517,"reserved":0,"last_update":"0001-01-01T00:00:00Z","name_a2s":"Uncletopia | Seattle | 2 | All Maps","protocol":17,"map":"koth_cascade","folder":"tf","game":"Team Fortress","app_id":440,"player_count":21,"max_players":24,"Bots":0,"server_type":"Dedicated","server_os":"Linux","password":true,"vac":true,"version":"7961495","steam_id":85568392924469998,"keywords":["cp","nocrits","nodmgspread","uncletopia"],"game_id":440,"stv_port":27026,"stv_name":"Uncletopia | Seattle | 2 | All Maps | STV","players":[{"user_id":505,"name":"Escher","steam_id":76561198045058061,"connected_time":986000000000,"state":"active","ping":30},{"user_id":495,"name":"clue","steam_id":76561198299379768,"connected_time":2024000000000,"state":"active","ping":45},{"user_id":517,"name":"TheBudderMan","steam_id":76561198282348324,"connected_time":45000000000,"state":"active","ping":33},{"user_id":490,"name":"fragadelphia","steam_id":76561198066116363,"connected_time":2830000000000,"state":"active","ping":45},{"user_id":503,"name":"Always Here for You","steam_id":76561198219252313,"connected_time":1347000000000,"state":"active","ping":112},{"user_id":508,"name":"NightGhost1400","steam_id":76561198810730471,"connected_time":847000000000,"state":"active","ping":60},{"user_id":514,"name":"Amazing476","steam_id":76561198103937489,"connected_time":116000000000,"state":"active","ping":88},{"user_id":474,"name":"LatinRhythms - 5 ref","steam_id":76561198025110751,"connected_time":3738000000000,"state":"active","ping":99},{"user_id":473,"name":"Hog Rider","steam_id":76561198275999294,"connected_time":3813000000000,"state":"active","ping":53},{"user_id":436,"name":"mo wangs","steam_id":76561198045992418,"connected_time":6986000000000,"state":"active","ping":54},{"user_id":515,"name":"ZonedIn","steam_id":76561198042395286,"connected_time":93000000000,"state":"active","ping":74},{"user_id":516,"name":"collector's pest","steam_id":76561198170402666,"connected_time":47000000000,"state":"active","ping":120},{"user_id":507,"name":"roody","steam_id":76561198066260405,"connected_time":961000000000,"state":"active","ping":45},{"user_id":468,"name":"paypur -rng","steam_id":76561198214370515,"connected_time":4495000000000,"state":"active","ping":68},{"user_id":437,"name":"GalaxyDoug32","steam_id":76561197997126305,"connected_time":6952000000000,"state":"active","ping":60},{"user_id":518,"name":"Stev the Hypergamous Pebble","steam_id":76561197999442625,"connected_time":18000000000,"state":"spawning","ping":44},{"user_id":484,"name":"IMBADATTHISGAME!","steam_id":76561199498272012,"connected_time":3160000000000,"state":"active","ping":82},{"user_id":509,"name":"WillowWisp","steam_id":76561198049104842,"connected_time":645000000000,"state":"active","ping":45},{"user_id":491,"name":"nat","steam_id":76561198179923093,"connected_time":2755000000000,"state":"active","ping":90},{"user_id":489,"name":"Dextersbrain","steam_id":76561198011831579,"connected_time":2918000000000,"state":"active","ping":59},{"user_id":472,"name":"Noah1k","steam_id":76561199428633514,"connected_time":4365000000000,"state":"active","ping":46}]},{"server_id":406,"name":"Uncletopia | Seattle | 3 | Stopwatch","name_short":"sea-3","host":"sea-1.us.uncletopia.com","port":27035,"enabled":true,"region":"us-west","cc":"us","latitude":47.608013,"longitude":-122.33517,"reserved":0,"last_update":"0001-01-01T00:00:00Z","name_a2s":"Uncletopia | Seattle | 3 | Stopwatch","protocol":17,"map":"workshop/koth_ashville_final.ugc2130459942","folder":"tf","game":"Team Fortress","app_id":440,"player_count":0,"max_players":24,"Bots":0,"server_type":"Dedicated","server_os":"Linux","password":true,"vac":true,"version":"7961495","steam_id":85568392924515217,"keywords":["cp","nocrits","nodmgspread","uncletopia"],"game_id":440,"stv_port":27036,"stv_name":"Uncletopia | Seattle | 3 | Stopwatch | STV","players":null},{"server_id":17,"name":"Uncletopia | San Francisco | 1 | All Maps","name_short":"sfo-1","host":"sfo-1.us.uncletopia.com","port":27015,"enabled":true,"region":"us-west","cc":"us","latitude":37.77397,"longitude":-122.4313,"reserved":0,"last_update":"0001-01-01T00:00:00Z","name_a2s":"Uncletopia | San Francisco | 1 | All Maps","protocol":17,"map":"koth_cascade","folder":"tf","game":"Team Fortress","app_id":440,"player_count":0,"max_players":24,"Bots":0,"server_type":"Dedicated","server_os":"Linux","password":true,"vac":true,"version":"7961495","steam_id":85568392924469999,"keywords":["cp","nocrits","nodmgspread","uncletopia"],"game_id":440,"stv_port":27016,"stv_name":"Uncletopia | San Francisco | 1 | All Maps | STV","players":null},{"server_id":18,"name":"Uncletopia | San Francisco | 2 | All Maps","name_short":"sfo-2","host":"sfo-1.us.uncletopia.com","port":27025,"enabled":true,"region":"us-west","cc":"us","latitude":37.77397,"longitude":-122.4313,"reserved":0,"last_update":"0001-01-01T00:00:00Z","name_a2s":"Uncletopia | San Francisco | 2 | All Maps","protocol":17,"map":"pl_barnblitz","folder":"tf","game":"Team Fortress","app_id":440,"player_count":24,"max_players":24,"Bots":0,"server_type":"Dedicated","server_os":"Linux","password":true,"vac":true,"version":"7961495","steam_id":85568392924470000,"keywords":["nocrits","nodmgspread","payload","uncletopia"],"game_id":440,"stv_port":27026,"stv_name":"Uncletopia | San Francisco | 2 | All Maps | STV","players":[{"user_id":92,"name":"Platinum","steam_id":76561198052463484,"connected_time":3482000000000,"state":"active","ping":41},{"user_id":131,"name":"Chocc-_-","steam_id":76561198068070211,"connected_time":995000000000,"state":"active","ping":59},{"user_id":119,"name":"rednubbles","steam_id":76561199008612349,"connected_time":1426000000000,"state":"active","ping":83},{"user_id":120,"name":"Mud Goblin","steam_id":76561198839118505,"connected_time":1412000000000,"state":"active","ping":60},{"user_id":121,"name":"NEBULA","steam_id":76561198086878595,"connected_time":1394000000000,"state":"active","ping":48},{"user_id":111,"name":"Gramseal","steam_id":76561198181906333,"connected_time":2161000000000,"state":"active","ping":53},{"user_id":122,"name":"jorts","steam_id":76561199041179985,"connected_time":1387000000000,"state":"active","ping":71},{"user_id":123,"name":"fungi@bowie.gg","steam_id":76561198169755734,"connected_time":1386000000000,"state":"active","ping":46},{"user_id":143,"name":"Panleya","steam_id":76561198372255797,"connected_time":414000000000,"state":"active","ping":112},{"user_id":144,"name":"Matches_                       ","steam_id":76561198048925904,"connected_time":197000000000,"state":"active","ping":71},{"user_id":126,"name":"lfk thunderous prophet","steam_id":76561198131166135,"connected_time":1370000000000,"state":"active","ping":52},{"user_id":75,"name":"Igrium","steam_id":76561198119549811,"connected_time":5907000000000,"state":"active","ping":57},{"user_id":127,"name":"rushy :))","steam_id":76561198065825165,"connected_time":1335000000000,"state":"active","ping":93},{"user_id":96,"name":"SolarusD","steam_id":76561198029279861,"connected_time":3295000000000,"state":"active","ping":45},{"user_id":128,"name":"delight","steam_id":76561197980280272,"connected_time":1334000000000,"state":"active","ping":68},{"user_id":132,"name":"Dog","steam_id":76561198041841128,"connected_time":971000000000,"state":"active","ping":61},{"user_id":133,"name":"Daz","steam_id":76561198041431938,"connected_time":970000000000,"state":"active","ping":70},{"user_id":134,"name":"*stares in disbelief*","steam_id":76561198304265800,"connected_time":969000000000,"state":"active","ping":81},{"user_id":139,"name":"BurritoCat","steam_id":76561198059822805,"connected_time":772000000000,"state":"active","ping":125},{"user_id":140,"name":"mishafan_2003","steam_id":76561198150111039,"connected_time":716000000000,"state":"active","ping":37},{"user_id":137,"name":"Cuno Doesn't Care!","steam_id":76561198007372782,"connected_time":912000000000,"state":"active","ping":56},{"user_id":141,"name":"vuldrin","steam_id":76561198383695069,"connected_time":456000000000,"state":"active","ping":83},{"user_id":71,"name":"starry","steam_id":76561198989740125,"connected_time":6728000000000,"state":"active","ping":127},{"user_id":142,"name":"Joy in A Box","steam_id":76561198156820753,"connected_time":421000000000,"state":"active","ping":185}]},{"server_id":19,"name":"Uncletopia | San Francisco | 3 | Stopwatch","name_short":"sfo-3","host":"sfo-1.us.uncletopia.com","port":27035,"enabled":true,"region":"us-west","cc":"us","latitude":37.77397,"longitude":-122.4313,"reserved":0,"last_update":"0001-01-01T00:00:00Z","name_a2s":"Uncletopia | San Francisco | 3 | Stopwatch","protocol":17,"map":"workshop/cp_reckoner_rc6.ugc674719999","folder":"tf","game":"Team Fortress","app_id":440,"player_count":0,"max_players":24,"Bots":0,"server_type":"Dedicated","server_os":"Linux","password":true,"vac":true,"version":"7961495","steam_id":85568392924742824,"keywords":["cp","nocrits","nodmgspread","uncletopia"],"game_id":440,"stv_port":27036,"stv_name":"Uncletopia | San Francisco | 3 | Stopwatch | STV","players":null},{"server_id":20,"name":"Uncletopia | San Francisco | 4 | Community","name_short":"sfo-4","host":"sfo-1.us.uncletopia.com","port":27045,"enabled":true,"region":"us-west","cc":"us","latitude":37.77397,"longitude":-122.4313,"reserved":0,"last_update":"0001-01-01T00:00:00Z","name_a2s":"Uncletopia | San Francisco | 4 | Community","protocol":17,"map":"workshop/pl_emerge_rc2.ugc888027758","folder":"tf","game":"Team Fortress","app_id":440,"player_count":0,"max_players":24,"Bots":0,"server_type":"Dedicated","server_os":"Linux","password":true,"vac":true,"version":"7961495","steam_id":85568392924742826,"keywords":["nocrits","nodmgspread","payload","uncletopia"],"game_id":440,"stv_port":27046,"stv_name":"Uncletopia | San Francisco | 4 | Community | STV","players":null},{"server_id":141,"name":"Uncletopia | Sydney | 1 | All Maps","name_short":"syd-1","host":"syd-1.au.uncletopia.com","port":27015,"enabled":true,"region":"au","cc":"au","latitude":-33.865143,"longitude":151.2099,"reserved":0,"last_update":"0001-01-01T00:00:00Z","name_a2s":"Uncletopia | Sydney | 1 | All Maps","protocol":17,"map":"cp_process_final","folder":"tf","game":"Team Fortress","app_id":440,"player_count":0,"max_players":24,"Bots":0,"server_type":"Dedicated","server_os":"Linux","password":true,"vac":true,"version":"7961495","steam_id":85568392924470001,"keywords":["cp","nocrits","nodmgspread","uncletopia"],"game_id":440,"stv_port":27016,"stv_name":"Uncletopia | Sydney | 1 | All Maps | STV","players":null},{"server_id":123,"name":"Uncletopia | Sydney | 2 | All Maps","name_short":"syd-2","host":"syd-1.au.uncletopia.com","port":27025,"enabled":true,"region":"au","cc":"au","latitude":-33.865143,"longitude":151.2099,"reserved":0,"last_update":"0001-01-01T00:00:00Z","name_a2s":"Uncletopia | Sydney | 2 | All Maps","protocol":17,"map":"koth_lakeside_final","folder":"tf","game":"Team Fortress","app_id":440,"player_count":0,"max_players":24,"Bots":0,"server_type":"Dedicated","server_os":"Linux","password":true,"vac":true,"version":"7961495","steam_id":85568392924470002,"keywords":["cp","nocrits","nodmgspread","uncletopia"],"game_id":440,"stv_port":27026,"stv_name":"Uncletopia | Sydney | 2 | All Maps | STV","players":null},{"server_id":395,"name":"Uncletopia | Sydney | 3 | All Maps","name_short":"syd-3","host":"syd-1.au.uncletopia.com","port":27035,"enabled":true,"region":"au","cc":"au","latitude":-33.865143,"longitude":151.2099,"reserved":0,"last_update":"0001-01-01T00:00:00Z","name_a2s":"Uncletopia | Sydney | 3 | All Maps","protocol":17,"map":"pl_rumford_event","folder":"tf","game":"Team Fortress","app_id":440,"player_count":16,"max_players":24,"Bots":0,"server_type":"Dedicated","server_os":"Linux","password":true,"vac":true,"version":"7961495","steam_id":85568392925194467,"keywords":["nocrits","nodmgspread","payload","uncletopia"],"game_id":440,"stv_port":27036,"stv_name":"Uncletopia | Sydney | 3 | All Maps | STV","players":[{"user_id":67,"name":"Teamfighting","steam_id":76561198160135508,"connected_time":524000000000,"state":"active","ping":46},{"user_id":56,"name":"Snowy","steam_id":76561198255720598,"connected_time":1025000000000,"state":"active","ping":45},{"user_id":32,"name":"qpekejdj","steam_id":76561198933010635,"connected_time":2565000000000,"state":"active","ping":45},{"user_id":69,"name":"wizard.dll","steam_id":76561198000442860,"connected_time":339000000000,"state":"active","ping":62},{"user_id":51,"name":"P. Ness (Length/Girth)","steam_id":76561198037664265,"connected_time":1387000000000,"state":"active","ping":58},{"user_id":63,"name":"CypressFluff (she/her)","steam_id":76561198174667818,"connected_time":755000000000,"state":"active","ping":55},{"user_id":57,"name":"krandlez` (Any/All)","steam_id":76561198044839726,"connected_time":1008000000000,"state":"active","ping":41},{"user_id":66,"name":"Curie","steam_id":76561198132928417,"connected_time":568000000000,"state":"active","ping":58},{"user_id":68,"name":"a e r g h","steam_id":76561198010212679,"connected_time":471000000000,"state":"active","ping":52},{"user_id":70,"name":"Frøken Ferje","steam_id":76561198948183007,"connected_time":220000000000,"state":"active","ping":54},{"user_id":39,"name":"Mr Lorpso","steam_id":76561199123218251,"connected_time":2169000000000,"state":"active","ping":78},{"user_id":52,"name":"Fresh Produce Gaming","steam_id":76561198358483352,"connected_time":1332000000000,"state":"active","ping":59},{"user_id":54,"name":"Overlold","steam_id":76561197978635495,"connected_time":1286000000000,"state":"active","ping":84},{"user_id":44,"name":"Steve","steam_id":76561198429235506,"connected_time":1784000000000,"state":"active","ping":51},{"user_id":60,"name":"Emerald the Snake","steam_id":76561199013344853,"connected_time":910000000000,"state":"active","ping":56},{"user_id":59,"name":"ANML","steam_id":76561198260039591,"connected_time":952000000000,"state":"active","ping":58}]},{"server_id":396,"name":"Uncletopia | Sydney | 4 | All Maps","name_short":"syd-4","host":"syd-1.au.uncletopia.com","port":27045,"enabled":true,"region":"au","cc":"au","latitude":-33.865143,"longitude":151.2099,"reserved":0,"last_update":"0001-01-01T00:00:00Z","name_a2s":"Uncletopia | Sydney | 4 | All Maps","protocol":17,"map":"cp_process_final","folder":"tf","game":"Team Fortress","app_id":440,"player_count":0,"max_players":24,"Bots":0,"server_type":"Dedicated","server_os":"Linux","password":true,"vac":true,"version":"7961495","steam_id":85568392925397958,"keywords":["cp","nocrits","nodmgspread","uncletopia"],"game_id":440,"stv_port":27046,"stv_name":"Uncletopia | Sydney | 4 | All Maps | STV","players":null},{"server_id":58,"name":"Uncletopia | Sydney | 5 | Stopwatch","name_short":"syd-5","host":"syd-1.au.uncletopia.com","port":27055,"enabled":true,"region":"au","cc":"au","latitude":-33.865143,"longitude":151.2099,"reserved":0,"last_update":"0001-01-01T00:00:00Z","name_a2s":"Uncletopia | Sydney | 5 | Stopwatch","protocol":17,"map":"workshop/koth_ashville_final.ugc2130459942","folder":"tf","game":"Team Fortress","app_id":440,"player_count":0,"max_players":24,"Bots":0,"server_type":"Dedicated","server_os":"Linux","password":true,"vac":true,"version":"7961495","steam_id":85568392925397959,"keywords":["cp","nocrits","nodmgspread","uncletopia"],"game_id":440,"stv_port":27056,"stv_name":"Uncletopia | Sydney | 5 | Stopwatch | STV","players":null},{"server_id":59,"name":"Uncletopia | Sydney | 6 | Community","name_short":"syd-6","host":"syd-1.au.uncletopia.com","port":27065,"enabled":true,"region":"au","cc":"au","latitude":-33.865143,"longitude":151.2099,"reserved":0,"last_update":"0001-01-01T00:00:00Z","name_a2s":"Uncletopia | Sydney | 6 | Community","protocol":17,"map":"cp_sunshine","folder":"tf","game":"Team Fortress","app_id":440,"player_count":0,"max_players":24,"Bots":0,"server_type":"Dedicated","server_os":"Linux","password":true,"vac":true,"version":"7961495","steam_id":85568392925397960,"keywords":["cp","nocrits","nodmgspread","uncletopia"],"game_id":440,"stv_port":27066,"stv_name":"Uncletopia | Sydney | 6 | Community | STV","players":null},{"server_id":49,"name":"Uncletopia | Warsaw | 1 | One Thousand Uncles","name_short":"waw-1","host":"waw-1.pl.uncletopia.com","port":27015,"enabled":true,"region":"eu","cc":"pl","latitude":52.2297,"longitude":21.017532,"reserved":0,"last_update":"0001-01-01T00:00:00Z","name_a2s":"Uncletopia | Warsaw | 1 | One Thousand Uncles","protocol":17,"map":"cp_mossrock","folder":"tf","game":"Team Fortress","app_id":440,"player_count":17,"max_players":32,"Bots":16,"server_type":"Dedicated","server_os":"Linux","password":true,"vac":true,"version":"7961495","steam_id":85568392925397850,"keywords":["alltalk","bots","cp","danepve","increased_maxplayers","nocrits","norespawntime","uncletopia"],"game_id":440,"stv_port":0,"stv_name":"","players":[{"user_id":71,"name":"jackthegreenlade","steam_id":76561199468264132,"connected_time":1282000000000,"state":"active","ping":113}]},{"server_id":50,"name":"Uncletopia | Warsaw | 2 | One Thousand Uncles","name_short":"waw-2","host":"waw-1.pl.uncletopia.com","port":27025,"enabled":true,"region":"eu","cc":"pl","latitude":52.2297,"longitude":21.017532,"reserved":0,"last_update":"0001-01-01T00:00:00Z","name_a2s":"Uncletopia | Warsaw | 2 | One Thousand Uncles","protocol":17,"map":"pl_goldrush","folder":"tf","game":"Team Fortress","app_id":440,"player_count":0,"max_players":32,"Bots":0,"server_type":"Dedicated","server_os":"Linux","password":true,"vac":true,"version":"7961495","steam_id":85568392925397851,"keywords":["alltalk","danepve","increased_maxplayers","nocrits","norespawntime","payload","uncletopia"],"game_id":440,"stv_port":0,"stv_name":"","players":null},{"server_id":51,"name":"Uncletopia | Warsaw | 3 | All Maps","name_short":"waw-3","host":"waw-1.pl.uncletopia.com","port":27035,"enabled":true,"region":"eu","cc":"pl","latitude":52.2297,"longitude":21.017532,"reserved":0,"last_update":"0001-01-01T00:00:00Z","name_a2s":"Uncletopia | Warsaw | 3 | All Maps","protocol":17,"map":"plr_pipeline","folder":"tf","game":"Team Fortress","app_id":440,"player_count":0,"max_players":24,"Bots":0,"server_type":"Dedicated","server_os":"Linux","password":true,"vac":true,"version":"7961495","steam_id":85568392925397852,"keywords":["nocrits","nodmgspread","payload","uncletopia"],"game_id":440,"stv_port":27036,"stv_name":"Uncletopia | Warsaw | 3 | All Maps | STV","players":null},{"server_id":52,"name":"Uncletopia | Warsaw | 4 | All Maps","name_short":"waw-4","host":"waw-1.pl.uncletopia.com","port":27045,"enabled":true,"region":"eu","cc":"pl","latitude":52.2297,"longitude":21.017532,"reserved":0,"last_update":"0001-01-01T00:00:00Z","name_a2s":"Uncletopia | Warsaw | 4 | All Maps","protocol":17,"map":"cp_coldfront","folder":"tf","game":"Team Fortress","app_id":440,"player_count":0,"max_players":24,"Bots":0,"server_type":"Dedicated","server_os":"Linux","password":true,"vac":true,"version":"7961495","steam_id":85568392925397853,"keywords":["cp","nocrits","nodmgspread","uncletopia"],"game_id":440,"stv_port":27046,"stv_name":"Uncletopia | Warsaw | 4 | All Maps | STV","players":null},{"server_id":53,"name":"Uncletopia | Warsaw | 5 | Stopwatch","name_short":"waw-5","host":"waw-1.pl.uncletopia.com","port":27055,"enabled":true,"region":"eu","cc":"pl","latitude":52.2297,"longitude":21.017532,"reserved":0,"last_update":"0001-01-01T00:00:00Z","name_a2s":"Uncletopia | Warsaw | 5 | Stopwatch","protocol":17,"map":"workshop/koth_bagel_rc6.ugc2514036946","folder":"tf","game":"Team Fortress","app_id":440,"player_count":0,"max_players":24,"Bots":0,"server_type":"Dedicated","server_os":"Linux","password":true,"vac":true,"version":"7961495","steam_id":85568392925397854,"keywords":["cp","nocrits","nodmgspread","uncletopia"],"game_id":440,"stv_port":27056,"stv_name":"Uncletopia | Warsaw | 5 | Stopwatch | STV","players":null},{"server_id":54,"name":"Uncletopia | Warsaw | 6 | Community","name_short":"waw-6","host":"waw-1.pl.uncletopia.com","port":27065,"enabled":true,"region":"eu","cc":"pl","latitude":52.2297,"longitude":21.017532,"reserved":0,"last_update":"0001-01-01T00:00:00Z","name_a2s":"Uncletopia | Warsaw | 6 | Community","protocol":17,"map":"workshop/pl_badwater_pro_v12.ugc2142942074","folder":"tf","game":"Team Fortress","app_id":440,"player_count":0,"max_players":24,"Bots":0,"server_type":"Dedicated","server_os":"Linux","password":true,"vac":true,"version":"7961495","steam_id":85568392925397856,"keywords":["nocrits","nodmgspread","payload","uncletopia"],"game_id":440,"stv_port":27066,"stv_name":"Uncletopia | Warsaw | 6 | Community | STV","players":null}]}