{"status":true,"message":"","result":[{"server_id":9,"name":"Uncletopia | Atlanta | 1 | All Maps","name_short":"atl-1","host":"atl-1.us.uncletopia.com","port":27015,"enabled":true,"region":"us-east","cc":"us","latitude":33.753746,"longitude":-84.38633,"reserved":0,"last_update":"0001-01-01T00:00:00Z","name_a2s":"Uncletopia | Atlanta | 1 | All Maps","protocol":17,"map":"pl_badwater","folder":"tf","game":"Team Fortress","app_id":440,"player_count":0,"max_players":24,"Bots":0,"server_type":"Dedicated","server_os":"Linux","password":true,"vac":true,"version":"7932396","steam_id":85568392924469982,"keywords":["nocrits","nodmgspread","payload","uncletopia"],"game_id":440,"stv_port":27016,"stv_name":"Uncletopia | Atlanta | 1 | All Maps | STV","players":null},{"server_id":104,"name":"Uncletopia | Atlanta | 2 | All Maps","name_short":"atl-2","host":"atl-1.us.uncletopia.com","port":27025,"enabled":true,"region":"us-east","cc":"us","latitude":33.753746,"longitude":-84.38633,"reserved":0,"last_update":"0001-01-01T00:00:00Z","name_a2s":"Uncletopia | Atlanta | 2 | All Maps","protocol":17,"map":"koth_viaduct","folder":"tf","game":"Team Fortress","app_id":440,"player_count":0,"max_players":24,"Bots":0,"server_type":"Dedicated","server_os":"Linux","password":true,"vac":true,"version":"7932396","steam_id":85568392924469983,"keywords":["cp","nocrits","nodmgspread","uncletopia"],"game_id":440,"stv_port":27026,"stv_name":"Uncletopia | Atlanta | 2 | All Maps | STV","players":null},{"server_id":400,"name":"Uncletopia | Atlanta | 3 | Community","name_short":"atl-3","host":"atl-1.us.uncletopia.com","port":27035,"enabled":true,"region":"us-east","cc":"us","latitude":33.753746,"longitude":-84.38633,"reserved":0,"last_update":"0001-01-01T00:00:00Z","name_a2s":"Uncletopia | Atlanta | 3 | Community","protocol":17,"map":"workshop/cp_hazyfort_rc6.ugc1365963729","folder":"tf","game":"Team Fortress","app_id":440,"player_count":0,"max_players":24,"Bots":0,"server_type":"Dedicated","server_os":"Linux","password":true,"vac":true,"version":"7932396","steam_id":85568392924515187,"keywords":["cp","nocrits","nodmgspread","uncletopia"],"game_id":440,"stv_port":27036,"stv_name":"Uncletopia | Atlanta | 3 | Community | STV","players":null},{"server_id":401,"name":"Uncletopia | Atlanta | 4 | No Payload","name_short":"atl-4","host":"atl-1.us.uncletopia.com","port":27045,"enabled":true,"region":"us-east","cc":"us","latitude":33.753746,"longitude":-84.38633,"reserved":0,"last_update":"0001-01-01T00:00:00Z","name_a2s":"","protocol":0,"map":"","folder":"","game":"","app_id":0,"player_count":0,"max_players":0,"Bots":0,"server_type":"","server_os":"","password":false,"vac":false,"version":"","steam_id":0,"keywords":null,"game_id":0,"stv_port":0,"stv_name":"","players":null},{"server_id":2,"name":"Uncletopia | Chicago | 1 | All Maps","name_short":"chi-1","host":"chi-1.us.uncletopia.com","port":27015,"enabled":true,"region":"us-central","cc":"us","latitude":41.881832,"longitude":-87.62318,"reserved":0,"last_update":"0001-01-01T00:00:00Z","name_a2s":"Uncletopia | Chicago | 1 | All Maps","protocol":17,"map":"pl_badwater","folder":"tf","game":"Team Fortress","app_id":440,"player_count":24,"max_players":24,"Bots":0,"server_type":"Dedicated","server_os":"Linux","password":true,"vac":true,"version":"7932396","steam_id":85568392924469984,"keywords":["nocrits","nodmgspread","payload","uncletopia"],"game_id":440,"stv_port":27016,"stv_name":"Uncletopia | Chicago | 1 | All Maps | STV","players":[{"user_id":79,"name":"Trippy","steam_id":76561199090730294,"connected_time":4429000000000,"state":"active","ping":59},{"user_id":106,"name":"kite","steam_id":76561198346516392,"connected_time":2568000000000,"state":"active","ping":73},{"user_id":109,"name":"ky jelly packing","steam_id":76561198240906222,"connected_time":2532000000000,"state":"active","ping":79},{"user_id":128,"name":"Space","steam_id":76561198350489754,"connected_time":889000000000,"state":"active","ping":62},{"user_id":133,"name":"Tyco","steam_id":76561197978414167,"connected_time":693000000000,"state":"active","ping":73},{"user_id":134,"name":"HarryjusttHarry","steam_id":76561198982810452,"connected_time":507000000000,"state":"active","ping":80},{"user_id":120,"name":"dirty tuna","steam_id":76561198021535785,"connected_time":2085000000000,"state":"active","ping":72},{"user_id":76,"name":"Im High","steam_id":76561198049954886,"connected_time":4484000000000,"state":"active","ping":74},{"user_id":122,"name":"Doctor Emerald(real)","steam_id":76561199123003872,"connected_time":1840000000000,"state":"active","ping":98},{"user_id":60,"name":"preger u graduate","steam_id":76561198068190834,"connected_time":5575000000000,"state":"active","ping":107},{"user_id":110,"name":"kacey musgraves #1 fan","steam_id":76561198066812433,"connected_time":2530000000000,"state":"active","ping":54},{"user_id":137,"name":"Jerry Bondle","steam_id":76561198337512213,"connected_time":9000000000,"state":"spawning","ping":58},{"user_id":136,"name":"Pixler544","steam_id":76561198240575132,"connected_time":37000000000,"state":"active","ping":79},{"user_id":123,"name":"PorSurface","steam_id":76561198999584253,"connected_time":1840000000000,"state":"active","ping":46},{"user_id":116,"name":"Gustavo","steam_id":76561198190288063,"connected_time":2428000000000,"state":"active","ping":87},{"user_id":90,"name":"Motreir","steam_id":76561198151717946,"connected_time":3820000000000,"state":"active","ping":79},{"user_id":101,"name":"Obelisk","steam_id":76561198049416866,"connected_time":3146000000000,"state":"active","ping":79},{"user_id":54,"name":"Cyclops_672","steam_id":76561198080169497,"connected_time":5891000000000,"state":"active","ping":60},{"user_id":121,"name":"Sprinklingmydoughnut","steam_id":76561198168009092,"connected_time":1863000000000,"state":"active","ping":100},{"user_id":67,"name":"Thy Stupid Rat","steam_id":76561198272075712,"connected_time":4969000000000,"state":"active","ping":80},{"user_id":87,"name":"Broadsword","steam_id":76561198011160411,"connected_time":4206000000000,"state":"active","ping":92},{"user_id":99,"name":"Jirachi","steam_id":76561198341537452,"connected_time":3227000000000,"state":"active","ping":81},{"user_id":63,"name":"Peppino","steam_id":76561198189176634,"connected_time":5496000000000,"state":"active","ping":85},{"user_id":127,"name":"The_Changsta","steam_id":76561198042185053,"connected_time":930000000000,"state":"active","ping":80}]},{"server_id":106,"name":"Uncletopia | Chicago | 2 | All Maps","name_short":"chi-2","host":"chi-1.us.uncletopia.com","port":27025,"enabled":true,"region":"us-central","cc":"us","latitude":41.881832,"longitude":-87.62318,"reserved":0,"last_update":"0001-01-01T00:00:00Z","name_a2s":"Uncletopia | Chicago | 2 | All Maps","protocol":17,"map":"pl_badwater","folder":"tf","game":"Team Fortress","app_id":440,"player_count":24,"max_players":24,"Bots":0,"server_type":"Dedicated","server_os":"Linux","password":true,"vac":true,"version":"7932396","steam_id":85568392924469985,"keywords":["nocrits","nodmgspread","payload","uncletopia"],"game_id":440,"stv_port":27026,"stv_name":"Uncletopia | Chicago | 2 | All Maps | STV","players":[{"user_id":317,"name":"roby","steam_id":76561198044660393,"connected_time":626000000000,"state":"active","ping":156},{"user_id":312,"name":"i have amazing aim","steam_id":76561199222920753,"connected_time":749000000000,"state":"active","ping":50},{"user_id":271,"name":"we're so back","steam_id":76561198058485742,"connected_time":2496000000000,"state":"active","ping":63},{"user_id":319,"name":"Gipple","steam_id":76561198388661565,"connected_time":246000000000,"state":"active","ping":44},{"user_id":302,"name":"Testimony","steam_id":76561198151363063,"connected_time":1407000000000,"state":"active","ping":74},{"user_id":182,"name":"Life, Death, and Taxes","steam_id":76561198126734886,"connected_time":5690000000000,"state":"active","ping":73},{"user_id":311,"name":"Tomcouger","steam_id":76561198022866923,"connected_time":787000000000,"state":"active","ping":140},{"user_id":320,"name":"slonked","steam_id":76561198124191084,"connected_time":37000000000,"state":"active","ping":66},{"user_id":313,"name":"your local forecast","steam_id":76561198042243083,"connected_time":748000000000,"state":"active","ping":60},{"user_id":278,"name":"GreySweaterCat","steam_id":76561198351860293,"connected_time":2319000000000,"state":"active","ping":90},{"user_id":287,"name":"Nite","steam_id":76561199014777092,"connected_time":2106000000000,"state":"active","ping":57},{"user_id":229,"name":"Garfield Expert","steam_id":76561198092452824,"connected_time":3485000000000,"state":"active","ping":72},{"user_id":309,"name":"Jelkek","steam_id":76561197999529416,"connected_time":858000000000,"state":"active","ping":78},{"user_id":279,"name":"Mail Delivery","steam_id":76561198290046318,"connected_time":2316000000000,"state":"active","ping":72},{"user_id":161,"name":"jon.cinnamon","steam_id":76561198127316418,"connected_time":7450000000000,"state":"active","ping":69},{"user_id":314,"name":"Dracodemus","steam_id":76561198079518597,"connected_time":712000000000,"state":"active","ping":55},{"user_id":318,"name":"rontu","steam_id":76561199072955534,"connected_time":349000000000,"state":"active","ping":58},{"user_id":288,"name":"ya ya breathe","steam_id":76561198075858067,"connected_time":2076000000000,"state":"active","ping":64},{"user_id":305,"name":"Aeonspassed","steam_id":76561198014016451,"connected_time":1182000000000,"state":"active","ping":62},{"user_id":282,"name":"owen","steam_id":76561199229403678,"connected_time":2227000000000,"state":"active","ping":79},{"user_id":292,"name":"Ziath","steam_id":76561198094009164,"connected_time":1893000000000,"state":"active","ping":67},{"user_id":293,"name":"asbestos","steam_id":76561198079178866,"connected_time":1872000000000,"state":"active","ping":68},{"user_id":297,"name":"wfaawj8f09h308fa","steam_id":76561198165212575,"connected_time":1817000000000,"state":"active","ping":74},{"user_id":316,"name":"andyiscolorless","steam_id":76561199239870921,"connected_time":693000000000,"state":"active","ping":149}]},{"server_id":402,"name":"Uncletopia | Chicago | 3 | All Maps","name_short":"chi-3","host":"chi-1.us.uncletopia.com","port":27035,"enabled":true,"region":"us-central","cc":"us","latitude":41.881832,"longitude":-87.62318,"reserved":0,"last_update":"0001-01-01T00:00:00Z","name_a2s":"Uncletopia | Chicago | 3 | All Maps","protocol":17,"map":"pl_badwater","folder":"tf","game":"Team Fortress","app_id":440,"player_count":24,"max_players":24,"Bots":0,"server_type":"Dedicated","server_os":"Linux","password":true,"vac":true,"version":"7932396","steam_id":85568392924515191,"keywords":["nocrits","nodmgspread","payload","uncletopia"],"game_id":440,"stv_port":27036,"stv_name":"Uncletopia | Chicago | 3 | All Maps | STV","players":[{"user_id":133,"name":"Nefy","steam_id":76561198030017316,"connected_time":1593000000000,"state":"active","ping":82},{"user_id":123,"name":"Luci (50B)","steam_id":76561199096964288,"connected_time":2010000000000,"state":"active","ping":38},{"user_id":124,"name":"DragonKnight343","steam_id":76561199235854406,"connected_time":1968000000000,"state":"active","ping":114},{"user_id":141,"name":"GoldtoothFour","steam_id":76561198055529332,"connected_time":424000000000,"state":"active","ping":54},{"user_id":109,"name":"Engideer","steam_id":76561198145733164,"connected_time":3426000000000,"state":"active","ping":70},{"user_id":95,"name":"khil","steam_id":76561198042455487,"connected_time":4874000000000,"state":"active","ping":43},{"user_id":115,"name":"Zanartan","steam_id":76561198050528902,"connected_time":3175000000000,"state":"active","ping":183},{"user_id":125,"name":"Chezaus","steam_id":76561198317397837,"connected_time":1956000000000,"state":"active","ping":74},{"user_id":110,"name":"Tired","steam_id":76561198072620682,"connected_time":3425000000000,"state":"active","ping":89},{"user_id":142,"name":"√áAFFIEND","steam_id":76561198062993241,"connected_time":363000000000,"state":"active","ping":85},{"user_id":128,"name":"shake","steam_id":76561199064204750,"connected_time":1746000000000,"state":"active","ping":82},{"user_id":137,"name":"Allahgator","steam_id":76561198280659041,"connected_time":686000000000,"state":"active","ping":75},{"user_id":140,"name":"Noid","steam_id":76561198227804500,"connected_time":495000000000,"state":"active","ping":84},{"user_id":135,"name":"co)))))ne","steam_id":76561198053967778,"connected_time":1311000000000,"state":"active","ping":74},{"user_id":127,"name":"meo ‚ô•","steam_id":76561197992719272,"connected_time":1847000000000,"state":"active","ping":52},{"user_id":129,"name":"18th century farmer","steam_id":76561199196014252,"connected_time":1731000000000,"state":"active","ping":123},{"user_id":130,"name":"A Very Confused Gentleman","steam_id":76561198051686391,"connected_time":1714000000000,"state":"active","ping":59},{"user_id":120,"name":"Sneakinsed","steam_id":76561199102075970,"connected_time":2306000000000,"state":"active","ping":101},{"user_id":100,"name":"Rin \"Hindwing\" Redtail","steam_id":76561199074865638,"connected_time":4615000000000,"state":"active","ping":73},{"user_id":139,"name":"Raye Chalar","steam_id":76561198039031916,"connected_time":564000000000,"state":"active","ping":85},{"user_id":98,"name":"MILKY","steam_id":76561198073114061,"connected_time":4750000000000,"state":"active","ping":72},{"user_id":131,"name":"Dead_Stranger","steam_id":76561198120804563,"connected_time":1666000000000,"state":"active","ping":88},{"user_id":136,"name":"DJ Chalice","steam_id":76561197974872458,"connected_time":1143000000000,"state":"active","ping":75},{"user_id":106,"name":"aunty barbara","steam_id":76561198009192558,"connected_time":4414000000000,"state":"active","ping":71}]},{"server_id":403,"name":"Uncletopia | Chicago | 4 | All Maps","name_short":"chi-4","host":"chi-1.us.uncletopia.com","port":27045,"enabled":true,"region":"us-central","cc":"us","latitude":41.881832,"longitude":-87.62318,"reserved":0,"last_update":"0001-01-01T00:00:00Z","name_a2s":"Uncletopia | Chicago | 4 | All Maps","protocol":17,"map":"koth_highpass","folder":"tf","game":"Team Fortress","app_id":440,"player_count":24,"max_players":24,"Bots":0,"server_type":"Dedicated","server_os":"Linux","password":true,"vac":true,"version":"7932396","steam_id":85568392924515193,"keywords":["cp","nocrits","nodmgspread","uncletopia"],"game_id":440,"stv_port":27046,"stv_name":"Uncletopia | Chicago | 4 | All Maps | STV","players":[{"user_id":273,"name":"V!CT!M","steam_id":76561198962721502,"connected_time":2135000000000,"state":"active","ping":65},{"user_id":301,"name":"Muk__Tuk","steam_id":76561199122524457,"connected_time":540000000000,"state":"active","ping":91},{"user_id":261,"name":"k3ramb1t","steam_id":76561198097880352,"connected_time":2977000000000,"state":"active","ping":70},{"user_id":295,"name":"4d4","steam_id":76561198402360789,"connected_time":696000000000,"state":"active","ping":57},{"user_id":296,"name":"Banks","steam_id":76561198276505537,"connected_time":684000000000,"state":"active","ping":68},{"user_id":279,"name":"Edgy McEdgeison","steam_id":76561198047845399,"connected_time":1662000000000,"state":"active","ping":69},{"user_id":280,"name":"Amogmat","steam_id":76561199417499373,"connected_time":1641000000000,"state":"active","ping":91},{"user_id":297,"name":"eat Pant","steam_id":76561197974965536,"connected_time":672000000000,"state":"active","ping":60},{"user_id":277,"name":"Speedy","steam_id":76561198080761661,"connected_time":1945000000000,"state":"active","ping":76},{"user_id":291,"name":"Fraglin","steam_id":76561198124964000,"connected_time":1249000000000,"state":"active","ping":72},{"user_id":292,"name":"Snazzy_","steam_id":76561198014803098,"connected_time":1239000000000,"state":"active","ping":64},{"user_id":238,"name":"daemon","steam_id":76561198001541433,"connected_time":4481000000000,"state":"active","ping":60},{"user_id":272,"name":"Lspan","steam_id":76561199002806208,"connected_time":2507000000000,"state":"active","ping":138},{"user_id":305,"name":"CapnKris22","steam_id":76561198049010994,"connected_time":100000000000,"state":"active","ping":75},{"user_id":283,"name":"day 1 no tren","steam_id":76561199246237446,"connected_time":1506000000000,"state":"active","ping":67},{"user_id":304,"name":"Super Spednought","steam_id":76561198247094688,"connected_time":180000000000,"state":"active","ping":55},{"user_id":306,"name":"Mr. Pink","steam_id":76561198065858172,"connected_time":69000000000,"state":"active","ping":65},{"user_id":298,"name":"Pathara44","steam_id":76561198048238620,"connected_time":639000000000,"state":"active","ping":56},{"user_id":299,"name":"StompOnYourFace!!!!","steam_id":76561198065581117,"connected_time":624000000000,"state":"active","ping":74},{"user_id":294,"name":"Elias","steam_id":76561198106431732,"connected_time":999000000000,"state":"active","ping":58},{"user_id":300,"name":"Yo Yo Foolish Joe","steam_id":76561198374930532,"connected_time":615000000000,"state":"active","ping":69},{"user_id":293,"name":"Cloud","steam_id":76561198954987128,"connected_time":1125000000000,"state":"active","ping":75},{"user_id":209,"name":"GhettoSmash@freenudecelebs.com","steam_id":76561198168864083,"connected_time":6051000000000,"state":"active","ping":102},{"user_id":303,"name":"Tri-Dot","steam_id":76561199075186597,"connected_time":458000000000,"state":"active","ping":71}]},{"server_id":36,"name":"Uncletopia | Chicago | 5 | All Maps","name_short":"chi-5","host":"chi-2.us.uncletopia.com","port":27015,"enabled":true,"region":"us-central","cc":"us","latitude":41.881832,"longitude":-87.62318,"reserved":0,"last_update":"0001-01-01T00:00:00Z","name_a2s":"Uncletopia | Chicago | 5 | All Maps","protocol":17,"map":"cp_mountainlab","folder":"tf","game":"Team Fortress","app_id":440,"player_count":0,"max_players":24,"Bots":0,"server_type":"Dedicated","server_os":"Linux","password":true,"vac":true,"version":"7932396","steam_id":85568392924866362,"keywords":["cp","nocrits","nodmgspread","uncletopia"],"game_id":440,"stv_port":27016,"stv_name":"Uncletopia | Chicago | 5 | All Maps | STV","players":null},{"server_id":37,"name":"Uncletopia | Chicago | 6 | All Maps","name_short":"chi-6","host":"chi-2.us.uncletopia.com","port":27025,"enabled":true,"region":"us-central","cc":"us","latitude":41.881832,"longitude":-87.62318,"reserved":0,"last_update":"0001-01-01T00:00:00Z","name_a2s":"Uncletopia | Chicago | 6 | All Maps","protocol":17,"map":"pl_borneo","folder":"tf","game":"Team Fortress","app_id":440,"player_count":0,"max_players":24,"Bots":0,"server_type":"Dedicated","server_os":"Linux","password":true,"vac":true,"version":"7932396","steam_id":85568392924866363,"keywords":["nocrits","nodmgspread","payload","uncletopia"],"game_id":440,"stv_port":27026,"stv_name":"Uncletopia | Chicago | 6 | All Maps | STV","players":null},{"server_id":38,"name":"Uncletopia | Chicago | 7 | Stopwatch Beta","name_short":"chi-7","host":"chi-2.us.uncletopia.com","port":27035,"enabled":true,"region":"us-central","cc":"us","latitude":41.881832,"longitude":-87.62318,"reserved":0,"last_update":"0001-01-01T00:00:00Z","name_a2s":"Uncletopia | Chicago | 7 | Stopwatch Beta","protocol":17,"map":"pl_borneo","folder":"tf","game":"Team Fortress","app_id":440,"player_count":0,"max_players":24,"Bots":0,"server_type":"Dedicated","server_os":"Linux","password":true,"vac":true,"version":"7932396","steam_id":85568392924866364,"keywords":["nocrits","nodmgspread","payload","uncletopia"],"game_id":440,"stv_port":27036,"stv_name":"Uncletopia | Chicago | 7 | Stopwatch Beta | STV","players":null},{"server_id":39,"name":"Uncletopia | Chicago | 8 | Community","name_short":"chi-8","host":"chi-2.us.uncletopia.com","port":27045,"enabled":true,"region":"us-central","cc":"us","latitude":41.881832,"longitude":-87.62318,"reserved":0,"last_update":"0001-01-01T00:00:00Z","name_a2s":"Uncletopia | Chicago | 8 | Community","protocol":17,"map":"koth_viaduct","folder":"tf","game":"Team Fortress","app_id":440,"player_count":0,"max_players":24,"Bots":0,"server_type":"Dedicated","server_os":"Linux","password":true,"vac":true,"version":"7932396","steam_id":85568392924866365,"keywords":["cp","nocrits","nodmgspread","uncletopia"],"game_id":440,"stv_port":27046,"stv_name":"Uncletopia | Chicago | 8 | Community | STV","players":null},{"server_id":8,"name":"Uncletopia | Dallas | 1 | All Maps","name_short":"dal-1","host":"dal-1.us.uncletopia.com","port":27015,"enabled":true,"region":"us-central","cc":"us","latitude":32.779167,"longitude":-96.80889,"reserved":0,"last_update":"0001-01-01T00:00:00Z","name_a2s":"Uncletopia | Dallas | 1 | All Maps","protocol":17,"map":"pl_borneo","folder":"tf","game":"Team Fortress","app_id":440,"player_count":24,"max_players":24,"Bots":0,"server_type":"Dedicated","server_os":"Linux","password":true,"vac":true,"version":"7932396","steam_id":85568392924469986,"keywords":["nocrits","nodmgspread","payload","uncletopia"],"game_id":440,"stv_port":27016,"stv_name":"Uncletopia | Dallas | 1 | All Maps | STV","players":[{"user_id":107,"name":"d0nut","steam_id":76561198072646165,"connected_time":5137000000000,"state":"active","ping":83},{"user_id":126,"name":"Poo","steam_id":76561198265144507,"connected_time":2289000000000,"state":"active","ping":96},{"user_id":139,"name":"MasterGeek.MX","steam_id":76561198063355220,"connected_time":580000000000,"state":"active","ping":95},{"user_id":10,"name":"penis scout","steam_id":76561199105479508,"connected_time":12519000000000,"state":"active","ping":80},{"user_id":127,"name":"onions","steam_id":76561198201259645,"connected_time":2066000000000,"state":"active","ping":90},{"user_id":69,"name":"SRP","steam_id":76561197995626651,"connected_time":7393000000000,"state":"active","ping":54},{"user_id":122,"name":"Big Russ","steam_id":76561198122943559,"connected_time":2466000000000,"state":"active","ping":81},{"user_id":16,"name":"Jerk Tryhard (roleplay)","steam_id":76561199470538309,"connected_time":12233000000000,"state":"active","ping":76},{"user_id":119,"name":"Dagoth Ur","steam_id":76561199007079402,"connected_time":2507000000000,"state":"active","ping":84},{"user_id":120,"name":"maksym.purski","steam_id":76561199381038035,"connected_time":2477000000000,"state":"active","ping":194},{"user_id":130,"name":"lion (real)","steam_id":76561198041770884,"connected_time":1807000000000,"state":"active","ping":81},{"user_id":104,"name":"Average","steam_id":76561199133007007,"connected_time":5193000000000,"state":"active","ping":74},{"user_id":125,"name":"Omegalite","steam_id":76561198796787101,"connected_time":2378000000000,"state":"active","ping":52},{"user_id":129,"name":"tlm","steam_id":76561198178457461,"connected_time":1943000000000,"state":"active","ping":54},{"user_id":78,"name":"HOODOO_LOVER_2007","steam_id":76561199087691214,"connected_time":7121000000000,"state":"active","ping":97},{"user_id":113,"name":"Bogey","steam_id":76561198096227944,"connected_time":4471000000000,"state":"active","ping":41},{"user_id":138,"name":"aiming with drawing tablet","steam_id":76561198397662124,"connected_time":711000000000,"state":"active","ping":65},{"user_id":81,"name":"Terminal Brain Rot","steam_id":76561198112594672,"connected_time":7019000000000,"state":"active","ping":71},{"user_id":141,"name":"Flying Emu","steam_id":76561198121632924,"connected_time":378000000000,"state":"active","ping":52},{"user_id":134,"name":"Hayd3nQ","steam_id":76561198124849736,"connected_time":1109000000000,"state":"active","ping":121},{"user_id":131,"name":"good soup guy","steam_id":76561199210237835,"connected_time":1735000000000,"state":"active","ping":93},{"user_id":132,"name":"Pok√©","steam_id":76561198100167641,"connected_time":1730000000000,"state":"active","ping":72},{"user_id":108,"name":"NeptuneÀñ‚Å∫ÔΩ°Àö‚ãÜÀô‚ô•","steam_id":76561199054203198,"connected_time":5086000000000,"state":"active","ping":75},{"user_id":142,"name":"freak","steam_id":76561198049544552,"connected_time":73000000000,"state":"active","ping":38}]},{"server_id":108,"name":"Uncletopia | Dallas | 2 | All Maps","name_short":"dal-2","host":"dal-1.us.uncletopia.com","port":27025,"enabled":true,"region":"us-central","cc":"us","latitude":32.779167,"longitude":-96.80889,"reserved":0,"last_update":"0001-01-01T00:00:00Z","name_a2s":"Uncletopia | Dallas | 2 | All Maps","protocol":17,"map":"cp_dustbowl","folder":"tf","game":"Team Fortress","app_id":440,"player_count":24,"max_players":24,"Bots":0,"server_type":"Dedicated","server_os":"Linux","password":true,"vac":true,"version":"7932396","steam_id":85568392924469988,"keywords":["cp","nocrits","nodmgspread","uncletopia"],"game_id":440,"stv_port":27026,"stv_name":"Uncletopia | Dallas | 2 | All Maps | STV","players":[{"user_id":145,"name":"aVO","steam_id":76561198161429389,"connected_time":1357000000000,"state":"active","ping":55},{"user_id":85,"name":"Mario","steam_id":76561198995177194,"connected_time":5311000000000,"state":"active","ping":64},{"user_id":173,"name":"scapegoat","steam_id":76561198188722751,"connected_time":212000000000,"state":"active","ping":77},{"user_id":175,"name":"fisherman","steam_id":76561198157435832,"connected_time":42000000000,"state":"active","ping":91},{"user_id":96,"name":"Scrux","steam_id":76561198129763115,"connected_time":4911000000000,"state":"active","ping":80},{"user_id":35,"name":"Ice cream sandwich","steam_id":76561198172748357,"connected_time":8340000000000,"state":"active","ping":91},{"user_id":160,"name":"inzang","steam_id":76561198088318074,"connected_time":875000000000,"state":"active","ping":53},{"user_id":171,"name":"Riffa","steam_id":76561198059200679,"connected_time":294000000000,"state":"active","ping":47},{"user_id":88,"name":"Tyler\u0026Fingers","steam_id":76561198085154485,"connected_time":5248000000000,"state":"active","ping":95},{"user_id":166,"name":"EverythingIsRed","steam_id":76561198000147208,"connected_time":572000000000,"state":"active","ping":94},{"user_id":100,"name":"cypherzero","steam_id":76561199182960322,"connected_time":4748000000000,"state":"active","ping":54},{"user_id":39,"name":"Landogg","steam_id":76561198049000586,"connected_time":8020000000000,"state":"active","ping":63},{"user_id":167,"name":"Raptortastic","steam_id":76561198105613110,"connected_time":442000000000,"state":"active","ping":75},{"user_id":142,"name":"Bucket Of Chicken","steam_id":76561199043091036,"connected_time":2519000000000,"state":"active","ping":176},{"user_id":154,"name":"Wert","steam_id":76561198368345693,"connected_time":1123000000000,"state":"active","ping":76},{"user_id":172,"name":"CapoCannoli","steam_id":76561199092143255,"connected_time":293000000000,"state":"active","ping":93},{"user_id":146,"name":"elephantofdoom","steam_id":76561198062436835,"connected_time":1312000000000,"state":"active","ping":85},{"user_id":147,"name":"?pengin","steam_id":76561198254236408,"connected_time":1306000000000,"state":"active","ping":102},{"user_id":164,"name":"Pinhead larry","steam_id":76561199247095754,"connected_time":652000000000,"state":"active","ping":117},{"user_id":156,"name":"Solstrom","steam_id":76561198313364985,"connected_time":989000000000,"state":"active","ping":90},{"user_id":165,"name":"No_Dictators","steam_id":76561199065777321,"connected_time":646000000000,"state":"active","ping":55},{"user_id":170,"name":"|WS| Don't_Taze_Me_Bro","steam_id":76561198043289495,"connected_time":356000000000,"state":"active","ping":80},{"user_id":149,"name":"-Shenanigans Inbound-","steam_id":76561197983340057,"connected_time":1283000000000,"state":"active","ping":118},{"user_id":162,"name":"ConnorBruh","steam_id":76561198869159718,"connected_time":816000000000,"state":"active","ping":64}]},{"server_id":5,"name":"Uncletopia | Frankfurt | 1 | All Maps","name_short":"frk-1","host":"frk-1.de.uncletopia.com","port":27015,"enabled":true,"region":"eu","cc":"de","latitude":50.110924,"longitude":8.682127,"reserved":0,"last_update":"0001-01-01T00:00:00Z","name_a2s":"Uncletopia | Frankfurt | 1 | All Maps","protocol":17,"map":"pl_pier","folder":"tf","game":"Team Fortress","app_id":440,"player_count":24,"max_players":24,"Bots":0,"server_type":"Dedicated","server_os":"Linux","password":true,"vac":true,"version":"7932396","steam_id":85568392924469989,"keywords":["nocrits","nodmgspread","payload","uncletopia"],"game_id":440,"stv_port":27016,"stv_name":"Uncletopia | Frankfurt | 1 | All Maps | STV","players":[{"user_id":190,"name":"Cyrell","steam_id":76561198158308194,"connected_time":3786000000000,"state":"active","ping":45},{"user_id":249,"name":"Avaros","steam_id":76561198241631054,"connected_time":599000000000,"state":"active","ping":83},{"user_id":250,"name":"swueuws","steam_id":76561198020716743,"connected_time":226000000000,"state":"active","ping":51},{"user_id":223,"name":"SunZi","steam_id":76561198139243535,"connected_time":2103000000000,"state":"active","ping":88},{"user_id":222,"name":"Feramansa","steam_id":76561198321286847,"connected_time":2154000000000,"state":"active","ping":123},{"user_id":240,"name":"Nibbenji2077","steam_id":76561199219663655,"connected_time":825000000000,"state":"active","ping":125},{"user_id":226,"name":"ozwk","steam_id":76561198062257357,"connected_time":1835000000000,"state":"active","ping":51},{"user_id":231,"name":"Jughead","steam_id":76561198000355410,"connected_time":1673000000000,"state":"active","ping":70},{"user_id":171,"name":"Paintbrush","steam_id":76561198119987705,"connected_time":5225000000000,"state":"active","ping":57},{"user_id":239,"name":"aljasir2006","steam_id":76561198857368390,"connected_time":836000000000,"state":"active","ping":146},{"user_id":208,"name":"‚òÆ","steam_id":76561198202990635,"connected_time":2961000000000,"state":"active","ping":61},{"user_id":209,"name":"mp1mp2mp3","steam_id":76561198088967665,"connected_time":2940000000000,"state":"active","ping":83},{"user_id":143,"name":"AleXandriX","steam_id":76561198035203950,"connected_time":6622000000000,"state":"active","ping":55},{"user_id":241,"name":"Vollys","steam_id":76561198018077773,"connected_time":795000000000,"state":"active","ping":58},{"user_id":242,"name":"DanteVeliki","steam_id":76561198159403183,"connected_time":791000000000,"state":"active","ping":82},{"user_id":233,"name":"Criminal","steam_id":76561198353399383,"connected_time":1599000000000,"state":"active","ping":67},{"user_id":243,"name":"Roland Deschain","steam_id":76561198023296355,"connected_time":777000000000,"state":"active","ping":101},{"user_id":229,"name":"Rook","steam_id":76561197995204779,"connected_time":1736000000000,"state":"active","ping":59},{"user_id":248,"name":"tired","steam_id":76561198046838168,"connected_time":658000000000,"state":"active","ping":45},{"user_id":230,"name":"BRICK TOP","steam_id":76561198014366715,"connected_time":1729000000000,"state":"active","ping":64},{"user_id":244,"name":"Zireael","steam_id":76561198188258338,"connected_time":776000000000,"state":"active","ping":118},{"user_id":246,"name":"Kirby","steam_id":76561199163178747,"connected_time":714000000000,"state":"active","ping":131},{"user_id":220,"name":"KAZAM | Tervez","steam_id":76561198045459068,"connected_time":2362000000000,"state":"active","ping":85},{"user_id":238,"name":"princess dvs","steam_id":76561198012901314,"connected_time":866000000000,"state":"active","ping":104}]},{"server_id":110,"name":"Uncletopia | Frankfurt | 2 | All Maps","name_short":"frk-2","host":"frk-1.de.uncletopia.com","port":27025,"enabled":true,"region":"eu","cc":"de","latitude":50.110924,"longitude":8.682127,"reserved":0,"last_update":"0001-01-01T00:00:00Z","name_a2s":"Uncletopia | Frankfurt | 2 | All Maps","protocol":17,"map":"pl_snowycoast","folder":"tf","game":"Team Fortress","app_id":440,"player_count":24,"max_players":24,"Bots":0,"server_type":"Dedicated","server_os":"Linux","password":true,"vac":true,"version":"7932396","steam_id":85568392924469990,"keywords":["nocrits","nodmgspread","payload","uncletopia"],"game_id":440,"stv_port":27026,"stv_name":"Uncletopia | Frankfurt | 2 | All Maps | STV","players":[{"user_id":471,"name":"Weeb exterminator","steam_id":76561198078964973,"connected_time":2704000000000,"state":"active","ping":79},{"user_id":499,"name":"Lyncurion","steam_id":76561199260022725,"connected_time":1208000000000,"state":"active","ping":76},{"user_id":492,"name":"panakid","steam_id":76561198364121077,"connected_time":1400000000000,"state":"active","ping":86},{"user_id":421,"name":"domek brexit geezerüá¨üáß","steam_id":76561198048447632,"connected_time":7460000000000,"state":"active","ping":62},{"user_id":442,"name":"ANGELFISH","steam_id":76561198027536466,"connected_time":5990000000000,"state":"active","ping":88},{"user_id":490,"name":"Berdly","steam_id":76561199029872533,"connected_time":1446000000000,"state":"active","ping":61},{"user_id":504,"name":"Salk√®","steam_id":76561199216611062,"connected_time":578000000000,"state":"active","ping":61},{"user_id":357,"name":"Sham!","steam_id":76561198050434275,"connected_time":9400000000000,"state":"active","ping":54},{"user_id":457,"name":"Greenmaker","steam_id":76561198060466591,"connected_time":4334000000000,"state":"active","ping":80},{"user_id":473,"name":"Soerlssoelss√∂en","steam_id":76561197993060585,"connected_time":2629000000000,"state":"active","ping":74},{"user_id":450,"name":"TrollSechsMann1941","steam_id":76561198150569669,"connected_time":5359000000000,"state":"active","ping":102},{"user_id":498,"name":"Virtual Turtle","steam_id":76561198056255236,"connected_time":1230000000000,"state":"active","ping":46},{"user_id":494,"name":"Adopted?","steam_id":76561198118667043,"connected_time":1390000000000,"state":"active","ping":58},{"user_id":478,"name":"Jruhh","steam_id":76561198842477772,"connected_time":2302000000000,"state":"active","ping":73},{"user_id":507,"name":"Vander","steam_id":76561198213669807,"connected_time":278000000000,"state":"active","ping":71},{"user_id":479,"name":"Milk","steam_id":76561198125876588,"connected_time":2301000000000,"state":"active","ping":52},{"user_id":502,"name":"Marukuso","steam_id":76561198154229845,"connected_time":822000000000,"state":"active","ping":69},{"user_id":503,"name":"PANK_Y","steam_id":76561198327715144,"connected_time":804000000000,"state":"active","ping":74},{"user_id":334,"name":"Tegnerud","steam_id":76561198214185612,"connected_time":9553000000000,"state":"active","ping":70},{"user_id":487,"name":"Dark Wizart","steam_id":76561198377689439,"connected_time":1549000000000,"state":"active","ping":80},{"user_id":501,"name":"Fairy Of Nature","steam_id":76561198274159048,"connected_time":861000000000,"state":"active","ping":68},{"user_id":466,"name":"nyanezt","steam_id":76561198253734265,"connected_time":3147000000000,"state":"active","ping":104},{"user_id":497,"name":"pepsimus_maximus (pepsi/max)","steam_id":76561198062425104,"connected_time":1304000000000,"state":"active","ping":85},{"user_id":508,"name":"Owenter","steam_id":76561198083201886,"connected_time":88000000000,"state":"active","ping":57}]},{"server_id":308,"name":"Uncletopia | Frankfurt | 3 | All Maps","name_short":"frk-3","host":"frk-1.de.uncletopia.com","port":27035,"enabled":true,"region":"eu","cc":"de","latitude":50.110924,"longitude":8.682127,"reserved":0,"last_update":"0001-01-01T00:00:00Z","name_a2s":"Uncletopia | Frankfurt | 3 | All Maps","protocol":17,"map":"cp_mountainlab","folder":"tf","game":"Team Fortress","app_id":440,"player_count":22,"max_players":24,"Bots":0,"server_type":"Dedicated","server_os":"Linux","password":true,"vac":true,"version":"7932396","steam_id":85568392924504274,"keywords":["cp","nocrits","nodmgspread","uncletopia"],"game_id":440,"stv_port":27036,"stv_name":"Uncletopia | Frankfurt | 3 | All Maps | STV","players":[{"user_id":354,"name":"Jokudami","steam_id":76561198346604154,"connected_time":599000000000,"state":"active","ping":43},{"user_id":361,"name":"B19-PP","steam_id":76561198057733920,"connected_time":289000000000,"state":"active","ping":116},{"user_id":331,"name":"thekoolest88","steam_id":76561199022415672,"connected_time":1997000000000,"state":"active","ping":138},{"user_id":330,"name":"ABbott_","steam_id":76561198030528873,"connected_time":2017000000000,"state":"active","ping":70},{"user_id":347,"name":"Dill Killem","steam_id":76561199071571354,"connected_time":968000000000,"state":"active","ping":69},{"user_id":337,"name":"m909","steam_id":76561198279621400,"connected_time":1660000000000,"state":"active","ping":86},{"user_id":333,"name":"_420_StopItDudeCmon","steam_id":76561197997146481,"connected_time":1940000000000,"state":"active","ping":63},{"user_id":334,"name":"‚ô§ ùòøùôÖ ùôÜ@ùôÉùô†ùôã\ufffd","steam_id":76561198308490265,"connected_time":1936000000000,"state":"active","ping":54},{"user_id":338,"name":"kluri","steam_id":76561198084518962,"connected_time":1648000000000,"state":"active","ping":67},{"user_id":368,"name":"WATANG!","steam_id":76561198040478926,"connected_time":9000000000,"state":"spawning","ping":60},{"user_id":362,"name":"BORGETENNISCLUB","steam_id":76561198049343723,"connected_time":288000000000,"state":"active","ping":64},{"user_id":359,"name":"Germanium_Ge","steam_id":76561198130561775,"connected_time":320000000000,"state":"active","ping":55},{"user_id":366,"name":"Peskyplumber64","steam_id":76561198044458330,"connected_time":131000000000,"state":"active","ping":69},{"user_id":364,"name":"Ixsus\u003c3","steam_id":76561198094756869,"connected_time":231000000000,"state":"active","ping":60},{"user_id":356,"name":"Terminally Offline","steam_id":76561198146194820,"connected_time":530000000000,"state":"active","ping":49},{"user_id":346,"name":"Porridge Moisturizer","steam_id":76561198336523288,"connected_time":1058000000000,"state":"active","ping":120},{"user_id":367,"name":"sunshine (she/her)","steam_id":76561198084597975,"connected_time":35000000000,"state":"active","ping":68},{"user_id":350,"name":"Bird On Your Window","steam_id":76561198081933130,"connected_time":881000000000,"state":"active","ping":73},{"user_id":321,"name":"The Wolf Leader","steam_id":76561198038007462,"connected_time":3038000000000,"state":"active","ping":89},{"user_id":342,"name":"Yuzu","steam_id":76561198121694613,"connected_time":1518000000000,"state":"active","ping":53},{"user_id":355,"name":"Sanity Issues","steam_id":76561198041535987,"connected_time":589000000000,"state":"active","ping":84},{"user_id":343,"name":"Well, off to hang myself","steam_id":76561198053374944,"connected_time":1509000000000,"state":"active","ping":72}]},{"server_id":309,"name":"Uncletopia | Frankfurt | 4 | All Maps","name_short":"frk-4","host":"frk-1.de.uncletopia.com","port":27045,"enabled":true,"region":"eu","cc":"de","latitude":50.110924,"longitude":8.682127,"reserved":0,"last_update":"0001-01-01T00:00:00Z","name_a2s":"Uncletopia | Frankfurt | 4 | All Maps","protocol":17,"map":"koth_highpass","folder":"tf","game":"Team Fortress","app_id":440,"player_count":0,"max_players":24,"Bots":0,"server_type":"Dedicated","server_os":"Linux","password":true,"vac":true,"version":"7932396","steam_id":85568392924504275,"keywords":["cp","nocrits","nodmgspread","uncletopia"],"game_id":440,"stv_port":27046,"stv_name":"Uncletopia | Frankfurt | 4 | All Maps | STV","players":null},{"server_id":310,"name":"Uncletopia | Frankfurt | 5 | All Maps","name_short":"frk-5","host":"frk-1.de.uncletopia.com","port":27055,"enabled":true,"region":"eu","cc":"de","latitude":50.110924,"longitude":8.682127,"reserved":0,"last_update":"0001-01-01T00:00:00Z","name_a2s":"Uncletopia | Frankfurt | 5 | All Maps","protocol":17,"map":"cp_dustbowl","folder":"tf","game":"Team Fortress","app_id":440,"player_count":24,"max_players":24,"Bots":0,"server_type":"Dedicated","server_os":"Linux","password":true,"vac":true,"version":"7932396","steam_id":85568392924504277,"keywords":["cp","nocrits","nodmgspread","uncletopia"],"game_id":440,"stv_port":27056,"stv_name":"Uncletopia | Frankfurt | 5 | All Maps | STV","players":[{"user_id":449,"name":"Usame bin Muhammed","steam_id":76561199198844185,"connected_time":1329000000000,"state":"active","ping":78},{"user_id":460,"name":"Covetousix","steam_id":76561198293936824,"connected_time":916000000000,"state":"active","ping":75},{"user_id":465,"name":"Yanniki","steam_id":76561197986058110,"connected_time":728000000000,"state":"active","ping":69},{"user_id":451,"name":"Szeregowy LowiRyb","steam_id":76561198855967762,"connected_time":1190000000000,"state":"active","ping":102},{"user_id":393,"name":"Cursed","steam_id":76561198381491880,"connected_time":4024000000000,"state":"active","ping":108},{"user_id":452,"name":"Flint","steam_id":76561197995920776,"connected_time":1144000000000,"state":"active","ping":45},{"user_id":466,"name":"Brinier","steam_id":76561199012604288,"connected_time":622000000000,"state":"active","ping":64},{"user_id":467,"name":"Ruby","steam_id":76561198120994559,"connected_time":585000000000,"state":"active","ping":58},{"user_id":392,"name":"Penser","steam_id":76561198798194358,"connected_time":4146000000000,"state":"active","ping":181},{"user_id":443,"name":"Suvis","steam_id":76561198153048602,"connected_time":2021000000000,"state":"active","ping":90},{"user_id":459,"name":"Chillrend | #SaveTF2","steam_id":76561198452963141,"connected_time":955000000000,"state":"active","ping":75},{"user_id":468,"name":"System","steam_id":76561199442503973,"connected_time":578000000000,"state":"active","ping":46},{"user_id":454,"name":"Pain in a Box","steam_id":76561197990777173,"connected_time":1134000000000,"state":"active","ping":100},{"user_id":472,"name":"Mr.TEA","steam_id":76561198014381591,"connected_time":210000000000,"state":"active","ping":61},{"user_id":469,"name":"Exe_Red","steam_id":76561198154952759,"connected_time":572000000000,"state":"active","ping":76},{"user_id":470,"name":"RicardoChL","steam_id":76561198452299994,"connected_time":522000000000,"state":"active","ping":75},{"user_id":403,"name":"el gnomo","steam_id":76561198117470985,"connected_time":3784000000000,"state":"active","ping":60},{"user_id":447,"name":"hallu","steam_id":76561198198581079,"connected_time":1614000000000,"state":"active","ping":95},{"user_id":458,"name":"The mspaint wizard","steam_id":76561198039109434,"connected_time":961000000000,"state":"active","ping":70},{"user_id":461,"name":"Mistake","steam_id":76561198114329003,"connected_time":901000000000,"state":"active","ping":63},{"user_id":435,"name":"Master Of Noob","steam_id":76561198217926783,"connected_time":2703000000000,"state":"active","ping":71},{"user_id":462,"name":"Mephistopheles","steam_id":76561199033390312,"connected_time":872000000000,"state":"active","ping":97},{"user_id":463,"name":"laxthefreak","steam_id":76561199020449059,"connected_time":870000000000,"state":"active","ping":192},{"user_id":471,"name":"Happy Cat","steam_id":76561198405359788,"connected_time":470000000000,"state":"active","ping":97}]},{"server_id":311,"name":"Uncletopia | Frankfurt | 6 | All Maps","name_short":"frk-6","host":"frk-1.de.uncletopia.com","port":27065,"enabled":true,"region":"eu","cc":"de","latitude":50.110924,"longitude":8.682127,"reserved":0,"last_update":"0001-01-01T00:00:00Z","name_a2s":"Uncletopia | Frankfurt | 6 | All Maps","protocol":17,"map":"pl_snowycoast","folder":"tf","game":"Team Fortress","app_id":440,"player_count":0,"max_players":24,"Bots":0,"server_type":"Dedicated","server_os":"Linux","password":true,"vac":true,"version":"7932396","steam_id":85568392924504278,"keywords":["nocrits","nodmgspread","payload","uncletopia"],"game_id":440,"stv_port":27066,"stv_name":"Uncletopia | Frankfurt | 6 | All Maps | STV","players":null},{"server_id":23,"name":"Uncletopia | Frankfurt | 7 | Stopwatch Beta","name_short":"frk-7","host":"frk-1.de.uncletopia.com","port":27075,"enabled":true,"region":"eu","cc":"de","latitude":50.110924,"longitude":8.682127,"reserved":0,"last_update":"0001-01-01T00:00:00Z","name_a2s":"Uncletopia | Frankfurt | 7 | Stopwatch Beta","protocol":17,"map":"pl_snowycoast","folder":"tf","game":"Team Fortress","app_id":440,"player_count":0,"max_players":24,"Bots":0,"server_type":"Dedicated","server_os":"Linux","password":true,"vac":true,"version":"7932396","steam_id":85568392924742827,"keywords":["nocrits","nodmgspread","payload","uncletopia"],"game_id":440,"stv_port":27076,"stv_name":"Uncletopia | Frankfurt | 7 | Stopwatch Beta | STV","players":null},{"server_id":24,"name":"Uncletopia | Frankfurt | 8 | Community","name_short":"frk-8","host":"frk-1.de.uncletopia.com","port":27085,"enabled":true,"region":"eu","cc":"de","latitude":50.110924,"longitude":8.682127,"reserved":0,"last_update":"0001-01-01T00:00:00Z","name_a2s":"Uncletopia | Frankfurt | 8 | Community","protocol":17,"map":"workshop/cp_fulgur_rc2a.ugc2068252300","folder":"tf","game":"Team Fortress","app_id":440,"player_count":0,"max_players":24,"Bots":0,"server_type":"Dedicated","server_os":"Linux","password":true,"vac":true,"version":"7932396","steam_id":85568392924742828,"keywords":["cp","nocrits","nodmgspread","uncletopia"],"game_id":440,"stv_port":27086,"stv_name":"Uncletopia | Frankfurt | 8 | Community | STV","players":null},{"server_id":202,"name":"Uncletopia | Hong Kong | 1 | All Maps","name_short":"hgk-1","host":"hgk-1.hk.uncletopia.com","port":27015,"enabled":true,"region":"asia","cc":"hk","latitude":22.302711,"longitude":114.177216,"reserved":0,"last_update":"0001-01-01T00:00:00Z","name_a2s":"Uncletopia | Hong Kong | 1 | All Maps","protocol":17,"map":"koth_lakeside_final","folder":"tf","game":"Team Fortress","app_id":440,"player_count":6,"max_players":24,"Bots":0,"server_type":"Dedicated","server_os":"Linux","password":true,"vac":true,"version":"7932396","steam_id":85568392924494504,"keywords":["cp","nocrits","nodmgspread","uncletopia"],"game_id":440,"stv_port":27016,"stv_name":"Uncletopia | Hong Kong | 1 | All Maps | STV","players":[{"user_id":856,"name":"TPC","steam_id":76561198127380768,"connected_time":1031000000000,"state":"active","ping":317},{"user_id":857,"name":"V","steam_id":76561199038861980,"connected_time":991000000000,"state":"active","ping":124},{"user_id":730,"name":"Kurtie","steam_id":76561198144737876,"connected_time":12501000000000,"state":"active","ping":68},{"user_id":850,"name":"dankz","steam_id":76561198418790381,"connected_time":1530000000000,"state":"active","ping":108},{"user_id":848,"name":"vui-f2p #savetf2","steam_id":76561199039461432,"connected_time":2007000000000,"state":"active","ping":78},{"user_id":849,"name":"RinRin the pansexual witch","steam_id":76561199024333803,"connected_time":1941000000000,"state":"active","ping":91}]},{"server_id":1,"name":"Uncletopia | Los Angeles | 1 | All Maps","name_short":"lax-1","host":"lax-1.us.uncletopia.com","port":27015,"enabled":true,"region":"us-west","cc":"us","latitude":33.94279,"longitude":-118.41004,"reserved":0,"last_update":"0001-01-01T00:00:00Z","name_a2s":"Uncletopia | Los Angeles | 1 | All Maps","protocol":17,"map":"pl_upward","folder":"tf","game":"Team Fortress","app_id":440,"player_count":23,"max_players":24,"Bots":0,"server_type":"Dedicated","server_os":"Linux","password":true,"vac":true,"version":"7932396","steam_id":85568392924469991,"keywords":["nocrits","nodmgspread","payload","uncletopia"],"game_id":440,"stv_port":27016,"stv_name":"Uncletopia | Los Angeles | 1 | All Maps | STV","players":[{"user_id":50,"name":"Nibotshooter","steam_id":76561199284825579,"connected_time":4467000000000,"state":"connecting","ping":78},{"user_id":115,"name":"Stapler","steam_id":76561198099295077,"connected_time":22000000000,"state":"connecting","ping":99},{"user_id":116,"name":"Mr.Nostalgic","steam_id":76561198083240822,"connected_time":16000000000,"state":"connecting","ping":74},{"user_id":112,"name":"round and puntable","steam_id":76561198392539722,"connected_time":391000000000,"state":"connecting","ping":169},{"user_id":80,"name":"RetroFerret","steam_id":76561199269714905,"connected_time":2454000000000,"state":"connecting","ping":126},{"user_id":76,"name":"JuliaDragon","steam_id":76561198175727790,"connected_time":2692000000000,"state":"connecting","ping":57},{"user_id":117,"name":"challen","steam_id":76561197961277967,"connected_time":5000000000,"state":"connecting","ping":104},{"user_id":58,"name":"The Sydney Sleeper Itself","steam_id":76561198180251763,"connected_time":3466000000000,"state":"connecting","ping":89},{"user_id":105,"name":"Zykron","steam_id":76561199056400800,"connected_time":1530000000000,"state":"connecting","ping":73},{"user_id":113,"name":"Hope0","steam_id":76561198100942212,"connected_time":374000000000,"state":"connecting","ping":126},{"user_id":101,"name":"Hot Milk + Big Slappies","steam_id":76561197988989149,"connected_time":1713000000000,"state":"connecting","ping":109},{"user_id":97,"name":"A Flying Kidney","steam_id":76561198046208175,"connected_time":1850000000000,"state":"connecting","ping":64},{"user_id":81,"name":"drevott74","steam_id":76561199262592779,"connected_time":2392000000000,"state":"connecting","ping":109},{"user_id":106,"name":"Herbal Infusion","steam_id":76561198146881319,"connected_time":1473000000000,"state":"connecting","ping":62},{"user_id":96,"name":"Nolan","steam_id":76561198169648081,"connected_time":1956000000000,"state":"connecting","ping":107},{"user_id":89,"name":"donke","steam_id":76561198828006787,"connected_time":2252000000000,"state":"connecting","ping":110},{"user_id":90,"name":"Ja","steam_id":76561198396340174,"connected_time":2223000000000,"state":"connecting","ping":124},{"user_id":108,"name":"Soviet Potato","steam_id":76561198068546113,"connected_time":1080000000000,"state":"connecting","ping":49},{"user_id":114,"name":"Jazpy","steam_id":76561198036872545,"connected_time":112000000000,"state":"connecting","ping":106},{"user_id":103,"name":"Vito","steam_id":76561198060846419,"connected_time":1677000000000,"state":"connecting","ping":91},{"user_id":92,"name":"Kewlbeyblader","steam_id":76561199102005597,"connected_time":2199000000000,"state":"connecting","ping":91},{"user_id":93,"name":"forntight gaming cool","steam_id":76561198823845027,"connected_time":2182000000000,"state":"connecting","ping":84},{"user_id":98,"name":"oske","steam_id":76561198131526809,"connected_time":1839000000000,"state":"connecting","ping":117}]},{"server_id":112,"name":"Uncletopia | Los Angeles | 2 | All Maps","name_short":"lax-2","host":"lax-1.us.uncletopia.com","port":27025,"enabled":true,"region":"us-west","cc":"us","latitude":33.94279,"longitude":-118.41004,"reserved":0,"last_update":"0001-01-01T00:00:00Z","name_a2s":"Uncletopia | Los Angeles | 2 | All Maps","protocol":17,"map":"koth_lakeside_final","folder":"tf","game":"Team Fortress","app_id":440,"player_count":0,"max_players":24,"Bots":0,"server_type":"Dedicated","server_os":"Linux","password":true,"vac":true,"version":"7932396","steam_id":85568392924469992,"keywords":["cp","nocrits","nodmgspread","uncletopia"],"game_id":440,"stv_port":27026,"stv_name":"Uncletopia | Los Angeles | 2 | All Maps | STV","players":null},{"server_id":324,"name":"Uncletopia | Los Angeles | 3 | All Maps","name_short":"lax-3","host":"lax-1.us.uncletopia.com","port":27035,"enabled":true,"region":"us-west","cc":"us","latitude":33.94279,"longitude":-118.41004,"reserved":0,"last_update":"0001-01-01T00:00:00Z","name_a2s":"Uncletopia | Los Angeles | 3 | All Maps","protocol":17,"map":"pl_badwater","folder":"tf","game":"Team Fortress","app_id":440,"player_count":0,"max_players":24,"Bots":0,"server_type":"Dedicated","server_os":"Linux","password":true,"vac":true,"version":"7932396","steam_id":85568392924510198,"keywords":["nocrits","nodmgspread","payload","uncletopia"],"game_id":440,"stv_port":27036,"stv_name":"Uncletopia | Los Angeles | 3 | All Maps | STV","players":null},{"server_id":25,"name":"Uncletopia | Los Angeles | 4 | Stopwatch Beta","name_short":"lax-4","host":"lax-1.us.uncletopia.com","port":27045,"enabled":true,"region":"us-west","cc":"us","latitude":33.94279,"longitude":-118.41004,"reserved":0,"last_update":"0001-01-01T00:00:00Z","name_a2s":"Uncletopia | Los Angeles | 4 | Stopwatch Beta","protocol":17,"map":"pl_swiftwater_final1","folder":"tf","game":"Team Fortress","app_id":440,"player_count":0,"max_players":24,"Bots":0,"server_type":"Dedicated","server_os":"Linux","password":true,"vac":true,"version":"7932396","steam_id":85568392924510199,"keywords":["nocrits","nodmgspread","payload","uncletopia"],"game_id":440,"stv_port":27046,"stv_name":"Uncletopia | Los Angeles | 4 | Stopwatch Beta | STV","players":null},{"server_id":11,"name":"Uncletopia | London | 1 | All Maps","name_short":"lon-1","host":"lon-1.uk.uncletopia.com","port":27015,"enabled":true,"region":"eu","cc":"gb","latitude":51.509865,"longitude":-0.118092,"reserved":0,"last_update":"0001-01-01T00:00:00Z","name_a2s":"Uncletopia | London | 1 | All Maps","protocol":17,"map":"pl_barnblitz","folder":"tf","game":"Team Fortress","app_id":440,"player_count":24,"max_players":24,"Bots":0,"server_type":"Dedicated","server_os":"Linux","password":true,"vac":true,"version":"7932396","steam_id":85568392924367362,"keywords":["nocrits","nodmgspread","payload","uncletopia"],"game_id":440,"stv_port":27016,"stv_name":"Uncletopia | London | 1 | All Maps | STV","players":[{"user_id":547,"name":"KLAMA  ‚ù§","steam_id":76561198351549661,"connected_time":816000000000,"state":"active","ping":128},{"user_id":533,"name":"Drunk russian with pyromania","steam_id":76561198195527328,"connected_time":1489000000000,"state":"active","ping":43},{"user_id":559,"name":"Frylock","steam_id":76561198050292560,"connected_time":328000000000,"state":"active","ping":45},{"user_id":556,"name":"Accident","steam_id":76561198037232641,"connected_time":360000000000,"state":"active","ping":61},{"user_id":551,"name":"Claw","steam_id":76561198060985181,"connected_time":462000000000,"state":"active","ping":54},{"user_id":553,"name":"mauro","steam_id":76561198150098510,"connected_time":411000000000,"state":"active","ping":51},{"user_id":560,"name":"Egor Pomidor","steam_id":76561199175688390,"connected_time":220000000000,"state":"active","ping":88},{"user_id":552,"name":"TheEventGuy","steam_id":76561197972797744,"connected_time":456000000000,"state":"active","ping":72},{"user_id":561,"name":"znunney","steam_id":76561199438501613,"connected_time":217000000000,"state":"active","ping":57},{"user_id":462,"name":"[P-roc] Cmm Bert","steam_id":76561198016658674,"connected_time":5425000000000,"state":"active","ping":61},{"user_id":545,"name":"dr sex","steam_id":76561199487883321,"connected_time":969000000000,"state":"active","ping":68},{"user_id":528,"name":"Nap","steam_id":76561198189679321,"connected_time":1738000000000,"state":"active","ping":59},{"user_id":529,"name":"Ash crow","steam_id":76561198368339225,"connected_time":1727000000000,"state":"active","ping":116},{"user_id":554,"name":"walking plane","steam_id":76561198146779559,"connected_time":409000000000,"state":"active","ping":89},{"user_id":557,"name":"Prison Mike","steam_id":76561198014221596,"connected_time":355000000000,"state":"active","ping":59},{"user_id":492,"name":"FirePenguin","steam_id":76561198151468340,"connected_time":3877000000000,"state":"active","ping":45},{"user_id":435,"name":"TheButterPickle","steam_id":76561198354317787,"connected_time":6425000000000,"state":"active","ping":67},{"user_id":495,"name":"TazerMonkey55","steam_id":76561198151547551,"connected_time":3630000000000,"state":"active","ping":52},{"user_id":537,"name":"FishNachoz","steam_id":76561198026519426,"connected_time":1304000000000,"state":"active","ping":53},{"user_id":540,"name":"TheGrayGamer","steam_id":76561198862727465,"connected_time":1209000000000,"state":"active","ping":57},{"user_id":558,"name":"cow tools","steam_id":76561198216447231,"connected_time":354000000000,"state":"active","ping":67},{"user_id":510,"name":"noel","steam_id":76561198128280883,"connected_time":2630000000000,"state":"active","ping":128},{"user_id":542,"name":"Lorenzo Lovers","steam_id":76561198073973581,"connected_time":1187000000000,"state":"active","ping":86},{"user_id":550,"name":"Steen","steam_id":76561198122992510,"connected_time":654000000000,"state":"active","ping":44}]},{"server_id":114,"name":"Uncletopia | London | 2 | All Maps","name_short":"lon-2","host":"lon-1.uk.uncletopia.com","port":27025,"enabled":true,"region":"eu","cc":"gb","latitude":51.509865,"longitude":-0.118092,"reserved":0,"last_update":"0001-01-01T00:00:00Z","name_a2s":"Uncletopia | London | 2 | All Maps","protocol":17,"map":"pl_swiftwater_final1","folder":"tf","game":"Team Fortress","app_id":440,"player_count":22,"max_players":24,"Bots":0,"server_type":"Dedicated","server_os":"Linux","password":true,"vac":true,"version":"7932396","steam_id":85568392924470941,"keywords":["nocrits","nodmgspread","payload","uncletopia"],"game_id":440,"stv_port":27026,"stv_name":"Uncletopia | London | 2 | All Maps | STV","players":[{"user_id":376,"name":"I.AM.THE.BOOP.WHICH.IS.APROACHI","steam_id":76561198049342507,"connected_time":1128000000000,"state":"active","ping":92},{"user_id":385,"name":"Townsend And Sons","steam_id":76561199072698153,"connected_time":814000000000,"state":"active","ping":69},{"user_id":391,"name":"TheDripCollector","steam_id":76561198834945599,"connected_time":408000000000,"state":"active","ping":57},{"user_id":377,"name":"P3rsErkki","steam_id":76561198063093495,"connected_time":1078000000000,"state":"active","ping":64},{"user_id":359,"name":"zvekan","steam_id":76561198381101196,"connected_time":2334000000000,"state":"active","ping":64},{"user_id":370,"name":"The Empire Ant","steam_id":76561198082466790,"connected_time":1817000000000,"state":"active","ping":64},{"user_id":353,"name":"flr","steam_id":76561198249327786,"connected_time":3009000000000,"state":"active","ping":61},{"user_id":378,"name":"dAg","steam_id":76561198047819527,"connected_time":1054000000000,"state":"active","ping":108},{"user_id":389,"name":"gerwazyjaworski735","steam_id":76561199489358269,"connected_time":630000000000,"state":"active","ping":60},{"user_id":361,"name":"ghostie","steam_id":76561199097303487,"connected_time":2321000000000,"state":"active","ping":46},{"user_id":342,"name":"aww yeah","steam_id":76561197992978878,"connected_time":3624000000000,"state":"active","ping":76},{"user_id":395,"name":"Vitamin Weee","steam_id":76561199183937747,"connected_time":83000000000,"state":"active","ping":86},{"user_id":393,"name":"78 :3","steam_id":76561198208328357,"connected_time":249000000000,"state":"active","ping":90},{"user_id":379,"name":"Zhe void is a spy","steam_id":76561199095428422,"connected_time":1040000000000,"state":"active","ping":61},{"user_id":396,"name":"Joe","steam_id":76561198061717026,"connected_time":29000000000,"state":"active","ping":45},{"user_id":366,"name":"Cosmetic brain","steam_id":76561198055936410,"connected_time":2135000000000,"state":"active","ping":75},{"user_id":390,"name":"how do i aim","steam_id":76561199230772684,"connected_time":629000000000,"state":"active","ping":42},{"user_id":360,"name":"john fortress","steam_id":76561198013237629,"connected_time":2328000000000,"state":"active","ping":96},{"user_id":325,"name":"average f2p","steam_id":76561199109449730,"connected_time":5836000000000,"state":"active","ping":156},{"user_id":255,"name":"JUST","steam_id":76561198069064885,"connected_time":10192000000000,"state":"active","ping":59},{"user_id":392,"name":"ducks","steam_id":76561198166148685,"connected_time":307000000000,"state":"active","ping":32},{"user_id":369,"name":"big heavy is heavy heavy","steam_id":76561198300059652,"connected_time":2012000000000,"state":"active","ping":65}]},{"server_id":320,"name":"Uncletopia | London | 3 | All Maps","name_short":"lon-3","host":"lon-1.uk.uncletopia.com","port":27035,"enabled":true,"region":"eu","cc":"gb","latitude":51.509865,"longitude":-0.118092,"reserved":0,"last_update":"0001-01-01T00:00:00Z","name_a2s":"Uncletopia | London | 3 | All Maps","protocol":17,"map":"pl_barnblitz","folder":"tf","game":"Team Fortress","app_id":440,"player_count":24,"max_players":24,"Bots":0,"server_type":"Dedicated","server_os":"Linux","password":true,"vac":true,"version":"7932396","steam_id":85568392924510192,"keywords":["nocrits","nodmgspread","payload","uncletopia"],"game_id":440,"stv_port":27036,"stv_name":"Uncletopia | London | 3 | All Maps | STV","players":[{"user_id":296,"name":"Chromega","steam_id":76561199075307750,"connected_time":124000000000,"state":"active","ping":66},{"user_id":286,"name":"Vikep'S","steam_id":76561199002274689,"connected_time":802000000000,"state":"active","ping":90},{"user_id":276,"name":"Son Goku","steam_id":76561199383437138,"connected_time":1500000000000,"state":"active","ping":130},{"user_id":283,"name":"Star Fighter","steam_id":76561198027893319,"connected_time":855000000000,"state":"active","ping":51},{"user_id":285,"name":"dochris.2","steam_id":76561198026478625,"connected_time":836000000000,"state":"active","ping":57},{"user_id":294,"name":"Iva","steam_id":76561198254963150,"connected_time":219000000000,"state":"active","ping":68},{"user_id":264,"name":"silicon based life form","steam_id":76561199127121346,"connected_time":2252000000000,"state":"active","ping":55},{"user_id":259,"name":"CalzoneCarl456","steam_id":76561198846982793,"connected_time":2419000000000,"state":"active","ping":43},{"user_id":235,"name":"hmscole09","steam_id":76561198811362788,"connected_time":5649000000000,"state":"active","ping":58},{"user_id":281,"name":"Sarahtonin","steam_id":76561197992144115,"connected_time":1233000000000,"state":"active","ping":75},{"user_id":244,"name":"mesŒª","steam_id":76561198324582918,"connected_time":4335000000000,"state":"active","ping":93},{"user_id":295,"name":"Arkheid","steam_id":76561198063066081,"connected_time":170000000000,"state":"active","ping":65},{"user_id":225,"name":"IndigoJones","steam_id":76561198050284262,"connected_time":5828000000000,"state":"active","ping":51},{"user_id":197,"name":"gr3821","steam_id":76561198091531010,"connected_time":7983000000000,"state":"active","ping":44},{"user_id":260,"name":"I am on the TF2 Scoreboard...","steam_id":76561198043850884,"connected_time":2380000000000,"state":"active","ping":53},{"user_id":232,"name":"Grillem Dafoe","steam_id":76561198306874574,"connected_time":5735000000000,"state":"active","ping":63},{"user_id":240,"name":"Snake-chan","steam_id":76561199044755854,"connected_time":5012000000000,"state":"active","ping":85},{"user_id":277,"name":"Skuld","steam_id":76561198064734905,"connected_time":1493000000000,"state":"active","ping":105},{"user_id":287,"name":"JanChr98","steam_id":76561198256239784,"connected_time":800000000000,"state":"active","ping":97},{"user_id":263,"name":"Heed","steam_id":76561198033605800,"connected_time":2286000000000,"state":"active","ping":90},{"user_id":254,"name":"sareena","steam_id":76561198810194062,"connected_time":3490000000000,"state":"active","ping":73},{"user_id":278,"name":"TrinTy[Eric]","steam_id":76561198233457496,"connected_time":1470000000000,"state":"active","ping":58},{"user_id":205,"name":"Yodesman","steam_id":76561198035765995,"connected_time":7104000000000,"state":"active","ping":123},{"user_id":288,"name":"MeatBall","steam_id":76561199055196261,"connected_time":769000000000,"state":"active","ping":145}]},{"server_id":321,"name":"Uncletopia | London | 4 | All Maps","name_short":"lon-4","host":"lon-1.uk.uncletopia.com","port":27045,"enabled":true,"region":"eu","cc":"gb","latitude":51.509865,"longitude":-0.118092,"reserved":0,"last_update":"0001-01-01T00:00:00Z","name_a2s":"Uncletopia | London | 4 | All Maps","protocol":17,"map":"cp_steel","folder":"tf","game":"Team Fortress","app_id":440,"player_count":20,"max_players":24,"Bots":0,"server_type":"Dedicated","server_os":"Linux","password":true,"vac":true,"version":"7932396","steam_id":85568392924510193,"keywords":["cp","nocrits","nodmgspread","uncletopia"],"game_id":440,"stv_port":27046,"stv_name":"Uncletopia | London | 4 | All Maps | STV","players":[{"user_id":8,"name":"Methril Gremloch","steam_id":76561198071454092,"connected_time":2772000000000,"state":"active","ping":59},{"user_id":9,"name":"Archangel","steam_id":76561198073273999,"connected_time":2746000000000,"state":"active","ping":42},{"user_id":10,"name":"Cofnie","steam_id":76561198043281570,"connected_time":2737000000000,"state":"active","ping":59},{"user_id":16,"name":"Penis Gaming","steam_id":76561199198623988,"connected_time":1403000000000,"state":"active","ping":67},{"user_id":31,"name":"puskamies","steam_id":76561198972627411,"connected_time":388000000000,"state":"active","ping":151},{"user_id":29,"name":"KindlyRaze","steam_id":76561198159660970,"connected_time":471000000000,"state":"active","ping":163},{"user_id":25,"name":"Rare bulldog owner","steam_id":76561199407941086,"connected_time":926000000000,"state":"active","ping":76},{"user_id":21,"name":"t√©t.","steam_id":76561198146309367,"connected_time":1077000000000,"state":"active","ping":101},{"user_id":22,"name":"Meg Thomas","steam_id":76561198308266951,"connected_time":1066000000000,"state":"active","ping":62},{"user_id":23,"name":"PANAANI","steam_id":76561198322322739,"connected_time":1045000000000,"state":"active","ping":78},{"user_id":43,"name":"ArionGekkota","steam_id":76561198326645963,"connected_time":9000000000,"state":"active","ping":84},{"user_id":32,"name":"sushii","steam_id":76561198297987372,"connected_time":359000000000,"state":"active","ping":51},{"user_id":33,"name":"Panda","steam_id":76561198176342325,"connected_time":317000000000,"state":"active","ping":93},{"user_id":34,"name":"Insain Bolt!","steam_id":76561198025687726,"connected_time":254000000000,"state":"active","ping":76},{"user_id":35,"name":"Bottle O' Scrumpy","steam_id":76561199244250562,"connected_time":245000000000,"state":"active","ping":99},{"user_id":36,"name":"Larry Penus","steam_id":76561198207546233,"connected_time":226000000000,"state":"active","ping":52},{"user_id":38,"name":"Lola bunny","steam_id":76561198214149431,"connected_time":151000000000,"state":"active","ping":47},{"user_id":40,"name":"OnlyFans Geezer","steam_id":76561198208093880,"connected_time":129000000000,"state":"active","ping":48},{"user_id":41,"name":"H‚ÇÇSO‚ÇÑ","steam_id":76561198846349729,"connected_time":115000000000,"state":"active","ping":140},{"user_id":42,"name":"Noob_with_source","steam_id":76561198870362103,"connected_time":104000000000,"state":"active","ping":54}]},{"server_id":21,"name":"Uncletopia | London | 5 | All Maps","name_short":"lon-5","host":"lon-1.uk.uncletopia.com","port":27055,"enabled":true,"region":"eu","cc":"gb","latitude":51.509865,"longitude":-0.118092,"reserved":0,"last_update":"0001-01-01T00:00:00Z","name_a2s":"Uncletopia | London | 5 | All Maps","protocol":17,"map":"pl_frontier_final","folder":"tf","game":"Team Fortress","app_id":440,"player_count":24,"max_players":24,"Bots":0,"server_type":"Dedicated","server_os":"Linux","password":true,"vac":true,"version":"7932396","steam_id":85568392924742829,"keywords":["nocrits","nodmgspread","payload","uncletopia"],"game_id":440,"stv_port":27056,"stv_name":"Uncletopia | London | 5 | All Maps | STV","players":[{"user_id":318,"name":"Grim the lemon","steam_id":76561199083433988,"connected_time":3498000000000,"state":"active","ping":48},{"user_id":363,"name":"Umby","steam_id":76561198166584580,"connected_time":704000000000,"state":"active","ping":37},{"user_id":353,"name":"fregaropa","steam_id":76561198150806166,"connected_time":1279000000000,"state":"active","ping":77},{"user_id":323,"name":"profreshional cactus","steam_id":76561198837919828,"connected_time":3075000000000,"state":"active","ping":110},{"user_id":379,"name":"GoatLord1","steam_id":76561198157964544,"connected_time":141000000000,"state":"active","ping":49},{"user_id":361,"name":"Fish 'n' Chips","steam_id":76561198033476886,"connected_time":824000000000,"state":"active","ping":50},{"user_id":364,"name":"hardy","steam_id":76561198029228735,"connected_time":700000000000,"state":"active","ping":49},{"user_id":365,"name":"Zylon","steam_id":76561198073269221,"connected_time":698000000000,"state":"active","ping":56},{"user_id":371,"name":"Fenty","steam_id":76561198044991858,"connected_time":420000000000,"state":"active","ping":73},{"user_id":357,"name":"hennerz","steam_id":76561199062586342,"connected_time":958000000000,"state":"active","ping":67},{"user_id":366,"name":"sHIFTINGvORTEX","steam_id":76561198231648332,"connected_time":681000000000,"state":"active","ping":62},{"user_id":348,"name":"magnos62564","steam_id":76561198356968225,"connected_time":1437000000000,"state":"active","ping":74},{"user_id":378,"name":"The Sex Defender","steam_id":76561198165732391,"connected_time":264000000000,"state":"active","ping":90},{"user_id":370,"name":"Wyodu","steam_id":76561198406237593,"connected_time":500000000000,"state":"active","ping":68},{"user_id":372,"name":"BonnieDrag","steam_id":76561199149216429,"connected_time":346000000000,"state":"active","ping":86},{"user_id":373,"name":"Dicartal","steam_id":76561198295793592,"connected_time":300000000000,"state":"active","ping":140},{"user_id":374,"name":"Clitorina","steam_id":76561198077570815,"connected_time":299000000000,"state":"active","ping":45},{"user_id":344,"name":"Burpman","steam_id":76561198022897937,"connected_time":1658000000000,"state":"active","ping":51},{"user_id":352,"name":"gneeda","steam_id":76561198147249160,"connected_time":1305000000000,"state":"active","ping":113},{"user_id":341,"name":"Hexagon","steam_id":76561198151205758,"connected_time":2159000000000,"state":"active","ping":60},{"user_id":375,"name":"Akuzoru","steam_id":76561198319963090,"connected_time":292000000000,"state":"active","ping":135},{"user_id":376,"name":"Deacon Dracul","steam_id":76561198046880663,"connected_time":285000000000,"state":"active","ping":101},{"user_id":377,"name":"vurtun","steam_id":76561198857395274,"connected_time":285000000000,"state":"active","ping":63},{"user_id":351,"name":"Archer","steam_id":76561198132860299,"connected_time":1366000000000,"state":"active","ping":57}]},{"server_id":22,"name":"Uncletopia | London | 6 | All Maps","name_short":"lon-6","host":"lon-1.uk.uncletopia.com","port":27065,"enabled":true,"region":"eu","cc":"gb","latitude":51.509865,"longitude":-0.118092,"reserved":0,"last_update":"0001-01-01T00:00:00Z","name_a2s":"Uncletopia | London | 6 | All Maps","protocol":17,"map":"koth_lakeside_final","folder":"tf","game":"Team Fortress","app_id":440,"player_count":24,"max_players":24,"Bots":0,"server_type":"Dedicated","server_os":"Linux","password":true,"vac":true,"version":"7932396","steam_id":85568392924742830,"keywords":["cp","nocrits","nodmgspread","uncletopia"],"game_id":440,"stv_port":27066,"stv_name":"Uncletopia | London | 6 | All Maps | STV","players":[{"user_id":159,"name":"dr. coom","steam_id":76561198172193711,"connected_time":2051000000000,"state":"active","ping":45},{"user_id":173,"name":"Lil Weird","steam_id":76561198230936712,"connected_time":675000000000,"state":"active","ping":57},{"user_id":64,"name":"real open player","steam_id":76561198148115584,"connected_time":8733000000000,"state":"active","ping":75},{"user_id":136,"name":"Anri Okita's Massive Milkers","steam_id":76561199186352720,"connected_time":2974000000000,"state":"active","ping":47},{"user_id":185,"name":"CousinJohnson","steam_id":76561198827001333,"connected_time":274000000000,"state":"active","ping":51},{"user_id":177,"name":"mr cock","steam_id":76561198857396812,"connected_time":501000000000,"state":"active","ping":51},{"user_id":186,"name":"Milosz52","steam_id":76561199060940204,"connected_time":262000000000,"state":"active","ping":84},{"user_id":62,"name":"1914","steam_id":76561198257383813,"connected_time":8944000000000,"state":"active","ping":57},{"user_id":130,"name":"Amoru","steam_id":76561198798161817,"connected_time":3687000000000,"state":"active","ping":88},{"user_id":135,"name":"kornetov.vitalya","steam_id":76561199286034833,"connected_time":2987000000000,"state":"active","ping":101},{"user_id":167,"name":"Oki (Bon)","steam_id":76561199047748534,"connected_time":1907000000000,"state":"active","ping":55},{"user_id":188,"name":"Stinky64","steam_id":76561198389725889,"connected_time":5000000000,"state":"spawning","ping":54},{"user_id":178,"name":"Tomato","steam_id":76561198057521522,"connected_time":500000000000,"state":"active","ping":52},{"user_id":179,"name":"Ozzy","steam_id":76561198147318568,"connected_time":499000000000,"state":"active","ping":57},{"user_id":187,"name":"PingouinPoilu","steam_id":76561198025089253,"connected_time":158000000000,"state":"active","ping":67},{"user_id":172,"name":"Vital","steam_id":76561198062052388,"connected_time":888000000000,"state":"active","ping":60},{"user_id":147,"name":"fatfuck","steam_id":76561198229995788,"connected_time":2812000000000,"state":"active","ping":106},{"user_id":180,"name":"Majami","steam_id":76561198054365738,"connected_time":485000000000,"state":"active","ping":84},{"user_id":164,"name":"Maranhadas","steam_id":76561198152856761,"connected_time":1987000000000,"state":"active","ping":148},{"user_id":189,"name":"Mrblimbo","steam_id":76561198160628200,"connected_time":4000000000,"state":"spawning","ping":50},{"user_id":182,"name":"murf \"murph\" murphy","steam_id":76561199184831395,"connected_time":401000000000,"state":"active","ping":45},{"user_id":183,"name":"Chief Executive Officer of Sex","steam_id":76561198385989487,"connected_time":337000000000,"state":"active","ping":102},{"user_id":166,"name":"dogs_drink_water","steam_id":76561198296630670,"connected_time":1918000000000,"state":"active","ping":67},{"user_id":184,"name":"yuck","steam_id":76561197987249568,"connected_time":336000000000,"state":"active","ping":102}]},{"server_id":40,"name":"Uncletopia | London | 7 | No Payload","name_short":"lon-7","host":"lon-1.uk.uncletopia.com","port":27075,"enabled":true,"region":"eu","cc":"gb","latitude":51.509865,"longitude":-0.118092,"reserved":0,"last_update":"0001-01-01T00:00:00Z","name_a2s":"Uncletopia | London | 7 | No Payload","protocol":17,"map":"ctf_2fort","folder":"tf","game":"Team Fortress","app_id":440,"player_count":16,"max_players":24,"Bots":0,"server_type":"Dedicated","server_os":"Linux","password":true,"vac":true,"version":"7932396","steam_id":85568392924964314,"keywords":["ctf","nocrits","nodmgspread","uncletopia"],"game_id":440,"stv_port":27076,"stv_name":"Uncletopia | London | 7 | No Payload | STV","players":[{"user_id":61,"name":"The Bread Bringer","steam_id":76561198264079743,"connected_time":4795000000000,"state":"active","ping":45},{"user_id":91,"name":"ya boi","steam_id":76561198320746074,"connected_time":2295000000000,"state":"active","ping":52},{"user_id":96,"name":"presidentialAIDS","steam_id":76561199257284077,"connected_time":1987000000000,"state":"active","ping":131},{"user_id":102,"name":"Michael","steam_id":76561198003146906,"connected_time":1299000000000,"state":"active","ping":41},{"user_id":105,"name":"Mr Gnash","steam_id":76561198007410990,"connected_time":952000000000,"state":"active","ping":67},{"user_id":106,"name":"Ledze Shuns Dope","steam_id":76561198049945010,"connected_time":688000000000,"state":"active","ping":50},{"user_id":107,"name":"The‚òÜCops","steam_id":76561198146358073,"connected_time":619000000000,"state":"active","ping":110},{"user_id":17,"name":"Kekeke","steam_id":76561198063672270,"connected_time":7603000000000,"state":"active","ping":101},{"user_id":109,"name":"Felix","steam_id":76561198172029653,"connected_time":293000000000,"state":"active","ping":84},{"user_id":112,"name":"Artificial.Ignorance","steam_id":76561198453090180,"connected_time":36000000000,"state":"active","ping":191},{"user_id":110,"name":"Narvhal√∏","steam_id":76561198147495474,"connected_time":260000000000,"state":"active","ping":45},{"user_id":77,"name":"I I","steam_id":76561199101935057,"connected_time":3455000000000,"state":"active","ping":102},{"user_id":81,"name":"Nobaddy","steam_id":76561198037871007,"connected_time":2937000000000,"state":"active","ping":83},{"user_id":111,"name":"Sir Sammie","steam_id":76561198329808137,"connected_time":96000000000,"state":"active","ping":46},{"user_id":113,"name":"President MGE","steam_id":76561198406320611,"connected_time":10000000000,"state":"spawning","ping":56},{"user_id":90,"name":"Ostara","steam_id":76561198200054489,"connected_time":2384000000000,"state":"active","ping":52}]},{"server_id":41,"name":"Uncletopia | London | 8 | Community","name_short":"lon-8","host":"lon-1.uk.uncletopia.com","port":27085,"enabled":true,"region":"eu","cc":"gb","latitude":51.509865,"longitude":-0.118092,"reserved":0,"last_update":"0001-01-01T00:00:00Z","name_a2s":"Uncletopia | London | 8 | Community","protocol":17,"map":"workshop/koth_slaughter_rc1.ugc1712845210","folder":"tf","game":"Team Fortress","app_id":440,"player_count":0,"max_players":24,"Bots":0,"server_type":"Dedicated","server_os":"Linux","password":true,"vac":true,"version":"7932396","steam_id":85568392924964315,"keywords":["cp","nocrits","nodmgspread","uncletopia"],"game_id":440,"stv_port":27086,"stv_name":"Uncletopia | London | 8 | Community | STV","players":null},{"server_id":300,"name":"Uncletopia | Montr√©al | 1 | All Maps","name_short":"mtl-1","host":"mtl-1.ca.uncletopia.com","port":27015,"enabled":true,"region":"us-east","cc":"ca","latitude":45.50889,"longitude":-73.56167,"reserved":0,"last_update":"0001-01-01T00:00:00Z","name_a2s":"Uncletopia | Montr√©al | 1 | All Maps","protocol":17,"map":"koth_cascade","folder":"tf","game":"Team Fortress","app_id":440,"player_count":0,"max_players":24,"Bots":0,"server_type":"Dedicated","server_os":"Linux","password":true,"vac":true,"version":"7932396","steam_id":85568392924500087,"keywords":["cp","nocrits","nodmgspread","uncletopia"],"game_id":440,"stv_port":27016,"stv_name":"Uncletopia | Montr√©al | 1 | All Maps | STV","players":null},{"server_id":301,"name":"Uncletopia | Montr√©al | 2 | All Maps","name_short":"mtl-2","host":"mtl-1.ca.uncletopia.com","port":27025,"enabled":true,"region":"us-east","cc":"ca","latitude":45.50889,"longitude":-73.56167,"reserved":0,"last_update":"0001-01-01T00:00:00Z","name_a2s":"Uncletopia | Montr√©al | 2 | All Maps","protocol":17,"map":"koth_lakeside_final","folder":"tf","game":"Team Fortress","app_id":440,"player_count":0,"max_players":24,"Bots":0,"server_type":"Dedicated","server_os":"Linux","password":true,"vac":true,"version":"7932396","steam_id":85568392924500088,"keywords":["cp","nocrits","nodmgspread","uncletopia"],"game_id":440,"stv_port":27026,"stv_name":"Uncletopia | Montr√©al | 2 | All Maps | STV","players":null},{"server_id":302,"name":"Uncletopia | Montr√©al | 3 | All Maps","name_short":"mtl-3","host":"mtl-1.ca.uncletopia.com","port":27035,"enabled":true,"region":"us-east","cc":"ca","latitude":45.50889,"longitude":-73.56167,"reserved":0,"last_update":"0001-01-01T00:00:00Z","name_a2s":"Uncletopia | Montr√©al | 3 | All Maps","protocol":17,"map":"cp_process_final","folder":"tf","game":"Team Fortress","app_id":440,"player_count":0,"max_players":24,"Bots":0,"server_type":"Dedicated","server_os":"Linux","password":true,"vac":true,"version":"7932396","steam_id":85568392924500089,"keywords":["cp","nocrits","nodmgspread","uncletopia"],"game_id":440,"stv_port":27036,"stv_name":"Uncletopia | Montr√©al | 3 | All Maps | STV","players":null},{"server_id":303,"name":"Uncletopia | Montr√©al | 4 | No Payload","name_short":"mtl-4","host":"mtl-1.ca.uncletopia.com","port":27045,"enabled":true,"region":"us-east","cc":"ca","latitude":45.50889,"longitude":-73.56167,"reserved":0,"last_update":"0001-01-01T00:00:00Z","name_a2s":"Uncletopia | Montr√©al | 4 | No Payload","protocol":17,"map":"cp_snakewater_final1","folder":"tf","game":"Team Fortress","app_id":440,"player_count":0,"max_players":24,"Bots":0,"server_type":"Dedicated","server_os":"Linux","password":true,"vac":true,"version":"7932396","steam_id":85568392924500090,"keywords":["cp","nocrits","nodmgspread","uncletopia"],"game_id":440,"stv_port":27046,"stv_name":"Uncletopia | Montr√©al | 4 | No Payload | STV","players":null},{"server_id":13,"name":"Uncletopia | New York City | 1 | All Maps","name_short":"nyc-1","host":"nyc-1.us.uncletopia.com","port":27015,"enabled":true,"region":"us-east","cc":"us","latitude":40.73061,"longitude":-73.93524,"reserved":0,"last_update":"0001-01-01T00:00:00Z","name_a2s":"Uncletopia | New York City | 1 | All Maps","protocol":17,"map":"koth_badlands","folder":"tf","game":"Team Fortress","app_id":440,"player_count":24,"max_players":24,"Bots":0,"server_type":"Dedicated","server_os":"Linux","password":true,"vac":true,"version":"7932396","steam_id":85568392924469993,"keywords":["cp","nocrits","nodmgspread","uncletopia"],"game_id":440,"stv_port":27016,"stv_name":"Uncletopia | New York City | 1 | All Maps | STV","players":[{"user_id":10,"name":"B‚àûp | ‚ù§Fasto‚ù§","steam_id":76561198118298527,"connected_time":2563000000000,"state":"active","ping":147},{"user_id":52,"name":"nav","steam_id":76561198872608266,"connected_time":86000000000,"state":"active","ping":62},{"user_id":42,"name":"Mog","steam_id":76561198025575870,"connected_time":337000000000,"state":"active","ping":59},{"user_id":13,"name":"B‚àûp | ‚ù§Hina‚ù§","steam_id":76561198058465921,"connected_time":2553000000000,"state":"active","ping":119},{"user_id":14,"name":"get scrongled, idiot","steam_id":76561198115874625,"connected_time":2484000000000,"state":"active","ping":47},{"user_id":15,"name":"toastman","steam_id":76561198207073088,"connected_time":2483000000000,"state":"active","ping":70},{"user_id":18,"name":"Shadowgear7","steam_id":76561198129463509,"connected_time":2293000000000,"state":"active","ping":64},{"user_id":17,"name":"Ethan","steam_id":76561199127788122,"connected_time":2387000000000,"state":"active","ping":74},{"user_id":19,"name":"Norman","steam_id":76561198154715990,"connected_time":2282000000000,"state":"active","ping":94},{"user_id":37,"name":"YOLOSWAG696969","steam_id":76561198337692867,"connected_time":940000000000,"state":"active","ping":72},{"user_id":22,"name":"bachphong760","steam_id":76561199433780443,"connected_time":1969000000000,"state":"active","ping":75},{"user_id":23,"name":"Cooldog","steam_id":76561198080548713,"connected_time":1957000000000,"state":"active","ping":55},{"user_id":50,"name":"donkeyballs2007","steam_id":76561199466298683,"connected_time":204000000000,"state":"active","ping":109},{"user_id":44,"name":"poopmaster","steam_id":76561199195196632,"connected_time":312000000000,"state":"active","ping":83},{"user_id":27,"name":"WhoThoughtWeWould","steam_id":76561199207409559,"connected_time":1812000000000,"state":"active","ping":83},{"user_id":38,"name":"*Star!?*","steam_id":76561198364012812,"connected_time":783000000000,"state":"active","ping":49},{"user_id":29,"name":"Wire  Bash","steam_id":76561198033268371,"connected_time":1795000000000,"state":"active","ping":135},{"user_id":46,"name":"dillon","steam_id":76561198118054166,"connected_time":305000000000,"state":"active","ping":48},{"user_id":47,"name":"Funke Monke","steam_id":76561198079440976,"connected_time":304000000000,"state":"active","ping":74},{"user_id":32,"name":"woople","steam_id":76561198076625889,"connected_time":1751000000000,"state":"active","ping":137},{"user_id":48,"name":"donatofina","steam_id":76561198353497885,"connected_time":258000000000,"state":"active","ping":173},{"user_id":49,"name":"crayonnipple","steam_id":76561198070253331,"connected_time":231000000000,"state":"active","ping":68},{"user_id":40,"name":"Kronk","steam_id":76561198063092125,"connected_time":354000000000,"state":"active","ping":63},{"user_id":54,"name":"eryn üó∫","steam_id":76561198004433070,"connected_time":20000000000,"state":"spawning","ping":91}]},{"server_id":14,"name":"Uncletopia | New York City | 2 | All Maps","name_short":"nyc-2","host":"nyc-1.us.uncletopia.com","port":27025,"enabled":true,"region":"us-east","cc":"us","latitude":40.73061,"longitude":-73.93524,"reserved":0,"last_update":"0001-01-01T00:00:00Z","name_a2s":"Uncletopia | New York City | 2 | All Maps","protocol":17,"map":"cp_gravelpit","folder":"tf","game":"Team Fortress","app_id":440,"player_count":24,"max_players":24,"Bots":0,"server_type":"Dedicated","server_os":"Linux","password":true,"vac":true,"version":"7932396","steam_id":85568392924469994,"keywords":["cp","nocrits","nodmgspread","uncletopia"],"game_id":440,"stv_port":27026,"stv_name":"Uncletopia | New York City | 2 | All Maps | STV","players":[{"user_id":187,"name":"Snake Handler","steam_id":76561198027198306,"connected_time":1140000000000,"state":"active","ping":61},{"user_id":193,"name":"Speedy The Hedgehog","steam_id":76561199075593441,"connected_time":807000000000,"state":"active","ping":60},{"user_id":183,"name":"Turtle Merchandiser","steam_id":76561198109160634,"connected_time":1288000000000,"state":"active","ping":99},{"user_id":188,"name":"Heir","steam_id":76561198350772943,"connected_time":965000000000,"state":"active","ping":67},{"user_id":181,"name":"artichoke","steam_id":76561198980994364,"connected_time":1694000000000,"state":"active","ping":91},{"user_id":189,"name":"Vegerot","steam_id":76561197997843710,"connected_time":910000000000,"state":"active","ping":45},{"user_id":182,"name":"littleshoey22","steam_id":76561198445815268,"connected_time":1484000000000,"state":"active","ping":125},{"user_id":185,"name":"The base jumper doesnt suck","steam_id":76561198317677617,"connected_time":1218000000000,"state":"active","ping":74},{"user_id":190,"name":"Qrbrbrbl","steam_id":76561197999497203,"connected_time":845000000000,"state":"active","ping":74},{"user_id":198,"name":"‚í∑‚ì™‚ì™‚ì£‚ì®‚ìí‚ìê‚ìö‚ìî‚ì¢","steam_id":76561198088776421,"connected_time":679000000000,"state":"active","ping":65},{"user_id":192,"name":"Cheesi","steam_id":76561199417190840,"connected_time":825000000000,"state":"active","ping":86},{"user_id":194,"name":"TDuke","steam_id":76561198826785435,"connected_time":801000000000,"state":"active","ping":60},{"user_id":195,"name":"YoursTruely","steam_id":76561198072129131,"connected_time":774000000000,"state":"active","ping":96},{"user_id":211,"name":"arinet","steam_id":76561198052572890,"connected_time":347000000000,"state":"active","ping":47},{"user_id":212,"name":"John Darksoul","steam_id":76561198999712284,"connected_time":150000000000,"state":"active","ping":82},{"user_id":199,"name":"Live","steam_id":76561198003194656,"connected_time":673000000000,"state":"active","ping":70},{"user_id":200,"name":"ùíÜùíóùíäùíçArnoldGamingÔæ†","steam_id":76561198040140247,"connected_time":630000000000,"state":"active","ping":98},{"user_id":201,"name":"you forgot the sauce","steam_id":76561198387016713,"connected_time":605000000000,"state":"active","ping":58},{"user_id":205,"name":"The World's Softest Sandwich","steam_id":76561198015577707,"connected_time":487000000000,"state":"active","ping":97},{"user_id":203,"name":"euphoricfilth","steam_id":76561198100160865,"connected_time":533000000000,"state":"active","ping":47},{"user_id":206,"name":"Fresh Lychee","steam_id":76561198045399559,"connected_time":485000000000,"state":"active","ping":63},{"user_id":207,"name":"SRGTBaron","steam_id":76561198908080035,"connected_time":461000000000,"state":"active","ping":81},{"user_id":209,"name":"Dusklight","steam_id":76561198036982638,"connected_time":408000000000,"state":"active","ping":88},{"user_id":210,"name":"The Land Admiral","steam_id":76561198159356609,"connected_time":406000000000,"state":"active","ping":55}]},{"server_id":15,"name":"Uncletopia | New York City | 3 | Stopwatch Beta","name_short":"nyc-3","host":"nyc-1.us.uncletopia.com","port":27035,"enabled":true,"region":"us-east","cc":"us","latitude":40.73061,"longitude":-73.93524,"reserved":0,"last_update":"0001-01-01T00:00:00Z","name_a2s":"Uncletopia | New York City | 3 | Stopwatch Beta","protocol":17,"map":"cp_sunshine","folder":"tf","game":"Team Fortress","app_id":440,"player_count":0,"max_players":24,"Bots":0,"server_type":"Dedicated","server_os":"Linux","password":true,"vac":true,"version":"7932396","steam_id":85568392924742820,"keywords":["cp","nocrits","nodmgspread","uncletopia"],"game_id":440,"stv_port":27036,"stv_name":"Uncletopia | New York City | 3 | Stopwatch Beta | STV","players":null},{"server_id":16,"name":"Uncletopia | New York City | 4 | Community","name_short":"nyc-4","host":"nyc-1.us.uncletopia.com","port":27045,"enabled":true,"region":"us-east","cc":"us","latitude":40.73061,"longitude":-73.93524,"reserved":0,"last_update":"0001-01-01T00:00:00Z","name_a2s":"Uncletopia | New York City | 4 | Community","protocol":17,"map":"workshop/cp_glacier_rc6.ugc2905735376","folder":"tf","game":"Team Fortress","app_id":440,"player_count":0,"max_players":24,"Bots":0,"server_type":"Dedicated","server_os":"Linux","password":true,"vac":true,"version":"7932396","steam_id":85568392924742821,"keywords":["cp","nocrits","nodmgspread","uncletopia"],"game_id":440,"stv_port":27046,"stv_name":"Uncletopia | New York City | 4 | Community | STV","players":null},{"server_id":142,"name":"Uncletopia | S√£o Paulo | 1 | All Maps","name_short":"sao-1","host":"sao-1.br.uncletopia.com","port":27015,"enabled":true,"region":"sa","cc":"br","latitude":-23.533773,"longitude":-46.62529,"reserved":0,"last_update":"0001-01-01T00:00:00Z","name_a2s":"Uncletopia | S√£o Paulo | 1 | All Maps","protocol":17,"map":"koth_viaduct","folder":"tf","game":"Team Fortress","app_id":440,"player_count":0,"max_players":24,"Bots":0,"server_type":"Dedicated","server_os":"Linux","password":true,"vac":true,"version":"7932396","steam_id":85568392924469996,"keywords":["cp","nocrits","nodmgspread","uncletopia"],"game_id":440,"stv_port":27016,"stv_name":"Uncletopia | S√£o Paulo | 1 | All Maps | STV","players":null},{"server_id":143,"name":"Uncletopia | S√£o Paulo | 2 | All Maps","name_short":"sao-2","host":"sao-2.br.uncletopia.com","port":27015,"enabled":true,"region":"sa","cc":"br","latitude":-23.533773,"longitude":-46.62529,"reserved":0,"last_update":"0001-01-01T00:00:00Z","name_a2s":"Uncletopia | S√£o Paulo | 2 | All Maps","protocol":17,"map":"pl_pier","folder":"tf","game":"Team Fortress","app_id":440,"player_count":3,"max_players":24,"Bots":0,"server_type":"Dedicated","server_os":"Linux","password":true,"vac":true,"version":"7932396","steam_id":85568392924485349,"keywords":["nocrits","nodmgspread","payload","uncletopia"],"game_id":440,"stv_port":27016,"stv_name":"Uncletopia | S√£o Paulo | 2 | All Maps | STV","players":[{"user_id":20,"name":"pro gamer","steam_id":76561199122534070,"connected_time":1078000000000,"state":"active","ping":234},{"user_id":21,"name":"The ham man","steam_id":76561199271544694,"connected_time":1067000000000,"state":"active","ping":221},{"user_id":22,"name":"anaheisenberg","steam_id":76561198304847307,"connected_time":40000000000,"state":"active","ping":52}]},{"server_id":7,"name":"Uncletopia | Seattle | 1 | All Maps","name_short":"sea-1","host":"sea-1.us.uncletopia.com","port":27015,"enabled":true,"region":"us-west","cc":"us","latitude":47.608013,"longitude":-122.33517,"reserved":0,"last_update":"0001-01-01T00:00:00Z","name_a2s":"Uncletopia | Seattle | 1 | All Maps","protocol":17,"map":"pl_swiftwater_final1","folder":"tf","game":"Team Fortress","app_id":440,"player_count":21,"max_players":24,"Bots":0,"server_type":"Dedicated","server_os":"Linux","password":true,"vac":true,"version":"7932396","steam_id":85568392924469997,"keywords":["nocrits","nodmgspread","payload","uncletopia"],"game_id":440,"stv_port":27016,"stv_name":"Uncletopia | Seattle | 1 | All Maps | STV","players":[{"user_id":138,"name":"captain red","steam_id":76561198191587983,"connected_time":7000000000,"state":"spawning","ping":84},{"user_id":95,"name":"Goldensliv","steam_id":76561198161673891,"connected_time":5173000000000,"state":"spawning","ping":70},{"user_id":125,"name":"Peppy","steam_id":76561198866629645,"connected_time":1504000000000,"state":"spawning","ping":70},{"user_id":114,"name":"Goth Spy Boyfriend","steam_id":76561198104086771,"connected_time":3313000000000,"state":"spawning","ping":83},{"user_id":8,"name":"CoffeeZombee","steam_id":76561198172708053,"connected_time":11118000000000,"state":"spawning","ping":121},{"user_id":9,"name":"Flippityflop","steam_id":76561198086692908,"connected_time":11106000000000,"state":"spawning","ping":115},{"user_id":132,"name":"Lucas","steam_id":76561198399704604,"connected_time":683000000000,"state":"spawning","ping":529},{"user_id":124,"name":"jayeskae","steam_id":76561198144220801,"connected_time":2107000000000,"state":"spawning","ping":52},{"user_id":73,"name":"Saggle","steam_id":76561198056075147,"connected_time":6737000000000,"state":"spawning","ping":180},{"user_id":84,"name":"Little Linguine","steam_id":76561198816986370,"connected_time":6397000000000,"state":"spawning","ping":50},{"user_id":133,"name":"MegaBitmap","steam_id":76561198086027059,"connected_time":680000000000,"state":"spawning","ping":51},{"user_id":126,"name":"Themasterman75","steam_id":76561199385573293,"connected_time":1501000000000,"state":"spawning","ping":63},{"user_id":136,"name":"Andy the Hoff","steam_id":76561198043115724,"connected_time":130000000000,"state":"spawning","ping":70},{"user_id":70,"name":"Sprit ‚ô•","steam_id":76561198268780781,"connected_time":6836000000000,"state":"spawning","ping":104},{"user_id":118,"name":"fwoov","steam_id":76561198129166260,"connected_time":2851000000000,"state":"spawning","ping":86},{"user_id":129,"name":"Thewaffleman141","steam_id":76561198083068694,"connected_time":1060000000000,"state":"spawning","ping":96},{"user_id":135,"name":"Jacob Hornberger 2016","steam_id":76561198204549723,"connected_time":164000000000,"state":"spawning","ping":109},{"user_id":134,"name":"Funky Kong Jr.","steam_id":76561199351137762,"connected_time":661000000000,"state":"spawning","ping":50},{"user_id":127,"name":"Mario","steam_id":76561198321794277,"connected_time":1461000000000,"state":"spawning","ping":78},{"user_id":85,"name":"comet sooicidy","steam_id":76561198025173479,"connected_time":6339000000000,"state":"spawning","ping":140},{"user_id":137,"name":"DrD","steam_id":76561198067266383,"connected_time":29000000000,"state":"spawning","ping":37}]},{"server_id":119,"name":"Uncletopia | Seattle | 2 | All Maps","name_short":"sea-2","host":"sea-1.us.uncletopia.com","port":27025,"enabled":true,"region":"us-west","cc":"us","latitude":47.608013,"longitude":-122.33517,"reserved":0,"last_update":"0001-01-01T00:00:00Z","name_a2s":"Uncletopia | Seattle | 2 | All Maps","protocol":17,"map":"pl_pier","folder":"tf","game":"Team Fortress","app_id":440,"player_count":23,"max_players":24,"Bots":0,"server_type":"Dedicated","server_os":"Linux","password":true,"vac":true,"version":"7932396","steam_id":85568392924469998,"keywords":["nocrits","nodmgspread","payload","uncletopia"],"game_id":440,"stv_port":27026,"stv_name":"Uncletopia | Seattle | 2 | All Maps | STV","players":[{"user_id":81,"name":"Ostin","steam_id":76561197993726444,"connected_time":1043000000000,"state":"active","ping":101},{"user_id":58,"name":"Dreamzapp","steam_id":76561199084936632,"connected_time":2389000000000,"state":"active","ping":94},{"user_id":63,"name":"TeriyakiDynamite","steam_id":76561198050049346,"connected_time":1957000000000,"state":"active","ping":88},{"user_id":22,"name":"FlameShake","steam_id":76561198084021005,"connected_time":4318000000000,"state":"active","ping":120},{"user_id":82,"name":"Underscorn","steam_id":76561198374209415,"connected_time":910000000000,"state":"active","ping":110},{"user_id":64,"name":"‚ô• Milo Stefferson ‚ô• (Soupca","steam_id":76561198056269538,"connected_time":1947000000000,"state":"active","ping":54},{"user_id":92,"name":"Young Sandwich","steam_id":76561198180908482,"connected_time":231000000000,"state":"active","ping":91},{"user_id":69,"name":"Aeris","steam_id":76561198287271028,"connected_time":1684000000000,"state":"active","ping":101},{"user_id":33,"name":"lil homie gay ass","steam_id":76561198044804626,"connected_time":3485000000000,"state":"active","ping":107},{"user_id":91,"name":"Dimple #TF2Center","steam_id":76561198980324190,"connected_time":257000000000,"state":"active","ping":46},{"user_id":70,"name":"Evenaris","steam_id":76561198087544319,"connected_time":1678000000000,"state":"active","ping":75},{"user_id":71,"name":"eepy ahh gobin","steam_id":76561198072879485,"connected_time":1636000000000,"state":"active","ping":91},{"user_id":84,"name":"monk mode protocol","steam_id":76561199100342013,"connected_time":604000000000,"state":"active","ping":74},{"user_id":39,"name":"gore vid","steam_id":76561199001918194,"connected_time":3209000000000,"state":"active","ping":90},{"user_id":93,"name":"DistantJragon","steam_id":76561198117563641,"connected_time":188000000000,"state":"active","ping":103},{"user_id":52,"name":"yahweh","steam_id":76561198347225801,"connected_time":2791000000000,"state":"active","ping":48},{"user_id":77,"name":"Keamy","steam_id":76561199471434875,"connected_time":1376000000000,"state":"active","ping":37},{"user_id":90,"name":"Elmer","steam_id":76561199072479189,"connected_time":295000000000,"state":"active","ping":84},{"user_id":95,"name":"bonk","steam_id":76561198922763623,"connected_time":66000000000,"state":"active","ping":76},{"user_id":73,"name":"green bean","steam_id":76561198113099204,"connected_time":1569000000000,"state":"active","ping":60},{"user_id":79,"name":"color gibus enjoyer","steam_id":76561198253531160,"connected_time":1267000000000,"state":"active","ping":62},{"user_id":89,"name":"Vruk","steam_id":76561198116930332,"connected_time":553000000000,"state":"active","ping":63},{"user_id":88,"name":"RavingLuntic","steam_id":76561198010360784,"connected_time":565000000000,"state":"active","ping":68}]},{"server_id":406,"name":"Uncletopia | Seattle | 3 | Stopwatch Beta","name_short":"sea-3","host":"sea-1.us.uncletopia.com","port":27035,"enabled":true,"region":"us-west","cc":"us","latitude":47.608013,"longitude":-122.33517,"reserved":0,"last_update":"0001-01-01T00:00:00Z","name_a2s":"Uncletopia | Seattle | 3 | Stopwatch Beta","protocol":17,"map":"cp_mountainlab","folder":"tf","game":"Team Fortress","app_id":440,"player_count":0,"max_players":24,"Bots":0,"server_type":"Dedicated","server_os":"Linux","password":true,"vac":true,"version":"7932396","steam_id":85568392924515217,"keywords":["cp","nocrits","nodmgspread","uncletopia"],"game_id":440,"stv_port":27036,"stv_name":"Uncletopia | Seattle | 3 | Stopwatch Beta | STV","players":null},{"server_id":17,"name":"Uncletopia | San Francisco | 1 | All Maps","name_short":"sfo-1","host":"sfo-1.us.uncletopia.com","port":27015,"enabled":true,"region":"us-west","cc":"us","latitude":37.77397,"longitude":-122.4313,"reserved":0,"last_update":"0001-01-01T00:00:00Z","name_a2s":"Uncletopia | San Francisco | 1 | All Maps","protocol":17,"map":"cp_mountainlab","folder":"tf","game":"Team Fortress","app_id":440,"player_count":13,"max_players":24,"Bots":0,"server_type":"Dedicated","server_os":"Linux","password":true,"vac":true,"version":"7932396","steam_id":85568392924469999,"keywords":["cp","nocrits","nodmgspread","uncletopia"],"game_id":440,"stv_port":27016,"stv_name":"Uncletopia | San Francisco | 1 | All Maps | STV","players":[{"user_id":6,"name":"a cat plushie","steam_id":76561198080046542,"connected_time":1512000000000,"state":"active","ping":59},{"user_id":7,"name":"Goose of Wisdom","steam_id":76561198233465044,"connected_time":1203000000000,"state":"active","ping":131},{"user_id":10,"name":"a single goal","steam_id":76561198042913843,"connected_time":827000000000,"state":"active","ping":74},{"user_id":12,"name":"HC5708","steam_id":76561198886183880,"connected_time":529000000000,"state":"active","ping":107},{"user_id":13,"name":"Kylar","steam_id":76561198196979431,"connected_time":226000000000,"state":"active","ping":65},{"user_id":14,"name":"Thequirka","steam_id":76561198968058652,"connected_time":206000000000,"state":"active","ping":72},{"user_id":15,"name":"Joseph's mother","steam_id":76561199085562740,"connected_time":153000000000,"state":"active","ping":114},{"user_id":16,"name":"Ranswon Swanson","steam_id":76561199489382664,"connected_time":141000000000,"state":"active","ping":119},{"user_id":17,"name":"Meet The Kazoo","steam_id":76561199229748300,"connected_time":130000000000,"state":"active","ping":70},{"user_id":18,"name":"Ockulus","steam_id":76561199069638460,"connected_time":112000000000,"state":"active","ping":61},{"user_id":19,"name":"Darkspiral","steam_id":76561198080807559,"connected_time":103000000000,"state":"active","ping":58},{"user_id":20,"name":"Emoki","steam_id":76561198294188756,"connected_time":47000000000,"state":"active","ping":101},{"user_id":21,"name":"WarbleBorble","steam_id":76561198132094572,"connected_time":41000000000,"state":"active","ping":90}]},{"server_id":18,"name":"Uncletopia | San Francisco | 2 | All Maps","name_short":"sfo-2","host":"sfo-1.us.uncletopia.com","port":27025,"enabled":true,"region":"us-west","cc":"us","latitude":37.77397,"longitude":-122.4313,"reserved":0,"last_update":"0001-01-01T00:00:00Z","name_a2s":"Uncletopia | San Francisco | 2 | All Maps","protocol":17,"map":"cp_dustbowl","folder":"tf","game":"Team Fortress","app_id":440,"player_count":0,"max_players":24,"Bots":0,"server_type":"Dedicated","server_os":"Linux","password":true,"vac":true,"version":"7932396","steam_id":85568392924470000,"keywords":["cp","nocrits","nodmgspread","uncletopia"],"game_id":440,"stv_port":27026,"stv_name":"Uncletopia | San Francisco | 2 | All Maps | STV","players":null},{"server_id":19,"name":"Uncletopia | San Francisco | 3 | Stopwatch Beta","name_short":"sfo-3","host":"sfo-1.us.uncletopia.com","port":27035,"enabled":true,"region":"us-west","cc":"us","latitude":37.77397,"longitude":-122.4313,"reserved":0,"last_update":"0001-01-01T00:00:00Z","name_a2s":"Uncletopia | San Francisco | 3 | Stopwatch Beta","protocol":17,"map":"cp_process_final","folder":"tf","game":"Team Fortress","app_id":440,"player_count":0,"max_players":24,"Bots":0,"server_type":"Dedicated","server_os":"Linux","password":true,"vac":true,"version":"7932396","steam_id":85568392924742824,"keywords":["cp","nocrits","nodmgspread","uncletopia"],"game_id":440,"stv_port":27036,"stv_name":"Uncletopia | San Francisco | 3 | Stopwatch Beta | STV","players":null},{"server_id":20,"name":"Uncletopia | San Francisco | 4 | Community","name_short":"sfo-4","host":"sfo-1.us.uncletopia.com","port":27045,"enabled":true,"region":"us-west","cc":"us","latitude":37.77397,"longitude":-122.4313,"reserved":0,"last_update":"0001-01-01T00:00:00Z","name_a2s":"Uncletopia | San Francisco | 4 | Community","protocol":17,"map":"pl_borneo","folder":"tf","game":"Team Fortress","app_id":440,"player_count":0,"max_players":24,"Bots":0,"server_type":"Dedicated","server_os":"Linux","password":true,"vac":true,"version":"7932396","steam_id":85568392924742826,"keywords":["nocrits","nodmgspread","payload","uncletopia"],"game_id":440,"stv_port":27046,"stv_name":"Uncletopia | San Francisco | 4 | Community | STV","players":null},{"server_id":141,"name":"Uncletopia | Sydney | 1 | All Maps","name_short":"syd-1","host":"syd-1.au.uncletopia.com","port":27015,"enabled":true,"region":"au","cc":"au","latitude":-33.865143,"longitude":151.2099,"reserved":0,"last_update":"0001-01-01T00:00:00Z","name_a2s":"Uncletopia | Sydney | 1 | All Maps","protocol":17,"map":"cp_process_final","folder":"tf","game":"Team Fortress","app_id":440,"player_count":0,"max_players":24,"Bots":0,"server_type":"Dedicated","server_os":"Linux","password":true,"vac":true,"version":"7932396","steam_id":85568392924470001,"keywords":["cp","nocrits","nodmgspread","uncletopia"],"game_id":440,"stv_port":27016,"stv_name":"Uncletopia | Sydney | 1 | All Maps | STV","players":null},{"server_id":123,"name":"Uncletopia | Sydney | 2 | All Maps","name_short":"syd-2","host":"syd-1.au.uncletopia.com","port":27025,"enabled":true,"region":"au","cc":"au","latitude":-33.865143,"longitude":151.2099,"reserved":0,"last_update":"0001-01-01T00:00:00Z","name_a2s":"Uncletopia | Sydney | 2 | All Maps","protocol":17,"map":"ctf_2fort","folder":"tf","game":"Team Fortress","app_id":440,"player_count":0,"max_players":24,"Bots":0,"server_type":"Dedicated","server_os":"Linux","password":true,"vac":true,"version":"7932396","steam_id":85568392924470002,"keywords":["ctf","nocrits","nodmgspread","uncletopia"],"game_id":440,"stv_port":27026,"stv_name":"Uncletopia | Sydney | 2 | All Maps | STV","players":null},{"server_id":395,"name":"Uncletopia | Sydney | 3 | All Maps","name_short":"syd-3","host":"syd-1.au.uncletopia.com","port":27035,"enabled":true,"region":"au","cc":"au","latitude":-33.865143,"longitude":151.2099,"reserved":0,"last_update":"0001-01-01T00:00:00Z","name_a2s":"Uncletopia | Sydney | 3 | All Maps","protocol":17,"map":"koth_cascade","folder":"tf","game":"Team Fortress","app_id":440,"player_count":0,"max_players":24,"Bots":0,"server_type":"Dedicated","server_os":"Linux","password":true,"vac":true,"version":"7932396","steam_id":85568392925194467,"keywords":["cp","nocrits","nodmgspread","uncletopia"],"game_id":440,"stv_port":27036,"stv_name":"Uncletopia | Sydney | 3 | All Maps | STV","players":null},{"server_id":396,"name":"Uncletopia | Sydney | 4 | All Maps","name_short":"syd-4","host":"syd-1.au.uncletopia.com","port":27045,"enabled":true,"region":"au","cc":"au","latitude":-33.865143,"longitude":151.2099,"reserved":0,"last_update":"0001-01-01T00:00:00Z","name_a2s":"Uncletopia | Sydney | 4 | All Maps","protocol":17,"map":"koth_lakeside_final","folder":"tf","game":"Team Fortress","app_id":440,"player_count":0,"max_players":24,"Bots":0,"server_type":"Dedicated","server_os":"Linux","password":true,"vac":true,"version":"7932396","steam_id":85568392925397958,"keywords":["cp","nocrits","nodmgspread","uncletopia"],"game_id":440,"stv_port":27046,"stv_name":"Uncletopia | Sydney | 4 | All Maps | STV","players":null},{"server_id":58,"name":"Uncletopia | Sydney | 5 | Stopwatch Beta","name_short":"syd-5","host":"syd-1.au.uncletopia.com","port":27055,"enabled":true,"region":"au","cc":"au","latitude":-33.865143,"longitude":151.2099,"reserved":0,"last_update":"0001-01-01T00:00:00Z","name_a2s":"Uncletopia | Sydney | 5 | Stopwatch Beta","protocol":17,"map":"pl_borneo","folder":"tf","game":"Team Fortress","app_id":440,"player_count":0,"max_players":24,"Bots":0,"server_type":"Dedicated","server_os":"Linux","password":true,"vac":true,"version":"7932396","steam_id":85568392925397959,"keywords":["nocrits","nodmgspread","payload","uncletopia"],"game_id":440,"stv_port":27056,"stv_name":"Uncletopia | Sydney | 5 | Stopwatch Beta | STV","players":null},{"server_id":59,"name":"Uncletopia | Sydney | 6 | Community","name_short":"syd-6","host":"syd-1.au.uncletopia.com","port":27065,"enabled":true,"region":"au","cc":"au","latitude":-33.865143,"longitude":151.2099,"reserved":0,"last_update":"0001-01-01T00:00:00Z","name_a2s":"Uncletopia | Sydney | 6 | Community","protocol":17,"map":"workshop/koth_product_final.ugc454272353","folder":"tf","game":"Team Fortress","app_id":440,"player_count":0,"max_players":24,"Bots":0,"server_type":"Dedicated","server_os":"Linux","password":true,"vac":true,"version":"7932396","steam_id":85568392925397960,"keywords":["cp","nocrits","nodmgspread","uncletopia"],"game_id":440,"stv_port":27066,"stv_name":"Uncletopia | Sydney | 6 | Community | STV","players":null},{"server_id":49,"name":"Uncletopia | Warsaw | 1 | All Maps","name_short":"waw-1","host":"waw-1.pl.uncletopia.com","port":27015,"enabled":true,"region":"eu","cc":"pl","latitude":52.2297,"longitude":21.017532,"reserved":0,"last_update":"0001-01-01T00:00:00Z","name_a2s":"","protocol":0,"map":"","folder":"","game":"","app_id":0,"player_count":0,"max_players":0,"Bots":0,"server_type":"","server_os":"","password":false,"vac":false,"version":"","steam_id":0,"keywords":null,"game_id":0,"stv_port":0,"stv_name":"","players":null},{"server_id":50,"name":"Uncletopia | Warsaw | 2 | All Maps","name_short":"waw-2","host":"waw-1.pl.uncletopia.com","port":27025,"enabled":true,"region":"eu","cc":"pl","latitude":52.2297,"longitude":21.017532,"reserved":0,"last_update":"0001-01-01T00:00:00Z","name_a2s":"Uncletopia | Warsaw | 2 | All Maps","protocol":17,"map":"pl_barnblitz","folder":"tf","game":"Team Fortress","app_id":440,"player_count":0,"max_players":24,"Bots":0,"server_type":"Dedicated","server_os":"Linux","password":true,"vac":true,"version":"7932396","steam_id":85568392925397851,"keywords":["nocrits","nodmgspread","payload","uncletopia"],"game_id":440,"stv_port":27026,"stv_name":"Uncletopia | Warsaw | 2 | All Maps | STV","players":null},{"server_id":51,"name":"Uncletopia | Warsaw | 3 | All Maps","name_short":"waw-3","host":"waw-1.pl.uncletopia.com","port":27035,"enabled":true,"region":"eu","cc":"pl","latitude":52.2297,"longitude":21.017532,"reserved":0,"last_update":"0001-01-01T00:00:00Z","name_a2s":"Uncletopia | Warsaw | 3 | All Maps","protocol":17,"map":"koth_lakeside_final","folder":"tf","game":"Team Fortress","app_id":440,"player_count":0,"max_players":24,"Bots":0,"server_type":"Dedicated","server_os":"Linux","password":true,"vac":true,"version":"7932396","steam_id":85568392925397852,"keywords":["cp","nocrits","nodmgspread","uncletopia"],"game_id":440,"stv_port":27036,"stv_name":"Uncletopia | Warsaw | 3 | All Maps | STV","players":null},{"server_id":52,"name":"Uncletopia | Warsaw | 4 | All Maps","name_short":"waw-4","host":"waw-1.pl.uncletopia.com","port":27045,"enabled":true,"region":"eu","cc":"pl","latitude":52.2297,"longitude":21.017532,"reserved":0,"last_update":"0001-01-01T00:00:00Z","name_a2s":"Uncletopia | Warsaw | 4 | All Maps","protocol":17,"map":"pl_swiftwater_final1","folder":"tf","game":"Team Fortress","app_id":440,"player_count":0,"max_players":24,"Bots":0,"server_type":"Dedicated","server_os":"Linux","password":true,"vac":true,"version":"7932396","steam_id":85568392925397853,"keywords":["nocrits","nodmgspread","payload","uncletopia"],"game_id":440,"stv_port":27046,"stv_name":"Uncletopia | Warsaw | 4 | All Maps | STV","players":null},{"server_id":53,"name":"Uncletopia | Warsaw | 5 | Stopwatch Beta","name_short":"waw-5","host":"waw-1.pl.uncletopia.com","port":27055,"enabled":true,"region":"eu","cc":"pl","latitude":52.2297,"longitude":21.017532,"reserved":0,"last_update":"0001-01-01T00:00:00Z","name_a2s":"Uncletopia | Warsaw | 5 | Stopwatch Beta","protocol":17,"map":"koth_lakeside_final","folder":"tf","game":"Team Fortress","app_id":440,"player_count":0,"max_players":24,"Bots":0,"server_type":"Dedicated","server_os":"Linux","password":true,"vac":true,"version":"7932396","steam_id":85568392925397854,"keywords":["cp","nocrits","nodmgspread","uncletopia"],"game_id":440,"stv_port":27056,"stv_name":"Uncletopia | Warsaw | 5 | Stopwatch Beta | STV","players":null},{"server_id":54,"name":"Uncletopia | Warsaw | 6 | Community","name_short":"waw-6","host":"waw-1.pl.uncletopia.com","port":27065,"enabled":true,"region":"eu","cc":"pl","latitude":52.2297,"longitude":21.017532,"reserved":0,"last_update":"0001-01-01T00:00:00Z","name_a2s":"Uncletopia | Warsaw | 6 | Community","protocol":17,"map":"workshop/koth_ramjam_rc1.ugc459778887","folder":"tf","game":"Team Fortress","app_id":440,"player_count":0,"max_players":24,"Bots":0,"server_type":"Dedicated","server_os":"Linux","password":true,"vac":true,"version":"7932396","steam_id":85568392925397856,"keywords":["cp","nocrits","nodmgspread","uncletopia"],"game_id":440,"stv_port":27066,"stv_name":"Uncletopia | Warsaw | 6 | Community | STV","players":null}]}