{"status":true,"message":"","result":[{"server_id":9,"name":"Uncletopia | Atlanta | 1 | All Maps","name_short":"atl-1","host":"atl-1.us.uncletopia.com","port":27015,"enabled":true,"region":"us-east","cc":"us","latitude":33.753746,"longitude":-84.38633,"reserved":0,"last_update":"0001-01-01T00:00:00Z","name_a2s":"Uncletopia | Atlanta | 1 | All Maps","protocol":17,"map":"pl_upward","folder":"tf","game":"Team Fortress","app_id":440,"player_count":24,"max_players":24,"Bots":0,"server_type":"Dedicated","server_os":"Linux","password":true,"vac":true,"version":"7961495","steam_id":85568392924469982,"keywords":["nocrits","nodmgspread","payload","uncletopia"],"game_id":440,"stv_port":27016,"stv_name":"Uncletopia | Atlanta | 1 | All Maps | STV","players":[{"user_id":5,"name":"Hugecliff","steam_id":76561198044288534,"connected_time":8329000000000,"state":"active","ping":76},{"user_id":109,"name":"PrismDraco","steam_id":76561198417653604,"connected_time":240000000000,"state":"active","ping":69},{"user_id":86,"name":"ATL1 | on my hunting trip","steam_id":76561198315341646,"connected_time":787000000000,"state":"active","ping":74},{"user_id":46,"name":"Dreszerg","steam_id":76561198838757422,"connected_time":5122000000000,"state":"active","ping":80},{"user_id":9,"name":"Ashes!","steam_id":76561197998475441,"connected_time":8234000000000,"state":"active","ping":72},{"user_id":50,"name":"why","steam_id":76561199059732212,"connected_time":4694000000000,"state":"active","ping":59},{"user_id":70,"name":"z","steam_id":76561198377478982,"connected_time":1998000000000,"state":"active","ping":64},{"user_id":79,"name":"Monkey Mode","steam_id":76561197961267543,"connected_time":925000000000,"state":"active","ping":59},{"user_id":47,"name":"are u five??","steam_id":76561198197058638,"connected_time":5122000000000,"state":"active","ping":45},{"user_id":14,"name":"CHI1 | cola","steam_id":76561198374390458,"connected_time":8043000000000,"state":"active","ping":69},{"user_id":108,"name":"freyja","steam_id":76561198249206656,"connected_time":496000000000,"state":"active","ping":80},{"user_id":61,"name":"Decolour","steam_id":76561199045608372,"connected_time":3334000000000,"state":"active","ping":76},{"user_id":110,"name":"Thotimus Begonimus","steam_id":76561197970275938,"connected_time":74000000000,"state":"active","ping":47},{"user_id":74,"name":"Im High","steam_id":76561198049954886,"connected_time":1940000000000,"state":"active","ping":74},{"user_id":69,"name":"Punchy","steam_id":76561198200000641,"connected_time":2056000000000,"state":"active","ping":104},{"user_id":65,"name":"joe","steam_id":76561198045781320,"connected_time":2965000000000,"state":"active","ping":87},{"user_id":80,"name":"ATL1 | to4st","steam_id":76561198981009008,"connected_time":925000000000,"state":"active","ping":67},{"user_id":57,"name":"Oddball","steam_id":76561198040440984,"connected_time":4049000000000,"state":"active","ping":90},{"user_id":76,"name":"mangokip","steam_id":76561198156471516,"connected_time":1765000000000,"state":"active","ping":50},{"user_id":27,"name":"Jango","steam_id":76561198084589742,"connected_time":7555000000000,"state":"active","ping":61},{"user_id":81,"name":"Gus","steam_id":76561198085203150,"connected_time":907000000000,"state":"active","ping":66},{"user_id":78,"name":"Albino Jellyfish","steam_id":76561198208561097,"connected_time":932000000000,"state":"active","ping":56},{"user_id":84,"name":"Jared","steam_id":76561198027210228,"connected_time":878000000000,"state":"active","ping":87},{"user_id":33,"name":"Kuri","steam_id":76561199037050183,"connected_time":7251000000000,"state":"active","ping":87}]},{"server_id":104,"name":"Uncletopia | Atlanta | 2 | All Maps","name_short":"atl-2","host":"atl-1.us.uncletopia.com","port":27025,"enabled":true,"region":"us-east","cc":"us","latitude":33.753746,"longitude":-84.38633,"reserved":0,"last_update":"0001-01-01T00:00:00Z","name_a2s":"Uncletopia | Atlanta | 2 | All Maps","protocol":17,"map":"cp_altitude","folder":"tf","game":"Team Fortress","app_id":440,"player_count":15,"max_players":24,"Bots":0,"server_type":"Dedicated","server_os":"Linux","password":true,"vac":true,"version":"7961495","steam_id":85568392924469983,"keywords":["cp","nocrits","nodmgspread","uncletopia"],"game_id":440,"stv_port":27026,"stv_name":"Uncletopia | Atlanta | 2 | All Maps | STV","players":[{"user_id":25,"name":"Boot Mcstink","steam_id":76561199226873917,"connected_time":2457000000000,"state":"active","ping":69},{"user_id":24,"name":"purplerosie334","steam_id":76561199491020174,"connected_time":2593000000000,"state":"active","ping":88},{"user_id":35,"name":"Unbind E","steam_id":76561199163159040,"connected_time":555000000000,"state":"active","ping":61},{"user_id":32,"name":"CoRot-7 B","steam_id":76561199013689510,"connected_time":748000000000,"state":"active","ping":70},{"user_id":51,"name":"America's Craziest Golf Fan","steam_id":76561198054966395,"connected_time":30000000000,"state":"active","ping":79},{"user_id":30,"name":"aaaxel","steam_id":76561198137430598,"connected_time":1275000000000,"state":"active","ping":64},{"user_id":34,"name":"Karbon","steam_id":76561198045708281,"connected_time":658000000000,"state":"active","ping":70},{"user_id":36,"name":"Mike","steam_id":76561198131770162,"connected_time":519000000000,"state":"active","ping":123},{"user_id":48,"name":"Suspect3","steam_id":76561198063178963,"connected_time":148000000000,"state":"active","ping":67},{"user_id":38,"name":"Jammy Jam","steam_id":76561198122804589,"connected_time":440000000000,"state":"active","ping":67},{"user_id":52,"name":"KiloeJet","steam_id":76561199084636926,"connected_time":10000000000,"state":"spawning","ping":91},{"user_id":53,"name":"Ave Christus Rex!","steam_id":76561198796456568,"connected_time":9000000000,"state":"active","ping":132},{"user_id":44,"name":"Sergeant Daniel","steam_id":76561199048334740,"connected_time":261000000000,"state":"active","ping":105},{"user_id":49,"name":"meg00se","steam_id":76561198246267144,"connected_time":132000000000,"state":"active","ping":56},{"user_id":50,"name":"Train","steam_id":76561199105132740,"connected_time":127000000000,"state":"spawning","ping":108}]},{"server_id":400,"name":"Uncletopia | Atlanta | 3 | Stopwatch","name_short":"atl-3","host":"atl-1.us.uncletopia.com","port":27035,"enabled":true,"region":"us-east","cc":"us","latitude":33.753746,"longitude":-84.38633,"reserved":0,"last_update":"0001-01-01T00:00:00Z","name_a2s":"Uncletopia | Atlanta | 3 | Stopwatch","protocol":17,"map":"pl_badwater","folder":"tf","game":"Team Fortress","app_id":440,"player_count":0,"max_players":24,"Bots":0,"server_type":"Dedicated","server_os":"Linux","password":true,"vac":true,"version":"7961495","steam_id":85568392924515187,"keywords":["nocrits","nodmgspread","payload","uncletopia"],"game_id":440,"stv_port":27036,"stv_name":"Uncletopia | Atlanta | 3 | Stopwatch | STV","players":null},{"server_id":401,"name":"Uncletopia | Atlanta | 4 | Community","name_short":"atl-4","host":"atl-1.us.uncletopia.com","port":27045,"enabled":true,"region":"us-east","cc":"us","latitude":33.753746,"longitude":-84.38633,"reserved":0,"last_update":"0001-01-01T00:00:00Z","name_a2s":"Uncletopia | Atlanta | 4 | Community","protocol":17,"map":"workshop/koth_ramjam_rc1.ugc459778887","folder":"tf","game":"Team Fortress","app_id":440,"player_count":0,"max_players":24,"Bots":0,"server_type":"Dedicated","server_os":"Linux","password":true,"vac":true,"version":"7961495","steam_id":85568392924515188,"keywords":["cp","nocrits","nodmgspread","uncletopia"],"game_id":440,"stv_port":27046,"stv_name":"Uncletopia | Atlanta | 4 | Community | STV","players":null},{"server_id":2,"name":"Uncletopia | Chicago | 1 | All Maps","name_short":"chi-1","host":"chi-1.us.uncletopia.com","port":27015,"enabled":true,"region":"us-central","cc":"us","latitude":41.881832,"longitude":-87.62318,"reserved":0,"last_update":"0001-01-01T00:00:00Z","name_a2s":"Uncletopia | Chicago | 1 | All Maps","protocol":17,"map":"pl_borneo","folder":"tf","game":"Team Fortress","app_id":440,"player_count":20,"max_players":24,"Bots":0,"server_type":"Dedicated","server_os":"Linux","password":true,"vac":true,"version":"7961495","steam_id":85568392924469984,"keywords":["nocrits","nodmgspread","payload","uncletopia"],"game_id":440,"stv_port":27016,"stv_name":"Uncletopia | Chicago | 1 | All Maps | STV","players":[{"user_id":436,"name":"wet_socks_only","steam_id":76561199101019354,"connected_time":911000000000,"state":"spawning","ping":89},{"user_id":401,"name":"Ickly","steam_id":76561198130225025,"connected_time":4323000000000,"state":"spawning","ping":165},{"user_id":267,"name":"TheAlmightyG","steam_id":76561198235946096,"connected_time":14550000000000,"state":"spawning","ping":127},{"user_id":425,"name":"__Creed__","steam_id":76561198138564169,"connected_time":2272000000000,"state":"spawning","ping":192},{"user_id":444,"name":"Dr_4ws0m3","steam_id":76561198313853996,"connected_time":11000000000,"state":"spawning","ping":101},{"user_id":445,"name":"sigma male","steam_id":76561198025011611,"connected_time":11000000000,"state":"spawning","ping":139},{"user_id":431,"name":"Big Phonius","steam_id":76561199092395311,"connected_time":1171000000000,"state":"spawning","ping":155},{"user_id":328,"name":"TheCenturionGod","steam_id":76561199054176354,"connected_time":8009000000000,"state":"spawning","ping":156},{"user_id":279,"name":"Celestial Bodies","steam_id":76561198212572955,"connected_time":13115000000000,"state":"spawning","ping":164},{"user_id":271,"name":"loser","steam_id":76561198259380127,"connected_time":13470000000000,"state":"spawning","ping":132},{"user_id":442,"name":"CombatStraps","steam_id":76561198356280659,"connected_time":34000000000,"state":"connecting","ping":75},{"user_id":435,"name":"gesture jester","steam_id":76561198850632709,"connected_time":1114000000000,"state":"spawning","ping":116},{"user_id":433,"name":"Drooop","steam_id":76561198856700517,"connected_time":1170000000000,"state":"spawning","ping":114},{"user_id":434,"name":"ThunderMonkey (SMOKE)","steam_id":76561198017631728,"connected_time":1158000000000,"state":"spawning","ping":122},{"user_id":349,"name":"Swiftmend","steam_id":76561197995595692,"connected_time":5364000000000,"state":"spawning","ping":172},{"user_id":440,"name":"BIG HOG","steam_id":76561198079923652,"connected_time":415000000000,"state":"spawning","ping":224},{"user_id":443,"name":"Scout Cuomo","steam_id":76561198345950408,"connected_time":32000000000,"state":"connecting","ping":59},{"user_id":429,"name":"Spy Gaming","steam_id":76561198453295613,"connected_time":1989000000000,"state":"spawning","ping":144},{"user_id":345,"name":"‚ô•Bunny‚ô•Slut‚ô•","steam_id":76561198206376851,"connected_time":5981000000000,"state":"spawning","ping":372},{"user_id":423,"name":".JIFF","steam_id":76561198045181760,"connected_time":2442000000000,"state":"spawning","ping":146}]},{"server_id":106,"name":"Uncletopia | Chicago | 2 | All Maps","name_short":"chi-2","host":"chi-1.us.uncletopia.com","port":27025,"enabled":true,"region":"us-central","cc":"us","latitude":41.881832,"longitude":-87.62318,"reserved":0,"last_update":"0001-01-01T00:00:00Z","name_a2s":"Uncletopia | Chicago | 2 | All Maps","protocol":17,"map":"cp_metalworks","folder":"tf","game":"Team Fortress","app_id":440,"player_count":24,"max_players":24,"Bots":0,"server_type":"Dedicated","server_os":"Linux","password":true,"vac":true,"version":"7961495","steam_id":85568392924469985,"keywords":["cp","nocrits","nodmgspread","uncletopia"],"game_id":440,"stv_port":27026,"stv_name":"Uncletopia | Chicago | 2 | All Maps | STV","players":[{"user_id":555,"name":"story","steam_id":76561199088496817,"connected_time":280000000000,"state":"active","ping":82},{"user_id":484,"name":"waltie","steam_id":76561197998340309,"connected_time":6217000000000,"state":"active","ping":44},{"user_id":534,"name":"Funny Guppy Gaming","steam_id":76561198095550617,"connected_time":1924000000000,"state":"active","ping":87},{"user_id":477,"name":"Lee?","steam_id":76561199060892634,"connected_time":6661000000000,"state":"active","ping":91},{"user_id":475,"name":"Huloon","steam_id":76561198070837568,"connected_time":6930000000000,"state":"active","ping":69},{"user_id":526,"name":"Mimt1111","steam_id":76561198392370897,"connected_time":2716000000000,"state":"active","ping":103},{"user_id":436,"name":"SpongedSocks","steam_id":76561198374009086,"connected_time":9234000000000,"state":"active","ping":68},{"user_id":452,"name":"Some_Arse","steam_id":76561198039095394,"connected_time":8522000000000,"state":"active","ping":62},{"user_id":540,"name":"Lennu","steam_id":76561198060730154,"connected_time":1164000000000,"state":"active","ping":69},{"user_id":441,"name":"Omega.J2","steam_id":76561198065028876,"connected_time":9192000000000,"state":"active","ping":74},{"user_id":554,"name":"sheybey","steam_id":76561198013023668,"connected_time":743000000000,"state":"active","ping":59},{"user_id":535,"name":"Blaze","steam_id":76561198043797702,"connected_time":1924000000000,"state":"active","ping":62},{"user_id":468,"name":"YellowCellPhone","steam_id":76561198015070315,"connected_time":7291000000000,"state":"active","ping":56},{"user_id":511,"name":"Jeffypoo","steam_id":76561198066384337,"connected_time":3769000000000,"state":"active","ping":61},{"user_id":552,"name":"viva la vida","steam_id":76561198072179483,"connected_time":942000000000,"state":"active","ping":90},{"user_id":542,"name":"My hands are cold","steam_id":76561198029216569,"connected_time":1122000000000,"state":"active","ping":75},{"user_id":527,"name":"Coms","steam_id":76561198204995668,"connected_time":2671000000000,"state":"active","ping":84},{"user_id":476,"name":"leonardo doujinshi","steam_id":76561198025810326,"connected_time":6872000000000,"state":"active","ping":78},{"user_id":553,"name":"yakubian snow ape","steam_id":76561198107343544,"connected_time":907000000000,"state":"active","ping":93},{"user_id":502,"name":"Pizza","steam_id":76561198118748364,"connected_time":5000000000000,"state":"active","ping":74},{"user_id":525,"name":"THE ULTIMATE JOHN","steam_id":76561199082758073,"connected_time":2767000000000,"state":"active","ping":55},{"user_id":551,"name":"JACOB","steam_id":76561198211874895,"connected_time":956000000000,"state":"active","ping":74},{"user_id":528,"name":"Timur","steam_id":76561197989552257,"connected_time":2313000000000,"state":"active","ping":52},{"user_id":509,"name":"Glover Speedrunner","steam_id":76561198015154311,"connected_time":4211000000000,"state":"active","ping":48}]},{"server_id":402,"name":"Uncletopia | Chicago | 3 | All Maps","name_short":"chi-3","host":"chi-1.us.uncletopia.com","port":27035,"enabled":true,"region":"us-central","cc":"us","latitude":41.881832,"longitude":-87.62318,"reserved":0,"last_update":"0001-01-01T00:00:00Z","name_a2s":"Uncletopia | Chicago | 3 | All Maps","protocol":17,"map":"pl_barnblitz","folder":"tf","game":"Team Fortress","app_id":440,"player_count":24,"max_players":24,"Bots":0,"server_type":"Dedicated","server_os":"Linux","password":true,"vac":true,"version":"7961495","steam_id":85568392924515191,"keywords":["nocrits","nodmgspread","payload","uncletopia"],"game_id":440,"stv_port":27036,"stv_name":"Uncletopia | Chicago | 3 | All Maps | STV","players":[{"user_id":222,"name":"aphexjh","steam_id":76561197985854658,"connected_time":2211000000000,"state":"active","ping":64},{"user_id":224,"name":"SiltyStar85","steam_id":76561198309175923,"connected_time":2195000000000,"state":"active","ping":91},{"user_id":226,"name":"Enron Hubbard","steam_id":76561198012951411,"connected_time":1850000000000,"state":"active","ping":63},{"user_id":183,"name":"[GUT] RiDiK¬Æ","steam_id":76561197969756446,"connected_time":6015000000000,"state":"active","ping":57},{"user_id":237,"name":"JetZ","steam_id":76561199122488957,"connected_time":939000000000,"state":"active","ping":63},{"user_id":232,"name":"Snoman","steam_id":76561197969248675,"connected_time":1494000000000,"state":"active","ping":74},{"user_id":236,"name":"guitarfreak","steam_id":76561198139851357,"connected_time":1331000000000,"state":"active","ping":91},{"user_id":190,"name":"MedRed‚Ñ¢ #IATAH","steam_id":76561198002962970,"connected_time":5031000000000,"state":"active","ping":94},{"user_id":238,"name":"Lysander Crow","steam_id":76561198214659356,"connected_time":917000000000,"state":"active","ping":104},{"user_id":240,"name":"HybridAir","steam_id":76561198007906682,"connected_time":895000000000,"state":"active","ping":70},{"user_id":223,"name":"Amoxicilina","steam_id":76561198168486429,"connected_time":2206000000000,"state":"active","ping":117},{"user_id":218,"name":"Swash","steam_id":76561197969421355,"connected_time":2644000000000,"state":"active","ping":60},{"user_id":219,"name":"Butteryback","steam_id":76561198049642485,"connected_time":2644000000000,"state":"active","ping":55},{"user_id":208,"name":"y0","steam_id":76561198143894333,"connected_time":3684000000000,"state":"active","ping":51},{"user_id":227,"name":"Op banana","steam_id":76561198303231451,"connected_time":1769000000000,"state":"active","ping":72},{"user_id":198,"name":"AFKaylee","steam_id":76561198218215220,"connected_time":4341000000000,"state":"active","ping":59},{"user_id":239,"name":"Arcadium","steam_id":76561198977435346,"connected_time":912000000000,"state":"active","ping":85},{"user_id":244,"name":"ameritech","steam_id":76561198064769089,"connected_time":35000000000,"state":"active","ping":69},{"user_id":187,"name":"hej","steam_id":76561197996366940,"connected_time":5613000000000,"state":"active","ping":60},{"user_id":207,"name":"chunk","steam_id":76561198134775401,"connected_time":3795000000000,"state":"active","ping":83},{"user_id":203,"name":"punk cock","steam_id":76561198418182764,"connected_time":4173000000000,"state":"active","ping":68},{"user_id":235,"name":"frenemy","steam_id":76561198011363677,"connected_time":1447000000000,"state":"active","ping":60},{"user_id":242,"name":"Man Time","steam_id":76561198151147218,"connected_time":115000000000,"state":"active","ping":84},{"user_id":245,"name":"Dark Lord","steam_id":76561198044199150,"connected_time":35000000000,"state":"active","ping":83}]},{"server_id":403,"name":"Uncletopia | Chicago | 4 | All Maps","name_short":"chi-4","host":"chi-1.us.uncletopia.com","port":27045,"enabled":true,"region":"us-central","cc":"us","latitude":41.881832,"longitude":-87.62318,"reserved":0,"last_update":"0001-01-01T00:00:00Z","name_a2s":"Uncletopia | Chicago | 4 | All Maps","protocol":17,"map":"koth_lakeside_final","folder":"tf","game":"Team Fortress","app_id":440,"player_count":17,"max_players":24,"Bots":0,"server_type":"Dedicated","server_os":"Linux","password":true,"vac":true,"version":"7961495","steam_id":85568392924515193,"keywords":["cp","nocrits","nodmgspread","uncletopia"],"game_id":440,"stv_port":27046,"stv_name":"Uncletopia | Chicago | 4 | All Maps | STV","players":[{"user_id":607,"name":"Arcane Flame","steam_id":76561198360024422,"connected_time":6141000000000,"state":"active","ping":115},{"user_id":689,"name":"Yam Jazzy Jim","steam_id":76561198000788950,"connected_time":110000000000,"state":"active","ping":69},{"user_id":693,"name":"Varie","steam_id":76561199454930210,"connected_time":33000000000,"state":"active","ping":76},{"user_id":682,"name":"if looks could kill","steam_id":76561198117505303,"connected_time":2265000000000,"state":"active","ping":74},{"user_id":691,"name":"GoodleShoes/ttv","steam_id":76561198030993521,"connected_time":88000000000,"state":"active","ping":69},{"user_id":623,"name":"General Sherman","steam_id":76561198044769376,"connected_time":4532000000000,"state":"active","ping":70},{"user_id":692,"name":"scarybroccoli","steam_id":76561198296440084,"connected_time":79000000000,"state":"active","ping":61},{"user_id":694,"name":"Asanez3","steam_id":76561198037381436,"connected_time":8000000000,"state":"active","ping":71},{"user_id":625,"name":"Remey","steam_id":76561198260328183,"connected_time":4318000000000,"state":"active","ping":63},{"user_id":680,"name":"Johnnywick","steam_id":76561198003176389,"connected_time":2354000000000,"state":"active","ping":93},{"user_id":671,"name":"GasterDog","steam_id":76561198844423506,"connected_time":2412000000000,"state":"active","ping":104},{"user_id":626,"name":"Bad Medic Buddy","steam_id":76561198093222632,"connected_time":4316000000000,"state":"active","ping":81},{"user_id":685,"name":"Lv3 Kobold Shadow Sorcerer","steam_id":76561198042068995,"connected_time":2001000000000,"state":"active","ping":72},{"user_id":688,"name":"SAUSAGE SLAPPER","steam_id":76561198030627003,"connected_time":1358000000000,"state":"active","ping":68},{"user_id":678,"name":"Chicken","steam_id":76561198855273194,"connected_time":2368000000000,"state":"active","ping":58},{"user_id":681,"name":"The Gooper","steam_id":76561198203982873,"connected_time":2351000000000,"state":"active","ping":129}]},{"server_id":36,"name":"Uncletopia | Chicago | 5 | All Maps","name_short":"chi-5","host":"chi-2.us.uncletopia.com","port":27015,"enabled":true,"region":"us-central","cc":"us","latitude":41.881832,"longitude":-87.62318,"reserved":0,"last_update":"0001-01-01T00:00:00Z","name_a2s":"Uncletopia | Chicago | 5 | All Maps","protocol":17,"map":"pl_badwater","folder":"tf","game":"Team Fortress","app_id":440,"player_count":22,"max_players":24,"Bots":0,"server_type":"Dedicated","server_os":"Linux","password":true,"vac":true,"version":"7961495","steam_id":85568392924866362,"keywords":["nocrits","nodmgspread","payload","uncletopia"],"game_id":440,"stv_port":27016,"stv_name":"Uncletopia | Chicago | 5 | All Maps | STV","players":[{"user_id":611,"name":"fried rice","steam_id":76561198928939100,"connected_time":149000000000,"state":"active","ping":77},{"user_id":596,"name":"Unable to Aim","steam_id":76561198268826049,"connected_time":963000000000,"state":"active","ping":52},{"user_id":612,"name":"TheREAL$wizz1eTTV","steam_id":76561198051666604,"connected_time":139000000000,"state":"active","ping":57},{"user_id":607,"name":"OH BOY","steam_id":76561199052273428,"connected_time":184000000000,"state":"active","ping":52},{"user_id":614,"name":"NUt","steam_id":76561198031007966,"connected_time":110000000000,"state":"active","ping":79},{"user_id":616,"name":"1HandsomeLAD","steam_id":76561198807047496,"connected_time":72000000000,"state":"active","ping":86},{"user_id":617,"name":"Fry Enjoyer","steam_id":76561198987191738,"connected_time":59000000000,"state":"active","ping":122},{"user_id":615,"name":"Virtual-Gamer","steam_id":76561198046628392,"connected_time":100000000000,"state":"active","ping":89},{"user_id":608,"name":"oyasumi","steam_id":76561198128614882,"connected_time":173000000000,"state":"active","ping":77},{"user_id":618,"name":"Soda","steam_id":76561198219209367,"connected_time":47000000000,"state":"active","ping":68},{"user_id":619,"name":"Cresant Ape","steam_id":76561198127425559,"connected_time":44000000000,"state":"active","ping":66},{"user_id":620,"name":"Almonicus","steam_id":76561198044401351,"connected_time":43000000000,"state":"active","ping":83},{"user_id":585,"name":"GlingGlop95","steam_id":76561198386865528,"connected_time":1902000000000,"state":"active","ping":91},{"user_id":609,"name":"Dr Oshawott","steam_id":76561198042021629,"connected_time":173000000000,"state":"active","ping":67},{"user_id":621,"name":"Jetty","steam_id":76561198004885583,"connected_time":15000000000,"state":"spawning","ping":59},{"user_id":601,"name":"Pete Zah","steam_id":76561198119483989,"connected_time":910000000000,"state":"active","ping":77},{"user_id":622,"name":"garfield","steam_id":76561198114119308,"connected_time":9000000000,"state":"spawning","ping":60},{"user_id":602,"name":"totally not a pile of beans","steam_id":76561198119851931,"connected_time":902000000000,"state":"active","ping":80},{"user_id":589,"name":"Ace Chromatica","steam_id":76561198042211131,"connected_time":1185000000000,"state":"active","ping":71},{"user_id":558,"name":"Chagalicious","steam_id":76561198044128240,"connected_time":3288000000000,"state":"active","ping":91},{"user_id":603,"name":"faxxy","steam_id":76561198079621240,"connected_time":890000000000,"state":"active","ping":76},{"user_id":587,"name":"Pixeled","steam_id":76561198088917077,"connected_time":1886000000000,"state":"active","ping":95}]},{"server_id":37,"name":"Uncletopia | Chicago | 6 | All Maps","name_short":"chi-6","host":"chi-2.us.uncletopia.com","port":27025,"enabled":true,"region":"us-central","cc":"us","latitude":41.881832,"longitude":-87.62318,"reserved":0,"last_update":"0001-01-01T00:00:00Z","name_a2s":"Uncletopia | Chicago | 6 | All Maps","protocol":17,"map":"cp_steel","folder":"tf","game":"Team Fortress","app_id":440,"player_count":23,"max_players":24,"Bots":0,"server_type":"Dedicated","server_os":"Linux","password":true,"vac":true,"version":"7961495","steam_id":85568392924866363,"keywords":["cp","nocrits","nodmgspread","uncletopia"],"game_id":440,"stv_port":27026,"stv_name":"Uncletopia | Chicago | 6 | All Maps | STV","players":[{"user_id":263,"name":"Firedust19","steam_id":76561198153238631,"connected_time":832000000000,"state":"active","ping":110},{"user_id":269,"name":"Bigburgers","steam_id":76561198165013808,"connected_time":736000000000,"state":"active","ping":62},{"user_id":259,"name":"The Guy","steam_id":76561198072026302,"connected_time":871000000000,"state":"active","ping":68},{"user_id":271,"name":"IcyScrumpy","steam_id":76561198084605065,"connected_time":619000000000,"state":"active","ping":62},{"user_id":272,"name":"I WILL SAEV U DOXED","steam_id":76561197974116747,"connected_time":422000000000,"state":"active","ping":81},{"user_id":273,"name":"Master Oogway","steam_id":76561198252199106,"connected_time":258000000000,"state":"active","ping":68},{"user_id":132,"name":"kicks","steam_id":76561199228854923,"connected_time":9725000000000,"state":"active","ping":64},{"user_id":260,"name":"king sir glorious","steam_id":76561198115676070,"connected_time":857000000000,"state":"active","ping":113},{"user_id":236,"name":"Love Being an Owl","steam_id":76561198293422282,"connected_time":2912000000000,"state":"active","ping":87},{"user_id":175,"name":"notdoxed","steam_id":76561197992591404,"connected_time":7550000000000,"state":"active","ping":51},{"user_id":163,"name":"shadow wizard money gang","steam_id":76561198067487745,"connected_time":8191000000000,"state":"active","ping":60},{"user_id":262,"name":"chilis baby back ribs","steam_id":76561198813516435,"connected_time":838000000000,"state":"active","ping":95},{"user_id":255,"name":"HenryHJ","steam_id":76561198206291528,"connected_time":1425000000000,"state":"active","ping":105},{"user_id":100,"name":"CoffeeZombi","steam_id":76561198172708053,"connected_time":12267000000000,"state":"active","ping":85},{"user_id":264,"name":"Bing Soy","steam_id":76561199091381775,"connected_time":828000000000,"state":"active","ping":106},{"user_id":265,"name":"living room set $799","steam_id":76561198142602211,"connected_time":825000000000,"state":"active","ping":59},{"user_id":252,"name":"Reiner","steam_id":76561199201762178,"connected_time":1972000000000,"state":"active","ping":91},{"user_id":247,"name":"Whimsical Bruh","steam_id":76561199069973423,"connected_time":2632000000000,"state":"active","ping":56},{"user_id":270,"name":"Philo","steam_id":76561198061873341,"connected_time":711000000000,"state":"active","ping":95},{"user_id":275,"name":"TheRealFakeNick","steam_id":76561198097588788,"connected_time":172000000000,"state":"active","ping":70},{"user_id":230,"name":"I'mWalkerHere","steam_id":76561199310055450,"connected_time":3619000000000,"state":"active","ping":93},{"user_id":216,"name":"Sunshine","steam_id":76561198885528098,"connected_time":3973000000000,"state":"active","ping":72},{"user_id":267,"name":"‚áöSAILOR‚ú™DANDY‚áõ","steam_id":76561197967905737,"connected_time":788000000000,"state":"active","ping":106}]},{"server_id":38,"name":"Uncletopia | Chicago | 7 | Stopwatch","name_short":"chi-7","host":"chi-2.us.uncletopia.com","port":27035,"enabled":true,"region":"us-central","cc":"us","latitude":41.881832,"longitude":-87.62318,"reserved":0,"last_update":"0001-01-01T00:00:00Z","name_a2s":"Uncletopia | Chicago | 7 | Stopwatch","protocol":17,"map":"workshop/pl_summercoast_rc8e.ugc1761528829","folder":"tf","game":"Team Fortress","app_id":440,"player_count":13,"max_players":24,"Bots":0,"server_type":"Dedicated","server_os":"Linux","password":true,"vac":true,"version":"7961495","steam_id":85568392924866364,"keywords":["nocrits","nodmgspread","payload","uncletopia"],"game_id":440,"stv_port":27036,"stv_name":"Uncletopia | Chicago | 7 | Stopwatch | STV","players":[{"user_id":21,"name":"Duk","steam_id":76561198450692568,"connected_time":2678000000000,"state":"active","ping":64},{"user_id":20,"name":"ùñàùñîùñìùñìùñéùñä","steam_id":76561198835553877,"connected_time":2742000000000,"state":"active","ping":77},{"user_id":22,"name":"kiibo","steam_id":76561199122166897,"connected_time":2587000000000,"state":"active","ping":80},{"user_id":23,"name":"BasilBird037","steam_id":76561198325406086,"connected_time":2419000000000,"state":"active","ping":85},{"user_id":24,"name":"Somerandom Neko","steam_id":76561198121595112,"connected_time":2065000000000,"state":"active","ping":94},{"user_id":39,"name":"Thequirka","steam_id":76561198968058652,"connected_time":493000000000,"state":"active","ping":94},{"user_id":38,"name":"Sex Mode:ACTIVATE","steam_id":76561199219852129,"connected_time":698000000000,"state":"active","ping":190},{"user_id":33,"name":"Deathbringer097","steam_id":76561198806994937,"connected_time":1018000000000,"state":"active","ping":59},{"user_id":51,"name":"twitch.tv/rustyorion","steam_id":76561198439186347,"connected_time":59000000000,"state":"active","ping":99},{"user_id":41,"name":"Phi","steam_id":76561198808932522,"connected_time":440000000000,"state":"active","ping":89},{"user_id":48,"name":"Mystic Wizard","steam_id":76561198300349976,"connected_time":143000000000,"state":"active","ping":82},{"user_id":45,"name":"chok","steam_id":76561198242016100,"connected_time":243000000000,"state":"active","ping":99},{"user_id":49,"name":"AzrielByDeath","steam_id":76561198062798690,"connected_time":129000000000,"state":"active","ping":72}]},{"server_id":39,"name":"Uncletopia | Chicago | 8 | Community","name_short":"chi-8","host":"chi-2.us.uncletopia.com","port":27045,"enabled":true,"region":"us-central","cc":"us","latitude":41.881832,"longitude":-87.62318,"reserved":0,"last_update":"0001-01-01T00:00:00Z","name_a2s":"Uncletopia | Chicago | 8 | Community","protocol":17,"map":"workshop/koth_slaughter_rc1.ugc1712845210","folder":"tf","game":"Team Fortress","app_id":440,"player_count":0,"max_players":24,"Bots":0,"server_type":"Dedicated","server_os":"Linux","password":true,"vac":true,"version":"7961495","steam_id":85568392924866365,"keywords":["cp","nocrits","nodmgspread","uncletopia"],"game_id":440,"stv_port":27046,"stv_name":"Uncletopia | Chicago | 8 | Community | STV","players":null},{"server_id":8,"name":"Uncletopia | Dallas | 1 | All Maps","name_short":"dal-1","host":"dal-1.us.uncletopia.com","port":27015,"enabled":true,"region":"us-central","cc":"us","latitude":32.779167,"longitude":-96.80889,"reserved":0,"last_update":"0001-01-01T00:00:00Z","name_a2s":"Uncletopia | Dallas | 1 | All Maps","protocol":17,"map":"pl_swiftwater_final1","folder":"tf","game":"Team Fortress","app_id":440,"player_count":24,"max_players":24,"Bots":0,"server_type":"Dedicated","server_os":"Linux","password":true,"vac":true,"version":"7961495","steam_id":85568392924469986,"keywords":["nocrits","nodmgspread","payload","uncletopia"],"game_id":440,"stv_port":27016,"stv_name":"Uncletopia | Dallas | 1 | All Maps | STV","players":[{"user_id":385,"name":"ƒê√Ø…ê»ê…π…¶…Üa","steam_id":76561198981411945,"connected_time":517000000000,"state":"active","ping":123},{"user_id":357,"name":"‚ù§ Ashleyyy ‚ù§","steam_id":76561198056428303,"connected_time":2157000000000,"state":"active","ping":77},{"user_id":328,"name":"errant","steam_id":76561197961758410,"connected_time":4258000000000,"state":"active","ping":44},{"user_id":387,"name":"HOVY GAMING (REAL)","steam_id":76561199210311096,"connected_time":213000000000,"state":"active","ping":119},{"user_id":386,"name":"tiny","steam_id":76561198010743348,"connected_time":390000000000,"state":"active","ping":47},{"user_id":367,"name":"FrogMimic","steam_id":76561199090784181,"connected_time":1776000000000,"state":"active","ping":88},{"user_id":361,"name":"self sufficient kitten","steam_id":76561197960592612,"connected_time":2098000000000,"state":"active","ping":92},{"user_id":384,"name":"Redwood","steam_id":76561198072933593,"connected_time":669000000000,"state":"active","ping":64},{"user_id":370,"name":"Chhaam","steam_id":76561198058508132,"connected_time":1453000000000,"state":"active","ping":75},{"user_id":363,"name":"M√°quina de Fuego","steam_id":76561198119445407,"connected_time":2032000000000,"state":"active","ping":58},{"user_id":390,"name":"The All-Seeing Tim","steam_id":76561198075510786,"connected_time":88000000000,"state":"active","ping":70},{"user_id":391,"name":"KOI BOY","steam_id":76561198402739250,"connected_time":79000000000,"state":"active","ping":82},{"user_id":379,"name":"That One Guy","steam_id":76561198945646560,"connected_time":918000000000,"state":"active","ping":116},{"user_id":341,"name":"Smiley Smile","steam_id":76561198069735882,"connected_time":3602000000000,"state":"active","ping":78},{"user_id":314,"name":"KhorneBread Ô∏ª„Éá ‰∏Ä","steam_id":76561198097069958,"connected_time":5747000000000,"state":"active","ping":97},{"user_id":353,"name":"reis","steam_id":76561199232952016,"connected_time":2193000000000,"state":"active","ping":178},{"user_id":349,"name":"Monte","steam_id":76561198097499917,"connected_time":3216000000000,"state":"active","ping":73},{"user_id":375,"name":"ImmenseWraith","steam_id":76561198963757884,"connected_time":1019000000000,"state":"active","ping":80},{"user_id":377,"name":"dude6487","steam_id":76561199113081920,"connected_time":1000000000000,"state":"active","ping":88},{"user_id":267,"name":"MakerRov","steam_id":76561198914108894,"connected_time":8025000000000,"state":"active","ping":92},{"user_id":376,"name":"Ironaka","steam_id":76561198029993183,"connected_time":1017000000000,"state":"active","ping":122},{"user_id":374,"name":"barker bill","steam_id":76561198018451994,"connected_time":1165000000000,"state":"active","ping":62},{"user_id":389,"name":"dillon/dylan","steam_id":76561198118054166,"connected_time":161000000000,"state":"active","ping":91},{"user_id":346,"name":"Hankel Tom (The Hankeler)","steam_id":76561199446367874,"connected_time":3287000000000,"state":"active","ping":62}]},{"server_id":108,"name":"Uncletopia | Dallas | 2 | All Maps","name_short":"dal-2","host":"dal-1.us.uncletopia.com","port":27025,"enabled":true,"region":"us-central","cc":"us","latitude":32.779167,"longitude":-96.80889,"reserved":0,"last_update":"0001-01-01T00:00:00Z","name_a2s":"Uncletopia | Dallas | 2 | All Maps","protocol":17,"map":"pl_upward","folder":"tf","game":"Team Fortress","app_id":440,"player_count":24,"max_players":24,"Bots":0,"server_type":"Dedicated","server_os":"Linux","password":true,"vac":true,"version":"7961495","steam_id":85568392924469988,"keywords":["nocrits","nodmgspread","payload","uncletopia"],"game_id":440,"stv_port":27026,"stv_name":"Uncletopia | Dallas | 2 | All Maps | STV","players":[{"user_id":386,"name":"Kirby","steam_id":76561199161858008,"connected_time":2066000000000,"state":"active","ping":78},{"user_id":349,"name":"(TWoN Adric)","steam_id":76561197999304024,"connected_time":4254000000000,"state":"active","ping":46},{"user_id":410,"name":"craven","steam_id":76561198088191503,"connected_time":558000000000,"state":"active","ping":73},{"user_id":347,"name":"Major Woody","steam_id":76561198835541533,"connected_time":4502000000000,"state":"active","ping":57},{"user_id":400,"name":"Tuvok Shakur","steam_id":76561198018875334,"connected_time":1414000000000,"state":"active","ping":61},{"user_id":376,"name":"Easey","steam_id":76561198230316868,"connected_time":2308000000000,"state":"active","ping":64},{"user_id":399,"name":"Papy_rat","steam_id":76561198088207937,"connected_time":1545000000000,"state":"active","ping":93},{"user_id":362,"name":"+","steam_id":76561198262422184,"connected_time":3174000000000,"state":"active","ping":66},{"user_id":412,"name":"OwningTundra2","steam_id":76561198936893224,"connected_time":63000000000,"state":"active","ping":49},{"user_id":411,"name":"Uber","steam_id":76561198060564605,"connected_time":387000000000,"state":"active","ping":59},{"user_id":365,"name":"cupsovietxeno","steam_id":76561198997539399,"connected_time":3051000000000,"state":"active","ping":94},{"user_id":408,"name":"Strangelove","steam_id":76561198353773611,"connected_time":867000000000,"state":"active","ping":107},{"user_id":409,"name":"Chauncey von Snuffles III","steam_id":76561198021784746,"connected_time":864000000000,"state":"active","ping":63},{"user_id":405,"name":"Dent","steam_id":76561198304978514,"connected_time":1016000000000,"state":"active","ping":91},{"user_id":395,"name":"dax","steam_id":76561198045335319,"connected_time":1713000000000,"state":"active","ping":109},{"user_id":401,"name":"gorf?","steam_id":76561198142286417,"connected_time":1356000000000,"state":"active","ping":84},{"user_id":391,"name":"Can You Feel It Mr.Krabs","steam_id":76561198128302414,"connected_time":1948000000000,"state":"active","ping":68},{"user_id":397,"name":"Faze_Cotton","steam_id":76561198311287842,"connected_time":1625000000000,"state":"active","ping":90},{"user_id":403,"name":"(ÀöÀé „ÄÇ)","steam_id":76561199013337543,"connected_time":1293000000000,"state":"active","ping":72},{"user_id":406,"name":"BLOCKHEAD","steam_id":76561198808224331,"connected_time":1013000000000,"state":"active","ping":106},{"user_id":407,"name":"Vv","steam_id":76561199052196750,"connected_time":1004000000000,"state":"active","ping":64},{"user_id":404,"name":"Cat doin laundry","steam_id":76561198063895852,"connected_time":1083000000000,"state":"active","ping":51},{"user_id":402,"name":"jasus","steam_id":76561198088035919,"connected_time":1318000000000,"state":"active","ping":96},{"user_id":326,"name":"Snitzman","steam_id":76561198068303272,"connected_time":6698000000000,"state":"active","ping":87}]},{"server_id":404,"name":"Uncletopia | Dallas | 3 | All Maps","name_short":"dal-3","host":"dal-1.us.uncletopia.com","port":27035,"enabled":true,"region":"us-central","cc":"us","latitude":32.779167,"longitude":-96.80889,"reserved":0,"last_update":"0001-01-01T00:00:00Z","name_a2s":"Uncletopia | Dallas | 3 | All Maps","protocol":17,"map":"koth_viaduct","folder":"tf","game":"Team Fortress","app_id":440,"player_count":0,"max_players":24,"Bots":0,"server_type":"Dedicated","server_os":"Linux","password":true,"vac":true,"version":"7961495","steam_id":85568392924515219,"keywords":["cp","nocrits","nodmgspread","uncletopia"],"game_id":440,"stv_port":27036,"stv_name":"Uncletopia | Dallas | 3 | All Maps | STV","players":null},{"server_id":405,"name":"Uncletopia | Dallas | 4 | Community","name_short":"dal-4","host":"dal-1.us.uncletopia.com","port":27045,"enabled":true,"region":"us-central","cc":"us","latitude":32.779167,"longitude":-96.80889,"reserved":0,"last_update":"0001-01-01T00:00:00Z","name_a2s":"Uncletopia | Dallas | 4 | Community","protocol":17,"map":"workshop/koth_trenchfoot_ab1.ugc731436616","folder":"tf","game":"Team Fortress","app_id":440,"player_count":0,"max_players":24,"Bots":0,"server_type":"Dedicated","server_os":"Linux","password":true,"vac":true,"version":"7961495","steam_id":85568392924515220,"keywords":["cp","nocrits","nodmgspread","uncletopia"],"game_id":440,"stv_port":27046,"stv_name":"Uncletopia | Dallas | 4 | Community | STV","players":null},{"server_id":5,"name":"Uncletopia | Frankfurt | 1 | All Maps","name_short":"frk-1","host":"frk-1.de.uncletopia.com","port":27015,"enabled":true,"region":"eu","cc":"de","latitude":50.110924,"longitude":8.682127,"reserved":0,"last_update":"0001-01-01T00:00:00Z","name_a2s":"Uncletopia | Frankfurt | 1 | All Maps","protocol":17,"map":"cp_snakewater_final1","folder":"tf","game":"Team Fortress","app_id":440,"player_count":0,"max_players":24,"Bots":0,"server_type":"Dedicated","server_os":"Linux","password":true,"vac":true,"version":"7961495","steam_id":85568392924469989,"keywords":["cp","nocrits","nodmgspread","uncletopia"],"game_id":440,"stv_port":27016,"stv_name":"Uncletopia | Frankfurt | 1 | All Maps | STV","players":null},{"server_id":110,"name":"Uncletopia | Frankfurt | 2 | All Maps","name_short":"frk-2","host":"frk-1.de.uncletopia.com","port":27025,"enabled":true,"region":"eu","cc":"de","latitude":50.110924,"longitude":8.682127,"reserved":0,"last_update":"0001-01-01T00:00:00Z","name_a2s":"Uncletopia | Frankfurt | 2 | All Maps","protocol":17,"map":"cp_altitude","folder":"tf","game":"Team Fortress","app_id":440,"player_count":0,"max_players":24,"Bots":0,"server_type":"Dedicated","server_os":"Linux","password":true,"vac":true,"version":"7961495","steam_id":85568392924469990,"keywords":["cp","nocrits","nodmgspread","uncletopia"],"game_id":440,"stv_port":27026,"stv_name":"Uncletopia | Frankfurt | 2 | All Maps | STV","players":null},{"server_id":308,"name":"Uncletopia | Frankfurt | 3 | All Maps","name_short":"frk-3","host":"frk-1.de.uncletopia.com","port":27035,"enabled":true,"region":"eu","cc":"de","latitude":50.110924,"longitude":8.682127,"reserved":0,"last_update":"0001-01-01T00:00:00Z","name_a2s":"Uncletopia | Frankfurt | 3 | All Maps","protocol":17,"map":"koth_lakeside_final","folder":"tf","game":"Team Fortress","app_id":440,"player_count":0,"max_players":24,"Bots":0,"server_type":"Dedicated","server_os":"Linux","password":true,"vac":true,"version":"7961495","steam_id":85568392924504274,"keywords":["cp","nocrits","nodmgspread","uncletopia"],"game_id":440,"stv_port":27036,"stv_name":"Uncletopia | Frankfurt | 3 | All Maps | STV","players":null},{"server_id":309,"name":"Uncletopia | Frankfurt | 4 | All Maps","name_short":"frk-4","host":"frk-1.de.uncletopia.com","port":27045,"enabled":true,"region":"eu","cc":"de","latitude":50.110924,"longitude":8.682127,"reserved":0,"last_update":"0001-01-01T00:00:00Z","name_a2s":"Uncletopia | Frankfurt | 4 | All Maps","protocol":17,"map":"koth_highpass","folder":"tf","game":"Team Fortress","app_id":440,"player_count":0,"max_players":24,"Bots":0,"server_type":"Dedicated","server_os":"Linux","password":true,"vac":true,"version":"7961495","steam_id":85568392924504275,"keywords":["cp","nocrits","nodmgspread","uncletopia"],"game_id":440,"stv_port":27046,"stv_name":"Uncletopia | Frankfurt | 4 | All Maps | STV","players":null},{"server_id":310,"name":"Uncletopia | Frankfurt | 5 | All Maps","name_short":"frk-5","host":"frk-1.de.uncletopia.com","port":27055,"enabled":true,"region":"eu","cc":"de","latitude":50.110924,"longitude":8.682127,"reserved":0,"last_update":"0001-01-01T00:00:00Z","name_a2s":"Uncletopia | Frankfurt | 5 | All Maps","protocol":17,"map":"cp_snakewater_final1","folder":"tf","game":"Team Fortress","app_id":440,"player_count":0,"max_players":24,"Bots":0,"server_type":"Dedicated","server_os":"Linux","password":true,"vac":true,"version":"7961495","steam_id":85568392924504277,"keywords":["cp","nocrits","nodmgspread","uncletopia"],"game_id":440,"stv_port":27056,"stv_name":"Uncletopia | Frankfurt | 5 | All Maps | STV","players":null},{"server_id":311,"name":"Uncletopia | Frankfurt | 6 | All Maps","name_short":"frk-6","host":"frk-1.de.uncletopia.com","port":27065,"enabled":true,"region":"eu","cc":"de","latitude":50.110924,"longitude":8.682127,"reserved":0,"last_update":"0001-01-01T00:00:00Z","name_a2s":"Uncletopia | Frankfurt | 6 | All Maps","protocol":17,"map":"koth_lakeside_final","folder":"tf","game":"Team Fortress","app_id":440,"player_count":0,"max_players":24,"Bots":0,"server_type":"Dedicated","server_os":"Linux","password":true,"vac":true,"version":"7961495","steam_id":85568392924504278,"keywords":["cp","nocrits","nodmgspread","uncletopia"],"game_id":440,"stv_port":27066,"stv_name":"Uncletopia | Frankfurt | 6 | All Maps | STV","players":null},{"server_id":23,"name":"Uncletopia | Frankfurt | 7 | Stopwatch","name_short":"frk-7","host":"frk-1.de.uncletopia.com","port":27075,"enabled":true,"region":"eu","cc":"de","latitude":50.110924,"longitude":8.682127,"reserved":0,"last_update":"0001-01-01T00:00:00Z","name_a2s":"Uncletopia | Frankfurt | 7 | Stopwatch","protocol":17,"map":"pl_frontier_final","folder":"tf","game":"Team Fortress","app_id":440,"player_count":0,"max_players":24,"Bots":0,"server_type":"Dedicated","server_os":"Linux","password":true,"vac":true,"version":"7961495","steam_id":85568392924742827,"keywords":["nocrits","nodmgspread","payload","uncletopia"],"game_id":440,"stv_port":27076,"stv_name":"Uncletopia | Frankfurt | 7 | Stopwatch | STV","players":null},{"server_id":24,"name":"Uncletopia | Frankfurt | 8 | Community","name_short":"frk-8","host":"frk-1.de.uncletopia.com","port":27085,"enabled":true,"region":"eu","cc":"de","latitude":50.110924,"longitude":8.682127,"reserved":0,"last_update":"0001-01-01T00:00:00Z","name_a2s":"Uncletopia | Frankfurt | 8 | Community","protocol":17,"map":"workshop/koth_ashville_final.ugc2130459942","folder":"tf","game":"Team Fortress","app_id":440,"player_count":0,"max_players":24,"Bots":0,"server_type":"Dedicated","server_os":"Linux","password":true,"vac":true,"version":"7961495","steam_id":85568392924742828,"keywords":["cp","nocrits","nodmgspread","uncletopia"],"game_id":440,"stv_port":27086,"stv_name":"Uncletopia | Frankfurt | 8 | Community | STV","players":null},{"server_id":202,"name":"Uncletopia | Hong Kong | 1 | All Maps","name_short":"hgk-1","host":"hgk-1.hk.uncletopia.com","port":27015,"enabled":true,"region":"asia","cc":"hk","latitude":22.302711,"longitude":114.177216,"reserved":0,"last_update":"0001-01-01T00:00:00Z","name_a2s":"Uncletopia | Hong Kong | 1 | All Maps","protocol":17,"map":"pl_borneo","folder":"tf","game":"Team Fortress","app_id":440,"player_count":9,"max_players":24,"Bots":0,"server_type":"Dedicated","server_os":"Linux","password":true,"vac":true,"version":"7961495","steam_id":85568392924494504,"keywords":["nocrits","nodmgspread","payload","uncletopia"],"game_id":440,"stv_port":27016,"stv_name":"Uncletopia | Hong Kong | 1 | All Maps | STV","players":[{"user_id":3,"name":"poopypantsjoe","steam_id":76561198204747977,"connected_time":6789000000000,"state":"active","ping":66},{"user_id":9,"name":"Cheesey","steam_id":76561198975684137,"connected_time":2678000000000,"state":"active","ping":77},{"user_id":28,"name":"Lady \u0026 The Tramp (1955)","steam_id":76561198422543918,"connected_time":141000000000,"state":"active","ping":99},{"user_id":20,"name":"Furry_(Real)","steam_id":76561199230196794,"connected_time":910000000000,"state":"active","ping":112},{"user_id":27,"name":"ItsAMeWilfred","steam_id":76561198965171490,"connected_time":177000000000,"state":"active","ping":71},{"user_id":29,"name":"Exclamator","steam_id":76561199065048552,"connected_time":66000000000,"state":"spawning","ping":207},{"user_id":24,"name":"sc","steam_id":76561198110601275,"connected_time":456000000000,"state":"active","ping":66},{"user_id":25,"name":"moelymoecute","steam_id":76561199026794527,"connected_time":447000000000,"state":"active","ping":275},{"user_id":26,"name":"Xx_EpicTrickstabber_xX","steam_id":76561199024960087,"connected_time":301000000000,"state":"active","ping":79}]},{"server_id":1,"name":"Uncletopia | Los Angeles | 1 | All Maps","name_short":"lax-1","host":"lax-1.us.uncletopia.com","port":27015,"enabled":true,"region":"us-west","cc":"us","latitude":33.94279,"longitude":-118.41004,"reserved":0,"last_update":"0001-01-01T00:00:00Z","name_a2s":"Uncletopia | Los Angeles | 1 | All Maps","protocol":17,"map":"pl_upward","folder":"tf","game":"Team Fortress","app_id":440,"player_count":24,"max_players":24,"Bots":0,"server_type":"Dedicated","server_os":"Linux","password":true,"vac":true,"version":"7961495","steam_id":85568392924469991,"keywords":["nocrits","nodmgspread","payload","uncletopia"],"game_id":440,"stv_port":27016,"stv_name":"Uncletopia | Los Angeles | 1 | All Maps | STV","players":[{"user_id":323,"name":"backshot overlord","steam_id":76561198984612489,"connected_time":1091000000000,"state":"active","ping":52},{"user_id":224,"name":"ena - d","steam_id":76561198072329335,"connected_time":7792000000000,"state":"active","ping":112},{"user_id":332,"name":"TechnoBear2099","steam_id":76561198238863596,"connected_time":608000000000,"state":"active","ping":76},{"user_id":298,"name":"Freyja","steam_id":76561198207412177,"connected_time":3043000000000,"state":"active","ping":101},{"user_id":277,"name":"Quarky„ÉÑ","steam_id":76561198116411387,"connected_time":4270000000000,"state":"active","ping":55},{"user_id":299,"name":"dP | I'm in a Wookie Suit","steam_id":76561198083307644,"connected_time":3038000000000,"state":"active","ping":88},{"user_id":102,"name":"Jimmy","steam_id":76561198857959855,"connected_time":14693000000000,"state":"active","ping":41},{"user_id":314,"name":"Flashtasm","steam_id":76561198026635660,"connected_time":1320000000000,"state":"active","ping":115},{"user_id":311,"name":"mild","steam_id":76561198082470182,"connected_time":1342000000000,"state":"active","ping":74},{"user_id":330,"name":"Pokecat273","steam_id":76561198373768228,"connected_time":648000000000,"state":"active","ping":66},{"user_id":328,"name":"tsun.","steam_id":76561198079488962,"connected_time":989000000000,"state":"active","ping":81},{"user_id":304,"name":"Oktayey","steam_id":76561198143213426,"connected_time":2281000000000,"state":"active","ping":56},{"user_id":331,"name":"Scorchy","steam_id":76561198062253459,"connected_time":645000000000,"state":"active","ping":101},{"user_id":326,"name":"Ligh3t","steam_id":76561198179178533,"connected_time":1021000000000,"state":"active","ping":129},{"user_id":324,"name":"willow","steam_id":76561198068266114,"connected_time":1047000000000,"state":"active","ping":75},{"user_id":290,"name":"Daz","steam_id":76561198041431938,"connected_time":3425000000000,"state":"active","ping":78},{"user_id":308,"name":"Gojira19","steam_id":76561198206384351,"connected_time":1933000000000,"state":"active","ping":135},{"user_id":336,"name":"pazer","steam_id":76561198003911389,"connected_time":278000000000,"state":"active","ping":58},{"user_id":284,"name":"Chimp Peen's Revunge","steam_id":76561198165778514,"connected_time":4097000000000,"state":"active","ping":87},{"user_id":335,"name":"KaosInfinite","steam_id":76561198009126350,"connected_time":383000000000,"state":"active","ping":51},{"user_id":327,"name":"nanomelonoid","steam_id":76561198452232778,"connected_time":1009000000000,"state":"active","ping":86},{"user_id":258,"name":"john.","steam_id":76561198982939658,"connected_time":5491000000000,"state":"active","ping":61},{"user_id":329,"name":"flo rida","steam_id":76561198226169704,"connected_time":836000000000,"state":"active","ping":69},{"user_id":334,"name":"Dog","steam_id":76561198041841128,"connected_time":419000000000,"state":"active","ping":48}]},{"server_id":112,"name":"Uncletopia | Los Angeles | 2 | All Maps","name_short":"lax-2","host":"lax-1.us.uncletopia.com","port":27025,"enabled":true,"region":"us-west","cc":"us","latitude":33.94279,"longitude":-118.41004,"reserved":0,"last_update":"0001-01-01T00:00:00Z","name_a2s":"Uncletopia | Los Angeles | 2 | All Maps","protocol":17,"map":"koth_lakeside_final","folder":"tf","game":"Team Fortress","app_id":440,"player_count":0,"max_players":24,"Bots":0,"server_type":"Dedicated","server_os":"Linux","password":true,"vac":true,"version":"7961495","steam_id":85568392924469992,"keywords":["cp","nocrits","nodmgspread","uncletopia"],"game_id":440,"stv_port":27026,"stv_name":"Uncletopia | Los Angeles | 2 | All Maps | STV","players":null},{"server_id":324,"name":"Uncletopia | Los Angeles | 3 | All Maps","name_short":"lax-3","host":"lax-1.us.uncletopia.com","port":27035,"enabled":true,"region":"us-west","cc":"us","latitude":33.94279,"longitude":-118.41004,"reserved":0,"last_update":"0001-01-01T00:00:00Z","name_a2s":"Uncletopia | Los Angeles | 3 | All Maps","protocol":17,"map":"cp_dustbowl","folder":"tf","game":"Team Fortress","app_id":440,"player_count":24,"max_players":24,"Bots":0,"server_type":"Dedicated","server_os":"Linux","password":true,"vac":true,"version":"7961495","steam_id":85568392924510198,"keywords":["cp","nocrits","nodmgspread","uncletopia"],"game_id":440,"stv_port":27036,"stv_name":"Uncletopia | Los Angeles | 3 | All Maps | STV","players":[{"user_id":195,"name":"dogerich404","steam_id":76561199124102546,"connected_time":2713000000000,"state":"active","ping":60},{"user_id":204,"name":"Major_Pippy","steam_id":76561198004482878,"connected_time":2267000000000,"state":"active","ping":72},{"user_id":202,"name":"RagingRoosevelt","steam_id":76561197985483153,"connected_time":2314000000000,"state":"active","ping":75},{"user_id":198,"name":"jdm","steam_id":76561199497603020,"connected_time":2686000000000,"state":"active","ping":45},{"user_id":201,"name":"Your Dad","steam_id":76561199074059239,"connected_time":2476000000000,"state":"active","ping":79},{"user_id":203,"name":"noblehallett","steam_id":76561197990994280,"connected_time":2311000000000,"state":"active","ping":79},{"user_id":205,"name":"jadene11","steam_id":76561199369221113,"connected_time":2225000000000,"state":"active","ping":45},{"user_id":206,"name":"Lord Pretty Flocko Jordye","steam_id":76561198962880749,"connected_time":2141000000000,"state":"active","ping":84},{"user_id":208,"name":"Frank Accardi","steam_id":76561198017275707,"connected_time":1923000000000,"state":"active","ping":66},{"user_id":209,"name":"abolish the federal reserve","steam_id":76561198047796437,"connected_time":1873000000000,"state":"active","ping":77},{"user_id":224,"name":"chesterwnimitz","steam_id":76561198062664377,"connected_time":1594000000000,"state":"active","ping":83},{"user_id":211,"name":"Awenova","steam_id":76561198322928940,"connected_time":1858000000000,"state":"active","ping":104},{"user_id":212,"name":"gulch","steam_id":76561199227946025,"connected_time":1844000000000,"state":"active","ping":100},{"user_id":32,"name":"Hectic_Puppy (bday in 3 DAYS)","steam_id":76561198111645213,"connected_time":11791000000000,"state":"active","ping":46},{"user_id":214,"name":"my terror world wide","steam_id":76561198206177593,"connected_time":1817000000000,"state":"active","ping":41},{"user_id":226,"name":"Twitch.tv/Jinx_VM","steam_id":76561198280150602,"connected_time":1038000000000,"state":"active","ping":85},{"user_id":216,"name":"The Notorious T.A.F.T.","steam_id":76561198073012352,"connected_time":1787000000000,"state":"active","ping":76},{"user_id":217,"name":"ninety9dragonfly","steam_id":76561198363406983,"connected_time":1779000000000,"state":"active","ping":72},{"user_id":227,"name":"Browix_Phoenix","steam_id":76561199076123618,"connected_time":615000000000,"state":"active","ping":57},{"user_id":219,"name":"YaBoyUlyssesG","steam_id":76561198042482742,"connected_time":1758000000000,"state":"active","ping":89},{"user_id":225,"name":"waffles con leche","steam_id":76561198246934872,"connected_time":1167000000000,"state":"active","ping":71},{"user_id":228,"name":"Marz","steam_id":76561198799364911,"connected_time":610000000000,"state":"active","ping":61},{"user_id":229,"name":"nerf me","steam_id":76561198310495200,"connected_time":217000000000,"state":"active","ping":106},{"user_id":223,"name":"H.","steam_id":76561198074951179,"connected_time":1748000000000,"state":"active","ping":117}]},{"server_id":25,"name":"Uncletopia | Los Angeles | 4 | Stopwatch","name_short":"lax-4","host":"lax-1.us.uncletopia.com","port":27045,"enabled":true,"region":"us-west","cc":"us","latitude":33.94279,"longitude":-118.41004,"reserved":0,"last_update":"0001-01-01T00:00:00Z","name_a2s":"Uncletopia | Los Angeles | 4 | Stopwatch","protocol":17,"map":"pl_barnblitz","folder":"tf","game":"Team Fortress","app_id":440,"player_count":0,"max_players":24,"Bots":0,"server_type":"Dedicated","server_os":"Linux","password":true,"vac":true,"version":"7961495","steam_id":85568392924510199,"keywords":["nocrits","nodmgspread","payload","uncletopia"],"game_id":440,"stv_port":27046,"stv_name":"Uncletopia | Los Angeles | 4 | Stopwatch | STV","players":null},{"server_id":11,"name":"Uncletopia | London | 1 | All Maps","name_short":"lon-1","host":"lon-1.uk.uncletopia.com","port":27015,"enabled":true,"region":"eu","cc":"gb","latitude":51.509865,"longitude":-0.118092,"reserved":0,"last_update":"0001-01-01T00:00:00Z","name_a2s":"Uncletopia | London | 1 | All Maps","protocol":17,"map":"ctf_2fort","folder":"tf","game":"Team Fortress","app_id":440,"player_count":0,"max_players":24,"Bots":0,"server_type":"Dedicated","server_os":"Linux","password":true,"vac":true,"version":"7961495","steam_id":85568392924367362,"keywords":["ctf","nocrits","nodmgspread","uncletopia"],"game_id":440,"stv_port":27016,"stv_name":"Uncletopia | London | 1 | All Maps | STV","players":null},{"server_id":114,"name":"Uncletopia | London | 2 | All Maps","name_short":"lon-2","host":"lon-1.uk.uncletopia.com","port":27025,"enabled":true,"region":"eu","cc":"gb","latitude":51.509865,"longitude":-0.118092,"reserved":0,"last_update":"0001-01-01T00:00:00Z","name_a2s":"Uncletopia | London | 2 | All Maps","protocol":17,"map":"ctf_2fort","folder":"tf","game":"Team Fortress","app_id":440,"player_count":7,"max_players":24,"Bots":0,"server_type":"Dedicated","server_os":"Linux","password":true,"vac":true,"version":"7961495","steam_id":85568392924470941,"keywords":["ctf","nocrits","nodmgspread","uncletopia"],"game_id":440,"stv_port":27026,"stv_name":"Uncletopia | London | 2 | All Maps | STV","players":[{"user_id":715,"name":"kreeper700","steam_id":76561199495556056,"connected_time":480000000000,"state":"active","ping":195},{"user_id":705,"name":"sticks","steam_id":76561198127099299,"connected_time":1598000000000,"state":"active","ping":43},{"user_id":716,"name":"what","steam_id":76561199015837142,"connected_time":437000000000,"state":"active","ping":61},{"user_id":717,"name":"G_raff","steam_id":76561199048512726,"connected_time":33000000000,"state":"active","ping":82},{"user_id":630,"name":"Coac","steam_id":76561198085265740,"connected_time":5360000000000,"state":"active","ping":66},{"user_id":611,"name":"Lemmy","steam_id":76561199038870751,"connected_time":6514000000000,"state":"active","ping":64},{"user_id":636,"name":"Omeven","steam_id":76561198256387155,"connected_time":4848000000000,"state":"active","ping":81}]},{"server_id":320,"name":"Uncletopia | London | 3 | All Maps","name_short":"lon-3","host":"lon-1.uk.uncletopia.com","port":27035,"enabled":true,"region":"eu","cc":"gb","latitude":51.509865,"longitude":-0.118092,"reserved":0,"last_update":"0001-01-01T00:00:00Z","name_a2s":"Uncletopia | London | 3 | All Maps","protocol":17,"map":"pl_badwater","folder":"tf","game":"Team Fortress","app_id":440,"player_count":24,"max_players":24,"Bots":0,"server_type":"Dedicated","server_os":"Linux","password":true,"vac":true,"version":"7961495","steam_id":85568392924510192,"keywords":["nocrits","nodmgspread","payload","uncletopia"],"game_id":440,"stv_port":27036,"stv_name":"Uncletopia | London | 3 | All Maps | STV","players":[{"user_id":362,"name":"any1 wanna help me with medic","steam_id":76561198051852765,"connected_time":6496000000000,"state":"active","ping":66},{"user_id":440,"name":"scuttle bucket","steam_id":76561198100910016,"connected_time":367000000000,"state":"active","ping":42},{"user_id":423,"name":"Lord of Birds","steam_id":76561198268952995,"connected_time":1622000000000,"state":"active","ping":63},{"user_id":437,"name":"yuck","steam_id":76561197987249568,"connected_time":809000000000,"state":"active","ping":105},{"user_id":307,"name":"lawn (evil arc)","steam_id":76561198001243486,"connected_time":12129000000000,"state":"active","ping":44},{"user_id":404,"name":"skelebin","steam_id":76561199480942903,"connected_time":3540000000000,"state":"active","ping":68},{"user_id":407,"name":"Aries","steam_id":76561198275816528,"connected_time":3348000000000,"state":"active","ping":76},{"user_id":439,"name":"Taste","steam_id":76561197994506978,"connected_time":551000000000,"state":"active","ping":59},{"user_id":434,"name":"Darkmaen","steam_id":76561198060543390,"connected_time":1100000000000,"state":"active","ping":57},{"user_id":429,"name":"Witcher","steam_id":76561198073550998,"connected_time":1478000000000,"state":"active","ping":70},{"user_id":411,"name":"Zsallan","steam_id":76561198213875625,"connected_time":2854000000000,"state":"active","ping":63},{"user_id":432,"name":"Pan","steam_id":76561198436871448,"connected_time":1198000000000,"state":"active","ping":43},{"user_id":415,"name":"jones","steam_id":76561198044434971,"connected_time":2583000000000,"state":"active","ping":64},{"user_id":417,"name":"Closetted Gnome","steam_id":76561198442981093,"connected_time":2396000000000,"state":"active","ping":72},{"user_id":394,"name":"Wata","steam_id":76561198098418814,"connected_time":3798000000000,"state":"active","ping":41},{"user_id":409,"name":"ORACLE Apollo","steam_id":76561198079585009,"connected_time":3174000000000,"state":"active","ping":44},{"user_id":329,"name":"Assassin+","steam_id":76561197994310420,"connected_time":10696000000000,"state":"active","ping":59},{"user_id":443,"name":"digilith","steam_id":76561199106966802,"connected_time":254000000000,"state":"active","ping":91},{"user_id":418,"name":"DNA","steam_id":76561198095477557,"connected_time":2385000000000,"state":"active","ping":69},{"user_id":421,"name":"Albert?","steam_id":76561198049405872,"connected_time":1775000000000,"state":"active","ping":46},{"user_id":441,"name":"Mr. Bean","steam_id":76561198086929777,"connected_time":362000000000,"state":"active","ping":59},{"user_id":444,"name":"emily nymph","steam_id":76561199249569889,"connected_time":113000000000,"state":"active","ping":60},{"user_id":430,"name":"backflip370","steam_id":76561198140073482,"connected_time":1389000000000,"state":"active","ping":134},{"user_id":427,"name":"Kenny Savage","steam_id":76561199049383900,"connected_time":1572000000000,"state":"active","ping":74}]},{"server_id":321,"name":"Uncletopia | London | 4 | All Maps","name_short":"lon-4","host":"lon-1.uk.uncletopia.com","port":27045,"enabled":true,"region":"eu","cc":"gb","latitude":51.509865,"longitude":-0.118092,"reserved":0,"last_update":"0001-01-01T00:00:00Z","name_a2s":"Uncletopia | London | 4 | All Maps","protocol":17,"map":"koth_viaduct","folder":"tf","game":"Team Fortress","app_id":440,"player_count":0,"max_players":24,"Bots":0,"server_type":"Dedicated","server_os":"Linux","password":true,"vac":true,"version":"7961495","steam_id":85568392924510193,"keywords":["cp","nocrits","nodmgspread","uncletopia"],"game_id":440,"stv_port":27046,"stv_name":"Uncletopia | London | 4 | All Maps | STV","players":null},{"server_id":21,"name":"Uncletopia | London | 5 | All Maps","name_short":"lon-5","host":"lon-1.uk.uncletopia.com","port":27055,"enabled":true,"region":"eu","cc":"gb","latitude":51.509865,"longitude":-0.118092,"reserved":0,"last_update":"0001-01-01T00:00:00Z","name_a2s":"Uncletopia | London | 5 | All Maps","protocol":17,"map":"cp_dustbowl","folder":"tf","game":"Team Fortress","app_id":440,"player_count":0,"max_players":24,"Bots":0,"server_type":"Dedicated","server_os":"Linux","password":true,"vac":true,"version":"7961495","steam_id":85568392924742829,"keywords":["cp","nocrits","nodmgspread","uncletopia"],"game_id":440,"stv_port":27056,"stv_name":"Uncletopia | London | 5 | All Maps | STV","players":null},{"server_id":22,"name":"Uncletopia | London | 6 | All Maps","name_short":"lon-6","host":"lon-1.uk.uncletopia.com","port":27065,"enabled":true,"region":"eu","cc":"gb","latitude":51.509865,"longitude":-0.118092,"reserved":0,"last_update":"0001-01-01T00:00:00Z","name_a2s":"Uncletopia | London | 6 | All Maps","protocol":17,"map":"koth_lakeside_final","folder":"tf","game":"Team Fortress","app_id":440,"player_count":0,"max_players":24,"Bots":0,"server_type":"Dedicated","server_os":"Linux","password":true,"vac":true,"version":"7961495","steam_id":85568392924742830,"keywords":["cp","nocrits","nodmgspread","uncletopia"],"game_id":440,"stv_port":27066,"stv_name":"Uncletopia | London | 6 | All Maps | STV","players":null},{"server_id":40,"name":"Uncletopia | London | 7 | Stopwatch","name_short":"lon-7","host":"lon-1.uk.uncletopia.com","port":27075,"enabled":true,"region":"eu","cc":"gb","latitude":51.509865,"longitude":-0.118092,"reserved":0,"last_update":"0001-01-01T00:00:00Z","name_a2s":"Uncletopia | London | 7 | Stopwatch","protocol":17,"map":"workshop/pl_summercoast_rc8e.ugc1761528829","folder":"tf","game":"Team Fortress","app_id":440,"player_count":0,"max_players":24,"Bots":0,"server_type":"Dedicated","server_os":"Linux","password":true,"vac":true,"version":"7961495","steam_id":85568392924964314,"keywords":["nocrits","nodmgspread","payload","uncletopia"],"game_id":440,"stv_port":27076,"stv_name":"Uncletopia | London | 7 | Stopwatch | STV","players":null},{"server_id":41,"name":"Uncletopia | London | 8 | Community","name_short":"lon-8","host":"lon-1.uk.uncletopia.com","port":27085,"enabled":true,"region":"eu","cc":"gb","latitude":51.509865,"longitude":-0.118092,"reserved":0,"last_update":"0001-01-01T00:00:00Z","name_a2s":"Uncletopia | London | 8 | Community","protocol":17,"map":"workshop/cp_logjam_rc12.ugc454812035","folder":"tf","game":"Team Fortress","app_id":440,"player_count":0,"max_players":24,"Bots":0,"server_type":"Dedicated","server_os":"Linux","password":true,"vac":true,"version":"7961495","steam_id":85568392924964315,"keywords":["cp","nocrits","nodmgspread","uncletopia"],"game_id":440,"stv_port":27086,"stv_name":"Uncletopia | London | 8 | Community | STV","players":null},{"server_id":300,"name":"Uncletopia | Montr√©al | 1 | One Thousand Uncles","name_short":"mtl-1","host":"mtl-1.ca.uncletopia.com","port":27015,"enabled":true,"region":"us-east","cc":"ca","latitude":45.50889,"longitude":-73.56167,"reserved":0,"last_update":"0001-01-01T00:00:00Z","name_a2s":"","protocol":0,"map":"","folder":"","game":"","app_id":0,"player_count":14,"max_players":0,"Bots":0,"server_type":"","server_os":"","password":false,"vac":false,"version":"","steam_id":0,"keywords":null,"game_id":0,"stv_port":0,"stv_name":"","players":[{"user_id":192,"name":"Maxwell The Kaiju Man","steam_id":76561198014546493,"connected_time":2330000000000,"state":"active","ping":71},{"user_id":230,"name":"Voidwyrm","steam_id":76561198818767641,"connected_time":179000000000,"state":"active","ping":54},{"user_id":188,"name":"Ash Like Snow","steam_id":76561198021880691,"connected_time":2713000000000,"state":"active","ping":105},{"user_id":222,"name":"Walla","steam_id":76561198103379757,"connected_time":715000000000,"state":"active","ping":58},{"user_id":209,"name":"hamletespacial","steam_id":76561199084414649,"connected_time":2117000000000,"state":"active","ping":64},{"user_id":176,"name":"skate fast eat ass","steam_id":76561198152007894,"connected_time":4308000000000,"state":"active","ping":67},{"user_id":124,"name":"Uncle Larry","steam_id":76561198889151082,"connected_time":7734000000000,"state":"active","ping":90},{"user_id":213,"name":"upcasthunder35","steam_id":76561198269299495,"connected_time":1769000000000,"state":"active","ping":62},{"user_id":164,"name":"Lord Durandal","steam_id":76561198006845939,"connected_time":4936000000000,"state":"active","ping":115},{"user_id":216,"name":"Winston Smith","steam_id":76561198272738226,"connected_time":1547000000000,"state":"active","ping":67},{"user_id":170,"name":"Downy","steam_id":76561198359357681,"connected_time":4733000000000,"state":"active","ping":67},{"user_id":225,"name":"Aeris","steam_id":76561198287271028,"connected_time":587000000000,"state":"active","ping":69},{"user_id":168,"name":"RhinoWBI","steam_id":76561198093137303,"connected_time":4858000000000,"state":"active","ping":80},{"user_id":247,"name":"Devora the Dastardly","steam_id":76561198141881966,"connected_time":149000000000,"state":"active","ping":56}]},{"server_id":301,"name":"Uncletopia | Montr√©al | 2 | One Thousand Uncles","name_short":"mtl-2","host":"mtl-1.ca.uncletopia.com","port":27025,"enabled":true,"region":"us-east","cc":"ca","latitude":45.50889,"longitude":-73.56167,"reserved":0,"last_update":"0001-01-01T00:00:00Z","name_a2s":"","protocol":0,"map":"","folder":"","game":"","app_id":0,"player_count":0,"max_players":0,"Bots":0,"server_type":"","server_os":"","password":false,"vac":false,"version":"","steam_id":0,"keywords":null,"game_id":0,"stv_port":0,"stv_name":"","players":null},{"server_id":302,"name":"Uncletopia | Montr√©al | 3 | One Thousand Uncles","name_short":"mtl-3","host":"mtl-1.ca.uncletopia.com","port":27035,"enabled":true,"region":"us-east","cc":"ca","latitude":45.50889,"longitude":-73.56167,"reserved":0,"last_update":"0001-01-01T00:00:00Z","name_a2s":"","protocol":0,"map":"","folder":"","game":"","app_id":0,"player_count":0,"max_players":0,"Bots":0,"server_type":"","server_os":"","password":false,"vac":false,"version":"","steam_id":0,"keywords":null,"game_id":0,"stv_port":0,"stv_name":"","players":null},{"server_id":13,"name":"Uncletopia | New York City | 1 | All Maps","name_short":"nyc-1","host":"nyc-1.us.uncletopia.com","port":27015,"enabled":true,"region":"us-east","cc":"us","latitude":40.73061,"longitude":-73.93524,"reserved":0,"last_update":"0001-01-01T00:00:00Z","name_a2s":"Uncletopia | New York City | 1 | All Maps","protocol":17,"map":"cp_granary","folder":"tf","game":"Team Fortress","app_id":440,"player_count":24,"max_players":24,"Bots":0,"server_type":"Dedicated","server_os":"Linux","password":true,"vac":true,"version":"7961495","steam_id":85568392924469993,"keywords":["cp","nocrits","nodmgspread","uncletopia"],"game_id":440,"stv_port":27016,"stv_name":"Uncletopia | New York City | 1 | All Maps | STV","players":[{"user_id":375,"name":"dog","steam_id":76561198263873491,"connected_time":1962000000000,"state":"active","ping":63},{"user_id":369,"name":"brain rot dealer","steam_id":76561198288202783,"connected_time":2176000000000,"state":"active","ping":45},{"user_id":394,"name":"GooBer","steam_id":76561198402241505,"connected_time":340000000000,"state":"active","ping":87},{"user_id":373,"name":"addera","steam_id":76561198041535102,"connected_time":1990000000000,"state":"active","ping":73},{"user_id":395,"name":"Rysible","steam_id":76561198121734785,"connected_time":338000000000,"state":"active","ping":73},{"user_id":371,"name":"SOENJAY","steam_id":76561198056061389,"connected_time":1997000000000,"state":"active","ping":85},{"user_id":376,"name":"emerge","steam_id":76561198186882891,"connected_time":1960000000000,"state":"active","ping":111},{"user_id":337,"name":"Gamer1243","steam_id":76561199073760355,"connected_time":5189000000000,"state":"active","ping":106},{"user_id":390,"name":"Yuzu","steam_id":76561198417913035,"connected_time":1219000000000,"state":"active","ping":76},{"user_id":364,"name":"LordOfTheNoobs","steam_id":76561197962697523,"connected_time":2710000000000,"state":"active","ping":74},{"user_id":296,"name":"nomad","steam_id":76561197998740399,"connected_time":8924000000000,"state":"active","ping":53},{"user_id":370,"name":"Mipsiek","steam_id":76561198164013471,"connected_time":2092000000000,"state":"active","ping":49},{"user_id":378,"name":"Piss God","steam_id":76561198090504334,"connected_time":1949000000000,"state":"active","ping":61},{"user_id":389,"name":"pete_the_cat_2014","steam_id":76561198199266047,"connected_time":1595000000000,"state":"active","ping":43},{"user_id":393,"name":"UnlivingSkunk","steam_id":76561198324517387,"connected_time":408000000000,"state":"active","ping":62},{"user_id":387,"name":"Crymt","steam_id":76561198258145748,"connected_time":1656000000000,"state":"active","ping":44},{"user_id":392,"name":"Bim","steam_id":76561198155979811,"connected_time":556000000000,"state":"active","ping":68},{"user_id":402,"name":"Tokyo_Timeshift_","steam_id":76561198048677523,"connected_time":221000000000,"state":"active","ping":71},{"user_id":396,"name":"Spark","steam_id":76561198332947965,"connected_time":334000000000,"state":"active","ping":129},{"user_id":397,"name":"clavin_","steam_id":76561198046398447,"connected_time":329000000000,"state":"active","ping":45},{"user_id":351,"name":"Bigsumoslammer","steam_id":76561198044505076,"connected_time":3854000000000,"state":"active","ping":42},{"user_id":298,"name":"eish","steam_id":76561198089463603,"connected_time":8911000000000,"state":"active","ping":132},{"user_id":405,"name":"Orb","steam_id":76561198353963523,"connected_time":95000000000,"state":"active","ping":97},{"user_id":354,"name":"Speed Spell IV","steam_id":76561198298364415,"connected_time":3222000000000,"state":"active","ping":127}]},{"server_id":14,"name":"Uncletopia | New York City | 2 | All Maps","name_short":"nyc-2","host":"nyc-1.us.uncletopia.com","port":27025,"enabled":true,"region":"us-east","cc":"us","latitude":40.73061,"longitude":-73.93524,"reserved":0,"last_update":"0001-01-01T00:00:00Z","name_a2s":"Uncletopia | New York City | 2 | All Maps","protocol":17,"map":"cp_sunshine","folder":"tf","game":"Team Fortress","app_id":440,"player_count":24,"max_players":24,"Bots":0,"server_type":"Dedicated","server_os":"Linux","password":true,"vac":true,"version":"7961495","steam_id":85568392924469994,"keywords":["cp","nocrits","nodmgspread","uncletopia"],"game_id":440,"stv_port":27026,"stv_name":"Uncletopia | New York City | 2 | All Maps | STV","players":[{"user_id":554,"name":"oppenheimer style","steam_id":76561198026664629,"connected_time":4109000000000,"state":"active","ping":44},{"user_id":590,"name":"Chewbacca","steam_id":76561198041927925,"connected_time":1482000000000,"state":"active","ping":54},{"user_id":600,"name":"ToyBox","steam_id":76561199074735423,"connected_time":1201000000000,"state":"active","ping":59},{"user_id":617,"name":"AceDeuce","steam_id":76561198049904924,"connected_time":381000000000,"state":"active","ping":65},{"user_id":547,"name":"Mer","steam_id":76561198192171041,"connected_time":4659000000000,"state":"active","ping":109},{"user_id":618,"name":"Terror-Billy #SaveTF2","steam_id":76561198328141870,"connected_time":167000000000,"state":"active","ping":68},{"user_id":575,"name":"incredirocks","steam_id":76561198061079993,"connected_time":2622000000000,"state":"active","ping":65},{"user_id":559,"name":"Samrizo el Chorizo","steam_id":76561198009838162,"connected_time":3678000000000,"state":"active","ping":50},{"user_id":548,"name":"BiggSlorp","steam_id":76561199130776156,"connected_time":4658000000000,"state":"active","ping":57},{"user_id":608,"name":"ZombieSlayer77","steam_id":76561199023974356,"connected_time":817000000000,"state":"active","ping":84},{"user_id":614,"name":"Lesbian Chungus","steam_id":76561198055964295,"connected_time":701000000000,"state":"active","ping":70},{"user_id":607,"name":"PoplDude","steam_id":76561198170132570,"connected_time":1016000000000,"state":"active","ping":71},{"user_id":572,"name":"pa$$w0rd","steam_id":76561198224614084,"connected_time":2649000000000,"state":"active","ping":65},{"user_id":539,"name":"Grazzunk","steam_id":76561198290227691,"connected_time":5071000000000,"state":"active","ping":62},{"user_id":597,"name":"Hud","steam_id":76561198146122110,"connected_time":1270000000000,"state":"active","ping":42},{"user_id":613,"name":"checkswing","steam_id":76561198999816132,"connected_time":765000000000,"state":"active","ping":88},{"user_id":599,"name":"Queso2469","steam_id":76561197993024580,"connected_time":1204000000000,"state":"active","ping":53},{"user_id":591,"name":"Red Lobster Cheddar Bay Biscuit","steam_id":76561198133231245,"connected_time":1369000000000,"state":"active","ping":36},{"user_id":611,"name":"Blk_Mage_Ctype","steam_id":76561198041290184,"connected_time":795000000000,"state":"active","ping":59},{"user_id":612,"name":"BIG LION","steam_id":76561198091880358,"connected_time":791000000000,"state":"active","ping":59},{"user_id":598,"name":"Crab","steam_id":76561198067628664,"connected_time":1212000000000,"state":"active","ping":90},{"user_id":489,"name":"Voracious Puma","steam_id":76561197963621649,"connected_time":8656000000000,"state":"active","ping":88},{"user_id":616,"name":"IdkProlly","steam_id":76561198269212968,"connected_time":389000000000,"state":"active","ping":42},{"user_id":589,"name":"koth_SHE/HERvest","steam_id":76561198029274581,"connected_time":1602000000000,"state":"active","ping":73}]},{"server_id":15,"name":"Uncletopia | New York City | 3 | Stopwatch","name_short":"nyc-3","host":"nyc-1.us.uncletopia.com","port":27035,"enabled":true,"region":"us-east","cc":"us","latitude":40.73061,"longitude":-73.93524,"reserved":0,"last_update":"0001-01-01T00:00:00Z","name_a2s":"Uncletopia | New York City | 3 | Stopwatch","protocol":17,"map":"workshop/koth_ashville_final.ugc2130459942","folder":"tf","game":"Team Fortress","app_id":440,"player_count":0,"max_players":24,"Bots":0,"server_type":"Dedicated","server_os":"Linux","password":true,"vac":true,"version":"7961495","steam_id":85568392924742820,"keywords":["cp","nocrits","nodmgspread","uncletopia"],"game_id":440,"stv_port":27036,"stv_name":"Uncletopia | New York City | 3 | Stopwatch | STV","players":null},{"server_id":16,"name":"Uncletopia | New York City | 4 | Community","name_short":"nyc-4","host":"nyc-1.us.uncletopia.com","port":27045,"enabled":true,"region":"us-east","cc":"us","latitude":40.73061,"longitude":-73.93524,"reserved":0,"last_update":"0001-01-01T00:00:00Z","name_a2s":"Uncletopia | New York City | 4 | Community","protocol":17,"map":"workshop/pl_shoreleave_rc2.ugc1238849347","folder":"tf","game":"Team Fortress","app_id":440,"player_count":0,"max_players":24,"Bots":0,"server_type":"Dedicated","server_os":"Linux","password":true,"vac":true,"version":"7961495","steam_id":85568392924742821,"keywords":["nocrits","nodmgspread","payload","uncletopia"],"game_id":440,"stv_port":27046,"stv_name":"Uncletopia | New York City | 4 | Community | STV","players":null},{"server_id":142,"name":"Uncletopia | S√£o Paulo | 1 | All Maps","name_short":"sao-1","host":"sao-1.br.uncletopia.com","port":27015,"enabled":true,"region":"sa","cc":"br","latitude":-23.533773,"longitude":-46.62529,"reserved":0,"last_update":"0001-01-01T00:00:00Z","name_a2s":"Uncletopia | S√£o Paulo | 1 | All Maps","protocol":17,"map":"koth_cascade","folder":"tf","game":"Team Fortress","app_id":440,"player_count":0,"max_players":24,"Bots":0,"server_type":"Dedicated","server_os":"Linux","password":true,"vac":true,"version":"7961495","steam_id":85568392924469996,"keywords":["cp","nocrits","nodmgspread","uncletopia"],"game_id":440,"stv_port":27016,"stv_name":"Uncletopia | S√£o Paulo | 1 | All Maps | STV","players":null},{"server_id":143,"name":"Uncletopia | S√£o Paulo | 2 | Community","name_short":"sao-2","host":"sao-2.br.uncletopia.com","port":27015,"enabled":true,"region":"sa","cc":"br","latitude":-23.533773,"longitude":-46.62529,"reserved":0,"last_update":"0001-01-01T00:00:00Z","name_a2s":"Uncletopia | S√£o Paulo | 2 | Community","protocol":17,"map":"workshop/cp_overgrown_rc8.ugc503939302","folder":"tf","game":"Team Fortress","app_id":440,"player_count":2,"max_players":24,"Bots":0,"server_type":"Dedicated","server_os":"Linux","password":true,"vac":true,"version":"7961495","steam_id":85568392924485349,"keywords":["cp","nocrits","nodmgspread","uncletopia"],"game_id":440,"stv_port":27016,"stv_name":"Uncletopia | S√£o Paulo | 2 | Community | STV","players":[{"user_id":30,"name":"Seleste","steam_id":76561199099945745,"connected_time":3785000000000,"state":"spawning","ping":82},{"user_id":37,"name":"ElderYuko","steam_id":76561199090628256,"connected_time":2918000000000,"state":"active","ping":54}]},{"server_id":7,"name":"Uncletopia | Seattle | 1 | All Maps","name_short":"sea-1","host":"sea-1.us.uncletopia.com","port":27015,"enabled":true,"region":"us-west","cc":"us","latitude":47.608013,"longitude":-122.33517,"reserved":0,"last_update":"0001-01-01T00:00:00Z","name_a2s":"Uncletopia | Seattle | 1 | All Maps","protocol":17,"map":"koth_viaduct","folder":"tf","game":"Team Fortress","app_id":440,"player_count":23,"max_players":24,"Bots":0,"server_type":"Dedicated","server_os":"Linux","password":true,"vac":true,"version":"7961495","steam_id":85568392924469997,"keywords":["cp","nocrits","nodmgspread","uncletopia"],"game_id":440,"stv_port":27016,"stv_name":"Uncletopia | Seattle | 1 | All Maps | STV","players":[{"user_id":543,"name":"borne witness","steam_id":76561198268254154,"connected_time":394000000000,"state":"active","ping":133},{"user_id":525,"name":"the beast","steam_id":76561198088131563,"connected_time":3018000000000,"state":"active","ping":87},{"user_id":503,"name":"Nom Skirrett","steam_id":76561198014600788,"connected_time":4658000000000,"state":"active","ping":60},{"user_id":559,"name":"Rev","steam_id":76561199060355036,"connected_time":34000000000,"state":"active","ping":47},{"user_id":479,"name":"rad killl raccoon","steam_id":76561198980975595,"connected_time":7816000000000,"state":"active","ping":42},{"user_id":547,"name":"celestia ludenberg","steam_id":76561199196437823,"connected_time":271000000000,"state":"active","ping":91},{"user_id":555,"name":"Rick_laszlo","steam_id":76561199486710729,"connected_time":150000000000,"state":"active","ping":120},{"user_id":548,"name":"lux","steam_id":76561198271973658,"connected_time":267000000000,"state":"active","ping":125},{"user_id":500,"name":"lukamine","steam_id":76561198166827208,"connected_time":5304000000000,"state":"active","ping":47},{"user_id":554,"name":"Dongus","steam_id":76561197979056451,"connected_time":152000000000,"state":"active","ping":45},{"user_id":476,"name":"Spectre‚Åπ‚Åπ‚Åπ","steam_id":76561198037535169,"connected_time":7904000000000,"state":"active","ping":70},{"user_id":533,"name":"mindgiant","steam_id":76561197992995915,"connected_time":1882000000000,"state":"active","ping":68},{"user_id":544,"name":"Greenwood RN","steam_id":76561198088641060,"connected_time":323000000000,"state":"active","ping":43},{"user_id":534,"name":"Other Players, My One Weakness","steam_id":76561197989247588,"connected_time":1692000000000,"state":"active","ping":73},{"user_id":541,"name":"Dom","steam_id":76561198156431338,"connected_time":912000000000,"state":"active","ping":103},{"user_id":545,"name":"Dragoninventor (He/Him)","steam_id":76561198956224948,"connected_time":299000000000,"state":"active","ping":93},{"user_id":535,"name":"Ayayayayayayayayayayayayahuasca","steam_id":76561199002906056,"connected_time":1681000000000,"state":"active","ping":44},{"user_id":542,"name":"milkers","steam_id":76561199074843594,"connected_time":723000000000,"state":"active","ping":77},{"user_id":557,"name":"Indigolake","steam_id":76561198202215807,"connected_time":130000000000,"state":"active","ping":122},{"user_id":558,"name":"abel","steam_id":76561199401467297,"connected_time":95000000000,"state":"active","ping":212},{"user_id":531,"name":"MayaBon","steam_id":76561198797968261,"connected_time":2307000000000,"state":"active","ping":64},{"user_id":521,"name":"theManMan","steam_id":76561199488457138,"connected_time":3389000000000,"state":"active","ping":57},{"user_id":526,"name":"NickoDeeBz","steam_id":76561198294657867,"connected_time":3018000000000,"state":"active","ping":90}]},{"server_id":119,"name":"Uncletopia | Seattle | 2 | All Maps","name_short":"sea-2","host":"sea-1.us.uncletopia.com","port":27025,"enabled":true,"region":"us-west","cc":"us","latitude":47.608013,"longitude":-122.33517,"reserved":0,"last_update":"0001-01-01T00:00:00Z","name_a2s":"Uncletopia | Seattle | 2 | All Maps","protocol":17,"map":"pl_pier","folder":"tf","game":"Team Fortress","app_id":440,"player_count":24,"max_players":24,"Bots":0,"server_type":"Dedicated","server_os":"Linux","password":true,"vac":true,"version":"7961495","steam_id":85568392924469998,"keywords":["nocrits","nodmgspread","payload","uncletopia"],"game_id":440,"stv_port":27026,"stv_name":"Uncletopia | Seattle | 2 | All Maps | STV","players":[{"user_id":84,"name":"Rock Kickass","steam_id":76561198450510841,"connected_time":167000000000,"state":"active","ping":93},{"user_id":80,"name":"Dimple","steam_id":76561198980324190,"connected_time":271000000000,"state":"active","ping":86},{"user_id":57,"name":"LavenderSys","steam_id":76561198289106015,"connected_time":2584000000000,"state":"active","ping":48},{"user_id":75,"name":"Bracey","steam_id":76561199092318246,"connected_time":1121000000000,"state":"active","ping":87},{"user_id":18,"name":"OxOoxen841","steam_id":76561198297981993,"connected_time":4826000000000,"state":"active","ping":82},{"user_id":14,"name":"Toastedtoast222","steam_id":76561198120756409,"connected_time":5172000000000,"state":"active","ping":62},{"user_id":79,"name":"Open Mailbox","steam_id":76561198051933580,"connected_time":313000000000,"state":"active","ping":127},{"user_id":61,"name":"Weed Pyro (real)","steam_id":76561199388058358,"connected_time":2247000000000,"state":"active","ping":62},{"user_id":45,"name":"Kakavian","steam_id":76561198030549172,"connected_time":2971000000000,"state":"active","ping":78},{"user_id":68,"name":"Keyboardbreaker","steam_id":76561198372836132,"connected_time":1456000000000,"state":"active","ping":75},{"user_id":77,"name":"nav","steam_id":76561198872608266,"connected_time":805000000000,"state":"active","ping":166},{"user_id":83,"name":"Keamy","steam_id":76561199471434875,"connected_time":174000000000,"state":"active","ping":40},{"user_id":71,"name":"The Goon","steam_id":76561198434696450,"connected_time":1379000000000,"state":"active","ping":193},{"user_id":40,"name":"Joyous Jenny","steam_id":76561198127998866,"connected_time":3878000000000,"state":"active","ping":129},{"user_id":78,"name":"exephur","steam_id":76561198135763234,"connected_time":478000000000,"state":"active","ping":63},{"user_id":62,"name":"mooney","steam_id":76561199110622484,"connected_time":2234000000000,"state":"active","ping":57},{"user_id":73,"name":"FireQuiz","steam_id":76561198107357249,"connected_time":1158000000000,"state":"active","ping":45},{"user_id":60,"name":"Ferret","steam_id":76561198060416458,"connected_time":2331000000000,"state":"active","ping":83},{"user_id":64,"name":"Asuka Langley","steam_id":76561198157732609,"connected_time":2173000000000,"state":"active","ping":89},{"user_id":56,"name":"GreenApples","steam_id":76561198120559543,"connected_time":2744000000000,"state":"active","ping":66},{"user_id":76,"name":"Nekomata_YT","steam_id":76561198191536489,"connected_time":1118000000000,"state":"active","ping":79},{"user_id":81,"name":"VOLCON","steam_id":76561198116023052,"connected_time":256000000000,"state":"active","ping":76},{"user_id":65,"name":"BisKit","steam_id":76561198140624153,"connected_time":2033000000000,"state":"active","ping":134},{"user_id":85,"name":"„É™„ÇØ","steam_id":76561198272108529,"connected_time":162000000000,"state":"active","ping":81}]},{"server_id":406,"name":"Uncletopia | Seattle | 3 | Stopwatch","name_short":"sea-3","host":"sea-1.us.uncletopia.com","port":27035,"enabled":true,"region":"us-west","cc":"us","latitude":47.608013,"longitude":-122.33517,"reserved":0,"last_update":"0001-01-01T00:00:00Z","name_a2s":"Uncletopia | Seattle | 3 | Stopwatch","protocol":17,"map":"pl_swiftwater_final1","folder":"tf","game":"Team Fortress","app_id":440,"player_count":0,"max_players":24,"Bots":0,"server_type":"Dedicated","server_os":"Linux","password":true,"vac":true,"version":"7961495","steam_id":85568392924515217,"keywords":["nocrits","nodmgspread","payload","uncletopia"],"game_id":440,"stv_port":27036,"stv_name":"Uncletopia | Seattle | 3 | Stopwatch | STV","players":null},{"server_id":17,"name":"Uncletopia | San Francisco | 1 | All Maps","name_short":"sfo-1","host":"sfo-1.us.uncletopia.com","port":27015,"enabled":true,"region":"us-west","cc":"us","latitude":37.77397,"longitude":-122.4313,"reserved":0,"last_update":"0001-01-01T00:00:00Z","name_a2s":"Uncletopia | San Francisco | 1 | All Maps","protocol":17,"map":"koth_highpass","folder":"tf","game":"Team Fortress","app_id":440,"player_count":0,"max_players":24,"Bots":0,"server_type":"Dedicated","server_os":"Linux","password":true,"vac":true,"version":"7961495","steam_id":85568392924469999,"keywords":["cp","nocrits","nodmgspread","uncletopia"],"game_id":440,"stv_port":27016,"stv_name":"Uncletopia | San Francisco | 1 | All Maps | STV","players":null},{"server_id":18,"name":"Uncletopia | San Francisco | 2 | All Maps","name_short":"sfo-2","host":"sfo-1.us.uncletopia.com","port":27025,"enabled":true,"region":"us-west","cc":"us","latitude":37.77397,"longitude":-122.4313,"reserved":0,"last_update":"0001-01-01T00:00:00Z","name_a2s":"Uncletopia | San Francisco | 2 | All Maps","protocol":17,"map":"ctf_landfall","folder":"tf","game":"Team Fortress","app_id":440,"player_count":24,"max_players":24,"Bots":0,"server_type":"Dedicated","server_os":"Linux","password":true,"vac":true,"version":"7961495","steam_id":85568392924470000,"keywords":["ctf","nocrits","nodmgspread","uncletopia"],"game_id":440,"stv_port":27026,"stv_name":"Uncletopia | San Francisco | 2 | All Maps | STV","players":[{"user_id":550,"name":"Jerphf","steam_id":76561198328825964,"connected_time":3451000000000,"state":"active","ping":90},{"user_id":594,"name":"Mystic man of potatoe","steam_id":76561198027267207,"connected_time":1444000000000,"state":"active","ping":75},{"user_id":593,"name":"„Ç≥„Çπ„Éà„Ç≥„Éõ„ÉÉ„Éà„Éâ„ÉÉ„Ç∞","steam_id":76561198082406533,"connected_time":1585000000000,"state":"active","ping":111},{"user_id":539,"name":"sincerelymagicmeister","steam_id":76561198393923543,"connected_time":4007000000000,"state":"active","ping":73},{"user_id":606,"name":"Petrivus","steam_id":76561198202152453,"connected_time":357000000000,"state":"active","ping":66},{"user_id":552,"name":"Trav_YEET","steam_id":76561198960813580,"connected_time":3364000000000,"state":"active","ping":118},{"user_id":547,"name":"Username","steam_id":76561198198918781,"connected_time":3672000000000,"state":"active","ping":71},{"user_id":598,"name":"[TWL] Mythical Lag","steam_id":76561198347031281,"connected_time":1384000000000,"state":"active","ping":91},{"user_id":604,"name":"Data","steam_id":76561198147917933,"connected_time":988000000000,"state":"active","ping":115},{"user_id":599,"name":"pipebombrater","steam_id":76561199029030831,"connected_time":1306000000000,"state":"active","ping":128},{"user_id":603,"name":"run fast fall down","steam_id":76561198167207112,"connected_time":1074000000000,"state":"active","ping":88},{"user_id":558,"name":"MyHeadHz","steam_id":76561198090654531,"connected_time":3170000000000,"state":"active","ping":70},{"user_id":595,"name":"Jpxfred","steam_id":76561199414783749,"connected_time":1440000000000,"state":"active","ping":55},{"user_id":592,"name":"Krysar","steam_id":76561198202077555,"connected_time":1602000000000,"state":"active","ping":92},{"user_id":611,"name":"Callie","steam_id":76561198131833567,"connected_time":127000000000,"state":"active","ping":71},{"user_id":578,"name":"Sunny.","steam_id":76561198333213856,"connected_time":2329000000000,"state":"active","ping":102},{"user_id":602,"name":"Sir BrainDamage the IV of Serbi","steam_id":76561198846344452,"connected_time":1149000000000,"state":"active","ping":56},{"user_id":596,"name":"severinovnikita15","steam_id":76561199387558915,"connected_time":1432000000000,"state":"active","ping":117},{"user_id":597,"name":"Brando","steam_id":76561198078306678,"connected_time":1405000000000,"state":"active","ping":77},{"user_id":607,"name":"elephant thumb","steam_id":76561198118859752,"connected_time":277000000000,"state":"active","ping":56},{"user_id":605,"name":"TickTock|Mink","steam_id":76561198069809794,"connected_time":843000000000,"state":"active","ping":123},{"user_id":571,"name":"CakeWut","steam_id":76561198156272110,"connected_time":2795000000000,"state":"active","ping":70},{"user_id":572,"name":"smetc","steam_id":76561198240696986,"connected_time":2793000000000,"state":"active","ping":102},{"user_id":608,"name":"kaede","steam_id":76561198345528370,"connected_time":255000000000,"state":"active","ping":39}]},{"server_id":19,"name":"Uncletopia | San Francisco | 3 | Stopwatch","name_short":"sfo-3","host":"sfo-1.us.uncletopia.com","port":27035,"enabled":true,"region":"us-west","cc":"us","latitude":37.77397,"longitude":-122.4313,"reserved":0,"last_update":"0001-01-01T00:00:00Z","name_a2s":"Uncletopia | San Francisco | 3 | Stopwatch","protocol":17,"map":"workshop/koth_product_final.ugc454272353","folder":"tf","game":"Team Fortress","app_id":440,"player_count":0,"max_players":24,"Bots":0,"server_type":"Dedicated","server_os":"Linux","password":true,"vac":true,"version":"7961495","steam_id":85568392924742824,"keywords":["cp","nocrits","nodmgspread","uncletopia"],"game_id":440,"stv_port":27036,"stv_name":"Uncletopia | San Francisco | 3 | Stopwatch | STV","players":null},{"server_id":20,"name":"Uncletopia | San Francisco | 4 | Community","name_short":"sfo-4","host":"sfo-1.us.uncletopia.com","port":27045,"enabled":true,"region":"us-west","cc":"us","latitude":37.77397,"longitude":-122.4313,"reserved":0,"last_update":"0001-01-01T00:00:00Z","name_a2s":"Uncletopia | San Francisco | 4 | Community","protocol":17,"map":"workshop/cp_logjam_rc12.ugc454812035","folder":"tf","game":"Team Fortress","app_id":440,"player_count":0,"max_players":24,"Bots":0,"server_type":"Dedicated","server_os":"Linux","password":true,"vac":true,"version":"7961495","steam_id":85568392924742826,"keywords":["cp","nocrits","nodmgspread","uncletopia"],"game_id":440,"stv_port":27046,"stv_name":"Uncletopia | San Francisco | 4 | Community | STV","players":null},{"server_id":141,"name":"Uncletopia | Sydney | 1 | All Maps","name_short":"syd-1","host":"syd-1.au.uncletopia.com","port":27015,"enabled":true,"region":"au","cc":"au","latitude":-33.865143,"longitude":151.2099,"reserved":0,"last_update":"0001-01-01T00:00:00Z","name_a2s":"Uncletopia | Sydney | 1 | All Maps","protocol":17,"map":"koth_viaduct","folder":"tf","game":"Team Fortress","app_id":440,"player_count":0,"max_players":24,"Bots":0,"server_type":"Dedicated","server_os":"Linux","password":true,"vac":true,"version":"7961495","steam_id":85568392924470001,"keywords":["cp","nocrits","nodmgspread","uncletopia"],"game_id":440,"stv_port":27016,"stv_name":"Uncletopia | Sydney | 1 | All Maps | STV","players":null},{"server_id":123,"name":"Uncletopia | Sydney | 2 | All Maps","name_short":"syd-2","host":"syd-1.au.uncletopia.com","port":27025,"enabled":true,"region":"au","cc":"au","latitude":-33.865143,"longitude":151.2099,"reserved":0,"last_update":"0001-01-01T00:00:00Z","name_a2s":"Uncletopia | Sydney | 2 | All Maps","protocol":17,"map":"koth_viaduct","folder":"tf","game":"Team Fortress","app_id":440,"player_count":0,"max_players":24,"Bots":0,"server_type":"Dedicated","server_os":"Linux","password":true,"vac":true,"version":"7961495","steam_id":85568392924470002,"keywords":["cp","nocrits","nodmgspread","uncletopia"],"game_id":440,"stv_port":27026,"stv_name":"Uncletopia | Sydney | 2 | All Maps | STV","players":null},{"server_id":395,"name":"Uncletopia | Sydney | 3 | All Maps","name_short":"syd-3","host":"syd-1.au.uncletopia.com","port":27035,"enabled":true,"region":"au","cc":"au","latitude":-33.865143,"longitude":151.2099,"reserved":0,"last_update":"0001-01-01T00:00:00Z","name_a2s":"Uncletopia | Sydney | 3 | All Maps","protocol":17,"map":"pl_frontier_final","folder":"tf","game":"Team Fortress","app_id":440,"player_count":0,"max_players":24,"Bots":0,"server_type":"Dedicated","server_os":"Linux","password":true,"vac":true,"version":"7961495","steam_id":85568392925194467,"keywords":["nocrits","nodmgspread","payload","uncletopia"],"game_id":440,"stv_port":27036,"stv_name":"Uncletopia | Sydney | 3 | All Maps | STV","players":null},{"server_id":396,"name":"Uncletopia | Sydney | 4 | All Maps","name_short":"syd-4","host":"syd-1.au.uncletopia.com","port":27045,"enabled":true,"region":"au","cc":"au","latitude":-33.865143,"longitude":151.2099,"reserved":0,"last_update":"0001-01-01T00:00:00Z","name_a2s":"Uncletopia | Sydney | 4 | All Maps","protocol":17,"map":"cp_process_final","folder":"tf","game":"Team Fortress","app_id":440,"player_count":0,"max_players":24,"Bots":0,"server_type":"Dedicated","server_os":"Linux","password":true,"vac":true,"version":"7961495","steam_id":85568392925397958,"keywords":["cp","nocrits","nodmgspread","uncletopia"],"game_id":440,"stv_port":27046,"stv_name":"Uncletopia | Sydney | 4 | All Maps | STV","players":null},{"server_id":58,"name":"Uncletopia | Sydney | 5 | Stopwatch","name_short":"syd-5","host":"syd-1.au.uncletopia.com","port":27055,"enabled":true,"region":"au","cc":"au","latitude":-33.865143,"longitude":151.2099,"reserved":0,"last_update":"0001-01-01T00:00:00Z","name_a2s":"Uncletopia | Sydney | 5 | Stopwatch","protocol":17,"map":"pl_frontier_final","folder":"tf","game":"Team Fortress","app_id":440,"player_count":0,"max_players":24,"Bots":0,"server_type":"Dedicated","server_os":"Linux","password":true,"vac":true,"version":"7961495","steam_id":85568392925397959,"keywords":["nocrits","nodmgspread","payload","uncletopia"],"game_id":440,"stv_port":27056,"stv_name":"Uncletopia | Sydney | 5 | Stopwatch | STV","players":null},{"server_id":59,"name":"Uncletopia | Sydney | 6 | Community","name_short":"syd-6","host":"syd-1.au.uncletopia.com","port":27065,"enabled":true,"region":"au","cc":"au","latitude":-33.865143,"longitude":151.2099,"reserved":0,"last_update":"0001-01-01T00:00:00Z","name_a2s":"Uncletopia | Sydney | 6 | Community","protocol":17,"map":"cp_sunshine","folder":"tf","game":"Team Fortress","app_id":440,"player_count":0,"max_players":24,"Bots":0,"server_type":"Dedicated","server_os":"Linux","password":true,"vac":true,"version":"7961495","steam_id":85568392925397960,"keywords":["cp","nocrits","nodmgspread","uncletopia"],"game_id":440,"stv_port":27066,"stv_name":"Uncletopia | Sydney | 6 | Community | STV","players":null},{"server_id":49,"name":"Uncletopia | Warsaw | 1 | One Thousand Uncles","name_short":"waw-1","host":"waw-1.pl.uncletopia.com","port":27015,"enabled":true,"region":"eu","cc":"pl","latitude":52.2297,"longitude":21.017532,"reserved":0,"last_update":"0001-01-01T00:00:00Z","name_a2s":"Uncletopia | Warsaw | 1 | One Thousand Uncles","protocol":17,"map":"pl_upward","folder":"tf","game":"Team Fortress","app_id":440,"player_count":27,"max_players":32,"Bots":16,"server_type":"Dedicated","server_os":"Linux","password":true,"vac":true,"version":"7961495","steam_id":85568392925397850,"keywords":["alltalk","bots","danepve","increased_maxplayers","nocrits","norespawntime","payload","uncletopia"],"game_id":440,"stv_port":0,"stv_name":"","players":[{"user_id":238,"name":"GoatLord1","steam_id":76561198157964544,"connected_time":3635000000000,"state":"active","ping":83},{"user_id":208,"name":"Œ©vetabolŒ©","steam_id":76561199015064558,"connected_time":13032000000000,"state":"active","ping":105},{"user_id":144,"name":"Invicator","steam_id":76561198082895461,"connected_time":17086000000000,"state":"active","ping":70},{"user_id":240,"name":"Ê≥°Ê≥°Â∞èÂ≠êÂ∞±ÊòØÊàë","steam_id":76561198837469920,"connected_time":2821000000000,"state":"active","ping":235},{"user_id":265,"name":"nito","steam_id":76561198043530597,"connected_time":984000000000,"state":"active","ping":48},{"user_id":282,"name":"con","steam_id":76561198850438326,"connected_time":815000000000,"state":"active","ping":166},{"user_id":259,"name":"MLC","steam_id":76561198188971214,"connected_time":2382000000000,"state":"active","ping":64},{"user_id":260,"name":"Crimson","steam_id":76561197987552332,"connected_time":2324000000000,"state":"active","ping":62},{"user_id":183,"name":"RoofRabbid","steam_id":76561198012821810,"connected_time":14317000000000,"state":"active","ping":111},{"user_id":284,"name":"„Éï„Ç°„ÉÉ„ÇØ„Ç≠„É£„Çπ„Éà„Ç¢„Ç§","steam_id":76561198935191496,"connected_time":242000000000,"state":"active","ping":122},{"user_id":262,"name":"nolife511","steam_id":76561199501782206,"connected_time":1926000000000,"state":"active","ping":96}]},{"server_id":50,"name":"Uncletopia | Warsaw | 2 | One Thousand Uncles","name_short":"waw-2","host":"waw-1.pl.uncletopia.com","port":27025,"enabled":true,"region":"eu","cc":"pl","latitude":52.2297,"longitude":21.017532,"reserved":0,"last_update":"0001-01-01T00:00:00Z","name_a2s":"Uncletopia | Warsaw | 2 | One Thousand Uncles","protocol":17,"map":"cp_mercenarypark","folder":"tf","game":"Team Fortress","app_id":440,"player_count":0,"max_players":32,"Bots":0,"server_type":"Dedicated","server_os":"Linux","password":true,"vac":true,"version":"7961495","steam_id":85568392925397851,"keywords":["alltalk","cp","danepve","increased_maxplayers","nocrits","norespawntime","uncletopia"],"game_id":440,"stv_port":0,"stv_name":"","players":null},{"server_id":51,"name":"Uncletopia | Warsaw | 3 | All Maps","name_short":"waw-3","host":"waw-1.pl.uncletopia.com","port":27035,"enabled":true,"region":"eu","cc":"pl","latitude":52.2297,"longitude":21.017532,"reserved":0,"last_update":"0001-01-01T00:00:00Z","name_a2s":"Uncletopia | Warsaw | 3 | All Maps","protocol":17,"map":"plr_pipeline","folder":"tf","game":"Team Fortress","app_id":440,"player_count":0,"max_players":24,"Bots":0,"server_type":"Dedicated","server_os":"Linux","password":true,"vac":true,"version":"7961495","steam_id":85568392925397852,"keywords":["nocrits","nodmgspread","payload","uncletopia"],"game_id":440,"stv_port":27036,"stv_name":"Uncletopia | Warsaw | 3 | All Maps | STV","players":null},{"server_id":52,"name":"Uncletopia | Warsaw | 4 | All Maps","name_short":"waw-4","host":"waw-1.pl.uncletopia.com","port":27045,"enabled":true,"region":"eu","cc":"pl","latitude":52.2297,"longitude":21.017532,"reserved":0,"last_update":"0001-01-01T00:00:00Z","name_a2s":"Uncletopia | Warsaw | 4 | All Maps","protocol":17,"map":"cp_snakewater_final1","folder":"tf","game":"Team Fortress","app_id":440,"player_count":0,"max_players":24,"Bots":0,"server_type":"Dedicated","server_os":"Linux","password":true,"vac":true,"version":"7961495","steam_id":85568392925397853,"keywords":["cp","nocrits","nodmgspread","uncletopia"],"game_id":440,"stv_port":27046,"stv_name":"Uncletopia | Warsaw | 4 | All Maps | STV","players":null},{"server_id":53,"name":"Uncletopia | Warsaw | 5 | Stopwatch","name_short":"waw-5","host":"waw-1.pl.uncletopia.com","port":27055,"enabled":true,"region":"eu","cc":"pl","latitude":52.2297,"longitude":21.017532,"reserved":0,"last_update":"0001-01-01T00:00:00Z","name_a2s":"Uncletopia | Warsaw | 5 | Stopwatch","protocol":17,"map":"koth_highpass","folder":"tf","game":"Team Fortress","app_id":440,"player_count":0,"max_players":24,"Bots":0,"server_type":"Dedicated","server_os":"Linux","password":true,"vac":true,"version":"7961495","steam_id":85568392925397854,"keywords":["cp","nocrits","nodmgspread","uncletopia"],"game_id":440,"stv_port":27056,"stv_name":"Uncletopia | Warsaw | 5 | Stopwatch | STV","players":null},{"server_id":54,"name":"Uncletopia | Warsaw | 6 | Community","name_short":"waw-6","host":"waw-1.pl.uncletopia.com","port":27065,"enabled":true,"region":"eu","cc":"pl","latitude":52.2297,"longitude":21.017532,"reserved":0,"last_update":"0001-01-01T00:00:00Z","name_a2s":"Uncletopia | Warsaw | 6 | Community","protocol":17,"map":"workshop/cp_villa_b19.ugc2113052569","folder":"tf","game":"Team Fortress","app_id":440,"player_count":0,"max_players":24,"Bots":0,"server_type":"Dedicated","server_os":"Linux","password":true,"vac":true,"version":"7961495","steam_id":85568392925397856,"keywords":["cp","nocrits","nodmgspread","uncletopia"],"game_id":440,"stv_port":27066,"stv_name":"Uncletopia | Warsaw | 6 | Community | STV","players":null}]}