{"status":true,"message":"","result":[{"server_id":9,"name":"Uncletopia | Atlanta | 1 | All Maps","name_short":"atl-1","host":"atl-1.us.uncletopia.com","port":27015,"enabled":true,"region":"us-east","cc":"us","latitude":33.753746,"longitude":-84.38633,"reserved":0,"last_update":"0001-01-01T00:00:00Z","name_a2s":"Uncletopia | Atlanta | 1 | All Maps","protocol":17,"map":"pl_borneo","folder":"tf","game":"Team Fortress","app_id":440,"player_count":24,"max_players":24,"Bots":0,"server_type":"Dedicated","server_os":"Linux","password":true,"vac":true,"version":"7961495","steam_id":85568392924469982,"keywords":["nocrits","nodmgspread","payload","uncletopia"],"game_id":440,"stv_port":27016,"stv_name":"Uncletopia | Atlanta | 1 | All Maps | STV","players":[{"user_id":72,"name":"BigBubble42","steam_id":76561198136286123,"connected_time":1359000000000,"state":"active","ping":46},{"user_id":74,"name":"sork tee bee","steam_id":76561199074852635,"connected_time":1263000000000,"state":"active","ping":70},{"user_id":15,"name":"SAntOrGrav","steam_id":76561199444957686,"connected_time":5237000000000,"state":"active","ping":143},{"user_id":82,"name":"lynt","steam_id":76561198988333976,"connected_time":678000000000,"state":"active","ping":40},{"user_id":66,"name":"THOTDADDY","steam_id":76561198069868942,"connected_time":1687000000000,"state":"active","ping":76},{"user_id":83,"name":"Mr Happy","steam_id":76561198067689328,"connected_time":604000000000,"state":"active","ping":71},{"user_id":75,"name":"Dargen","steam_id":76561198143069671,"connected_time":1090000000000,"state":"active","ping":75},{"user_id":17,"name":"Bean King","steam_id":76561198393621940,"connected_time":4993000000000,"state":"active","ping":45},{"user_id":54,"name":"MrCalmL.I","steam_id":76561198966598137,"connected_time":2473000000000,"state":"active","ping":67},{"user_id":71,"name":"lu","steam_id":76561198080731872,"connected_time":1398000000000,"state":"active","ping":70},{"user_id":86,"name":"makotothompson","steam_id":76561199012033756,"connected_time":149000000000,"state":"active","ping":58},{"user_id":73,"name":"get scrongled, idiot","steam_id":76561198115874625,"connected_time":1319000000000,"state":"active","ping":87},{"user_id":56,"name":"spinning so fast i generate lif","steam_id":76561198280331687,"connected_time":2466000000000,"state":"active","ping":98},{"user_id":57,"name":"Dark Souls","steam_id":76561198131174016,"connected_time":2450000000000,"state":"active","ping":84},{"user_id":61,"name":"Motorolª","steam_id":76561198358119669,"connected_time":1932000000000,"state":"active","ping":123},{"user_id":76,"name":"King Of The Chill","steam_id":76561197971394640,"connected_time":1089000000000,"state":"active","ping":93},{"user_id":43,"name":"dingus deluxe","steam_id":76561198834355366,"connected_time":4182000000000,"state":"active","ping":71},{"user_id":69,"name":"Coersion","steam_id":76561198242842394,"connected_time":1555000000000,"state":"active","ping":60},{"user_id":81,"name":"Wolffkran","steam_id":76561198003018041,"connected_time":749000000000,"state":"active","ping":150},{"user_id":62,"name":"JustADuck","steam_id":76561198311260943,"connected_time":1921000000000,"state":"active","ping":56},{"user_id":70,"name":"loot","steam_id":76561198069954956,"connected_time":1439000000000,"state":"active","ping":48},{"user_id":60,"name":"TheWorst","steam_id":76561198151241267,"connected_time":2204000000000,"state":"active","ping":84},{"user_id":49,"name":"Sunny D+","steam_id":76561197999371052,"connected_time":3151000000000,"state":"active","ping":75},{"user_id":79,"name":"rice white","steam_id":76561198320732910,"connected_time":974000000000,"state":"active","ping":82}]},{"server_id":104,"name":"Uncletopia | Atlanta | 2 | All Maps","name_short":"atl-2","host":"atl-1.us.uncletopia.com","port":27025,"enabled":true,"region":"us-east","cc":"us","latitude":33.753746,"longitude":-84.38633,"reserved":0,"last_update":"0001-01-01T00:00:00Z","name_a2s":"Uncletopia | Atlanta | 2 | All Maps","protocol":17,"map":"pl_upward","folder":"tf","game":"Team Fortress","app_id":440,"player_count":7,"max_players":24,"Bots":0,"server_type":"Dedicated","server_os":"Linux","password":true,"vac":true,"version":"7961495","steam_id":85568392924469983,"keywords":["nocrits","nodmgspread","payload","uncletopia"],"game_id":440,"stv_port":27026,"stv_name":"Uncletopia | Atlanta | 2 | All Maps | STV","players":[{"user_id":19,"name":"AHHHH,airplane","steam_id":76561199227196462,"connected_time":118000000000,"state":"active","ping":88},{"user_id":6,"name":"HailedClown","steam_id":76561199225239977,"connected_time":3492000000000,"state":"active","ping":91},{"user_id":15,"name":"Taskrabbits","steam_id":76561198366682546,"connected_time":894000000000,"state":"active","ping":105},{"user_id":20,"name":"FYI, i am a","steam_id":76561198814096380,"connected_time":59000000000,"state":"active","ping":75},{"user_id":10,"name":"Lee Thats It","steam_id":76561199200579913,"connected_time":2253000000000,"state":"active","ping":71},{"user_id":11,"name":"Stan","steam_id":76561198209150708,"connected_time":1970000000000,"state":"active","ping":90},{"user_id":18,"name":"Cheese","steam_id":76561197995821288,"connected_time":231000000000,"state":"active","ping":70}]},{"server_id":400,"name":"Uncletopia | Atlanta | 3 | Stopwatch","name_short":"atl-3","host":"atl-1.us.uncletopia.com","port":27035,"enabled":true,"region":"us-east","cc":"us","latitude":33.753746,"longitude":-84.38633,"reserved":0,"last_update":"0001-01-01T00:00:00Z","name_a2s":"Uncletopia | Atlanta | 3 | Stopwatch","protocol":17,"map":"cp_process_final","folder":"tf","game":"Team Fortress","app_id":440,"player_count":0,"max_players":24,"Bots":0,"server_type":"Dedicated","server_os":"Linux","password":true,"vac":true,"version":"7961495","steam_id":85568392924515187,"keywords":["cp","nocrits","nodmgspread","uncletopia"],"game_id":440,"stv_port":27036,"stv_name":"Uncletopia | Atlanta | 3 | Stopwatch | STV","players":null},{"server_id":401,"name":"Uncletopia | Atlanta | 4 | Community","name_short":"atl-4","host":"atl-1.us.uncletopia.com","port":27045,"enabled":true,"region":"us-east","cc":"us","latitude":33.753746,"longitude":-84.38633,"reserved":0,"last_update":"0001-01-01T00:00:00Z","name_a2s":"Uncletopia | Atlanta | 4 | Community","protocol":17,"map":"workshop/koth_bagel_rc6.ugc2514036946","folder":"tf","game":"Team Fortress","app_id":440,"player_count":0,"max_players":24,"Bots":0,"server_type":"Dedicated","server_os":"Linux","password":true,"vac":true,"version":"7961495","steam_id":85568392924515188,"keywords":["cp","nocrits","nodmgspread","uncletopia"],"game_id":440,"stv_port":27046,"stv_name":"Uncletopia | Atlanta | 4 | Community | STV","players":null},{"server_id":2,"name":"Uncletopia | Chicago | 1 | All Maps","name_short":"chi-1","host":"chi-1.us.uncletopia.com","port":27015,"enabled":true,"region":"us-central","cc":"us","latitude":41.881832,"longitude":-87.62318,"reserved":0,"last_update":"0001-01-01T00:00:00Z","name_a2s":"Uncletopia | Chicago | 1 | All Maps","protocol":17,"map":"pl_thundermountain","folder":"tf","game":"Team Fortress","app_id":440,"player_count":24,"max_players":24,"Bots":0,"server_type":"Dedicated","server_os":"Linux","password":true,"vac":true,"version":"7961495","steam_id":85568392924469984,"keywords":["nocrits","nodmgspread","payload","uncletopia"],"game_id":440,"stv_port":27016,"stv_name":"Uncletopia | Chicago | 1 | All Maps | STV","players":[{"user_id":91,"name":"Sir Spinach","steam_id":76561199164337878,"connected_time":2527000000000,"state":"active","ping":89},{"user_id":66,"name":"DuckKey","steam_id":76561198904477889,"connected_time":5145000000000,"state":"active","ping":56},{"user_id":113,"name":"ุ","steam_id":76561198170624701,"connected_time":168000000000,"state":"active","ping":75},{"user_id":99,"name":"Walkiing","steam_id":76561198074473413,"connected_time":1616000000000,"state":"active","ping":42},{"user_id":92,"name":"dietcokefan42","steam_id":76561198135307995,"connected_time":2484000000000,"state":"active","ping":74},{"user_id":69,"name":"Grify","steam_id":76561198012292317,"connected_time":4348000000000,"state":"active","ping":85},{"user_id":112,"name":"King De","steam_id":76561198194427422,"connected_time":298000000000,"state":"active","ping":68},{"user_id":100,"name":"K","steam_id":76561198171446177,"connected_time":1479000000000,"state":"active","ping":96},{"user_id":59,"name":"Spectre","steam_id":76561198037535169,"connected_time":6200000000000,"state":"active","ping":77},{"user_id":107,"name":"AutoCon17","steam_id":76561198209977473,"connected_time":1199000000000,"state":"active","ping":44},{"user_id":108,"name":"UwU","steam_id":76561198971629959,"connected_time":1137000000000,"state":"active","ping":135},{"user_id":104,"name":"ArcticRescue","steam_id":76561198055362404,"connected_time":1369000000000,"state":"active","ping":33},{"user_id":90,"name":"Morgster","steam_id":76561198131697761,"connected_time":2626000000000,"state":"active","ping":70},{"user_id":61,"name":"BabyPunter","steam_id":76561199443211026,"connected_time":6091000000000,"state":"active","ping":67},{"user_id":89,"name":"Flvffi","steam_id":76561198119479353,"connected_time":2699000000000,"state":"active","ping":61},{"user_id":109,"name":"suns","steam_id":76561198079583278,"connected_time":1053000000000,"state":"active","ping":49},{"user_id":110,"name":"villain","steam_id":76561198306677358,"connected_time":1042000000000,"state":"active","ping":91},{"user_id":111,"name":"socializedCryptid","steam_id":76561198991665007,"connected_time":351000000000,"state":"active","ping":58},{"user_id":68,"name":"ThatGamingKiwi","steam_id":76561199170522237,"connected_time":4624000000000,"state":"active","ping":186},{"user_id":76,"name":"spider_murphy","steam_id":76561198079057101,"connected_time":4123000000000,"state":"active","ping":75},{"user_id":51,"name":"Shirt","steam_id":76561198082386564,"connected_time":7321000000000,"state":"active","ping":59},{"user_id":103,"name":"Robin","steam_id":76561198121165149,"connected_time":1431000000000,"state":"active","ping":47},{"user_id":94,"name":"(She/Her)ChaméniTheá","steam_id":76561198114244051,"connected_time":2430000000000,"state":"active","ping":85},{"user_id":106,"name":"The Guy","steam_id":76561198799183693,"connected_time":1337000000000,"state":"active","ping":92}]},{"server_id":106,"name":"Uncletopia | Chicago | 2 | All Maps","name_short":"chi-2","host":"chi-1.us.uncletopia.com","port":27025,"enabled":true,"region":"us-central","cc":"us","latitude":41.881832,"longitude":-87.62318,"reserved":0,"last_update":"0001-01-01T00:00:00Z","name_a2s":"Uncletopia | Chicago | 2 | All Maps","protocol":17,"map":"pl_upward","folder":"tf","game":"Team Fortress","app_id":440,"player_count":23,"max_players":24,"Bots":0,"server_type":"Dedicated","server_os":"Linux","password":true,"vac":true,"version":"7961495","steam_id":85568392924469985,"keywords":["nocrits","nodmgspread","payload","uncletopia"],"game_id":440,"stv_port":27026,"stv_name":"Uncletopia | Chicago | 2 | All Maps | STV","players":[{"user_id":216,"name":"NovaSc6ut","steam_id":76561198277163301,"connected_time":93000000000,"state":"active","ping":60},{"user_id":217,"name":"Rin \"Hindwing\" Redtail","steam_id":76561199074865638,"connected_time":90000000000,"state":"active","ping":72},{"user_id":215,"name":"Aspxts","steam_id":76561199125254746,"connected_time":104000000000,"state":"active","ping":92},{"user_id":210,"name":"zemsta banana","steam_id":76561198048946998,"connected_time":1308000000000,"state":"active","ping":173},{"user_id":55,"name":"\u003e:J","steam_id":76561198353456379,"connected_time":16254000000000,"state":"active","ping":60},{"user_id":208,"name":"a rabbit with a keyboard","steam_id":76561198129051488,"connected_time":1371000000000,"state":"active","ping":60},{"user_id":51,"name":"c","steam_id":76561198881665250,"connected_time":17680000000000,"state":"active","ping":92},{"user_id":219,"name":"miriam","steam_id":76561198069679357,"connected_time":82000000000,"state":"spawning","ping":70},{"user_id":213,"name":"O Face","steam_id":76561197984603059,"connected_time":329000000000,"state":"active","ping":80},{"user_id":74,"name":"Sonic Mania 2 [100 Real Leaked","steam_id":76561198062764039,"connected_time":14683000000000,"state":"active","ping":160},{"user_id":212,"name":"Pharaoh","steam_id":76561199157696361,"connected_time":1063000000000,"state":"active","ping":63},{"user_id":214,"name":"Satori Komeiji","steam_id":76561198158211423,"connected_time":158000000000,"state":"active","ping":100},{"user_id":218,"name":"gooch_masta","steam_id":76561198151578423,"connected_time":85000000000,"state":"active","ping":87},{"user_id":201,"name":"Tyth","steam_id":76561198062543298,"connected_time":2337000000000,"state":"active","ping":89},{"user_id":202,"name":"derz","steam_id":76561198010742216,"connected_time":2217000000000,"state":"active","ping":48},{"user_id":203,"name":"bob","steam_id":76561198274522348,"connected_time":2180000000000,"state":"active","ping":62},{"user_id":194,"name":"Raging Ant1v1rus","steam_id":76561198029438696,"connected_time":2996000000000,"state":"active","ping":85},{"user_id":168,"name":"-W3E- grim10465","steam_id":76561198045698581,"connected_time":5871000000000,"state":"active","ping":44},{"user_id":220,"name":"jumpingjacks","steam_id":76561197964839440,"connected_time":77000000000,"state":"active","ping":56},{"user_id":193,"name":"Orange","steam_id":76561198068242218,"connected_time":3191000000000,"state":"active","ping":79},{"user_id":198,"name":"Boo Bear","steam_id":76561197997837665,"connected_time":2691000000000,"state":"active","ping":61},{"user_id":180,"name":"godsdoctor","steam_id":76561198055010413,"connected_time":5172000000000,"state":"active","ping":125},{"user_id":221,"name":"mike penis","steam_id":76561198159339442,"connected_time":56000000000,"state":"active","ping":64}]},{"server_id":402,"name":"Uncletopia | Chicago | 3 | All Maps","name_short":"chi-3","host":"chi-1.us.uncletopia.com","port":27035,"enabled":true,"region":"us-central","cc":"us","latitude":41.881832,"longitude":-87.62318,"reserved":0,"last_update":"0001-01-01T00:00:00Z","name_a2s":"Uncletopia | Chicago | 3 | All Maps","protocol":17,"map":"pl_snowycoast","folder":"tf","game":"Team Fortress","app_id":440,"player_count":24,"max_players":24,"Bots":0,"server_type":"Dedicated","server_os":"Linux","password":true,"vac":true,"version":"7961495","steam_id":85568392924515191,"keywords":["nocrits","nodmgspread","payload","uncletopia"],"game_id":440,"stv_port":27036,"stv_name":"Uncletopia | Chicago | 3 | All Maps | STV","players":[{"user_id":216,"name":"Tonio The Jester","steam_id":76561199489156825,"connected_time":411000000000,"state":"active","ping":65},{"user_id":197,"name":"Rukks","steam_id":76561197993918954,"connected_time":1264000000000,"state":"active","ping":90},{"user_id":208,"name":"Pillows","steam_id":76561198342571075,"connected_time":696000000000,"state":"active","ping":58},{"user_id":218,"name":"Jerry Bondle","steam_id":76561198337512213,"connected_time":386000000000,"state":"active","ping":67},{"user_id":170,"name":"Nefy","steam_id":76561198030017316,"connected_time":3789000000000,"state":"active","ping":73},{"user_id":223,"name":"Shadow Wizard","steam_id":76561199052559695,"connected_time":168000000000,"state":"active","ping":68},{"user_id":207,"name":"clara","steam_id":76561198419619684,"connected_time":762000000000,"state":"active","ping":85},{"user_id":202,"name":"AlbinoRhino ☮","steam_id":76561198005894818,"connected_time":1017000000000,"state":"active","ping":99},{"user_id":222,"name":"727","steam_id":76561198045891560,"connected_time":211000000000,"state":"active","ping":60},{"user_id":219,"name":"The Roto Grip Exotic Gem","steam_id":76561197961141994,"connected_time":340000000000,"state":"active","ping":75},{"user_id":221,"name":"Poo","steam_id":76561198265144507,"connected_time":227000000000,"state":"active","ping":95},{"user_id":215,"name":"Novu","steam_id":76561198886997024,"connected_time":507000000000,"state":"active","ping":86},{"user_id":86,"name":"conner","steam_id":76561198052911241,"connected_time":10434000000000,"state":"active","ping":75},{"user_id":210,"name":"zacmattsmith","steam_id":76561199027704149,"connected_time":673000000000,"state":"active","ping":81},{"user_id":200,"name":"Shoeshocker","steam_id":76561198174302467,"connected_time":1192000000000,"state":"active","ping":73},{"user_id":214,"name":"organic kale","steam_id":76561198101506575,"connected_time":616000000000,"state":"active","ping":63},{"user_id":149,"name":"HUESO","steam_id":76561198276383681,"connected_time":6101000000000,"state":"active","ping":90},{"user_id":224,"name":"KhorneBread ︻デ 一","steam_id":76561198097069958,"connected_time":118000000000,"state":"active","ping":83},{"user_id":205,"name":"{FITH}™ SmittyWun {FM}","steam_id":76561198079531938,"connected_time":928000000000,"state":"active","ping":75},{"user_id":188,"name":"Veratig","steam_id":76561198417576637,"connected_time":1801000000000,"state":"active","ping":100},{"user_id":191,"name":"Gutter Driver","steam_id":76561198041475279,"connected_time":1560000000000,"state":"active","ping":62},{"user_id":187,"name":"Shooter McGavin","steam_id":76561197983040950,"connected_time":1830000000000,"state":"active","ping":59},{"user_id":206,"name":"Dips","steam_id":76561198251975850,"connected_time":920000000000,"state":"active","ping":87},{"user_id":209,"name":"Airwolf28","steam_id":76561199002019722,"connected_time":696000000000,"state":"active","ping":90}]},{"server_id":403,"name":"Uncletopia | Chicago | 4 | All Maps","name_short":"chi-4","host":"chi-1.us.uncletopia.com","port":27045,"enabled":true,"region":"us-central","cc":"us","latitude":41.881832,"longitude":-87.62318,"reserved":0,"last_update":"0001-01-01T00:00:00Z","name_a2s":"Uncletopia | Chicago | 4 | All Maps","protocol":17,"map":"pl_badwater","folder":"tf","game":"Team Fortress","app_id":440,"player_count":24,"max_players":24,"Bots":0,"server_type":"Dedicated","server_os":"Linux","password":true,"vac":true,"version":"7961495","steam_id":85568392924515193,"keywords":["nocrits","nodmgspread","payload","uncletopia"],"game_id":440,"stv_port":27046,"stv_name":"Uncletopia | Chicago | 4 | All Maps | STV","players":[{"user_id":50,"name":"the dishtv1605","steam_id":76561198061284371,"connected_time":2639000000000,"state":"active","ping":66},{"user_id":18,"name":"DelphicKnight","steam_id":76561198357846060,"connected_time":4297000000000,"state":"active","ping":69},{"user_id":72,"name":"Peepster","steam_id":76561198297854733,"connected_time":1343000000000,"state":"active","ping":68},{"user_id":99,"name":"Alaskan Wal-Mart","steam_id":76561198237283704,"connected_time":69000000000,"state":"active","ping":73},{"user_id":70,"name":"X-800","steam_id":76561199077437718,"connected_time":1547000000000,"state":"active","ping":118},{"user_id":71,"name":"femboy birb","steam_id":76561199198726572,"connected_time":1386000000000,"state":"active","ping":87},{"user_id":56,"name":"Theory-WiFi","steam_id":76561198116419931,"connected_time":2555000000000,"state":"active","ping":102},{"user_id":88,"name":"iceflake","steam_id":76561198302401116,"connected_time":579000000000,"state":"active","ping":59},{"user_id":92,"name":"Darkk","steam_id":76561198020460220,"connected_time":442000000000,"state":"active","ping":65},{"user_id":74,"name":"yhoonkers","steam_id":76561198966390815,"connected_time":1246000000000,"state":"active","ping":75},{"user_id":96,"name":"October","steam_id":76561197991738817,"connected_time":223000000000,"state":"active","ping":99},{"user_id":28,"name":"Koishi","steam_id":76561198054541054,"connected_time":3551000000000,"state":"active","ping":54},{"user_id":97,"name":"Mole","steam_id":76561198069909083,"connected_time":222000000000,"state":"active","ping":76},{"user_id":98,"name":"Null","steam_id":76561198062791227,"connected_time":159000000000,"state":"active","ping":48},{"user_id":53,"name":"Krieg Guardsman #153","steam_id":76561198105538929,"connected_time":2613000000000,"state":"active","ping":58},{"user_id":77,"name":"xLeoparrd","steam_id":76561198940657194,"connected_time":1129000000000,"state":"active","ping":81},{"user_id":100,"name":"WindWaker","steam_id":76561198245941534,"connected_time":6000000000,"state":"spawning","ping":59},{"user_id":64,"name":"Carton","steam_id":76561198989473391,"connected_time":2078000000000,"state":"active","ping":66},{"user_id":81,"name":"Riandox","steam_id":76561198130577326,"connected_time":1062000000000,"state":"active","ping":89},{"user_id":37,"name":"Owl Pacino","steam_id":76561197979970666,"connected_time":3446000000000,"state":"active","ping":51},{"user_id":95,"name":"Caruso","steam_id":76561198053340414,"connected_time":289000000000,"state":"active","ping":55},{"user_id":80,"name":"coco","steam_id":76561199112844022,"connected_time":1073000000000,"state":"active","ping":132},{"user_id":57,"name":"Obama F. Kennedy","steam_id":76561198282499318,"connected_time":2551000000000,"state":"active","ping":66},{"user_id":93,"name":"green bean","steam_id":76561198113099204,"connected_time":426000000000,"state":"active","ping":86}]},{"server_id":36,"name":"Uncletopia | Chicago | 5 | All Maps","name_short":"chi-5","host":"chi-2.us.uncletopia.com","port":27015,"enabled":true,"region":"us-central","cc":"us","latitude":41.881832,"longitude":-87.62318,"reserved":0,"last_update":"0001-01-01T00:00:00Z","name_a2s":"Uncletopia | Chicago | 5 | All Maps","protocol":17,"map":"koth_viaduct","folder":"tf","game":"Team Fortress","app_id":440,"player_count":0,"max_players":24,"Bots":0,"server_type":"Dedicated","server_os":"Linux","password":true,"vac":true,"version":"7961495","steam_id":85568392924866362,"keywords":["cp","nocrits","nodmgspread","uncletopia"],"game_id":440,"stv_port":27016,"stv_name":"Uncletopia | Chicago | 5 | All Maps | STV","players":null},{"server_id":37,"name":"Uncletopia | Chicago | 6 | All Maps","name_short":"chi-6","host":"chi-2.us.uncletopia.com","port":27025,"enabled":true,"region":"us-central","cc":"us","latitude":41.881832,"longitude":-87.62318,"reserved":0,"last_update":"0001-01-01T00:00:00Z","name_a2s":"Uncletopia | Chicago | 6 | All Maps","protocol":17,"map":"pl_hoodoo_final","folder":"tf","game":"Team Fortress","app_id":440,"player_count":24,"max_players":24,"Bots":0,"server_type":"Dedicated","server_os":"Linux","password":true,"vac":true,"version":"7961495","steam_id":85568392924866363,"keywords":["nocrits","nodmgspread","payload","uncletopia"],"game_id":440,"stv_port":27026,"stv_name":"Uncletopia | Chicago | 6 | All Maps | STV","players":[{"user_id":127,"name":"ToastBag","steam_id":76561199221849528,"connected_time":2269000000000,"state":"active","ping":120},{"user_id":152,"name":"shadow6","steam_id":76561197979807910,"connected_time":518000000000,"state":"active","ping":91},{"user_id":131,"name":"Scourge Griffith","steam_id":76561198197327722,"connected_time":1846000000000,"state":"active","ping":54},{"user_id":141,"name":"fresco","steam_id":76561199101199477,"connected_time":1402000000000,"state":"active","ping":61},{"user_id":146,"name":"WishedFuzzball","steam_id":76561198055642827,"connected_time":851000000000,"state":"active","ping":71},{"user_id":153,"name":"Dreszerg","steam_id":76561198838757422,"connected_time":475000000000,"state":"active","ping":85},{"user_id":108,"name":"Menachem","steam_id":76561198041226420,"connected_time":4411000000000,"state":"active","ping":49},{"user_id":158,"name":"Ravio","steam_id":76561198065894983,"connected_time":351000000000,"state":"active","ping":60},{"user_id":14,"name":"Tabby!!!!","steam_id":76561198018288153,"connected_time":11317000000000,"state":"active","ping":38},{"user_id":165,"name":"Roger Dat","steam_id":76561197970567027,"connected_time":236000000000,"state":"active","ping":70},{"user_id":124,"name":"Prsm","steam_id":76561198053344995,"connected_time":2403000000000,"state":"active","ping":57},{"user_id":154,"name":"This game is hard","steam_id":76561199476029852,"connected_time":427000000000,"state":"active","ping":85},{"user_id":155,"name":"Aglovail","steam_id":76561198276988844,"connected_time":410000000000,"state":"active","ping":102},{"user_id":167,"name":"le video gamer","steam_id":76561198054390505,"connected_time":102000000000,"state":"active","ping":59},{"user_id":160,"name":"The Dreamer","steam_id":76561198047638312,"connected_time":338000000000,"state":"active","ping":65},{"user_id":145,"name":"wadsworth dinglecock","steam_id":76561198073269122,"connected_time":953000000000,"state":"active","ping":64},{"user_id":143,"name":"Marksito14","steam_id":76561199132272437,"connected_time":1282000000000,"state":"active","ping":136},{"user_id":161,"name":"Fish_man_Jon","steam_id":76561198068158264,"connected_time":335000000000,"state":"active","ping":63},{"user_id":102,"name":"D.A.V.I.D","steam_id":76561199443570634,"connected_time":4856000000000,"state":"active","ping":110},{"user_id":142,"name":"Evil Gimli","steam_id":76561198028533587,"connected_time":1303000000000,"state":"active","ping":56},{"user_id":105,"name":"Technomancer","steam_id":76561198137758683,"connected_time":4749000000000,"state":"active","ping":92},{"user_id":121,"name":"| L O S T |","steam_id":76561198062620333,"connected_time":3575000000000,"state":"active","ping":80},{"user_id":136,"name":"ONO","steam_id":76561198045303650,"connected_time":1711000000000,"state":"active","ping":60},{"user_id":164,"name":"Ok then","steam_id":76561198891914787,"connected_time":311000000000,"state":"active","ping":113}]},{"server_id":38,"name":"Uncletopia | Chicago | 7 | Stopwatch","name_short":"chi-7","host":"chi-2.us.uncletopia.com","port":27035,"enabled":true,"region":"us-central","cc":"us","latitude":41.881832,"longitude":-87.62318,"reserved":0,"last_update":"0001-01-01T00:00:00Z","name_a2s":"Uncletopia | Chicago | 7 | Stopwatch","protocol":17,"map":"workshop/koth_product_final.ugc454272353","folder":"tf","game":"Team Fortress","app_id":440,"player_count":0,"max_players":24,"Bots":0,"server_type":"Dedicated","server_os":"Linux","password":true,"vac":true,"version":"7961495","steam_id":85568392924866364,"keywords":["cp","nocrits","nodmgspread","uncletopia"],"game_id":440,"stv_port":27036,"stv_name":"Uncletopia | Chicago | 7 | Stopwatch | STV","players":null},{"server_id":39,"name":"Uncletopia | Chicago | 8 | Community","name_short":"chi-8","host":"chi-2.us.uncletopia.com","port":27045,"enabled":true,"region":"us-central","cc":"us","latitude":41.881832,"longitude":-87.62318,"reserved":0,"last_update":"0001-01-01T00:00:00Z","name_a2s":"Uncletopia | Chicago | 8 | Community","protocol":17,"map":"pl_pier","folder":"tf","game":"Team Fortress","app_id":440,"player_count":0,"max_players":24,"Bots":0,"server_type":"Dedicated","server_os":"Linux","password":true,"vac":true,"version":"7961495","steam_id":85568392924866365,"keywords":["nocrits","nodmgspread","payload","uncletopia"],"game_id":440,"stv_port":27046,"stv_name":"Uncletopia | Chicago | 8 | Community | STV","players":null},{"server_id":8,"name":"Uncletopia | Dallas | 1 | All Maps","name_short":"dal-1","host":"dal-1.us.uncletopia.com","port":27015,"enabled":true,"region":"us-central","cc":"us","latitude":32.779167,"longitude":-96.80889,"reserved":0,"last_update":"0001-01-01T00:00:00Z","name_a2s":"Uncletopia | Dallas | 1 | All Maps","protocol":17,"map":"pl_upward","folder":"tf","game":"Team Fortress","app_id":440,"player_count":24,"max_players":24,"Bots":0,"server_type":"Dedicated","server_os":"Linux","password":true,"vac":true,"version":"7961495","steam_id":85568392924469986,"keywords":["nocrits","nodmgspread","payload","uncletopia"],"game_id":440,"stv_port":27016,"stv_name":"Uncletopia | Dallas | 1 | All Maps | STV","players":[{"user_id":99,"name":"DlTTO","steam_id":76561199427026752,"connected_time":658000000000,"state":"active","ping":102},{"user_id":100,"name":"Lo-Pan","steam_id":76561198085670133,"connected_time":319000000000,"state":"active","ping":58},{"user_id":93,"name":"Untermensch","steam_id":76561198149634242,"connected_time":1177000000000,"state":"active","ping":91},{"user_id":95,"name":"Surly Joe","steam_id":76561199150833796,"connected_time":1143000000000,"state":"active","ping":94},{"user_id":31,"name":"Username","steam_id":76561198198918781,"connected_time":6436000000000,"state":"active","ping":102},{"user_id":101,"name":"Dr. No Name","steam_id":76561198058656869,"connected_time":228000000000,"state":"active","ping":94},{"user_id":88,"name":"Tuvok Shakur","steam_id":76561198018875334,"connected_time":1471000000000,"state":"active","ping":63},{"user_id":91,"name":"leesh","steam_id":76561198079603938,"connected_time":1219000000000,"state":"active","ping":65},{"user_id":83,"name":"Coffeemelon","steam_id":76561198285891257,"connected_time":2059000000000,"state":"active","ping":102},{"user_id":96,"name":"Transgenger","steam_id":76561198994694571,"connected_time":1094000000000,"state":"active","ping":47},{"user_id":68,"name":"John Calibur","steam_id":76561197999986606,"connected_time":3832000000000,"state":"active","ping":74},{"user_id":70,"name":"Kuyumiester","steam_id":76561198126835302,"connected_time":3330000000000,"state":"active","ping":62},{"user_id":89,"name":"Woody","steam_id":76561198020308956,"connected_time":1374000000000,"state":"active","ping":60},{"user_id":84,"name":"Birby","steam_id":76561198884009768,"connected_time":1964000000000,"state":"active","ping":98},{"user_id":92,"name":"bloodyboorp","steam_id":76561199177105829,"connected_time":1212000000000,"state":"active","ping":105},{"user_id":62,"name":"Rennsellaer","steam_id":76561198096207580,"connected_time":4379000000000,"state":"active","ping":84},{"user_id":97,"name":"non_ai","steam_id":76561198270951938,"connected_time":1037000000000,"state":"active","ping":79},{"user_id":81,"name":"Pyroids","steam_id":76561199178575029,"connected_time":2428000000000,"state":"active","ping":74},{"user_id":76,"name":"BeautifulDeer","steam_id":76561198119588300,"connected_time":2643000000000,"state":"active","ping":54},{"user_id":90,"name":"Erodplayer","steam_id":76561198183840185,"connected_time":1364000000000,"state":"active","ping":54},{"user_id":82,"name":"Jennifer Aniston's Nipples","steam_id":76561198086107548,"connected_time":2367000000000,"state":"active","ping":47},{"user_id":27,"name":"Sergeant Joker #savetf2","steam_id":76561198854616604,"connected_time":6710000000000,"state":"active","ping":94},{"user_id":94,"name":"owl","steam_id":76561198088403016,"connected_time":1173000000000,"state":"active","ping":170},{"user_id":69,"name":"Zano","steam_id":76561198066887048,"connected_time":3421000000000,"state":"active","ping":75}]},{"server_id":108,"name":"Uncletopia | Dallas | 2 | All Maps","name_short":"dal-2","host":"dal-1.us.uncletopia.com","port":27025,"enabled":true,"region":"us-central","cc":"us","latitude":32.779167,"longitude":-96.80889,"reserved":0,"last_update":"0001-01-01T00:00:00Z","name_a2s":"Uncletopia | Dallas | 2 | All Maps","protocol":17,"map":"pl_barnblitz","folder":"tf","game":"Team Fortress","app_id":440,"player_count":1,"max_players":24,"Bots":0,"server_type":"Dedicated","server_os":"Linux","password":true,"vac":true,"version":"7961495","steam_id":85568392924469988,"keywords":["nocrits","nodmgspread","payload","uncletopia"],"game_id":440,"stv_port":27026,"stv_name":"Uncletopia | Dallas | 2 | All Maps | STV","players":[{"user_id":12,"name":"Artincendies","steam_id":76561198242373456,"connected_time":191000000000,"state":"active","ping":60}]},{"server_id":404,"name":"Uncletopia | Dallas | 3 | All Maps","name_short":"dal-3","host":"dal-1.us.uncletopia.com","port":27035,"enabled":true,"region":"us-central","cc":"us","latitude":32.779167,"longitude":-96.80889,"reserved":0,"last_update":"0001-01-01T00:00:00Z","name_a2s":"Uncletopia | Dallas | 3 | All Maps","protocol":17,"map":"pl_swiftwater_final1","folder":"tf","game":"Team Fortress","app_id":440,"player_count":0,"max_players":24,"Bots":0,"server_type":"Dedicated","server_os":"Linux","password":true,"vac":true,"version":"7961495","steam_id":85568392924515219,"keywords":["nocrits","nodmgspread","payload","uncletopia"],"game_id":440,"stv_port":27036,"stv_name":"Uncletopia | Dallas | 3 | All Maps | STV","players":null},{"server_id":405,"name":"Uncletopia | Dallas | 4 | Community","name_short":"dal-4","host":"dal-1.us.uncletopia.com","port":27045,"enabled":true,"region":"us-central","cc":"us","latitude":32.779167,"longitude":-96.80889,"reserved":0,"last_update":"0001-01-01T00:00:00Z","name_a2s":"Uncletopia | Dallas | 4 | Community","protocol":17,"map":"pl_pier","folder":"tf","game":"Team Fortress","app_id":440,"player_count":0,"max_players":24,"Bots":0,"server_type":"Dedicated","server_os":"Linux","password":true,"vac":true,"version":"7961495","steam_id":85568392924515220,"keywords":["nocrits","nodmgspread","payload","uncletopia"],"game_id":440,"stv_port":27046,"stv_name":"Uncletopia | Dallas | 4 | Community | STV","players":null},{"server_id":5,"name":"Uncletopia | Frankfurt | 1 | All Maps","name_short":"frk-1","host":"frk-1.de.uncletopia.com","port":27015,"enabled":true,"region":"eu","cc":"de","latitude":50.110924,"longitude":8.682127,"reserved":0,"last_update":"0001-01-01T00:00:00Z","name_a2s":"Uncletopia | Frankfurt | 1 | All Maps","protocol":17,"map":"pl_snowycoast","folder":"tf","game":"Team Fortress","app_id":440,"player_count":24,"max_players":24,"Bots":0,"server_type":"Dedicated","server_os":"Linux","password":true,"vac":true,"version":"7961495","steam_id":85568392924469989,"keywords":["nocrits","nodmgspread","payload","uncletopia"],"game_id":440,"stv_port":27016,"stv_name":"Uncletopia | Frankfurt | 1 | All Maps | STV","players":[{"user_id":234,"name":"WIZARD","steam_id":76561198199570742,"connected_time":6372000000000,"state":"active","ping":98},{"user_id":319,"name":"Totally_a_french_kid(REAL!)","steam_id":76561199072584385,"connected_time":1204000000000,"state":"active","ping":63},{"user_id":329,"name":"hot guy","steam_id":76561198083063005,"connected_time":368000000000,"state":"active","ping":49},{"user_id":326,"name":"Veirū Viseris","steam_id":76561197989857176,"connected_time":606000000000,"state":"active","ping":67},{"user_id":321,"name":"Communisam Extremist","steam_id":76561199034293112,"connected_time":1102000000000,"state":"active","ping":53},{"user_id":314,"name":"mt","steam_id":76561197961319303,"connected_time":1663000000000,"state":"active","ping":53},{"user_id":266,"name":"Gnome Warlord","steam_id":76561199075520017,"connected_time":3202000000000,"state":"active","ping":160},{"user_id":341,"name":"WOMEN_SLAYER","steam_id":76561198306127729,"connected_time":163000000000,"state":"active","ping":75},{"user_id":213,"name":"dekrzz","steam_id":76561198157285449,"connected_time":7858000000000,"state":"active","ping":81},{"user_id":287,"name":"Foo.","steam_id":76561198000013666,"connected_time":2379000000000,"state":"active","ping":58},{"user_id":317,"name":"drugs are bad","steam_id":76561199074385102,"connected_time":1419000000000,"state":"active","ping":113},{"user_id":322,"name":"kalumuna","steam_id":76561197996957462,"connected_time":1031000000000,"state":"active","ping":90},{"user_id":243,"name":"else1","steam_id":76561197996558319,"connected_time":5741000000000,"state":"active","ping":75},{"user_id":308,"name":"Gent","steam_id":76561198037167890,"connected_time":1824000000000,"state":"active","ping":85},{"user_id":342,"name":"You know i had to do it to em","steam_id":76561198023884216,"connected_time":148000000000,"state":"active","ping":65},{"user_id":263,"name":"Caliban","steam_id":76561197999696839,"connected_time":3663000000000,"state":"active","ping":113},{"user_id":328,"name":"Dirk.van.den.Broek 2008","steam_id":76561198124226614,"connected_time":502000000000,"state":"active","ping":45},{"user_id":325,"name":"Mini","steam_id":76561197968634073,"connected_time":640000000000,"state":"active","ping":109},{"user_id":295,"name":"heniek","steam_id":76561198938098190,"connected_time":2197000000000,"state":"active","ping":70},{"user_id":303,"name":"lieutenant meaw is down meming","steam_id":76561198054313942,"connected_time":1942000000000,"state":"active","ping":163},{"user_id":258,"name":"etc","steam_id":76561197998394797,"connected_time":4485000000000,"state":"active","ping":54},{"user_id":298,"name":"aaa","steam_id":76561198322459156,"connected_time":2063000000000,"state":"active","ping":52},{"user_id":324,"name":"Bond","steam_id":76561198070654906,"connected_time":931000000000,"state":"active","ping":47},{"user_id":285,"name":"neophyte78","steam_id":76561198010009076,"connected_time":2466000000000,"state":"active","ping":60}]},{"server_id":110,"name":"Uncletopia | Frankfurt | 2 | All Maps","name_short":"frk-2","host":"frk-1.de.uncletopia.com","port":27025,"enabled":true,"region":"eu","cc":"de","latitude":50.110924,"longitude":8.682127,"reserved":0,"last_update":"0001-01-01T00:00:00Z","name_a2s":"Uncletopia | Frankfurt | 2 | All Maps","protocol":17,"map":"pl_badwater","folder":"tf","game":"Team Fortress","app_id":440,"player_count":24,"max_players":24,"Bots":0,"server_type":"Dedicated","server_os":"Linux","password":true,"vac":true,"version":"7961495","steam_id":85568392924469990,"keywords":["nocrits","nodmgspread","payload","uncletopia"],"game_id":440,"stv_port":27026,"stv_name":"Uncletopia | Frankfurt | 2 | All Maps | STV","players":[{"user_id":238,"name":"PANAANI","steam_id":76561198322322739,"connected_time":1316000000000,"state":"active","ping":84},{"user_id":276,"name":"TARDISxx2459","steam_id":76561199171448594,"connected_time":205000000000,"state":"active","ping":93},{"user_id":252,"name":"feel the nordic winds","steam_id":76561199497719804,"connected_time":1001000000000,"state":"active","ping":116},{"user_id":239,"name":"We Can Win","steam_id":76561199177985483,"connected_time":1273000000000,"state":"active","ping":77},{"user_id":240,"name":"L4gman","steam_id":76561198048227040,"connected_time":1269000000000,"state":"active","ping":80},{"user_id":277,"name":"wapito","steam_id":76561199056554410,"connected_time":188000000000,"state":"active","ping":74},{"user_id":271,"name":"desmo_","steam_id":76561198023528339,"connected_time":450000000000,"state":"active","ping":65},{"user_id":243,"name":"『Radical Ken ツ』","steam_id":76561198139516165,"connected_time":1191000000000,"state":"active","ping":82},{"user_id":278,"name":"sonopazzo","steam_id":76561199274672196,"connected_time":166000000000,"state":"active","ping":93},{"user_id":279,"name":"GGabe","steam_id":76561198117199068,"connected_time":151000000000,"state":"active","ping":66},{"user_id":247,"name":"Nome","steam_id":76561198867982828,"connected_time":1107000000000,"state":"active","ping":114},{"user_id":248,"name":"Fus in Boots","steam_id":76561198053897722,"connected_time":1098000000000,"state":"active","ping":63},{"user_id":280,"name":"Haghehog","steam_id":76561198075729793,"connected_time":140000000000,"state":"active","ping":121},{"user_id":273,"name":"skippy","steam_id":76561198171958773,"connected_time":384000000000,"state":"active","ping":65},{"user_id":274,"name":"kastanomata","steam_id":76561198271832763,"connected_time":360000000000,"state":"active","ping":95},{"user_id":281,"name":"weaj","steam_id":76561198053628243,"connected_time":103000000000,"state":"active","ping":57},{"user_id":275,"name":"digilith","steam_id":76561199106966802,"connected_time":304000000000,"state":"active","ping":86},{"user_id":259,"name":"PPGamerPL","steam_id":76561198213222133,"connected_time":776000000000,"state":"active","ping":76},{"user_id":264,"name":"e36 1.8","steam_id":76561198134203031,"connected_time":691000000000,"state":"active","ping":60},{"user_id":266,"name":"adm1ral_plunge","steam_id":76561198035342559,"connected_time":636000000000,"state":"active","ping":51},{"user_id":161,"name":"b9njmn","steam_id":76561198068481592,"connected_time":6096000000000,"state":"active","ping":85},{"user_id":267,"name":"CzechMate #SaveTF2","steam_id":76561198012687703,"connected_time":629000000000,"state":"active","ping":45},{"user_id":272,"name":"Sam04","steam_id":76561199004535941,"connected_time":450000000000,"state":"active","ping":77},{"user_id":269,"name":"The Muffin Man","steam_id":76561198131063481,"connected_time":609000000000,"state":"active","ping":100}]},{"server_id":308,"name":"Uncletopia | Frankfurt | 3 | All Maps","name_short":"frk-3","host":"frk-1.de.uncletopia.com","port":27035,"enabled":true,"region":"eu","cc":"de","latitude":50.110924,"longitude":8.682127,"reserved":0,"last_update":"0001-01-01T00:00:00Z","name_a2s":"Uncletopia | Frankfurt | 3 | All Maps","protocol":17,"map":"koth_viaduct","folder":"tf","game":"Team Fortress","app_id":440,"player_count":24,"max_players":24,"Bots":0,"server_type":"Dedicated","server_os":"Linux","password":true,"vac":true,"version":"7961495","steam_id":85568392924504274,"keywords":["cp","nocrits","nodmgspread","uncletopia"],"game_id":440,"stv_port":27036,"stv_name":"Uncletopia | Frankfurt | 3 | All Maps | STV","players":[{"user_id":259,"name":"koji","steam_id":76561198051636999,"connected_time":1505000000000,"state":"active","ping":140},{"user_id":273,"name":"t_g","steam_id":76561198057028649,"connected_time":1006000000000,"state":"active","ping":67},{"user_id":239,"name":"CMD_God","steam_id":76561198333037007,"connected_time":2187000000000,"state":"active","ping":65},{"user_id":282,"name":"Biały","steam_id":76561197996016988,"connected_time":695000000000,"state":"active","ping":67},{"user_id":276,"name":"GUMBO","steam_id":76561198183949987,"connected_time":806000000000,"state":"active","ping":64},{"user_id":279,"name":"I'm Afraid Of Americans","steam_id":76561198159100379,"connected_time":722000000000,"state":"active","ping":59},{"user_id":291,"name":"fischman","steam_id":76561199064142670,"connected_time":32000000000,"state":"active","ping":61},{"user_id":283,"name":"beenballin","steam_id":76561198297604298,"connected_time":689000000000,"state":"active","ping":74},{"user_id":270,"name":"Keroz1n","steam_id":76561197998681491,"connected_time":1078000000000,"state":"active","ping":69},{"user_id":224,"name":"Bullet magnet (FIN)","steam_id":76561197975715220,"connected_time":2526000000000,"state":"active","ping":81},{"user_id":287,"name":"Killer Bean","steam_id":76561198072567787,"connected_time":353000000000,"state":"active","ping":66},{"user_id":290,"name":"WORLIII","steam_id":76561198860027061,"connected_time":231000000000,"state":"active","ping":62},{"user_id":244,"name":"Денис Базука","steam_id":76561198835849082,"connected_time":1838000000000,"state":"active","ping":109},{"user_id":269,"name":"Sprite790856","steam_id":76561198440389325,"connected_time":1114000000000,"state":"active","ping":166},{"user_id":292,"name":"Sunshine Moon","steam_id":76561198022604491,"connected_time":16000000000,"state":"spawning","ping":100},{"user_id":238,"name":"Tactical Kerbal","steam_id":76561198212970205,"connected_time":2218000000000,"state":"active","ping":70},{"user_id":263,"name":"Toripistefi","steam_id":76561199173353462,"connected_time":1470000000000,"state":"active","ping":109},{"user_id":260,"name":"Jormag","steam_id":76561198401018345,"connected_time":1501000000000,"state":"active","ping":81},{"user_id":271,"name":"Gebagemid","steam_id":76561198003684717,"connected_time":1073000000000,"state":"active","ping":67},{"user_id":251,"name":"OceanCow","steam_id":76561198343428913,"connected_time":1654000000000,"state":"active","ping":72},{"user_id":262,"name":"Royal","steam_id":76561198157621024,"connected_time":1491000000000,"state":"active","ping":52},{"user_id":196,"name":"Serg","steam_id":76561198218959001,"connected_time":4382000000000,"state":"active","ping":65},{"user_id":253,"name":"KaiserinoPeperinio","steam_id":76561198017683850,"connected_time":1647000000000,"state":"active","ping":73},{"user_id":285,"name":"Dacon","steam_id":76561198018582112,"connected_time":649000000000,"state":"active","ping":60}]},{"server_id":309,"name":"Uncletopia | Frankfurt | 4 | All Maps","name_short":"frk-4","host":"frk-1.de.uncletopia.com","port":27045,"enabled":true,"region":"eu","cc":"de","latitude":50.110924,"longitude":8.682127,"reserved":0,"last_update":"0001-01-01T00:00:00Z","name_a2s":"Uncletopia | Frankfurt | 4 | All Maps","protocol":17,"map":"pl_swiftwater_final1","folder":"tf","game":"Team Fortress","app_id":440,"player_count":22,"max_players":24,"Bots":0,"server_type":"Dedicated","server_os":"Linux","password":true,"vac":true,"version":"7961495","steam_id":85568392924504275,"keywords":["nocrits","nodmgspread","payload","uncletopia"],"game_id":440,"stv_port":27046,"stv_name":"Uncletopia | Frankfurt | 4 | All Maps | STV","players":[{"user_id":389,"name":"Jesus (real)","steam_id":76561199106262610,"connected_time":2618000000000,"state":"active","ping":53},{"user_id":424,"name":"one of a kind malewife","steam_id":76561198411069806,"connected_time":168000000000,"state":"active","ping":64},{"user_id":340,"name":"Marcus","steam_id":76561198205027963,"connected_time":4948000000000,"state":"active","ping":65},{"user_id":428,"name":"Francis","steam_id":76561198987134265,"connected_time":61000000000,"state":"active","ping":69},{"user_id":416,"name":"OctolingNexus","steam_id":76561199173732652,"connected_time":833000000000,"state":"active","ping":50},{"user_id":393,"name":"benjels big day","steam_id":76561198025970709,"connected_time":2483000000000,"state":"active","ping":52},{"user_id":332,"name":"capslocked","steam_id":76561198095960796,"connected_time":5083000000000,"state":"active","ping":59},{"user_id":420,"name":"R0k3t0","steam_id":76561198144576899,"connected_time":324000000000,"state":"active","ping":112},{"user_id":425,"name":"❖ RazzorBee","steam_id":76561198092493838,"connected_time":156000000000,"state":"active","ping":105},{"user_id":422,"name":"Red Dynamite","steam_id":76561199073167935,"connected_time":306000000000,"state":"active","ping":166},{"user_id":415,"name":"snacks","steam_id":76561198184674173,"connected_time":888000000000,"state":"active","ping":96},{"user_id":390,"name":"Umme","steam_id":76561198053809566,"connected_time":2616000000000,"state":"active","ping":78},{"user_id":426,"name":"luma","steam_id":76561198081649669,"connected_time":146000000000,"state":"active","ping":64},{"user_id":412,"name":"mex","steam_id":76561198877745492,"connected_time":1295000000000,"state":"active","ping":49},{"user_id":421,"name":"ttv/SimplyJeevs","steam_id":76561198060545372,"connected_time":316000000000,"state":"active","ping":61},{"user_id":404,"name":"Tarikoro","steam_id":76561199149725306,"connected_time":1708000000000,"state":"active","ping":73},{"user_id":391,"name":"Mitt","steam_id":76561199011013919,"connected_time":2557000000000,"state":"active","ping":61},{"user_id":429,"name":"Glw","steam_id":76561198012410589,"connected_time":56000000000,"state":"active","ping":68},{"user_id":427,"name":"emkoç","steam_id":76561198846782346,"connected_time":125000000000,"state":"active","ping":126},{"user_id":406,"name":"finbar","steam_id":76561198056812396,"connected_time":1552000000000,"state":"active","ping":79},{"user_id":377,"name":"walter","steam_id":76561198021950957,"connected_time":3749000000000,"state":"active","ping":79},{"user_id":408,"name":"maly's dog","steam_id":76561198261505536,"connected_time":1536000000000,"state":"active","ping":62}]},{"server_id":310,"name":"Uncletopia | Frankfurt | 5 | All Maps","name_short":"frk-5","host":"frk-1.de.uncletopia.com","port":27055,"enabled":true,"region":"eu","cc":"de","latitude":50.110924,"longitude":8.682127,"reserved":0,"last_update":"0001-01-01T00:00:00Z","name_a2s":"Uncletopia | Frankfurt | 5 | All Maps","protocol":17,"map":"pl_pier","folder":"tf","game":"Team Fortress","app_id":440,"player_count":24,"max_players":24,"Bots":0,"server_type":"Dedicated","server_os":"Linux","password":true,"vac":true,"version":"7961495","steam_id":85568392924504277,"keywords":["nocrits","nodmgspread","payload","uncletopia"],"game_id":440,"stv_port":27056,"stv_name":"Uncletopia | Frankfurt | 5 | All Maps | STV","players":[{"user_id":327,"name":"fernandobmwm355555","steam_id":76561198086609447,"connected_time":440000000000,"state":"active","ping":50},{"user_id":316,"name":"knyazF","steam_id":76561198163278585,"connected_time":988000000000,"state":"active","ping":75},{"user_id":308,"name":"WHO WAS IN PARIS?","steam_id":76561198071502515,"connected_time":1477000000000,"state":"active","ping":62},{"user_id":307,"name":"Crunchips","steam_id":76561198004336818,"connected_time":1496000000000,"state":"active","ping":95},{"user_id":328,"name":"loser gamer \u003c3","steam_id":76561199156497840,"connected_time":414000000000,"state":"active","ping":60},{"user_id":312,"name":"Irme","steam_id":76561198161590299,"connected_time":1199000000000,"state":"active","ping":73},{"user_id":277,"name":"autistic luigi","steam_id":76561199218285040,"connected_time":2992000000000,"state":"active","ping":74},{"user_id":278,"name":"H341","steam_id":76561198046754534,"connected_time":2992000000000,"state":"active","ping":77},{"user_id":329,"name":"querkkid","steam_id":76561199101703055,"connected_time":228000000000,"state":"active","ping":87},{"user_id":313,"name":"Pencil Billy","steam_id":76561198009407651,"connected_time":1194000000000,"state":"active","ping":60},{"user_id":331,"name":"A Red Brick","steam_id":76561198317522580,"connected_time":161000000000,"state":"active","ping":98},{"user_id":305,"name":"Chloemew","steam_id":76561198042071762,"connected_time":1581000000000,"state":"active","ping":60},{"user_id":317,"name":"Rez","steam_id":76561198410598772,"connected_time":959000000000,"state":"active","ping":45},{"user_id":310,"name":"Sunkerdink","steam_id":76561197996757446,"connected_time":1403000000000,"state":"active","ping":60},{"user_id":273,"name":"the grongle","steam_id":76561198989398023,"connected_time":3320000000000,"state":"active","ping":103},{"user_id":315,"name":"Happy Broccol","steam_id":76561198180667795,"connected_time":1019000000000,"state":"active","ping":71},{"user_id":318,"name":"stuff liker","steam_id":76561198058012525,"connected_time":906000000000,"state":"active","ping":59},{"user_id":293,"name":"dochris.2","steam_id":76561198026478625,"connected_time":2411000000000,"state":"active","ping":45},{"user_id":319,"name":"door in the middle of nowhere","steam_id":76561198101292843,"connected_time":876000000000,"state":"active","ping":50},{"user_id":294,"name":"Dirocks","steam_id":76561198138494815,"connected_time":2398000000000,"state":"active","ping":82},{"user_id":271,"name":"Princess Fuzz","steam_id":76561198025783000,"connected_time":3415000000000,"state":"active","ping":50},{"user_id":332,"name":"Doctor Mobius","steam_id":76561197971281806,"connected_time":89000000000,"state":"active","ping":65},{"user_id":324,"name":"fl1p","steam_id":76561198148565659,"connected_time":779000000000,"state":"active","ping":88},{"user_id":295,"name":"sareena","steam_id":76561198810194062,"connected_time":2378000000000,"state":"active","ping":75}]},{"server_id":311,"name":"Uncletopia | Frankfurt | 6 | All Maps","name_short":"frk-6","host":"frk-1.de.uncletopia.com","port":27065,"enabled":true,"region":"eu","cc":"de","latitude":50.110924,"longitude":8.682127,"reserved":0,"last_update":"0001-01-01T00:00:00Z","name_a2s":"Uncletopia | Frankfurt | 6 | All Maps","protocol":17,"map":"pl_barnblitz","folder":"tf","game":"Team Fortress","app_id":440,"player_count":23,"max_players":24,"Bots":0,"server_type":"Dedicated","server_os":"Linux","password":true,"vac":true,"version":"7961495","steam_id":85568392924504278,"keywords":["nocrits","nodmgspread","payload","uncletopia"],"game_id":440,"stv_port":27066,"stv_name":"Uncletopia | Frankfurt | 6 | All Maps | STV","players":[{"user_id":516,"name":"ran is running","steam_id":76561199443185667,"connected_time":425000000000,"state":"active","ping":136},{"user_id":472,"name":"FEIX","steam_id":76561197977600910,"connected_time":2742000000000,"state":"active","ping":38},{"user_id":519,"name":"Your cutest delivery boy","steam_id":76561198878055733,"connected_time":300000000000,"state":"active","ping":53},{"user_id":505,"name":"Marabosha","steam_id":76561198137599173,"connected_time":1008000000000,"state":"active","ping":105},{"user_id":502,"name":"void monad","steam_id":76561198117012334,"connected_time":1063000000000,"state":"active","ping":88},{"user_id":474,"name":"LizzNom","steam_id":76561198878424036,"connected_time":2673000000000,"state":"active","ping":52},{"user_id":477,"name":"- 84n4n3n8r07 -","steam_id":76561198047887705,"connected_time":2434000000000,"state":"active","ping":59},{"user_id":478,"name":"M2rtRa","steam_id":76561198111036466,"connected_time":2402000000000,"state":"active","ping":70},{"user_id":485,"name":"Kraid","steam_id":76561198082387192,"connected_time":2048000000000,"state":"active","ping":103},{"user_id":461,"name":"Weeb exterminator","steam_id":76561198078964973,"connected_time":4073000000000,"state":"active","ping":65},{"user_id":518,"name":"ONI","steam_id":76561199038860035,"connected_time":373000000000,"state":"active","ping":82},{"user_id":507,"name":"Ceiling fan enthusiast","steam_id":76561197989214268,"connected_time":917000000000,"state":"active","ping":68},{"user_id":456,"name":"amort life","steam_id":76561198036730191,"connected_time":4595000000000,"state":"active","ping":52},{"user_id":508,"name":"limbicsystem","steam_id":76561198025612680,"connected_time":913000000000,"state":"active","ping":68},{"user_id":517,"name":"milk","steam_id":76561199038881222,"connected_time":411000000000,"state":"active","ping":195},{"user_id":483,"name":"Apollo17","steam_id":76561198886930836,"connected_time":2202000000000,"state":"active","ping":84},{"user_id":515,"name":"Neeeiks","steam_id":76561198009156801,"connected_time":786000000000,"state":"active","ping":82},{"user_id":510,"name":"The Empire Ant","steam_id":76561198082466790,"connected_time":873000000000,"state":"active","ping":62},{"user_id":511,"name":"Fairchild Republic A-10 Thndrbl","steam_id":76561199038043360,"connected_time":860000000000,"state":"active","ping":155},{"user_id":520,"name":"Dolcelatte","steam_id":76561198038501770,"connected_time":284000000000,"state":"active","ping":59},{"user_id":489,"name":"caramel❤","steam_id":76561198819353867,"connected_time":1989000000000,"state":"active","ping":56},{"user_id":490,"name":"Amiriki","steam_id":76561198005050734,"connected_time":1979000000000,"state":"active","ping":67},{"user_id":492,"name":"will billiamson","steam_id":76561198317424558,"connected_time":1934000000000,"state":"active","ping":70}]},{"server_id":23,"name":"Uncletopia | Frankfurt | 7 | Stopwatch","name_short":"frk-7","host":"frk-1.de.uncletopia.com","port":27075,"enabled":true,"region":"eu","cc":"de","latitude":50.110924,"longitude":8.682127,"reserved":0,"last_update":"0001-01-01T00:00:00Z","name_a2s":"Uncletopia | Frankfurt | 7 | Stopwatch","protocol":17,"map":"workshop/koth_bagel_rc6.ugc2514036946","folder":"tf","game":"Team Fortress","app_id":440,"player_count":0,"max_players":24,"Bots":0,"server_type":"Dedicated","server_os":"Linux","password":true,"vac":true,"version":"7961495","steam_id":85568392924742827,"keywords":["cp","nocrits","nodmgspread","uncletopia"],"game_id":440,"stv_port":27076,"stv_name":"Uncletopia | Frankfurt | 7 | Stopwatch | STV","players":null},{"server_id":24,"name":"Uncletopia | Frankfurt | 8 | Community","name_short":"frk-8","host":"frk-1.de.uncletopia.com","port":27085,"enabled":true,"region":"eu","cc":"de","latitude":50.110924,"longitude":8.682127,"reserved":0,"last_update":"0001-01-01T00:00:00Z","name_a2s":"Uncletopia | Frankfurt | 8 | Community","protocol":17,"map":"workshop/cp_mannbase_rc2a.ugc1900737467","folder":"tf","game":"Team Fortress","app_id":440,"player_count":0,"max_players":24,"Bots":0,"server_type":"Dedicated","server_os":"Linux","password":true,"vac":true,"version":"7961495","steam_id":85568392924742828,"keywords":["cp","nocrits","nodmgspread","uncletopia"],"game_id":440,"stv_port":27086,"stv_name":"Uncletopia | Frankfurt | 8 | Community | STV","players":null},{"server_id":202,"name":"Uncletopia | Hong Kong | 1 | All Maps","name_short":"hgk-1","host":"hgk-1.hk.uncletopia.com","port":27015,"enabled":true,"region":"asia","cc":"hk","latitude":22.302711,"longitude":114.177216,"reserved":0,"last_update":"0001-01-01T00:00:00Z","name_a2s":"Uncletopia | Hong Kong | 1 | All Maps","protocol":17,"map":"cp_dustbowl","folder":"tf","game":"Team Fortress","app_id":440,"player_count":1,"max_players":24,"Bots":0,"server_type":"Dedicated","server_os":"Linux","password":true,"vac":true,"version":"7961495","steam_id":85568392924494504,"keywords":["cp","nocrits","nodmgspread","uncletopia"],"game_id":440,"stv_port":27016,"stv_name":"Uncletopia | Hong Kong | 1 | All Maps | STV","players":[{"user_id":619,"name":"VivioFavela224","steam_id":76561199163899034,"connected_time":164000000000,"state":"active","ping":46}]},{"server_id":1,"name":"Uncletopia | Los Angeles | 1 | All Maps","name_short":"lax-1","host":"lax-1.us.uncletopia.com","port":27015,"enabled":true,"region":"us-west","cc":"us","latitude":33.94279,"longitude":-118.41004,"reserved":0,"last_update":"0001-01-01T00:00:00Z","name_a2s":"Uncletopia | Los Angeles | 1 | All Maps","protocol":17,"map":"pl_snowycoast","folder":"tf","game":"Team Fortress","app_id":440,"player_count":0,"max_players":24,"Bots":0,"server_type":"Dedicated","server_os":"Linux","password":true,"vac":true,"version":"7961495","steam_id":85568392924469991,"keywords":["nocrits","nodmgspread","payload","uncletopia"],"game_id":440,"stv_port":27016,"stv_name":"Uncletopia | Los Angeles | 1 | All Maps | STV","players":null},{"server_id":112,"name":"Uncletopia | Los Angeles | 2 | All Maps","name_short":"lax-2","host":"lax-1.us.uncletopia.com","port":27025,"enabled":true,"region":"us-west","cc":"us","latitude":33.94279,"longitude":-118.41004,"reserved":0,"last_update":"0001-01-01T00:00:00Z","name_a2s":"Uncletopia | Los Angeles | 2 | All Maps","protocol":17,"map":"cp_mountainlab","folder":"tf","game":"Team Fortress","app_id":440,"player_count":0,"max_players":24,"Bots":0,"server_type":"Dedicated","server_os":"Linux","password":true,"vac":true,"version":"7961495","steam_id":85568392924469992,"keywords":["cp","nocrits","nodmgspread","uncletopia"],"game_id":440,"stv_port":27026,"stv_name":"Uncletopia | Los Angeles | 2 | All Maps | STV","players":null},{"server_id":324,"name":"Uncletopia | Los Angeles | 3 | All Maps","name_short":"lax-3","host":"lax-1.us.uncletopia.com","port":27035,"enabled":true,"region":"us-west","cc":"us","latitude":33.94279,"longitude":-118.41004,"reserved":0,"last_update":"0001-01-01T00:00:00Z","name_a2s":"Uncletopia | Los Angeles | 3 | All Maps","protocol":17,"map":"pl_frontier_final","folder":"tf","game":"Team Fortress","app_id":440,"player_count":0,"max_players":24,"Bots":0,"server_type":"Dedicated","server_os":"Linux","password":true,"vac":true,"version":"7961495","steam_id":85568392924510198,"keywords":["nocrits","nodmgspread","payload","uncletopia"],"game_id":440,"stv_port":27036,"stv_name":"Uncletopia | Los Angeles | 3 | All Maps | STV","players":null},{"server_id":25,"name":"Uncletopia | Los Angeles | 4 | Stopwatch","name_short":"lax-4","host":"lax-1.us.uncletopia.com","port":27045,"enabled":true,"region":"us-west","cc":"us","latitude":33.94279,"longitude":-118.41004,"reserved":0,"last_update":"0001-01-01T00:00:00Z","name_a2s":"Uncletopia | Los Angeles | 4 | Stopwatch","protocol":17,"map":"pl_barnblitz","folder":"tf","game":"Team Fortress","app_id":440,"player_count":0,"max_players":24,"Bots":0,"server_type":"Dedicated","server_os":"Linux","password":true,"vac":true,"version":"7961495","steam_id":85568392924510199,"keywords":["nocrits","nodmgspread","payload","uncletopia"],"game_id":440,"stv_port":27046,"stv_name":"Uncletopia | Los Angeles | 4 | Stopwatch | STV","players":null},{"server_id":11,"name":"Uncletopia | London | 1 | All Maps","name_short":"lon-1","host":"lon-1.uk.uncletopia.com","port":27015,"enabled":true,"region":"eu","cc":"gb","latitude":51.509865,"longitude":-0.118092,"reserved":0,"last_update":"0001-01-01T00:00:00Z","name_a2s":"Uncletopia | London | 1 | All Maps","protocol":17,"map":"pl_pier","folder":"tf","game":"Team Fortress","app_id":440,"player_count":24,"max_players":24,"Bots":0,"server_type":"Dedicated","server_os":"Linux","password":true,"vac":true,"version":"7961495","steam_id":85568392924367362,"keywords":["nocrits","nodmgspread","payload","uncletopia"],"game_id":440,"stv_port":27016,"stv_name":"Uncletopia | London | 1 | All Maps | STV","players":[{"user_id":520,"name":"Plep","steam_id":76561198840259819,"connected_time":265000000000,"state":"active","ping":60},{"user_id":521,"name":"brxbo","steam_id":76561198386046247,"connected_time":228000000000,"state":"active","ping":83},{"user_id":505,"name":"herbal tea","steam_id":76561198179711137,"connected_time":2233000000000,"state":"active","ping":62},{"user_id":496,"name":"Chippo","steam_id":76561198343198306,"connected_time":2945000000000,"state":"active","ping":61},{"user_id":486,"name":"Rx07","steam_id":76561199013720618,"connected_time":4288000000000,"state":"active","ping":88},{"user_id":506,"name":"ImLaochraTTV","steam_id":76561198439645668,"connected_time":2225000000000,"state":"active","ping":66},{"user_id":522,"name":"the babadook","steam_id":76561198040168682,"connected_time":221000000000,"state":"active","ping":40},{"user_id":497,"name":"Chris","steam_id":76561198179791702,"connected_time":2943000000000,"state":"active","ping":172},{"user_id":482,"name":"⸸aura⸸","steam_id":76561198066258544,"connected_time":4691000000000,"state":"active","ping":62},{"user_id":481,"name":"whimsy.","steam_id":76561198878171763,"connected_time":4828000000000,"state":"active","ping":51},{"user_id":436,"name":"SirToast","steam_id":76561199229729107,"connected_time":8217000000000,"state":"active","ping":72},{"user_id":498,"name":"shooer!","steam_id":76561198110531281,"connected_time":2940000000000,"state":"active","ping":71},{"user_id":480,"name":"BigFudge","steam_id":76561199403590127,"connected_time":4839000000000,"state":"active","ping":65},{"user_id":523,"name":"Ringo tard","steam_id":76561198396496222,"connected_time":214000000000,"state":"active","ping":171},{"user_id":519,"name":"Nessieling","steam_id":76561198083556891,"connected_time":884000000000,"state":"active","ping":84},{"user_id":443,"name":"Trans Femtress 2","steam_id":76561198014056212,"connected_time":7466000000000,"state":"active","ping":70},{"user_id":500,"name":"jimmy bob","steam_id":76561198319583692,"connected_time":2917000000000,"state":"active","ping":60},{"user_id":509,"name":"Skleton","steam_id":76561198238097290,"connected_time":2182000000000,"state":"active","ping":70},{"user_id":510,"name":"Mummy","steam_id":76561198076597292,"connected_time":2150000000000,"state":"active","ping":76},{"user_id":524,"name":"csgn_tank","steam_id":76561199124027537,"connected_time":201000000000,"state":"active","ping":60},{"user_id":527,"name":"Eric Catman","steam_id":76561198802117294,"connected_time":127000000000,"state":"active","ping":69},{"user_id":502,"name":"AWildTamim","steam_id":76561198048060652,"connected_time":2844000000000,"state":"active","ping":42},{"user_id":515,"name":"Purps","steam_id":76561198053886680,"connected_time":1158000000000,"state":"active","ping":47},{"user_id":514,"name":"madhead200","steam_id":76561198119498666,"connected_time":2084000000000,"state":"active","ping":69}]},{"server_id":114,"name":"Uncletopia | London | 2 | All Maps","name_short":"lon-2","host":"lon-1.uk.uncletopia.com","port":27025,"enabled":true,"region":"eu","cc":"gb","latitude":51.509865,"longitude":-0.118092,"reserved":0,"last_update":"0001-01-01T00:00:00Z","name_a2s":"Uncletopia | London | 2 | All Maps","protocol":17,"map":"pl_barnblitz","folder":"tf","game":"Team Fortress","app_id":440,"player_count":19,"max_players":24,"Bots":0,"server_type":"Dedicated","server_os":"Linux","password":true,"vac":true,"version":"7961495","steam_id":85568392924470941,"keywords":["nocrits","nodmgspread","payload","uncletopia"],"game_id":440,"stv_port":27026,"stv_name":"Uncletopia | London | 2 | All Maps | STV","players":[{"user_id":386,"name":"Krabs","steam_id":76561198161679477,"connected_time":24000000000,"state":"spawning","ping":43},{"user_id":294,"name":"Tuosan","steam_id":76561198062611429,"connected_time":6307000000000,"state":"active","ping":75},{"user_id":346,"name":"Shoeman","steam_id":76561198126726364,"connected_time":2010000000000,"state":"active","ping":56},{"user_id":374,"name":"PUG B","steam_id":76561198075390748,"connected_time":756000000000,"state":"active","ping":56},{"user_id":348,"name":"BORGETENNISCLUB","steam_id":76561198049343723,"connected_time":1945000000000,"state":"active","ping":58},{"user_id":377,"name":"Urfangonultasadana","steam_id":76561199389286151,"connected_time":699000000000,"state":"active","ping":140},{"user_id":387,"name":"Chicken pot pie","steam_id":76561198084997090,"connected_time":17000000000,"state":"spawning","ping":42},{"user_id":372,"name":"Kylute","steam_id":76561198447504417,"connected_time":786000000000,"state":"active","ping":25},{"user_id":385,"name":"-gunripp0r^be / Obelix^","steam_id":76561197999306879,"connected_time":51000000000,"state":"active","ping":63},{"user_id":384,"name":"Zoorc","steam_id":76561198066891007,"connected_time":131000000000,"state":"active","ping":57},{"user_id":330,"name":"Tunari Taneli","steam_id":76561198045390552,"connected_time":2453000000000,"state":"active","ping":89},{"user_id":370,"name":"Lord Odment","steam_id":76561198044354976,"connected_time":903000000000,"state":"active","ping":77},{"user_id":383,"name":"RicardoChL","steam_id":76561198452299994,"connected_time":144000000000,"state":"active","ping":75},{"user_id":302,"name":"Fidacha","steam_id":76561198003060881,"connected_time":5880000000000,"state":"active","ping":72},{"user_id":376,"name":"Sandvich","steam_id":76561199079493666,"connected_time":710000000000,"state":"active","ping":97},{"user_id":345,"name":"N00BCSF","steam_id":76561198035530934,"connected_time":2129000000000,"state":"active","ping":69},{"user_id":369,"name":"Guggendal","steam_id":76561198066791685,"connected_time":1055000000000,"state":"active","ping":103},{"user_id":357,"name":"Moter","steam_id":76561197992173015,"connected_time":1753000000000,"state":"active","ping":58},{"user_id":382,"name":"ArTiLery","steam_id":76561197991483792,"connected_time":322000000000,"state":"active","ping":125}]},{"server_id":320,"name":"Uncletopia | London | 3 | All Maps","name_short":"lon-3","host":"lon-1.uk.uncletopia.com","port":27035,"enabled":true,"region":"eu","cc":"gb","latitude":51.509865,"longitude":-0.118092,"reserved":0,"last_update":"0001-01-01T00:00:00Z","name_a2s":"Uncletopia | London | 3 | All Maps","protocol":17,"map":"koth_king","folder":"tf","game":"Team Fortress","app_id":440,"player_count":22,"max_players":24,"Bots":0,"server_type":"Dedicated","server_os":"Linux","password":true,"vac":true,"version":"7961495","steam_id":85568392924510192,"keywords":["cp","nocrits","nodmgspread","uncletopia"],"game_id":440,"stv_port":27036,"stv_name":"Uncletopia | London | 3 | All Maps | STV","players":[{"user_id":295,"name":"Urtaras","steam_id":76561198085604412,"connected_time":2768000000000,"state":"active","ping":53},{"user_id":321,"name":"Wyzis","steam_id":76561198972794977,"connected_time":534000000000,"state":"active","ping":75},{"user_id":329,"name":"=PB=","steam_id":76561197999146612,"connected_time":4000000000,"state":"spawning","ping":71},{"user_id":322,"name":"Yodas Brother","steam_id":76561197970375663,"connected_time":532000000000,"state":"active","ping":76},{"user_id":326,"name":"The Governor","steam_id":76561199206563942,"connected_time":261000000000,"state":"active","ping":184},{"user_id":270,"name":"aQua.Stefan","steam_id":76561199067113256,"connected_time":3157000000000,"state":"active","ping":88},{"user_id":327,"name":"Name","steam_id":76561197990757157,"connected_time":188000000000,"state":"active","ping":75},{"user_id":316,"name":"QuantumFox","steam_id":76561198125912648,"connected_time":568000000000,"state":"active","ping":64},{"user_id":317,"name":"Mr. Mundy","steam_id":76561198132008918,"connected_time":561000000000,"state":"active","ping":84},{"user_id":300,"name":"triplepunk","steam_id":76561198119449463,"connected_time":2197000000000,"state":"active","ping":47},{"user_id":237,"name":"Capn. Wing Ding","steam_id":76561198076068424,"connected_time":5023000000000,"state":"active","ping":130},{"user_id":323,"name":"Dakeyras","steam_id":76561198057069564,"connected_time":461000000000,"state":"active","ping":100},{"user_id":212,"name":":3","steam_id":76561198169471853,"connected_time":7876000000000,"state":"active","ping":45},{"user_id":276,"name":"Ixsus\u003c3","steam_id":76561198094756869,"connected_time":2997000000000,"state":"active","ping":61},{"user_id":302,"name":"John Noob","steam_id":76561197999170026,"connected_time":2092000000000,"state":"active","ping":95},{"user_id":318,"name":"LOBZIK","steam_id":76561198114830120,"connected_time":558000000000,"state":"active","ping":84},{"user_id":231,"name":"Anri Okita's Massive Milkers","steam_id":76561199186352720,"connected_time":5441000000000,"state":"active","ping":60},{"user_id":324,"name":"AetheR","steam_id":76561198005418838,"connected_time":458000000000,"state":"active","ping":81},{"user_id":282,"name":"Vilmukas","steam_id":76561199106648396,"connected_time":2950000000000,"state":"active","ping":88},{"user_id":319,"name":"Abska","steam_id":76561198118323803,"connected_time":557000000000,"state":"active","ping":117},{"user_id":311,"name":"heavyweaponsguy","steam_id":76561198137778097,"connected_time":738000000000,"state":"active","ping":60},{"user_id":328,"name":"yeet","steam_id":76561198228918404,"connected_time":124000000000,"state":"active","ping":93}]},{"server_id":321,"name":"Uncletopia | London | 4 | All Maps","name_short":"lon-4","host":"lon-1.uk.uncletopia.com","port":27045,"enabled":true,"region":"eu","cc":"gb","latitude":51.509865,"longitude":-0.118092,"reserved":0,"last_update":"0001-01-01T00:00:00Z","name_a2s":"Uncletopia | London | 4 | All Maps","protocol":17,"map":"pl_borneo","folder":"tf","game":"Team Fortress","app_id":440,"player_count":24,"max_players":24,"Bots":0,"server_type":"Dedicated","server_os":"Linux","password":true,"vac":true,"version":"7961495","steam_id":85568392924510193,"keywords":["nocrits","nodmgspread","payload","uncletopia"],"game_id":440,"stv_port":27046,"stv_name":"Uncletopia | London | 4 | All Maps | STV","players":[{"user_id":396,"name":"Cabbch","steam_id":76561198045955679,"connected_time":2605000000000,"state":"active","ping":56},{"user_id":319,"name":"bart simpson weed","steam_id":76561198014858762,"connected_time":5882000000000,"state":"active","ping":55},{"user_id":416,"name":"BepisR47","steam_id":76561198084515716,"connected_time":1262000000000,"state":"active","ping":35},{"user_id":425,"name":"brtaba","steam_id":76561198796334790,"connected_time":587000000000,"state":"active","ping":73},{"user_id":428,"name":"hipster_doofus","steam_id":76561197970902697,"connected_time":566000000000,"state":"active","ping":57},{"user_id":402,"name":"Udinese Dion","steam_id":76561198067931573,"connected_time":2378000000000,"state":"active","ping":59},{"user_id":414,"name":"Seail_M","steam_id":76561198002405605,"connected_time":1411000000000,"state":"active","ping":64},{"user_id":418,"name":"Severeburrito16","steam_id":76561198353155991,"connected_time":1215000000000,"state":"active","ping":126},{"user_id":393,"name":"Odin","steam_id":76561198087800030,"connected_time":2795000000000,"state":"active","ping":44},{"user_id":430,"name":"Mr. Hunts","steam_id":76561197981910397,"connected_time":550000000000,"state":"active","ping":60},{"user_id":354,"name":"im a girl","steam_id":76561198101995942,"connected_time":4585000000000,"state":"active","ping":65},{"user_id":435,"name":"Piox","steam_id":76561198125689157,"connected_time":56000000000,"state":"active","ping":77},{"user_id":434,"name":"Kiradias777","steam_id":76561198067176309,"connected_time":268000000000,"state":"active","ping":151},{"user_id":412,"name":"Tavish","steam_id":76561197971486686,"connected_time":1626000000000,"state":"active","ping":45},{"user_id":415,"name":"Reimu","steam_id":76561198109301435,"connected_time":1398000000000,"state":"active","ping":89},{"user_id":427,"name":"Dozer","steam_id":76561197998742338,"connected_time":570000000000,"state":"active","ping":62},{"user_id":422,"name":"wouris","steam_id":76561198876188003,"connected_time":1067000000000,"state":"active","ping":66},{"user_id":410,"name":"[FP] Shiken","steam_id":76561198257905663,"connected_time":1940000000000,"state":"active","ping":65},{"user_id":323,"name":"sailor girlboss","steam_id":76561197964754824,"connected_time":5792000000000,"state":"active","ping":70},{"user_id":433,"name":"♥ImWithMilk","steam_id":76561198269577569,"connected_time":331000000000,"state":"active","ping":49},{"user_id":420,"name":"Hattmannen","steam_id":76561198340884902,"connected_time":1175000000000,"state":"active","ping":75},{"user_id":401,"name":"[FP] Rune","steam_id":76561198030842879,"connected_time":2431000000000,"state":"active","ping":45},{"user_id":400,"name":"[FP] Scewtch","steam_id":76561198120500488,"connected_time":2522000000000,"state":"active","ping":54},{"user_id":421,"name":"Пънкар","steam_id":76561198268369013,"connected_time":1166000000000,"state":"active","ping":86}]},{"server_id":21,"name":"Uncletopia | London | 5 | All Maps","name_short":"lon-5","host":"lon-1.uk.uncletopia.com","port":27055,"enabled":true,"region":"eu","cc":"gb","latitude":51.509865,"longitude":-0.118092,"reserved":0,"last_update":"0001-01-01T00:00:00Z","name_a2s":"Uncletopia | London | 5 | All Maps","protocol":17,"map":"pl_upward","folder":"tf","game":"Team Fortress","app_id":440,"player_count":23,"max_players":24,"Bots":0,"server_type":"Dedicated","server_os":"Linux","password":true,"vac":true,"version":"7961495","steam_id":85568392924742829,"keywords":["nocrits","nodmgspread","payload","uncletopia"],"game_id":440,"stv_port":27056,"stv_name":"Uncletopia | London | 5 | All Maps | STV","players":[{"user_id":187,"name":"Flying Chemist","steam_id":76561198085039837,"connected_time":101000000000,"state":"active","ping":79},{"user_id":165,"name":"Kumihari","steam_id":76561198380374523,"connected_time":1001000000000,"state":"active","ping":57},{"user_id":178,"name":"[HΞ$H]","steam_id":76561198083652376,"connected_time":502000000000,"state":"active","ping":91},{"user_id":179,"name":"A moon goose","steam_id":76561198064734905,"connected_time":478000000000,"state":"active","ping":104},{"user_id":160,"name":"Jnet","steam_id":76561198001282720,"connected_time":1087000000000,"state":"active","ping":86},{"user_id":125,"name":"mr gaming","steam_id":76561198110103308,"connected_time":3435000000000,"state":"active","ping":46},{"user_id":170,"name":"Temperance","steam_id":76561198446955878,"connected_time":883000000000,"state":"active","ping":72},{"user_id":135,"name":"Gruset","steam_id":76561198327512432,"connected_time":2725000000000,"state":"active","ping":75},{"user_id":186,"name":"Spaguetti","steam_id":76561198002913092,"connected_time":180000000000,"state":"active","ping":84},{"user_id":139,"name":"ChebJeb","steam_id":76561198981377081,"connected_time":2639000000000,"state":"active","ping":137},{"user_id":103,"name":"be gay do crime","steam_id":76561198254450468,"connected_time":4549000000000,"state":"active","ping":87},{"user_id":149,"name":"Average Engineer Enjoyer","steam_id":76561198298618127,"connected_time":2399000000000,"state":"active","ping":61},{"user_id":169,"name":"wheelie bin","steam_id":76561198040040328,"connected_time":926000000000,"state":"active","ping":44},{"user_id":150,"name":"TheEventGuy","steam_id":76561197972797744,"connected_time":2323000000000,"state":"active","ping":76},{"user_id":188,"name":"superbug3003","steam_id":76561198311447642,"connected_time":98000000000,"state":"active","ping":138},{"user_id":155,"name":"kreeekz","steam_id":76561198014431602,"connected_time":2047000000000,"state":"active","ping":75},{"user_id":158,"name":"yo g would u make me a sandwich","steam_id":76561199062586342,"connected_time":1825000000000,"state":"active","ping":68},{"user_id":144,"name":"Bobo","steam_id":76561198052308399,"connected_time":2577000000000,"state":"active","ping":69},{"user_id":183,"name":"cof","steam_id":76561199128417805,"connected_time":242000000000,"state":"active","ping":54},{"user_id":147,"name":"Mike","steam_id":76561198228455736,"connected_time":2453000000000,"state":"active","ping":56},{"user_id":156,"name":"DEFENDOR62","steam_id":76561199386703896,"connected_time":2042000000000,"state":"active","ping":57},{"user_id":184,"name":"Mafew","steam_id":76561198119993886,"connected_time":238000000000,"state":"active","ping":57},{"user_id":189,"name":"MrToffeetwo","steam_id":76561199086379748,"connected_time":67000000000,"state":"active","ping":66}]},{"server_id":22,"name":"Uncletopia | London | 6 | All Maps","name_short":"lon-6","host":"lon-1.uk.uncletopia.com","port":27065,"enabled":true,"region":"eu","cc":"gb","latitude":51.509865,"longitude":-0.118092,"reserved":0,"last_update":"0001-01-01T00:00:00Z","name_a2s":"Uncletopia | London | 6 | All Maps","protocol":17,"map":"koth_viaduct","folder":"tf","game":"Team Fortress","app_id":440,"player_count":0,"max_players":24,"Bots":0,"server_type":"Dedicated","server_os":"Linux","password":true,"vac":true,"version":"7961495","steam_id":85568392924742830,"keywords":["cp","nocrits","nodmgspread","uncletopia"],"game_id":440,"stv_port":27066,"stv_name":"Uncletopia | London | 6 | All Maps | STV","players":null},{"server_id":40,"name":"Uncletopia | London | 7 | Stopwatch","name_short":"lon-7","host":"lon-1.uk.uncletopia.com","port":27075,"enabled":true,"region":"eu","cc":"gb","latitude":51.509865,"longitude":-0.118092,"reserved":0,"last_update":"0001-01-01T00:00:00Z","name_a2s":"Uncletopia | London | 7 | Stopwatch","protocol":17,"map":"workshop/koth_bagel_rc6.ugc2514036946","folder":"tf","game":"Team Fortress","app_id":440,"player_count":0,"max_players":24,"Bots":0,"server_type":"Dedicated","server_os":"Linux","password":true,"vac":true,"version":"7961495","steam_id":85568392924964314,"keywords":["cp","nocrits","nodmgspread","uncletopia"],"game_id":440,"stv_port":27076,"stv_name":"Uncletopia | London | 7 | Stopwatch | STV","players":null},{"server_id":41,"name":"Uncletopia | London | 8 | Community","name_short":"lon-8","host":"lon-1.uk.uncletopia.com","port":27085,"enabled":true,"region":"eu","cc":"gb","latitude":51.509865,"longitude":-0.118092,"reserved":0,"last_update":"0001-01-01T00:00:00Z","name_a2s":"Uncletopia | London | 8 | Community","protocol":17,"map":"workshop/koth_ramjam_rc1.ugc459778887","folder":"tf","game":"Team Fortress","app_id":440,"player_count":0,"max_players":24,"Bots":0,"server_type":"Dedicated","server_os":"Linux","password":true,"vac":true,"version":"7961495","steam_id":85568392924964315,"keywords":["cp","nocrits","nodmgspread","uncletopia"],"game_id":440,"stv_port":27086,"stv_name":"Uncletopia | London | 8 | Community | STV","players":null},{"server_id":300,"name":"Uncletopia | Montréal | 1 | One Thousand Uncles","name_short":"mtl-1","host":"mtl-1.ca.uncletopia.com","port":27015,"enabled":true,"region":"us-east","cc":"ca","latitude":45.50889,"longitude":-73.56167,"reserved":0,"last_update":"0001-01-01T00:00:00Z","name_a2s":"","protocol":0,"map":"","folder":"","game":"","app_id":0,"player_count":7,"max_players":0,"Bots":0,"server_type":"","server_os":"","password":false,"vac":false,"version":"","steam_id":0,"keywords":null,"game_id":0,"stv_port":0,"stv_name":"","players":[{"user_id":202,"name":"JoeFalco","steam_id":76561198064005012,"connected_time":534000000000,"state":"active","ping":84},{"user_id":183,"name":"Oxygen User","steam_id":76561199111975528,"connected_time":945000000000,"state":"active","ping":85},{"user_id":152,"name":"puffy","steam_id":76561198411347037,"connected_time":3031000000000,"state":"active","ping":60},{"user_id":185,"name":"Waning Sanity","steam_id":76561197963089845,"connected_time":610000000000,"state":"active","ping":79},{"user_id":204,"name":"DeepDive","steam_id":76561198140542184,"connected_time":21000000000,"state":"active","ping":58},{"user_id":179,"name":"Old One Eye","steam_id":76561198185598330,"connected_time":2170000000000,"state":"active","ping":89},{"user_id":180,"name":"Hektur Salmondchonka","steam_id":76561198136982572,"connected_time":1849000000000,"state":"active","ping":119}]},{"server_id":301,"name":"Uncletopia | Montréal | 2 | One Thousand Uncles","name_short":"mtl-2","host":"mtl-1.ca.uncletopia.com","port":27025,"enabled":true,"region":"us-east","cc":"ca","latitude":45.50889,"longitude":-73.56167,"reserved":0,"last_update":"0001-01-01T00:00:00Z","name_a2s":"","protocol":0,"map":"","folder":"","game":"","app_id":0,"player_count":0,"max_players":0,"Bots":0,"server_type":"","server_os":"","password":false,"vac":false,"version":"","steam_id":0,"keywords":null,"game_id":0,"stv_port":0,"stv_name":"","players":null},{"server_id":302,"name":"Uncletopia | Montréal | 3 | One Thousand Uncles","name_short":"mtl-3","host":"mtl-1.ca.uncletopia.com","port":27035,"enabled":true,"region":"us-east","cc":"ca","latitude":45.50889,"longitude":-73.56167,"reserved":0,"last_update":"0001-01-01T00:00:00Z","name_a2s":"","protocol":0,"map":"","folder":"","game":"","app_id":0,"player_count":0,"max_players":0,"Bots":0,"server_type":"","server_os":"","password":false,"vac":false,"version":"","steam_id":0,"keywords":null,"game_id":0,"stv_port":0,"stv_name":"","players":null},{"server_id":13,"name":"Uncletopia | New York City | 1 | All Maps","name_short":"nyc-1","host":"nyc-1.us.uncletopia.com","port":27015,"enabled":true,"region":"us-east","cc":"us","latitude":40.73061,"longitude":-73.93524,"reserved":0,"last_update":"0001-01-01T00:00:00Z","name_a2s":"Uncletopia | New York City | 1 | All Maps","protocol":17,"map":"koth_king","folder":"tf","game":"Team Fortress","app_id":440,"player_count":24,"max_players":24,"Bots":0,"server_type":"Dedicated","server_os":"Linux","password":true,"vac":true,"version":"7961495","steam_id":85568392924469993,"keywords":["cp","nocrits","nodmgspread","uncletopia"],"game_id":440,"stv_port":27016,"stv_name":"Uncletopia | New York City | 1 | All Maps | STV","players":[{"user_id":92,"name":"daxx","steam_id":76561197971296086,"connected_time":421000000000,"state":"active","ping":64},{"user_id":46,"name":"LePit","steam_id":76561198164154743,"connected_time":1709000000000,"state":"active","ping":50},{"user_id":108,"name":"Ace","steam_id":76561198086172358,"connected_time":113000000000,"state":"active","ping":44},{"user_id":65,"name":"CDBeans","steam_id":76561198046990367,"connected_time":1099000000000,"state":"active","ping":79},{"user_id":69,"name":"pea ttv/peabeanz","steam_id":76561198119551968,"connected_time":1004000000000,"state":"active","ping":65},{"user_id":96,"name":"Hylic","steam_id":76561199051314589,"connected_time":358000000000,"state":"active","ping":69},{"user_id":38,"name":"you forgot the sauce","steam_id":76561198387016713,"connected_time":1734000000000,"state":"active","ping":55},{"user_id":14,"name":"The Creepy9","steam_id":76561198039104966,"connected_time":2733000000000,"state":"active","ping":65},{"user_id":109,"name":"KyonHB","steam_id":76561198050311904,"connected_time":71000000000,"state":"active","ping":58},{"user_id":36,"name":"20 miles for a Quaalude","steam_id":76561198042579477,"connected_time":1936000000000,"state":"active","ping":49},{"user_id":110,"name":"spherewithahat","steam_id":76561199122192660,"connected_time":40000000000,"state":"active","ping":60},{"user_id":111,"name":"Asanez3","steam_id":76561198037381436,"connected_time":39000000000,"state":"active","ping":62},{"user_id":23,"name":"Mury","steam_id":76561198069743049,"connected_time":2098000000000,"state":"active","ping":76},{"user_id":87,"name":"Gardyloo_","steam_id":76561198353424759,"connected_time":589000000000,"state":"active","ping":56},{"user_id":68,"name":"The Terio Lebron","steam_id":76561199085731190,"connected_time":1021000000000,"state":"active","ping":92},{"user_id":60,"name":"PumpkinThink","steam_id":76561198393830529,"connected_time":1431000000000,"state":"active","ping":88},{"user_id":37,"name":"Rocky","steam_id":76561198290193841,"connected_time":1920000000000,"state":"active","ping":81},{"user_id":28,"name":"(sh)artist","steam_id":76561199144640325,"connected_time":2072000000000,"state":"active","ping":76},{"user_id":103,"name":"Wubs","steam_id":76561198100722286,"connected_time":191000000000,"state":"active","ping":45},{"user_id":115,"name":"awalkingwarcrime","steam_id":76561199434372948,"connected_time":0,"state":"spawning","ping":0},{"user_id":31,"name":"MiPlatypus","steam_id":76561198210393620,"connected_time":2015000000000,"state":"active","ping":70},{"user_id":114,"name":"(Not Gonna Sugarcoat it)","steam_id":76561199256373038,"connected_time":3000000000,"state":"spawning","ping":114},{"user_id":33,"name":"jamzine","steam_id":76561198186168293,"connected_time":2009000000000,"state":"active","ping":58},{"user_id":97,"name":"hayes","steam_id":76561198057101042,"connected_time":346000000000,"state":"active","ping":82}]},{"server_id":14,"name":"Uncletopia | New York City | 2 | All Maps","name_short":"nyc-2","host":"nyc-1.us.uncletopia.com","port":27025,"enabled":true,"region":"us-east","cc":"us","latitude":40.73061,"longitude":-73.93524,"reserved":0,"last_update":"0001-01-01T00:00:00Z","name_a2s":"Uncletopia | New York City | 2 | All Maps","protocol":17,"map":"pl_pier","folder":"tf","game":"Team Fortress","app_id":440,"player_count":24,"max_players":24,"Bots":0,"server_type":"Dedicated","server_os":"Linux","password":true,"vac":true,"version":"7961495","steam_id":85568392924469994,"keywords":["nocrits","nodmgspread","payload","uncletopia"],"game_id":440,"stv_port":27026,"stv_name":"Uncletopia | New York City | 2 | All Maps | STV","players":[{"user_id":135,"name":"Donatella VERSACE 💜","steam_id":76561198081220016,"connected_time":271000000000,"state":"active","ping":67},{"user_id":105,"name":"Sweet Jesus","steam_id":76561198060068046,"connected_time":2717000000000,"state":"active","ping":90},{"user_id":128,"name":"Vegerot","steam_id":76561197997843710,"connected_time":947000000000,"state":"active","ping":45},{"user_id":132,"name":"KIKI CURBSTOMP","steam_id":76561198262064871,"connected_time":660000000000,"state":"active","ping":31},{"user_id":111,"name":"Gheeotine","steam_id":76561198010181698,"connected_time":1469000000000,"state":"active","ping":72},{"user_id":138,"name":"harold of rock salt kingdom","steam_id":76561199016285746,"connected_time":160000000000,"state":"active","ping":97},{"user_id":139,"name":"GigaPenguin","steam_id":76561198805906456,"connected_time":125000000000,"state":"active","ping":41},{"user_id":125,"name":"MillerWhite","steam_id":76561198076060357,"connected_time":1114000000000,"state":"active","ping":67},{"user_id":136,"name":"B1eket","steam_id":76561199091717757,"connected_time":250000000000,"state":"active","ping":94},{"user_id":129,"name":"MEET AND FUCK KINGDOM, STEVE","steam_id":76561198421249296,"connected_time":882000000000,"state":"active","ping":79},{"user_id":113,"name":"JustShane","steam_id":76561199003156182,"connected_time":1449000000000,"state":"active","ping":70},{"user_id":114,"name":"totsnotabot","steam_id":76561198077023364,"connected_time":1439000000000,"state":"active","ping":47},{"user_id":120,"name":"Bother","steam_id":76561198336750909,"connected_time":1263000000000,"state":"active","ping":46},{"user_id":140,"name":"D(b) Hell","steam_id":76561198067869016,"connected_time":77000000000,"state":"active","ping":61},{"user_id":63,"name":"AverageGloop","steam_id":76561198243395378,"connected_time":5731000000000,"state":"active","ping":44},{"user_id":133,"name":"Cringe420","steam_id":76561199039425623,"connected_time":606000000000,"state":"active","ping":89},{"user_id":117,"name":"real gamer hours","steam_id":76561198169329362,"connected_time":1415000000000,"state":"active","ping":69},{"user_id":109,"name":"x = ( -b ± √( b^2 - 4ac)/ (2","steam_id":76561198059220458,"connected_time":1645000000000,"state":"active","ping":46},{"user_id":107,"name":"taigaxx","steam_id":76561198202669250,"connected_time":2022000000000,"state":"active","ping":72},{"user_id":118,"name":"potpurrycatcurry","steam_id":76561198349409715,"connected_time":1412000000000,"state":"active","ping":84},{"user_id":130,"name":"Orange Triangle","steam_id":76561198320498182,"connected_time":873000000000,"state":"active","ping":106},{"user_id":141,"name":"hooters","steam_id":76561198068022595,"connected_time":65000000000,"state":"active","ping":45},{"user_id":142,"name":"STONEWALL JACKSON","steam_id":76561199500876333,"connected_time":12000000000,"state":"spawning","ping":60},{"user_id":78,"name":"DamerDoozle","steam_id":76561199121686201,"connected_time":4604000000000,"state":"active","ping":88}]},{"server_id":15,"name":"Uncletopia | New York City | 3 | Stopwatch","name_short":"nyc-3","host":"nyc-1.us.uncletopia.com","port":27035,"enabled":true,"region":"us-east","cc":"us","latitude":40.73061,"longitude":-73.93524,"reserved":0,"last_update":"0001-01-01T00:00:00Z","name_a2s":"Uncletopia | New York City | 3 | Stopwatch","protocol":17,"map":"koth_lakeside_final","folder":"tf","game":"Team Fortress","app_id":440,"player_count":0,"max_players":24,"Bots":0,"server_type":"Dedicated","server_os":"Linux","password":true,"vac":true,"version":"7961495","steam_id":85568392924742820,"keywords":["cp","nocrits","nodmgspread","uncletopia"],"game_id":440,"stv_port":27036,"stv_name":"Uncletopia | New York City | 3 | Stopwatch | STV","players":null},{"server_id":16,"name":"Uncletopia | New York City | 4 | Community","name_short":"nyc-4","host":"nyc-1.us.uncletopia.com","port":27045,"enabled":true,"region":"us-east","cc":"us","latitude":40.73061,"longitude":-73.93524,"reserved":0,"last_update":"0001-01-01T00:00:00Z","name_a2s":"Uncletopia | New York City | 4 | Community","protocol":17,"map":"workshop/koth_synthetic_rc6a.ugc1549817316","folder":"tf","game":"Team Fortress","app_id":440,"player_count":0,"max_players":24,"Bots":0,"server_type":"Dedicated","server_os":"Linux","password":true,"vac":true,"version":"7961495","steam_id":85568392924742821,"keywords":["cp","nocrits","nodmgspread","uncletopia"],"game_id":440,"stv_port":27046,"stv_name":"Uncletopia | New York City | 4 | Community | STV","players":null},{"server_id":142,"name":"Uncletopia | São Paulo | 1 | All Maps","name_short":"sao-1","host":"sao-1.br.uncletopia.com","port":27015,"enabled":true,"region":"sa","cc":"br","latitude":-23.533773,"longitude":-46.62529,"reserved":0,"last_update":"0001-01-01T00:00:00Z","name_a2s":"Uncletopia | São Paulo | 1 | All Maps","protocol":17,"map":"koth_cascade","folder":"tf","game":"Team Fortress","app_id":440,"player_count":5,"max_players":24,"Bots":0,"server_type":"Dedicated","server_os":"Linux","password":true,"vac":true,"version":"7961495","steam_id":85568392924469996,"keywords":["cp","nocrits","nodmgspread","uncletopia"],"game_id":440,"stv_port":27016,"stv_name":"Uncletopia | São Paulo | 1 | All Maps | STV","players":[{"user_id":4,"name":"guarda-chuva","steam_id":76561198078694330,"connected_time":863000000000,"state":"active","ping":58},{"user_id":5,"name":"Tert_14","steam_id":76561198185952289,"connected_time":857000000000,"state":"active","ping":65},{"user_id":6,"name":"Skoutz","steam_id":76561198121521680,"connected_time":224000000000,"state":"active","ping":50},{"user_id":7,"name":"Suck","steam_id":76561198864045923,"connected_time":107000000000,"state":"active","ping":48},{"user_id":8,"name":"ESTOY LOL","steam_id":76561199044085037,"connected_time":86000000000,"state":"active","ping":104}]},{"server_id":143,"name":"Uncletopia | São Paulo | 2 | Community","name_short":"sao-2","host":"sao-2.br.uncletopia.com","port":27015,"enabled":true,"region":"sa","cc":"br","latitude":-23.533773,"longitude":-46.62529,"reserved":0,"last_update":"0001-01-01T00:00:00Z","name_a2s":"Uncletopia | São Paulo | 2 | Community","protocol":17,"map":"workshop/cp_propaganda_b18.ugc1603743849","folder":"tf","game":"Team Fortress","app_id":440,"player_count":1,"max_players":24,"Bots":0,"server_type":"Dedicated","server_os":"Linux","password":true,"vac":true,"version":"7961495","steam_id":85568392924485349,"keywords":["cp","nocrits","nodmgspread","uncletopia"],"game_id":440,"stv_port":27016,"stv_name":"Uncletopia | São Paulo | 2 | Community | STV","players":[{"user_id":10,"name":"joelcasa.208","steam_id":76561199407296910,"connected_time":821000000000,"state":"active","ping":79}]},{"server_id":7,"name":"Uncletopia | Seattle | 1 | All Maps","name_short":"sea-1","host":"sea-1.us.uncletopia.com","port":27015,"enabled":true,"region":"us-west","cc":"us","latitude":47.608013,"longitude":-122.33517,"reserved":0,"last_update":"0001-01-01T00:00:00Z","name_a2s":"Uncletopia | Seattle | 1 | All Maps","protocol":17,"map":"koth_harvest_final","folder":"tf","game":"Team Fortress","app_id":440,"player_count":24,"max_players":24,"Bots":0,"server_type":"Dedicated","server_os":"Linux","password":true,"vac":true,"version":"7961495","steam_id":85568392924469997,"keywords":["cp","nocrits","nodmgspread","uncletopia"],"game_id":440,"stv_port":27016,"stv_name":"Uncletopia | Seattle | 1 | All Maps | STV","players":[{"user_id":47,"name":"vulture pupy","steam_id":76561198061963965,"connected_time":607000000000,"state":"active","ping":59},{"user_id":58,"name":"ORANGE","steam_id":76561198000401769,"connected_time":114000000000,"state":"active","ping":45},{"user_id":12,"name":"ADMlN!!! he doin it sideways","steam_id":76561198085470745,"connected_time":2324000000000,"state":"active","ping":59},{"user_id":14,"name":"Sleuth","steam_id":76561198418288939,"connected_time":1894000000000,"state":"active","ping":60},{"user_id":16,"name":"dust | it/she","steam_id":76561198045218909,"connected_time":1765000000000,"state":"active","ping":43},{"user_id":17,"name":"cajun thotsauce","steam_id":76561198101636066,"connected_time":1698000000000,"state":"active","ping":60},{"user_id":18,"name":"cozmo","steam_id":76561198043167542,"connected_time":1656000000000,"state":"active","ping":45},{"user_id":54,"name":"Aloafofbread","steam_id":76561198160526290,"connected_time":223000000000,"state":"active","ping":61},{"user_id":57,"name":"KingSteve42","steam_id":76561198409455888,"connected_time":117000000000,"state":"active","ping":94},{"user_id":22,"name":"Dimple","steam_id":76561198980324190,"connected_time":1547000000000,"state":"active","ping":54},{"user_id":46,"name":"terry the terrifying","steam_id":76561198828006787,"connected_time":683000000000,"state":"active","ping":70},{"user_id":24,"name":"Long live svetlan","steam_id":76561199247095754,"connected_time":1443000000000,"state":"active","ping":53},{"user_id":36,"name":"Little Linguine","steam_id":76561198816986370,"connected_time":989000000000,"state":"active","ping":43},{"user_id":38,"name":"CopperBox","steam_id":76561198068217248,"connected_time":791000000000,"state":"active","ping":87},{"user_id":60,"name":"firestabber","steam_id":76561198057055577,"connected_time":65000000000,"state":"active","ping":48},{"user_id":31,"name":"sleePI","steam_id":76561198450073779,"connected_time":1192000000000,"state":"active","ping":44},{"user_id":34,"name":"RaTtYc","steam_id":76561198954419354,"connected_time":1056000000000,"state":"active","ping":85},{"user_id":53,"name":"BLU3","steam_id":76561198059652670,"connected_time":297000000000,"state":"active","ping":45},{"user_id":59,"name":"Justy","steam_id":76561198044014069,"connected_time":101000000000,"state":"active","ping":74},{"user_id":42,"name":"Not Ghostie","steam_id":76561198068686762,"connected_time":745000000000,"state":"active","ping":120},{"user_id":43,"name":"rollypollyolie","steam_id":76561198039539380,"connected_time":722000000000,"state":"active","ping":86},{"user_id":44,"name":"SamPedelson61","steam_id":76561198845374432,"connected_time":722000000000,"state":"active","ping":108},{"user_id":55,"name":"Frank #SaveTF2","steam_id":76561198126681511,"connected_time":149000000000,"state":"active","ping":78},{"user_id":52,"name":"9th Fish","steam_id":76561199207235683,"connected_time":299000000000,"state":"active","ping":207}]},{"server_id":119,"name":"Uncletopia | Seattle | 2 | All Maps","name_short":"sea-2","host":"sea-1.us.uncletopia.com","port":27025,"enabled":true,"region":"us-west","cc":"us","latitude":47.608013,"longitude":-122.33517,"reserved":0,"last_update":"0001-01-01T00:00:00Z","name_a2s":"Uncletopia | Seattle | 2 | All Maps","protocol":17,"map":"pl_pier","folder":"tf","game":"Team Fortress","app_id":440,"player_count":0,"max_players":24,"Bots":0,"server_type":"Dedicated","server_os":"Linux","password":true,"vac":true,"version":"7961495","steam_id":85568392924469998,"keywords":["nocrits","nodmgspread","payload","uncletopia"],"game_id":440,"stv_port":27026,"stv_name":"Uncletopia | Seattle | 2 | All Maps | STV","players":null},{"server_id":406,"name":"Uncletopia | Seattle | 3 | Stopwatch","name_short":"sea-3","host":"sea-1.us.uncletopia.com","port":27035,"enabled":true,"region":"us-west","cc":"us","latitude":47.608013,"longitude":-122.33517,"reserved":0,"last_update":"0001-01-01T00:00:00Z","name_a2s":"Uncletopia | Seattle | 3 | Stopwatch","protocol":17,"map":"pl_pier","folder":"tf","game":"Team Fortress","app_id":440,"player_count":0,"max_players":24,"Bots":0,"server_type":"Dedicated","server_os":"Linux","password":true,"vac":true,"version":"7961495","steam_id":85568392924515217,"keywords":["nocrits","nodmgspread","payload","uncletopia"],"game_id":440,"stv_port":27036,"stv_name":"Uncletopia | Seattle | 3 | Stopwatch | STV","players":null},{"server_id":17,"name":"Uncletopia | San Francisco | 1 | All Maps","name_short":"sfo-1","host":"sfo-1.us.uncletopia.com","port":27015,"enabled":true,"region":"us-west","cc":"us","latitude":37.77397,"longitude":-122.4313,"reserved":0,"last_update":"0001-01-01T00:00:00Z","name_a2s":"Uncletopia | San Francisco | 1 | All Maps","protocol":17,"map":"koth_cascade","folder":"tf","game":"Team Fortress","app_id":440,"player_count":0,"max_players":24,"Bots":0,"server_type":"Dedicated","server_os":"Linux","password":true,"vac":true,"version":"7961495","steam_id":85568392924469999,"keywords":["cp","nocrits","nodmgspread","uncletopia"],"game_id":440,"stv_port":27016,"stv_name":"Uncletopia | San Francisco | 1 | All Maps | STV","players":null},{"server_id":18,"name":"Uncletopia | San Francisco | 2 | All Maps","name_short":"sfo-2","host":"sfo-1.us.uncletopia.com","port":27025,"enabled":true,"region":"us-west","cc":"us","latitude":37.77397,"longitude":-122.4313,"reserved":0,"last_update":"0001-01-01T00:00:00Z","name_a2s":"Uncletopia | San Francisco | 2 | All Maps","protocol":17,"map":"cp_dustbowl","folder":"tf","game":"Team Fortress","app_id":440,"player_count":0,"max_players":24,"Bots":0,"server_type":"Dedicated","server_os":"Linux","password":true,"vac":true,"version":"7961495","steam_id":85568392924470000,"keywords":["cp","nocrits","nodmgspread","uncletopia"],"game_id":440,"stv_port":27026,"stv_name":"Uncletopia | San Francisco | 2 | All Maps | STV","players":null},{"server_id":19,"name":"Uncletopia | San Francisco | 3 | Stopwatch","name_short":"sfo-3","host":"sfo-1.us.uncletopia.com","port":27035,"enabled":true,"region":"us-west","cc":"us","latitude":37.77397,"longitude":-122.4313,"reserved":0,"last_update":"0001-01-01T00:00:00Z","name_a2s":"Uncletopia | San Francisco | 3 | Stopwatch","protocol":17,"map":"pl_pier","folder":"tf","game":"Team Fortress","app_id":440,"player_count":0,"max_players":24,"Bots":0,"server_type":"Dedicated","server_os":"Linux","password":true,"vac":true,"version":"7961495","steam_id":85568392924742824,"keywords":["nocrits","nodmgspread","payload","uncletopia"],"game_id":440,"stv_port":27036,"stv_name":"Uncletopia | San Francisco | 3 | Stopwatch | STV","players":null},{"server_id":20,"name":"Uncletopia | San Francisco | 4 | Community","name_short":"sfo-4","host":"sfo-1.us.uncletopia.com","port":27045,"enabled":true,"region":"us-west","cc":"us","latitude":37.77397,"longitude":-122.4313,"reserved":0,"last_update":"0001-01-01T00:00:00Z","name_a2s":"Uncletopia | San Francisco | 4 | Community","protocol":17,"map":"pl_pier","folder":"tf","game":"Team Fortress","app_id":440,"player_count":0,"max_players":24,"Bots":0,"server_type":"Dedicated","server_os":"Linux","password":true,"vac":true,"version":"7961495","steam_id":85568392924742826,"keywords":["nocrits","nodmgspread","payload","uncletopia"],"game_id":440,"stv_port":27046,"stv_name":"Uncletopia | San Francisco | 4 | Community | STV","players":null},{"server_id":141,"name":"Uncletopia | Sydney | 1 | All Maps","name_short":"syd-1","host":"syd-1.au.uncletopia.com","port":27015,"enabled":true,"region":"au","cc":"au","latitude":-33.865143,"longitude":151.2099,"reserved":0,"last_update":"0001-01-01T00:00:00Z","name_a2s":"Uncletopia | Sydney | 1 | All Maps","protocol":17,"map":"koth_viaduct","folder":"tf","game":"Team Fortress","app_id":440,"player_count":0,"max_players":24,"Bots":0,"server_type":"Dedicated","server_os":"Linux","password":true,"vac":true,"version":"7961495","steam_id":85568392924470001,"keywords":["cp","nocrits","nodmgspread","uncletopia"],"game_id":440,"stv_port":27016,"stv_name":"Uncletopia | Sydney | 1 | All Maps | STV","players":null},{"server_id":123,"name":"Uncletopia | Sydney | 2 | All Maps","name_short":"syd-2","host":"syd-1.au.uncletopia.com","port":27025,"enabled":true,"region":"au","cc":"au","latitude":-33.865143,"longitude":151.2099,"reserved":0,"last_update":"0001-01-01T00:00:00Z","name_a2s":"Uncletopia | Sydney | 2 | All Maps","protocol":17,"map":"cp_snakewater_final1","folder":"tf","game":"Team Fortress","app_id":440,"player_count":0,"max_players":24,"Bots":0,"server_type":"Dedicated","server_os":"Linux","password":true,"vac":true,"version":"7961495","steam_id":85568392924470002,"keywords":["cp","nocrits","nodmgspread","uncletopia"],"game_id":440,"stv_port":27026,"stv_name":"Uncletopia | Sydney | 2 | All Maps | STV","players":null},{"server_id":395,"name":"Uncletopia | Sydney | 3 | All Maps","name_short":"syd-3","host":"syd-1.au.uncletopia.com","port":27035,"enabled":true,"region":"au","cc":"au","latitude":-33.865143,"longitude":151.2099,"reserved":0,"last_update":"0001-01-01T00:00:00Z","name_a2s":"Uncletopia | Sydney | 3 | All Maps","protocol":17,"map":"koth_lakeside_final","folder":"tf","game":"Team Fortress","app_id":440,"player_count":0,"max_players":24,"Bots":0,"server_type":"Dedicated","server_os":"Linux","password":true,"vac":true,"version":"7961495","steam_id":85568392925194467,"keywords":["cp","nocrits","nodmgspread","uncletopia"],"game_id":440,"stv_port":27036,"stv_name":"Uncletopia | Sydney | 3 | All Maps | STV","players":null},{"server_id":396,"name":"Uncletopia | Sydney | 4 | All Maps","name_short":"syd-4","host":"syd-1.au.uncletopia.com","port":27045,"enabled":true,"region":"au","cc":"au","latitude":-33.865143,"longitude":151.2099,"reserved":0,"last_update":"0001-01-01T00:00:00Z","name_a2s":"Uncletopia | Sydney | 4 | All Maps","protocol":17,"map":"koth_highpass","folder":"tf","game":"Team Fortress","app_id":440,"player_count":0,"max_players":24,"Bots":0,"server_type":"Dedicated","server_os":"Linux","password":true,"vac":true,"version":"7961495","steam_id":85568392925397958,"keywords":["cp","nocrits","nodmgspread","uncletopia"],"game_id":440,"stv_port":27046,"stv_name":"Uncletopia | Sydney | 4 | All Maps | STV","players":null},{"server_id":58,"name":"Uncletopia | Sydney | 5 | Stopwatch","name_short":"syd-5","host":"syd-1.au.uncletopia.com","port":27055,"enabled":true,"region":"au","cc":"au","latitude":-33.865143,"longitude":151.2099,"reserved":0,"last_update":"0001-01-01T00:00:00Z","name_a2s":"Uncletopia | Sydney | 5 | Stopwatch","protocol":17,"map":"koth_highpass","folder":"tf","game":"Team Fortress","app_id":440,"player_count":0,"max_players":24,"Bots":0,"server_type":"Dedicated","server_os":"Linux","password":true,"vac":true,"version":"7961495","steam_id":85568392925397959,"keywords":["cp","nocrits","nodmgspread","uncletopia"],"game_id":440,"stv_port":27056,"stv_name":"Uncletopia | Sydney | 5 | Stopwatch | STV","players":null},{"server_id":59,"name":"Uncletopia | Sydney | 6 | Community","name_short":"syd-6","host":"syd-1.au.uncletopia.com","port":27065,"enabled":true,"region":"au","cc":"au","latitude":-33.865143,"longitude":151.2099,"reserved":0,"last_update":"0001-01-01T00:00:00Z","name_a2s":"Uncletopia | Sydney | 6 | Community","protocol":17,"map":"workshop/pl_fifthcurve_rc1.ugc648227046","folder":"tf","game":"Team Fortress","app_id":440,"player_count":0,"max_players":24,"Bots":0,"server_type":"Dedicated","server_os":"Linux","password":true,"vac":true,"version":"7961495","steam_id":85568392925397960,"keywords":["nocrits","nodmgspread","payload","uncletopia"],"game_id":440,"stv_port":27066,"stv_name":"Uncletopia | Sydney | 6 | Community | STV","players":null},{"server_id":49,"name":"Uncletopia | Warsaw | 1 | One Thousand Uncles","name_short":"waw-1","host":"waw-1.pl.uncletopia.com","port":27015,"enabled":true,"region":"eu","cc":"pl","latitude":52.2297,"longitude":21.017532,"reserved":0,"last_update":"0001-01-01T00:00:00Z","name_a2s":"Uncletopia | Warsaw | 1 | One Thousand Uncles","protocol":17,"map":"cp_mercenarypark","folder":"tf","game":"Team Fortress","app_id":440,"player_count":26,"max_players":32,"Bots":16,"server_type":"Dedicated","server_os":"Linux","password":true,"vac":true,"version":"7961495","steam_id":85568392925397850,"keywords":["alltalk","bots","cp","danepve","increased_maxplayers","nocrits","norespawntime","uncletopia"],"game_id":440,"stv_port":0,"stv_name":"","players":[{"user_id":547,"name":"sphere","steam_id":76561197971059842,"connected_time":1581000000000,"state":"active","ping":67},{"user_id":481,"name":"𝒯𝓇𝓊𝓈𝓁𝒶𝓋228","steam_id":76561199229195988,"connected_time":7084000000000,"state":"active","ping":100},{"user_id":489,"name":"NoLongerSwiming","steam_id":76561199408731222,"connected_time":6199000000000,"state":"active","ping":97},{"user_id":545,"name":"Ricey","steam_id":76561198832961307,"connected_time":2330000000000,"state":"active","ping":72},{"user_id":549,"name":"?TheEnd","steam_id":76561198055280327,"connected_time":1470000000000,"state":"active","ping":51},{"user_id":501,"name":"Charmedelf","steam_id":76561197993611881,"connected_time":4952000000000,"state":"active","ping":68},{"user_id":526,"name":"Benzo Fury","steam_id":76561198025259336,"connected_time":3492000000000,"state":"active","ping":80},{"user_id":499,"name":"Dosi","steam_id":76561199032025182,"connected_time":5011000000000,"state":"active","ping":45},{"user_id":551,"name":"The kebab man","steam_id":76561198142689234,"connected_time":1088000000000,"state":"active","ping":78},{"user_id":553,"name":"the bee shield","steam_id":76561198315405589,"connected_time":657000000000,"state":"active","ping":44}]},{"server_id":50,"name":"Uncletopia | Warsaw | 2 | One Thousand Uncles","name_short":"waw-2","host":"waw-1.pl.uncletopia.com","port":27025,"enabled":true,"region":"eu","cc":"pl","latitude":52.2297,"longitude":21.017532,"reserved":0,"last_update":"0001-01-01T00:00:00Z","name_a2s":"Uncletopia | Warsaw | 2 | One Thousand Uncles","protocol":17,"map":"pl_pier","folder":"tf","game":"Team Fortress","app_id":440,"player_count":27,"max_players":32,"Bots":16,"server_type":"Dedicated","server_os":"Linux","password":true,"vac":true,"version":"7961495","steam_id":85568392925397851,"keywords":["alltalk","bots","danepve","increased_maxplayers","nocrits","norespawntime","payload","uncletopia"],"game_id":440,"stv_port":0,"stv_name":"","players":[{"user_id":240,"name":"pyro","steam_id":76561199255856612,"connected_time":3526000000000,"state":"active","ping":40},{"user_id":278,"name":"photonbinding","steam_id":76561198250996330,"connected_time":540000000000,"state":"active","ping":195},{"user_id":279,"name":"WomenBeardLike","steam_id":76561198390184314,"connected_time":504000000000,"state":"active","ping":78},{"user_id":241,"name":"God Of Why (Saul Godman®)","steam_id":76561199007495784,"connected_time":3518000000000,"state":"active","ping":115},{"user_id":242,"name":"MisterLegitimate","steam_id":76561199198559715,"connected_time":3514000000000,"state":"active","ping":82},{"user_id":251,"name":"Demo gameming","steam_id":76561199445458247,"connected_time":2509000000000,"state":"active","ping":79},{"user_id":254,"name":"riaan222","steam_id":76561198167235331,"connected_time":2173000000000,"state":"active","ping":216},{"user_id":255,"name":"Officerpogchamp","steam_id":76561199089266811,"connected_time":1927000000000,"state":"active","ping":305},{"user_id":246,"name":"FinnishGuy","steam_id":76561198155380452,"connected_time":3156000000000,"state":"active","ping":97},{"user_id":249,"name":"The Troglodyte","steam_id":76561199119744358,"connected_time":3082000000000,"state":"active","ping":75},{"user_id":256,"name":"Horny Police","steam_id":76561198213089804,"connected_time":1768000000000,"state":"active","ping":67}]},{"server_id":51,"name":"Uncletopia | Warsaw | 3 | All Maps","name_short":"waw-3","host":"waw-1.pl.uncletopia.com","port":27035,"enabled":true,"region":"eu","cc":"pl","latitude":52.2297,"longitude":21.017532,"reserved":0,"last_update":"0001-01-01T00:00:00Z","name_a2s":"Uncletopia | Warsaw | 3 | All Maps","protocol":17,"map":"pl_barnblitz","folder":"tf","game":"Team Fortress","app_id":440,"player_count":0,"max_players":24,"Bots":0,"server_type":"Dedicated","server_os":"Linux","password":true,"vac":true,"version":"7961495","steam_id":85568392925397852,"keywords":["nocrits","nodmgspread","payload","uncletopia"],"game_id":440,"stv_port":27036,"stv_name":"Uncletopia | Warsaw | 3 | All Maps | STV","players":null},{"server_id":52,"name":"Uncletopia | Warsaw | 4 | All Maps","name_short":"waw-4","host":"waw-1.pl.uncletopia.com","port":27045,"enabled":true,"region":"eu","cc":"pl","latitude":52.2297,"longitude":21.017532,"reserved":0,"last_update":"0001-01-01T00:00:00Z","name_a2s":"Uncletopia | Warsaw | 4 | All Maps","protocol":17,"map":"koth_cascade","folder":"tf","game":"Team Fortress","app_id":440,"player_count":0,"max_players":24,"Bots":0,"server_type":"Dedicated","server_os":"Linux","password":true,"vac":true,"version":"7961495","steam_id":85568392925397853,"keywords":["cp","nocrits","nodmgspread","uncletopia"],"game_id":440,"stv_port":27046,"stv_name":"Uncletopia | Warsaw | 4 | All Maps | STV","players":null},{"server_id":53,"name":"Uncletopia | Warsaw | 5 | Stopwatch","name_short":"waw-5","host":"waw-1.pl.uncletopia.com","port":27055,"enabled":true,"region":"eu","cc":"pl","latitude":52.2297,"longitude":21.017532,"reserved":0,"last_update":"0001-01-01T00:00:00Z","name_a2s":"Uncletopia | Warsaw | 5 | Stopwatch","protocol":17,"map":"workshop/koth_ashville_final.ugc2130459942","folder":"tf","game":"Team Fortress","app_id":440,"player_count":0,"max_players":24,"Bots":0,"server_type":"Dedicated","server_os":"Linux","password":true,"vac":true,"version":"7961495","steam_id":85568392925397854,"keywords":["cp","nocrits","nodmgspread","uncletopia"],"game_id":440,"stv_port":27056,"stv_name":"Uncletopia | Warsaw | 5 | Stopwatch | STV","players":null},{"server_id":54,"name":"Uncletopia | Warsaw | 6 | Community","name_short":"waw-6","host":"waw-1.pl.uncletopia.com","port":27065,"enabled":true,"region":"eu","cc":"pl","latitude":52.2297,"longitude":21.017532,"reserved":0,"last_update":"0001-01-01T00:00:00Z","name_a2s":"Uncletopia | Warsaw | 6 | Community","protocol":17,"map":"workshop/cp_mannbase_rc2a.ugc1900737467","folder":"tf","game":"Team Fortress","app_id":440,"player_count":0,"max_players":24,"Bots":0,"server_type":"Dedicated","server_os":"Linux","password":true,"vac":true,"version":"7961495","steam_id":85568392925397856,"keywords":["cp","nocrits","nodmgspread","uncletopia"],"game_id":440,"stv_port":27066,"stv_name":"Uncletopia | Warsaw | 6 | Community | STV","players":null}]}