{"status":true,"message":"","result":[{"server_id":9,"name":"Uncletopia | Atlanta | 1 | All Maps","name_short":"atl-1","host":"atl-1.us.uncletopia.com","port":27015,"enabled":true,"region":"us-east","cc":"us","latitude":33.753746,"longitude":-84.38633,"reserved":0,"last_update":"0001-01-01T00:00:00Z","name_a2s":"Uncletopia | Atlanta | 1 | All Maps","protocol":17,"map":"cp_snakewater_final1","folder":"tf","game":"Team Fortress","app_id":440,"player_count":0,"max_players":24,"Bots":0,"server_type":"Dedicated","server_os":"Linux","password":true,"vac":true,"version":"7882260","steam_id":85568392924469982,"keywords":["cp","nocrits","nodmgspread","uncletopia"],"game_id":440,"stv_port":27016,"stv_name":"Uncletopia | Atlanta | 1 | All Maps | STV","players":null},{"server_id":104,"name":"Uncletopia | Atlanta | 2 | All Maps","name_short":"atl-2","host":"atl-1.us.uncletopia.com","port":27025,"enabled":true,"region":"us-east","cc":"us","latitude":33.753746,"longitude":-84.38633,"reserved":0,"last_update":"0001-01-01T00:00:00Z","name_a2s":"Uncletopia | Atlanta | 2 | All Maps","protocol":17,"map":"cp_sunshine","folder":"tf","game":"Team Fortress","app_id":440,"player_count":0,"max_players":24,"Bots":0,"server_type":"Dedicated","server_os":"Linux","password":true,"vac":true,"version":"7882260","steam_id":85568392924469983,"keywords":["cp","nocrits","nodmgspread","uncletopia"],"game_id":440,"stv_port":27026,"stv_name":"Uncletopia | Atlanta | 2 | All Maps | STV","players":null},{"server_id":400,"name":"Uncletopia | Atlanta | 3 | Community","name_short":"atl-3","host":"atl-1.us.uncletopia.com","port":27035,"enabled":true,"region":"us-east","cc":"us","latitude":33.753746,"longitude":-84.38633,"reserved":0,"last_update":"0001-01-01T00:00:00Z","name_a2s":"Uncletopia | Atlanta | 3 | Community","protocol":17,"map":"workshop/cp_glacier_rc6.ugc2905735376","folder":"tf","game":"Team Fortress","app_id":440,"player_count":0,"max_players":24,"Bots":0,"server_type":"Dedicated","server_os":"Linux","password":true,"vac":true,"version":"7882260","steam_id":85568392924515187,"keywords":["cp","nocrits","nodmgspread","uncletopia"],"game_id":440,"stv_port":27036,"stv_name":"Uncletopia | Atlanta | 3 | Community | STV","players":null},{"server_id":401,"name":"Uncletopia | Atlanta | 4 | No Payload","name_short":"atl-4","host":"atl-1.us.uncletopia.com","port":27045,"enabled":true,"region":"us-east","cc":"us","latitude":33.753746,"longitude":-84.38633,"reserved":0,"last_update":"0001-01-01T00:00:00Z","name_a2s":"","protocol":0,"map":"","folder":"","game":"","app_id":0,"player_count":0,"max_players":0,"Bots":0,"server_type":"","server_os":"","password":false,"vac":false,"version":"","steam_id":0,"keywords":null,"game_id":0,"stv_port":0,"stv_name":"","players":null},{"server_id":2,"name":"Uncletopia | Chicago | 1 | All Maps","name_short":"chi-1","host":"chi-1.us.uncletopia.com","port":27015,"enabled":true,"region":"us-central","cc":"us","latitude":41.881832,"longitude":-87.62318,"reserved":0,"last_update":"0001-01-01T00:00:00Z","name_a2s":"Uncletopia | Chicago | 1 | All Maps","protocol":17,"map":"cp_altitude","folder":"tf","game":"Team Fortress","app_id":440,"player_count":0,"max_players":24,"Bots":0,"server_type":"Dedicated","server_os":"Linux","password":true,"vac":true,"version":"7882260","steam_id":85568392924469984,"keywords":["cp","nocrits","nodmgspread","uncletopia"],"game_id":440,"stv_port":27016,"stv_name":"Uncletopia | Chicago | 1 | All Maps | STV","players":null},{"server_id":106,"name":"Uncletopia | Chicago | 2 | All Maps","name_short":"chi-2","host":"chi-1.us.uncletopia.com","port":27025,"enabled":true,"region":"us-central","cc":"us","latitude":41.881832,"longitude":-87.62318,"reserved":0,"last_update":"0001-01-01T00:00:00Z","name_a2s":"Uncletopia | Chicago | 2 | All Maps","protocol":17,"map":"koth_cascade","folder":"tf","game":"Team Fortress","app_id":440,"player_count":0,"max_players":24,"Bots":0,"server_type":"Dedicated","server_os":"Linux","password":true,"vac":true,"version":"7882260","steam_id":85568392924469985,"keywords":["cp","nocrits","nodmgspread","uncletopia"],"game_id":440,"stv_port":27026,"stv_name":"Uncletopia | Chicago | 2 | All Maps | STV","players":null},{"server_id":402,"name":"Uncletopia | Chicago | 3 | All Maps","name_short":"chi-3","host":"chi-1.us.uncletopia.com","port":27035,"enabled":true,"region":"us-central","cc":"us","latitude":41.881832,"longitude":-87.62318,"reserved":0,"last_update":"0001-01-01T00:00:00Z","name_a2s":"Uncletopia | Chicago | 3 | All Maps","protocol":17,"map":"cp_snakewater_final1","folder":"tf","game":"Team Fortress","app_id":440,"player_count":0,"max_players":24,"Bots":0,"server_type":"Dedicated","server_os":"Linux","password":true,"vac":true,"version":"7882260","steam_id":85568392924515191,"keywords":["cp","nocrits","nodmgspread","uncletopia"],"game_id":440,"stv_port":27036,"stv_name":"Uncletopia | Chicago | 3 | All Maps | STV","players":null},{"server_id":403,"name":"Uncletopia | Chicago | 4 | All Maps","name_short":"chi-4","host":"chi-1.us.uncletopia.com","port":27045,"enabled":true,"region":"us-central","cc":"us","latitude":41.881832,"longitude":-87.62318,"reserved":0,"last_update":"0001-01-01T00:00:00Z","name_a2s":"Uncletopia | Chicago | 4 | All Maps","protocol":17,"map":"cp_sunshine","folder":"tf","game":"Team Fortress","app_id":440,"player_count":0,"max_players":24,"Bots":0,"server_type":"Dedicated","server_os":"Linux","password":true,"vac":true,"version":"7882260","steam_id":85568392924515193,"keywords":["cp","nocrits","nodmgspread","uncletopia"],"game_id":440,"stv_port":27046,"stv_name":"Uncletopia | Chicago | 4 | All Maps | STV","players":null},{"server_id":36,"name":"Uncletopia | Chicago | 5 | All Maps","name_short":"chi-5","host":"chi-2.us.uncletopia.com","port":27015,"enabled":true,"region":"us-central","cc":"us","latitude":41.881832,"longitude":-87.62318,"reserved":0,"last_update":"0001-01-01T00:00:00Z","name_a2s":"Uncletopia | Chicago | 5 | All Maps","protocol":17,"map":"koth_viaduct","folder":"tf","game":"Team Fortress","app_id":440,"player_count":0,"max_players":24,"Bots":0,"server_type":"Dedicated","server_os":"Linux","password":true,"vac":true,"version":"7882260","steam_id":85568392924866362,"keywords":["cp","nocrits","nodmgspread","uncletopia"],"game_id":440,"stv_port":27016,"stv_name":"Uncletopia | Chicago | 5 | All Maps | STV","players":null},{"server_id":37,"name":"Uncletopia | Chicago | 6 | All Maps","name_short":"chi-6","host":"chi-2.us.uncletopia.com","port":27025,"enabled":true,"region":"us-central","cc":"us","latitude":41.881832,"longitude":-87.62318,"reserved":0,"last_update":"0001-01-01T00:00:00Z","name_a2s":"Uncletopia | Chicago | 6 | All Maps","protocol":17,"map":"cp_dustbowl","folder":"tf","game":"Team Fortress","app_id":440,"player_count":24,"max_players":24,"Bots":0,"server_type":"Dedicated","server_os":"Linux","password":true,"vac":true,"version":"7882260","steam_id":85568392924866363,"keywords":["cp","nocrits","nodmgspread","uncletopia"],"game_id":440,"stv_port":27026,"stv_name":"Uncletopia | Chicago | 6 | All Maps | STV","players":[{"user_id":597,"name":"mfwjuarez","steam_id":76561198856769712,"connected_time":331000000000,"state":"active","ping":84},{"user_id":587,"name":"Kyhlirion","steam_id":76561197989680588,"connected_time":1165000000000,"state":"active","ping":143},{"user_id":595,"name":"Node⋄","steam_id":76561198219359475,"connected_time":391000000000,"state":"active","ping":96},{"user_id":585,"name":"Cycle","steam_id":76561199067298250,"connected_time":1233000000000,"state":"active","ping":68},{"user_id":575,"name":"Periculosum PhD in Funny","steam_id":76561198123370914,"connected_time":2152000000000,"state":"active","ping":71},{"user_id":560,"name":"blaynebrien18","steam_id":76561198213225007,"connected_time":3003000000000,"state":"active","ping":71},{"user_id":583,"name":"GamingJoker2012","steam_id":76561198247589168,"connected_time":1443000000000,"state":"active","ping":60},{"user_id":558,"name":"SDannniel2552","steam_id":76561198064899849,"connected_time":3024000000000,"state":"active","ping":77},{"user_id":590,"name":"they took my shoes","steam_id":76561198142745170,"connected_time":990000000000,"state":"active","ping":68},{"user_id":559,"name":"fatpapi","steam_id":76561198080471834,"connected_time":3019000000000,"state":"active","ping":70},{"user_id":561,"name":"Daso","steam_id":76561198219209367,"connected_time":2972000000000,"state":"active","ping":62},{"user_id":574,"name":"Saucy Boy","steam_id":76561198178332031,"connected_time":2315000000000,"state":"active","ping":71},{"user_id":586,"name":"mu","steam_id":76561197997530228,"connected_time":1210000000000,"state":"active","ping":105},{"user_id":563,"name":"Irony is pretty cringy","steam_id":76561198120391460,"connected_time":2930000000000,"state":"active","ping":90},{"user_id":582,"name":"jooby","steam_id":76561198131065492,"connected_time":1596000000000,"state":"active","ping":57},{"user_id":577,"name":"Dr. Chad Feelgood","steam_id":76561198454077219,"connected_time":1828000000000,"state":"active","ping":64},{"user_id":596,"name":"bong hit transplant","steam_id":76561198109783729,"connected_time":374000000000,"state":"active","ping":45},{"user_id":589,"name":"McDonald's Hashbrown at 4am","steam_id":76561198273769337,"connected_time":1073000000000,"state":"active","ping":55},{"user_id":598,"name":"Ewan","steam_id":76561198817585729,"connected_time":295000000000,"state":"active","ping":146},{"user_id":578,"name":"Testiclees Peesaschmidt","steam_id":76561198050582941,"connected_time":1822000000000,"state":"active","ping":61},{"user_id":572,"name":"verbal","steam_id":76561197969008280,"connected_time":2464000000000,"state":"active","ping":128},{"user_id":499,"name":"Ludcmorais","steam_id":76561198359217809,"connected_time":8195000000000,"state":"active","ping":189},{"user_id":581,"name":"gobbie FASTNESS","steam_id":76561198026865054,"connected_time":1649000000000,"state":"active","ping":69},{"user_id":525,"name":"ALBINO LESBIAN MIDGET","steam_id":76561198122691714,"connected_time":5336000000000,"state":"active","ping":78}]},{"server_id":38,"name":"Uncletopia | Chicago | 7 | Stopwatch Beta","name_short":"chi-7","host":"chi-2.us.uncletopia.com","port":27035,"enabled":true,"region":"us-central","cc":"us","latitude":41.881832,"longitude":-87.62318,"reserved":0,"last_update":"0001-01-01T00:00:00Z","name_a2s":"Uncletopia | Chicago | 7 | Stopwatch Beta","protocol":17,"map":"pl_upward","folder":"tf","game":"Team Fortress","app_id":440,"player_count":0,"max_players":24,"Bots":0,"server_type":"Dedicated","server_os":"Linux","password":true,"vac":true,"version":"7882260","steam_id":85568392924866364,"keywords":["nocrits","nodmgspread","payload","uncletopia"],"game_id":440,"stv_port":27036,"stv_name":"Uncletopia | Chicago | 7 | Stopwatch Beta | STV","players":null},{"server_id":39,"name":"Uncletopia | Chicago | 8 | Community","name_short":"chi-8","host":"chi-2.us.uncletopia.com","port":27045,"enabled":true,"region":"us-central","cc":"us","latitude":41.881832,"longitude":-87.62318,"reserved":0,"last_update":"0001-01-01T00:00:00Z","name_a2s":"Uncletopia | Chicago | 8 | Community","protocol":17,"map":"workshop/cp_villa_b19.ugc2113052569","folder":"tf","game":"Team Fortress","app_id":440,"player_count":0,"max_players":24,"Bots":0,"server_type":"Dedicated","server_os":"Linux","password":true,"vac":true,"version":"7882260","steam_id":85568392924866365,"keywords":["cp","nocrits","nodmgspread","uncletopia"],"game_id":440,"stv_port":27046,"stv_name":"Uncletopia | Chicago | 8 | Community | STV","players":null},{"server_id":8,"name":"Uncletopia | Dallas | 1 | All Maps","name_short":"dal-1","host":"dal-1.us.uncletopia.com","port":27015,"enabled":true,"region":"us-central","cc":"us","latitude":32.779167,"longitude":-96.80889,"reserved":0,"last_update":"0001-01-01T00:00:00Z","name_a2s":"Uncletopia | Dallas | 1 | All Maps","protocol":17,"map":"pl_swiftwater_final1","folder":"tf","game":"Team Fortress","app_id":440,"player_count":24,"max_players":24,"Bots":0,"server_type":"Dedicated","server_os":"Linux","password":true,"vac":true,"version":"7882260","steam_id":85568392924469986,"keywords":["nocrits","nodmgspread","payload","uncletopia"],"game_id":440,"stv_port":27016,"stv_name":"Uncletopia | Dallas | 1 | All Maps | STV","players":[{"user_id":953,"name":"veno","steam_id":76561198110261781,"connected_time":965000000000,"state":"active","ping":56},{"user_id":937,"name":"Saldaña","steam_id":76561198214473001,"connected_time":2257000000000,"state":"active","ping":73},{"user_id":958,"name":"❥TheMainAce","steam_id":76561198363848979,"connected_time":449000000000,"state":"active","ping":54},{"user_id":959,"name":"Eins","steam_id":76561199030343810,"connected_time":440000000000,"state":"active","ping":57},{"user_id":940,"name":"pip","steam_id":76561198193784201,"connected_time":2231000000000,"state":"active","ping":69},{"user_id":960,"name":"ShadowDragon0125","steam_id":76561198343849022,"connected_time":405000000000,"state":"active","ping":72},{"user_id":945,"name":"^5t^6i^5n^6y","steam_id":76561198010743348,"connected_time":1590000000000,"state":"active","ping":36},{"user_id":933,"name":"HellaCopter","steam_id":76561198062313698,"connected_time":2886000000000,"state":"active","ping":97},{"user_id":872,"name":"Ermine","steam_id":76561198072831312,"connected_time":9233000000000,"state":"active","ping":79},{"user_id":939,"name":"ham.","steam_id":76561199059131939,"connected_time":2232000000000,"state":"active","ping":65},{"user_id":955,"name":"DontRunWithScissors","steam_id":76561198079662757,"connected_time":773000000000,"state":"active","ping":90},{"user_id":946,"name":"Octo","steam_id":76561198024056355,"connected_time":1582000000000,"state":"active","ping":76},{"user_id":950,"name":"HmCloud_TTV","steam_id":76561198390473149,"connected_time":1281000000000,"state":"active","ping":68},{"user_id":851,"name":"Elias","steam_id":76561198106431732,"connected_time":11907000000000,"state":"active","ping":60},{"user_id":922,"name":"MoiMoi","steam_id":76561198873850038,"connected_time":3845000000000,"state":"active","ping":76},{"user_id":952,"name":"Magma","steam_id":76561198108261173,"connected_time":1076000000000,"state":"active","ping":77},{"user_id":929,"name":"PirateJet","steam_id":76561198050858744,"connected_time":3068000000000,"state":"active","ping":85},{"user_id":948,"name":"Missing Minus","steam_id":76561198120822928,"connected_time":1557000000000,"state":"active","ping":69},{"user_id":912,"name":"Faefanger","steam_id":76561198201871002,"connected_time":4717000000000,"state":"active","ping":111},{"user_id":964,"name":"cesartele3000","steam_id":76561198142149479,"connected_time":19000000000,"state":"spawning","ping":98},{"user_id":935,"name":"Cogbjörn","steam_id":76561198305487648,"connected_time":2528000000000,"state":"active","ping":65},{"user_id":942,"name":"Did you know?","steam_id":76561199019142767,"connected_time":1981000000000,"state":"active","ping":74},{"user_id":962,"name":"Jack from Jack in The Box","steam_id":76561199083594971,"connected_time":97000000000,"state":"active","ping":68},{"user_id":961,"name":"Bismarck","steam_id":76561198442873012,"connected_time":366000000000,"state":"active","ping":88}]},{"server_id":108,"name":"Uncletopia | Dallas | 2 | All Maps","name_short":"dal-2","host":"dal-1.us.uncletopia.com","port":27025,"enabled":true,"region":"us-central","cc":"us","latitude":32.779167,"longitude":-96.80889,"reserved":0,"last_update":"0001-01-01T00:00:00Z","name_a2s":"Uncletopia | Dallas | 2 | All Maps","protocol":17,"map":"koth_highpass","folder":"tf","game":"Team Fortress","app_id":440,"player_count":0,"max_players":24,"Bots":0,"server_type":"Dedicated","server_os":"Linux","password":true,"vac":true,"version":"7882260","steam_id":85568392924469988,"keywords":["cp","nocrits","nodmgspread","uncletopia"],"game_id":440,"stv_port":27026,"stv_name":"Uncletopia | Dallas | 2 | All Maps | STV","players":null},{"server_id":5,"name":"Uncletopia | Frankfurt | 1 | All Maps","name_short":"frk-1","host":"frk-1.de.uncletopia.com","port":27015,"enabled":true,"region":"eu","cc":"de","latitude":50.110924,"longitude":8.682127,"reserved":0,"last_update":"0001-01-01T00:00:00Z","name_a2s":"Uncletopia | Frankfurt | 1 | All Maps","protocol":17,"map":"pl_pier","folder":"tf","game":"Team Fortress","app_id":440,"player_count":22,"max_players":24,"Bots":0,"server_type":"Dedicated","server_os":"Linux","password":true,"vac":true,"version":"7882260","steam_id":85568392924469989,"keywords":["nocrits","nodmgspread","payload","uncletopia"],"game_id":440,"stv_port":27016,"stv_name":"Uncletopia | Frankfurt | 1 | All Maps | STV","players":[{"user_id":19,"name":"Nyhde","steam_id":76561198012771416,"connected_time":1642000000000,"state":"active","ping":89},{"user_id":20,"name":"Nickel","steam_id":76561199037745941,"connected_time":1581000000000,"state":"active","ping":129},{"user_id":34,"name":"GGabe","steam_id":76561198117199068,"connected_time":1088000000000,"state":"active","ping":75},{"user_id":16,"name":"stunzi","steam_id":76561198931091173,"connected_time":2400000000000,"state":"active","ping":146},{"user_id":22,"name":"Fat Pigeon","steam_id":76561198817940142,"connected_time":1461000000000,"state":"active","ping":60},{"user_id":35,"name":"truebosnianking","steam_id":76561199440060597,"connected_time":1074000000000,"state":"active","ping":74},{"user_id":18,"name":"mt","steam_id":76561197961319303,"connected_time":1810000000000,"state":"active","ping":56},{"user_id":24,"name":"Боевой комар","steam_id":76561198796564094,"connected_time":1434000000000,"state":"active","ping":80},{"user_id":53,"name":"Da bodi do","steam_id":76561198131055184,"connected_time":217000000000,"state":"active","ping":54},{"user_id":31,"name":"Ganasti","steam_id":76561198382925185,"connected_time":1149000000000,"state":"active","ping":100},{"user_id":41,"name":"Flum","steam_id":76561198053394831,"connected_time":876000000000,"state":"active","ping":52},{"user_id":36,"name":"LocalNoob","steam_id":76561199059920084,"connected_time":996000000000,"state":"active","ping":77},{"user_id":33,"name":"arya sh","steam_id":76561199139537113,"connected_time":1123000000000,"state":"active","ping":147},{"user_id":55,"name":"Zachcold33","steam_id":76561199241504842,"connected_time":156000000000,"state":"active","ping":78},{"user_id":52,"name":"Uncle Ryo","steam_id":76561198008733234,"connected_time":409000000000,"state":"active","ping":74},{"user_id":39,"name":"burgerking","steam_id":76561198398022404,"connected_time":915000000000,"state":"active","ping":75},{"user_id":40,"name":"W.","steam_id":76561198097420050,"connected_time":898000000000,"state":"active","ping":57},{"user_id":42,"name":"LOLNUT","steam_id":76561198045713218,"connected_time":840000000000,"state":"active","ping":71},{"user_id":56,"name":"Yeets3er","steam_id":76561199137127757,"connected_time":116000000000,"state":"active","ping":60},{"user_id":45,"name":"Yuzu","steam_id":76561198121694613,"connected_time":639000000000,"state":"active","ping":55},{"user_id":46,"name":"Odyssey","steam_id":76561198085086145,"connected_time":629000000000,"state":"active","ping":62},{"user_id":51,"name":"I am the one who donks","steam_id":76561198419583460,"connected_time":444000000000,"state":"active","ping":55}]},{"server_id":110,"name":"Uncletopia | Frankfurt | 2 | All Maps","name_short":"frk-2","host":"frk-1.de.uncletopia.com","port":27025,"enabled":true,"region":"eu","cc":"de","latitude":50.110924,"longitude":8.682127,"reserved":0,"last_update":"0001-01-01T00:00:00Z","name_a2s":"Uncletopia | Frankfurt | 2 | All Maps","protocol":17,"map":"koth_cascade","folder":"tf","game":"Team Fortress","app_id":440,"player_count":0,"max_players":24,"Bots":0,"server_type":"Dedicated","server_os":"Linux","password":true,"vac":true,"version":"7882260","steam_id":85568392924469990,"keywords":["cp","nocrits","nodmgspread","uncletopia"],"game_id":440,"stv_port":27026,"stv_name":"Uncletopia | Frankfurt | 2 | All Maps | STV","players":null},{"server_id":308,"name":"Uncletopia | Frankfurt | 3 | All Maps","name_short":"frk-3","host":"frk-1.de.uncletopia.com","port":27035,"enabled":true,"region":"eu","cc":"de","latitude":50.110924,"longitude":8.682127,"reserved":0,"last_update":"0001-01-01T00:00:00Z","name_a2s":"Uncletopia | Frankfurt | 3 | All Maps","protocol":17,"map":"koth_lakeside_final","folder":"tf","game":"Team Fortress","app_id":440,"player_count":0,"max_players":24,"Bots":0,"server_type":"Dedicated","server_os":"Linux","password":true,"vac":true,"version":"7882260","steam_id":85568392924504274,"keywords":["cp","nocrits","nodmgspread","uncletopia"],"game_id":440,"stv_port":27036,"stv_name":"Uncletopia | Frankfurt | 3 | All Maps | STV","players":null},{"server_id":309,"name":"Uncletopia | Frankfurt | 4 | All Maps","name_short":"frk-4","host":"frk-1.de.uncletopia.com","port":27045,"enabled":true,"region":"eu","cc":"de","latitude":50.110924,"longitude":8.682127,"reserved":0,"last_update":"0001-01-01T00:00:00Z","name_a2s":"Uncletopia | Frankfurt | 4 | All Maps","protocol":17,"map":"pl_swiftwater_final1","folder":"tf","game":"Team Fortress","app_id":440,"player_count":0,"max_players":24,"Bots":0,"server_type":"Dedicated","server_os":"Linux","password":true,"vac":true,"version":"7882260","steam_id":85568392924504275,"keywords":["nocrits","nodmgspread","payload","uncletopia"],"game_id":440,"stv_port":27046,"stv_name":"Uncletopia | Frankfurt | 4 | All Maps | STV","players":null},{"server_id":310,"name":"Uncletopia | Frankfurt | 5 | All Maps","name_short":"frk-5","host":"frk-1.de.uncletopia.com","port":27055,"enabled":true,"region":"eu","cc":"de","latitude":50.110924,"longitude":8.682127,"reserved":0,"last_update":"0001-01-01T00:00:00Z","name_a2s":"Uncletopia | Frankfurt | 5 | All Maps","protocol":17,"map":"pl_borneo","folder":"tf","game":"Team Fortress","app_id":440,"player_count":0,"max_players":24,"Bots":0,"server_type":"Dedicated","server_os":"Linux","password":true,"vac":true,"version":"7882260","steam_id":85568392924504277,"keywords":["nocrits","nodmgspread","payload","uncletopia"],"game_id":440,"stv_port":27056,"stv_name":"Uncletopia | Frankfurt | 5 | All Maps | STV","players":null},{"server_id":311,"name":"Uncletopia | Frankfurt | 6 | All Maps","name_short":"frk-6","host":"frk-1.de.uncletopia.com","port":27065,"enabled":true,"region":"eu","cc":"de","latitude":50.110924,"longitude":8.682127,"reserved":0,"last_update":"0001-01-01T00:00:00Z","name_a2s":"Uncletopia | Frankfurt | 6 | All Maps","protocol":17,"map":"cp_snakewater_final1","folder":"tf","game":"Team Fortress","app_id":440,"player_count":0,"max_players":24,"Bots":0,"server_type":"Dedicated","server_os":"Linux","password":true,"vac":true,"version":"7882260","steam_id":85568392924504278,"keywords":["cp","nocrits","nodmgspread","uncletopia"],"game_id":440,"stv_port":27066,"stv_name":"Uncletopia | Frankfurt | 6 | All Maps | STV","players":null},{"server_id":23,"name":"Uncletopia | Frankfurt | 7 | Stopwatch Beta","name_short":"frk-7","host":"frk-1.de.uncletopia.com","port":27075,"enabled":true,"region":"eu","cc":"de","latitude":50.110924,"longitude":8.682127,"reserved":0,"last_update":"0001-01-01T00:00:00Z","name_a2s":"Uncletopia | Frankfurt | 7 | Stopwatch Beta","protocol":17,"map":"cp_snakewater_final1","folder":"tf","game":"Team Fortress","app_id":440,"player_count":0,"max_players":24,"Bots":0,"server_type":"Dedicated","server_os":"Linux","password":true,"vac":true,"version":"7882260","steam_id":85568392924742827,"keywords":["cp","nocrits","nodmgspread","uncletopia"],"game_id":440,"stv_port":27076,"stv_name":"Uncletopia | Frankfurt | 7 | Stopwatch Beta | STV","players":null},{"server_id":24,"name":"Uncletopia | Frankfurt | 8 | Community","name_short":"frk-8","host":"frk-1.de.uncletopia.com","port":27085,"enabled":true,"region":"eu","cc":"de","latitude":50.110924,"longitude":8.682127,"reserved":0,"last_update":"0001-01-01T00:00:00Z","name_a2s":"Uncletopia | Frankfurt | 8 | Community","protocol":17,"map":"workshop/cp_sulfur_rc2.ugc619869471","folder":"tf","game":"Team Fortress","app_id":440,"player_count":0,"max_players":24,"Bots":0,"server_type":"Dedicated","server_os":"Linux","password":true,"vac":true,"version":"7882260","steam_id":85568392924742828,"keywords":["cp","nocrits","nodmgspread","uncletopia"],"game_id":440,"stv_port":27086,"stv_name":"Uncletopia | Frankfurt | 8 | Community | STV","players":null},{"server_id":202,"name":"Uncletopia | Hong Kong | 1 | All Maps","name_short":"hgk-1","host":"hgk-1.hk.uncletopia.com","port":27015,"enabled":true,"region":"asia","cc":"hk","latitude":22.302711,"longitude":114.177216,"reserved":0,"last_update":"0001-01-01T00:00:00Z","name_a2s":"Uncletopia | Hong Kong | 1 | All Maps","protocol":17,"map":"pl_upward","folder":"tf","game":"Team Fortress","app_id":440,"player_count":24,"max_players":24,"Bots":0,"server_type":"Dedicated","server_os":"Linux","password":true,"vac":true,"version":"7882260","steam_id":85568392924494504,"keywords":["nocrits","nodmgspread","payload","uncletopia"],"game_id":440,"stv_port":27016,"stv_name":"Uncletopia | Hong Kong | 1 | All Maps | STV","players":[{"user_id":9,"name":"Vortex Swagger","steam_id":76561198833527091,"connected_time":7343000000000,"state":"active","ping":92},{"user_id":50,"name":"Piggy","steam_id":76561199293416159,"connected_time":3204000000000,"state":"active","ping":82},{"user_id":66,"name":"AmaiGai(?)","steam_id":76561199122491157,"connected_time":1610000000000,"state":"active","ping":164},{"user_id":72,"name":"ObscuroLucem","steam_id":76561198875037943,"connected_time":1311000000000,"state":"active","ping":90},{"user_id":71,"name":"BAD PYRO PLAYER","steam_id":76561198074339034,"connected_time":1393000000000,"state":"active","ping":70},{"user_id":77,"name":"Spark037","steam_id":76561198804499872,"connected_time":807000000000,"state":"active","ping":36},{"user_id":47,"name":"gero's boytoy","steam_id":76561199226227211,"connected_time":3422000000000,"state":"active","ping":109},{"user_id":30,"name":"Dr. Piss Rat","steam_id":76561199074809838,"connected_time":4531000000000,"state":"active","ping":70},{"user_id":82,"name":"D43mons","steam_id":76561199162404661,"connected_time":484000000000,"state":"active","ping":104},{"user_id":73,"name":"쿠키","steam_id":76561197997220367,"connected_time":1290000000000,"state":"active","ping":51},{"user_id":32,"name":"water tastes good","steam_id":76561199375947670,"connected_time":4092000000000,"state":"active","ping":67},{"user_id":33,"name":"ふわふわ毛布","steam_id":76561198088403016,"connected_time":4091000000000,"state":"active","ping":97},{"user_id":78,"name":"junbi OK","steam_id":76561198116387218,"connected_time":786000000000,"state":"active","ping":93},{"user_id":83,"name":"wazoo_wezoo","steam_id":76561199068634663,"connected_time":415000000000,"state":"active","ping":93},{"user_id":36,"name":"j_rex","steam_id":76561198132473926,"connected_time":4013000000000,"state":"active","ping":110},{"user_id":84,"name":"soldier number 2","steam_id":76561198163164053,"connected_time":344000000000,"state":"active","ping":128},{"user_id":81,"name":"pinv","steam_id":76561197960290863,"connected_time":677000000000,"state":"active","ping":134},{"user_id":61,"name":"the sex","steam_id":76561198129661272,"connected_time":1662000000000,"state":"active","ping":119},{"user_id":53,"name":"h","steam_id":76561199093572590,"connected_time":3185000000000,"state":"active","ping":62},{"user_id":49,"name":"Stan","steam_id":76561198065671595,"connected_time":3369000000000,"state":"active","ping":36},{"user_id":80,"name":"diss","steam_id":76561199085668965,"connected_time":693000000000,"state":"active","ping":117},{"user_id":55,"name":"23rd","steam_id":76561199014675406,"connected_time":3074000000000,"state":"active","ping":127},{"user_id":59,"name":"Cipher(I_Lag_a_lot_bare_with_me","steam_id":76561198796591492,"connected_time":2333000000000,"state":"active","ping":107},{"user_id":70,"name":"Ai Ohto Gaming","steam_id":76561198972625527,"connected_time":1499000000000,"state":"active","ping":86}]},{"server_id":1,"name":"Uncletopia | Los Angeles | 1 | All Maps","name_short":"lax-1","host":"lax-1.us.uncletopia.com","port":27015,"enabled":true,"region":"us-west","cc":"us","latitude":33.94279,"longitude":-118.41004,"reserved":0,"last_update":"0001-01-01T00:00:00Z","name_a2s":"Uncletopia | Los Angeles | 1 | All Maps","protocol":17,"map":"koth_cascade","folder":"tf","game":"Team Fortress","app_id":440,"player_count":0,"max_players":24,"Bots":0,"server_type":"Dedicated","server_os":"Linux","password":true,"vac":true,"version":"7882260","steam_id":85568392924469991,"keywords":["cp","nocrits","nodmgspread","uncletopia"],"game_id":440,"stv_port":27016,"stv_name":"Uncletopia | Los Angeles | 1 | All Maps | STV","players":null},{"server_id":112,"name":"Uncletopia | Los Angeles | 2 | All Maps","name_short":"lax-2","host":"lax-1.us.uncletopia.com","port":27025,"enabled":true,"region":"us-west","cc":"us","latitude":33.94279,"longitude":-118.41004,"reserved":0,"last_update":"0001-01-01T00:00:00Z","name_a2s":"Uncletopia | Los Angeles | 2 | All Maps","protocol":17,"map":"koth_lakeside_final","folder":"tf","game":"Team Fortress","app_id":440,"player_count":0,"max_players":24,"Bots":0,"server_type":"Dedicated","server_os":"Linux","password":true,"vac":true,"version":"7882260","steam_id":85568392924469992,"keywords":["cp","nocrits","nodmgspread","uncletopia"],"game_id":440,"stv_port":27026,"stv_name":"Uncletopia | Los Angeles | 2 | All Maps | STV","players":null},{"server_id":324,"name":"Uncletopia | Los Angeles | 3 | All Maps","name_short":"lax-3","host":"lax-1.us.uncletopia.com","port":27035,"enabled":true,"region":"us-west","cc":"us","latitude":33.94279,"longitude":-118.41004,"reserved":0,"last_update":"0001-01-01T00:00:00Z","name_a2s":"Uncletopia | Los Angeles | 3 | All Maps","protocol":17,"map":"cp_dustbowl","folder":"tf","game":"Team Fortress","app_id":440,"player_count":24,"max_players":24,"Bots":0,"server_type":"Dedicated","server_os":"Linux","password":true,"vac":true,"version":"7882260","steam_id":85568392924510198,"keywords":["cp","nocrits","nodmgspread","uncletopia"],"game_id":440,"stv_port":27036,"stv_name":"Uncletopia | Los Angeles | 3 | All Maps | STV","players":[{"user_id":530,"name":"Western_dragon","steam_id":76561198130456105,"connected_time":3333000000000,"state":"active","ping":53},{"user_id":549,"name":"Mr. Positive","steam_id":76561198147725777,"connected_time":1852000000000,"state":"active","ping":69},{"user_id":471,"name":"nerdbro","steam_id":76561198858448409,"connected_time":9760000000000,"state":"active","ping":81},{"user_id":523,"name":"_Ati","steam_id":76561198339777801,"connected_time":4372000000000,"state":"active","ping":71},{"user_id":547,"name":"AAGooseman","steam_id":76561198378941369,"connected_time":2602000000000,"state":"active","ping":35},{"user_id":517,"name":"white muslim dane cook","steam_id":76561198000979872,"connected_time":5182000000000,"state":"active","ping":48},{"user_id":550,"name":"Vegan Veal","steam_id":76561198123607452,"connected_time":1779000000000,"state":"active","ping":77},{"user_id":532,"name":"smaerdevahot","steam_id":76561198369075257,"connected_time":3288000000000,"state":"active","ping":87},{"user_id":548,"name":"catgirl giantess in heat","steam_id":76561198439042583,"connected_time":2554000000000,"state":"active","ping":92},{"user_id":511,"name":"Frank Accardi","steam_id":76561198017275707,"connected_time":5581000000000,"state":"active","ping":67},{"user_id":473,"name":"[ØWQJØ]chubacaalatake","steam_id":76561198136201697,"connected_time":9701000000000,"state":"active","ping":89},{"user_id":559,"name":"Joker","steam_id":76561198092711050,"connected_time":648000000000,"state":"active","ping":90},{"user_id":535,"name":"Ian","steam_id":76561198159334435,"connected_time":3265000000000,"state":"active","ping":179},{"user_id":556,"name":"DioMagnus","steam_id":76561198299391327,"connected_time":766000000000,"state":"active","ping":46},{"user_id":418,"name":"Phoenix","steam_id":76561199465534945,"connected_time":13979000000000,"state":"active","ping":80},{"user_id":536,"name":"moopmop","steam_id":76561198065224965,"connected_time":3228000000000,"state":"active","ping":57},{"user_id":537,"name":"Ⓑ⓪⓪ⓣⓨⓒⓐⓚⓔⓢ","steam_id":76561198088776421,"connected_time":3220000000000,"state":"active","ping":106},{"user_id":554,"name":"FI LO","steam_id":76561198976530881,"connected_time":992000000000,"state":"active","ping":41},{"user_id":555,"name":"› We Are You.j2 [NO SOUND]","steam_id":76561197995242200,"connected_time":925000000000,"state":"active","ping":65},{"user_id":540,"name":"lker","steam_id":76561197976975075,"connected_time":3196000000000,"state":"active","ping":88},{"user_id":493,"name":"KiwifruitDev","steam_id":76561198042912823,"connected_time":7744000000000,"state":"active","ping":50},{"user_id":557,"name":"zzZZzz","steam_id":76561198346823843,"connected_time":764000000000,"state":"active","ping":48},{"user_id":542,"name":"Nimro","steam_id":76561198049334200,"connected_time":3119000000000,"state":"active","ping":60},{"user_id":553,"name":"acab","steam_id":76561198062240177,"connected_time":1715000000000,"state":"active","ping":68}]},{"server_id":25,"name":"Uncletopia | Los Angeles | 4 | Stopwatch Beta","name_short":"lax-4","host":"lax-1.us.uncletopia.com","port":27045,"enabled":true,"region":"us-west","cc":"us","latitude":33.94279,"longitude":-118.41004,"reserved":0,"last_update":"0001-01-01T00:00:00Z","name_a2s":"Uncletopia | Los Angeles | 4 | Stopwatch Beta","protocol":17,"map":"koth_viaduct","folder":"tf","game":"Team Fortress","app_id":440,"player_count":0,"max_players":24,"Bots":0,"server_type":"Dedicated","server_os":"Linux","password":true,"vac":true,"version":"7882260","steam_id":85568392924510199,"keywords":["cp","nocrits","nodmgspread","uncletopia"],"game_id":440,"stv_port":27046,"stv_name":"Uncletopia | Los Angeles | 4 | Stopwatch Beta | STV","players":null},{"server_id":11,"name":"Uncletopia | London | 1 | All Maps","name_short":"lon-1","host":"lon-1.uk.uncletopia.com","port":27015,"enabled":true,"region":"eu","cc":"gb","latitude":51.509865,"longitude":-0.118092,"reserved":0,"last_update":"0001-01-01T00:00:00Z","name_a2s":"Uncletopia | London | 1 | All Maps","protocol":17,"map":"pl_pier","folder":"tf","game":"Team Fortress","app_id":440,"player_count":22,"max_players":24,"Bots":0,"server_type":"Dedicated","server_os":"Linux","password":true,"vac":true,"version":"7882260","steam_id":85568392924367362,"keywords":["nocrits","nodmgspread","payload","uncletopia"],"game_id":440,"stv_port":27016,"stv_name":"Uncletopia | London | 1 | All Maps | STV","players":[{"user_id":98,"name":"Virgil","steam_id":76561198248786778,"connected_time":4447000000000,"state":"active","ping":116},{"user_id":116,"name":"Faxter","steam_id":76561198011771605,"connected_time":2888000000000,"state":"active","ping":74},{"user_id":117,"name":"Neimon","steam_id":76561198343485710,"connected_time":2842000000000,"state":"active","ping":121},{"user_id":146,"name":"I fart on the disabled","steam_id":76561198388750592,"connected_time":374000000000,"state":"active","ping":69},{"user_id":126,"name":"the man","steam_id":76561199071710430,"connected_time":2188000000000,"state":"active","ping":104},{"user_id":141,"name":"Gigachad_floppa","steam_id":76561199063325086,"connected_time":1136000000000,"state":"active","ping":72},{"user_id":134,"name":"Cynosure","steam_id":76561198121286517,"connected_time":1634000000000,"state":"active","ping":32},{"user_id":147,"name":"Pinochet","steam_id":76561198194042394,"connected_time":336000000000,"state":"active","ping":154},{"user_id":137,"name":"Бархатные тяги, К","steam_id":76561198214926087,"connected_time":1378000000000,"state":"active","ping":95},{"user_id":96,"name":"Mal","steam_id":76561198262337669,"connected_time":4518000000000,"state":"active","ping":71},{"user_id":131,"name":"Stigurna","steam_id":76561198063906822,"connected_time":1645000000000,"state":"active","ping":90},{"user_id":135,"name":"jmp","steam_id":76561198168283286,"connected_time":1595000000000,"state":"active","ping":76},{"user_id":138,"name":"Helon","steam_id":76561198050761682,"connected_time":1212000000000,"state":"active","ping":63},{"user_id":148,"name":"Larry Penus","steam_id":76561198207546233,"connected_time":307000000000,"state":"active","ping":45},{"user_id":99,"name":"Dog ?","steam_id":76561198347020945,"connected_time":4396000000000,"state":"active","ping":92},{"user_id":136,"name":"Reprobus","steam_id":76561198332243756,"connected_time":1431000000000,"state":"active","ping":68},{"user_id":151,"name":"Perämiehenä","steam_id":76561197968945306,"connected_time":218000000000,"state":"active","ping":75},{"user_id":149,"name":"marvs","steam_id":76561198851777617,"connected_time":247000000000,"state":"active","ping":45},{"user_id":150,"name":"minn","steam_id":76561198099101232,"connected_time":234000000000,"state":"active","ping":53},{"user_id":144,"name":"{YS} simp for catgirls","steam_id":76561198267463398,"connected_time":850000000000,"state":"active","ping":62},{"user_id":113,"name":"Acbh","steam_id":76561198158271672,"connected_time":3048000000000,"state":"active","ping":74},{"user_id":140,"name":"ÃNVS DRÃNVS","steam_id":76561198138733015,"connected_time":1157000000000,"state":"active","ping":120}]},{"server_id":114,"name":"Uncletopia | London | 2 | All Maps","name_short":"lon-2","host":"lon-1.uk.uncletopia.com","port":27025,"enabled":true,"region":"eu","cc":"gb","latitude":51.509865,"longitude":-0.118092,"reserved":0,"last_update":"0001-01-01T00:00:00Z","name_a2s":"Uncletopia | London | 2 | All Maps","protocol":17,"map":"koth_highpass","folder":"tf","game":"Team Fortress","app_id":440,"player_count":0,"max_players":24,"Bots":0,"server_type":"Dedicated","server_os":"Linux","password":true,"vac":true,"version":"7882260","steam_id":85568392924470941,"keywords":["cp","nocrits","nodmgspread","uncletopia"],"game_id":440,"stv_port":27026,"stv_name":"Uncletopia | London | 2 | All Maps | STV","players":null},{"server_id":320,"name":"Uncletopia | London | 3 | All Maps","name_short":"lon-3","host":"lon-1.uk.uncletopia.com","port":27035,"enabled":true,"region":"eu","cc":"gb","latitude":51.509865,"longitude":-0.118092,"reserved":0,"last_update":"0001-01-01T00:00:00Z","name_a2s":"Uncletopia | London | 3 | All Maps","protocol":17,"map":"pl_barnblitz","folder":"tf","game":"Team Fortress","app_id":440,"player_count":0,"max_players":24,"Bots":0,"server_type":"Dedicated","server_os":"Linux","password":true,"vac":true,"version":"7882260","steam_id":85568392924510192,"keywords":["nocrits","nodmgspread","payload","uncletopia"],"game_id":440,"stv_port":27036,"stv_name":"Uncletopia | London | 3 | All Maps | STV","players":null},{"server_id":321,"name":"Uncletopia | London | 4 | All Maps","name_short":"lon-4","host":"lon-1.uk.uncletopia.com","port":27045,"enabled":true,"region":"eu","cc":"gb","latitude":51.509865,"longitude":-0.118092,"reserved":0,"last_update":"0001-01-01T00:00:00Z","name_a2s":"Uncletopia | London | 4 | All Maps","protocol":17,"map":"cp_dustbowl","folder":"tf","game":"Team Fortress","app_id":440,"player_count":0,"max_players":24,"Bots":0,"server_type":"Dedicated","server_os":"Linux","password":true,"vac":true,"version":"7882260","steam_id":85568392924510193,"keywords":["cp","nocrits","nodmgspread","uncletopia"],"game_id":440,"stv_port":27046,"stv_name":"Uncletopia | London | 4 | All Maps | STV","players":null},{"server_id":21,"name":"Uncletopia | London | 5 | All Maps","name_short":"lon-5","host":"lon-1.uk.uncletopia.com","port":27055,"enabled":true,"region":"eu","cc":"gb","latitude":51.509865,"longitude":-0.118092,"reserved":0,"last_update":"0001-01-01T00:00:00Z","name_a2s":"Uncletopia | London | 5 | All Maps","protocol":17,"map":"koth_viaduct","folder":"tf","game":"Team Fortress","app_id":440,"player_count":0,"max_players":24,"Bots":0,"server_type":"Dedicated","server_os":"Linux","password":true,"vac":true,"version":"7882260","steam_id":85568392924742829,"keywords":["cp","nocrits","nodmgspread","uncletopia"],"game_id":440,"stv_port":27056,"stv_name":"Uncletopia | London | 5 | All Maps | STV","players":null},{"server_id":22,"name":"Uncletopia | London | 6 | All Maps","name_short":"lon-6","host":"lon-1.uk.uncletopia.com","port":27065,"enabled":true,"region":"eu","cc":"gb","latitude":51.509865,"longitude":-0.118092,"reserved":0,"last_update":"0001-01-01T00:00:00Z","name_a2s":"Uncletopia | London | 6 | All Maps","protocol":17,"map":"koth_lakeside_final","folder":"tf","game":"Team Fortress","app_id":440,"player_count":0,"max_players":24,"Bots":0,"server_type":"Dedicated","server_os":"Linux","password":true,"vac":true,"version":"7882260","steam_id":85568392924742830,"keywords":["cp","nocrits","nodmgspread","uncletopia"],"game_id":440,"stv_port":27066,"stv_name":"Uncletopia | London | 6 | All Maps | STV","players":null},{"server_id":40,"name":"Uncletopia | London | 7 | No Payload","name_short":"lon-7","host":"lon-1.uk.uncletopia.com","port":27075,"enabled":true,"region":"eu","cc":"gb","latitude":51.509865,"longitude":-0.118092,"reserved":0,"last_update":"0001-01-01T00:00:00Z","name_a2s":"Uncletopia | London | 7 | No Payload","protocol":17,"map":"pl_upward","folder":"tf","game":"Team Fortress","app_id":440,"player_count":0,"max_players":24,"Bots":0,"server_type":"Dedicated","server_os":"Linux","password":true,"vac":true,"version":"7882260","steam_id":85568392924964314,"keywords":["nocrits","nodmgspread","payload","uncletopia"],"game_id":440,"stv_port":27076,"stv_name":"Uncletopia | London | 7 | No Payload | STV","players":null},{"server_id":41,"name":"Uncletopia | London | 8 | Community","name_short":"lon-8","host":"lon-1.uk.uncletopia.com","port":27085,"enabled":true,"region":"eu","cc":"gb","latitude":51.509865,"longitude":-0.118092,"reserved":0,"last_update":"0001-01-01T00:00:00Z","name_a2s":"Uncletopia | London | 8 | Community","protocol":17,"map":"pl_upward","folder":"tf","game":"Team Fortress","app_id":440,"player_count":1,"max_players":24,"Bots":0,"server_type":"Dedicated","server_os":"Linux","password":true,"vac":true,"version":"7882260","steam_id":85568392924964315,"keywords":["nocrits","nodmgspread","payload","uncletopia"],"game_id":440,"stv_port":27086,"stv_name":"Uncletopia | London | 8 | Community | STV","players":[{"user_id":3,"name":"tummaluppo","steam_id":76561198093458326,"connected_time":42000000000,"state":"active","ping":62}]},{"server_id":300,"name":"Uncletopia | Montréal | 1 | All Maps","name_short":"mtl-1","host":"mtl-1.ca.uncletopia.com","port":27015,"enabled":true,"region":"us-east","cc":"ca","latitude":45.50889,"longitude":-73.56167,"reserved":0,"last_update":"0001-01-01T00:00:00Z","name_a2s":"Uncletopia | Montréal | 1 | All Maps","protocol":17,"map":"koth_lakeside_final","folder":"tf","game":"Team Fortress","app_id":440,"player_count":0,"max_players":24,"Bots":0,"server_type":"Dedicated","server_os":"Linux","password":true,"vac":true,"version":"7882260","steam_id":85568392924500087,"keywords":["cp","nocrits","nodmgspread","uncletopia"],"game_id":440,"stv_port":27016,"stv_name":"Uncletopia | Montréal | 1 | All Maps | STV","players":null},{"server_id":301,"name":"Uncletopia | Montréal | 2 | All Maps","name_short":"mtl-2","host":"mtl-1.ca.uncletopia.com","port":27025,"enabled":true,"region":"us-east","cc":"ca","latitude":45.50889,"longitude":-73.56167,"reserved":0,"last_update":"0001-01-01T00:00:00Z","name_a2s":"Uncletopia | Montréal | 2 | All Maps","protocol":17,"map":"pl_badwater","folder":"tf","game":"Team Fortress","app_id":440,"player_count":0,"max_players":24,"Bots":0,"server_type":"Dedicated","server_os":"Linux","password":true,"vac":true,"version":"7882260","steam_id":85568392924500088,"keywords":["nocrits","nodmgspread","payload","uncletopia"],"game_id":440,"stv_port":27026,"stv_name":"Uncletopia | Montréal | 2 | All Maps | STV","players":null},{"server_id":302,"name":"Uncletopia | Montréal | 3 | All Maps","name_short":"mtl-3","host":"mtl-1.ca.uncletopia.com","port":27035,"enabled":true,"region":"us-east","cc":"ca","latitude":45.50889,"longitude":-73.56167,"reserved":0,"last_update":"0001-01-01T00:00:00Z","name_a2s":"Uncletopia | Montréal | 3 | All Maps","protocol":17,"map":"koth_viaduct","folder":"tf","game":"Team Fortress","app_id":440,"player_count":0,"max_players":24,"Bots":0,"server_type":"Dedicated","server_os":"Linux","password":true,"vac":true,"version":"7882260","steam_id":85568392924500089,"keywords":["cp","nocrits","nodmgspread","uncletopia"],"game_id":440,"stv_port":27036,"stv_name":"Uncletopia | Montréal | 3 | All Maps | STV","players":null},{"server_id":303,"name":"Uncletopia | Montréal | 4 | No Payload","name_short":"mtl-4","host":"mtl-1.ca.uncletopia.com","port":27045,"enabled":true,"region":"us-east","cc":"ca","latitude":45.50889,"longitude":-73.56167,"reserved":0,"last_update":"0001-01-01T00:00:00Z","name_a2s":"Uncletopia | Montréal | 4 | No Payload","protocol":17,"map":"cp_vanguard","folder":"tf","game":"Team Fortress","app_id":440,"player_count":0,"max_players":24,"Bots":0,"server_type":"Dedicated","server_os":"Linux","password":true,"vac":true,"version":"7882260","steam_id":85568392924500090,"keywords":["cp","nocrits","nodmgspread","uncletopia"],"game_id":440,"stv_port":27046,"stv_name":"Uncletopia | Montréal | 4 | No Payload | STV","players":null},{"server_id":13,"name":"Uncletopia | New York City | 1 | All Maps","name_short":"nyc-1","host":"nyc-1.us.uncletopia.com","port":27015,"enabled":true,"region":"us-east","cc":"us","latitude":40.73061,"longitude":-73.93524,"reserved":0,"last_update":"0001-01-01T00:00:00Z","name_a2s":"Uncletopia | New York City | 1 | All Maps","protocol":17,"map":"koth_lakeside_final","folder":"tf","game":"Team Fortress","app_id":440,"player_count":0,"max_players":24,"Bots":0,"server_type":"Dedicated","server_os":"Linux","password":true,"vac":true,"version":"7882260","steam_id":85568392924469993,"keywords":["cp","nocrits","nodmgspread","uncletopia"],"game_id":440,"stv_port":27016,"stv_name":"Uncletopia | New York City | 1 | All Maps | STV","players":null},{"server_id":14,"name":"Uncletopia | New York City | 2 | All Maps","name_short":"nyc-2","host":"nyc-1.us.uncletopia.com","port":27025,"enabled":true,"region":"us-east","cc":"us","latitude":40.73061,"longitude":-73.93524,"reserved":0,"last_update":"0001-01-01T00:00:00Z","name_a2s":"Uncletopia | New York City | 2 | All Maps","protocol":17,"map":"cp_mountainlab","folder":"tf","game":"Team Fortress","app_id":440,"player_count":0,"max_players":24,"Bots":0,"server_type":"Dedicated","server_os":"Linux","password":true,"vac":true,"version":"7882260","steam_id":85568392924469994,"keywords":["cp","nocrits","nodmgspread","uncletopia"],"game_id":440,"stv_port":27026,"stv_name":"Uncletopia | New York City | 2 | All Maps | STV","players":null},{"server_id":15,"name":"Uncletopia | New York City | 3 | Stopwatch Beta","name_short":"nyc-3","host":"nyc-1.us.uncletopia.com","port":27035,"enabled":true,"region":"us-east","cc":"us","latitude":40.73061,"longitude":-73.93524,"reserved":0,"last_update":"0001-01-01T00:00:00Z","name_a2s":"Uncletopia | New York City | 3 | Stopwatch Beta","protocol":17,"map":"koth_highpass","folder":"tf","game":"Team Fortress","app_id":440,"player_count":0,"max_players":24,"Bots":0,"server_type":"Dedicated","server_os":"Linux","password":true,"vac":true,"version":"7882260","steam_id":85568392924742820,"keywords":["cp","nocrits","nodmgspread","uncletopia"],"game_id":440,"stv_port":27036,"stv_name":"Uncletopia | New York City | 3 | Stopwatch Beta | STV","players":null},{"server_id":16,"name":"Uncletopia | New York City | 4 | Community","name_short":"nyc-4","host":"nyc-1.us.uncletopia.com","port":27045,"enabled":true,"region":"us-east","cc":"us","latitude":40.73061,"longitude":-73.93524,"reserved":0,"last_update":"0001-01-01T00:00:00Z","name_a2s":"Uncletopia | New York City | 4 | Community","protocol":17,"map":"workshop/koth_slaughter_rc1.ugc1712845210","folder":"tf","game":"Team Fortress","app_id":440,"player_count":0,"max_players":24,"Bots":0,"server_type":"Dedicated","server_os":"Linux","password":true,"vac":true,"version":"7882260","steam_id":85568392924742821,"keywords":["cp","nocrits","nodmgspread","uncletopia"],"game_id":440,"stv_port":27046,"stv_name":"Uncletopia | New York City | 4 | Community | STV","players":null},{"server_id":142,"name":"Uncletopia | São Paulo | 1 | All Maps","name_short":"sao-1","host":"sao-1.br.uncletopia.com","port":27015,"enabled":true,"region":"sa","cc":"br","latitude":-23.533773,"longitude":-46.62529,"reserved":0,"last_update":"0001-01-01T00:00:00Z","name_a2s":"Uncletopia | São Paulo | 1 | All Maps","protocol":17,"map":"pl_upward","folder":"tf","game":"Team Fortress","app_id":440,"player_count":0,"max_players":24,"Bots":0,"server_type":"Dedicated","server_os":"Linux","password":true,"vac":true,"version":"7882260","steam_id":85568392924469996,"keywords":["nocrits","nodmgspread","payload","uncletopia"],"game_id":440,"stv_port":27016,"stv_name":"Uncletopia | São Paulo | 1 | All Maps | STV","players":null},{"server_id":143,"name":"Uncletopia | São Paulo | 2 | All Maps","name_short":"sao-2","host":"sao-2.br.uncletopia.com","port":27015,"enabled":true,"region":"sa","cc":"br","latitude":-23.533773,"longitude":-46.62529,"reserved":0,"last_update":"0001-01-01T00:00:00Z","name_a2s":"Uncletopia | São Paulo | 2 | All Maps","protocol":17,"map":"cp_process_final","folder":"tf","game":"Team Fortress","app_id":440,"player_count":0,"max_players":24,"Bots":0,"server_type":"Dedicated","server_os":"Linux","password":true,"vac":true,"version":"7882260","steam_id":85568392924485349,"keywords":["cp","nocrits","nodmgspread","uncletopia"],"game_id":440,"stv_port":27016,"stv_name":"Uncletopia | São Paulo | 2 | All Maps | STV","players":null},{"server_id":7,"name":"Uncletopia | Seattle | 1 | All Maps","name_short":"sea-1","host":"sea-1.us.uncletopia.com","port":27015,"enabled":true,"region":"us-west","cc":"us","latitude":47.608013,"longitude":-122.33517,"reserved":0,"last_update":"0001-01-01T00:00:00Z","name_a2s":"Uncletopia | Seattle | 1 | All Maps","protocol":17,"map":"koth_lakeside_final","folder":"tf","game":"Team Fortress","app_id":440,"player_count":0,"max_players":24,"Bots":0,"server_type":"Dedicated","server_os":"Linux","password":true,"vac":true,"version":"7882260","steam_id":85568392924469997,"keywords":["cp","nocrits","nodmgspread","uncletopia"],"game_id":440,"stv_port":27016,"stv_name":"Uncletopia | Seattle | 1 | All Maps | STV","players":null},{"server_id":119,"name":"Uncletopia | Seattle | 2 | All Maps","name_short":"sea-2","host":"sea-1.us.uncletopia.com","port":27025,"enabled":true,"region":"us-west","cc":"us","latitude":47.608013,"longitude":-122.33517,"reserved":0,"last_update":"0001-01-01T00:00:00Z","name_a2s":"Uncletopia | Seattle | 2 | All Maps","protocol":17,"map":"pl_frontier_final","folder":"tf","game":"Team Fortress","app_id":440,"player_count":24,"max_players":24,"Bots":0,"server_type":"Dedicated","server_os":"Linux","password":true,"vac":true,"version":"7882260","steam_id":85568392924469998,"keywords":["nocrits","nodmgspread","payload","uncletopia"],"game_id":440,"stv_port":27026,"stv_name":"Uncletopia | Seattle | 2 | All Maps | STV","players":[{"user_id":687,"name":"Faye","steam_id":76561198112184924,"connected_time":13744000000000,"state":"active","ping":158},{"user_id":829,"name":"basil smoking weed","steam_id":76561198119590214,"connected_time":2409000000000,"state":"active","ping":110},{"user_id":845,"name":"Mafa47","steam_id":76561198311339643,"connected_time":1391000000000,"state":"active","ping":122},{"user_id":846,"name":"toes","steam_id":76561198221151676,"connected_time":1368000000000,"state":"active","ping":61},{"user_id":826,"name":"gorlab","steam_id":76561198025089694,"connected_time":2685000000000,"state":"active","ping":60},{"user_id":685,"name":"Cyaniday","steam_id":76561198302051082,"connected_time":13767000000000,"state":"active","ping":66},{"user_id":825,"name":"goldhed","steam_id":76561198051751133,"connected_time":2778000000000,"state":"active","ping":54},{"user_id":830,"name":"Mentle","steam_id":76561198097756829,"connected_time":2408000000000,"state":"active","ping":55},{"user_id":814,"name":"Callahan","steam_id":76561197976928457,"connected_time":3754000000000,"state":"active","ping":53},{"user_id":841,"name":"lite","steam_id":76561198041535914,"connected_time":1863000000000,"state":"active","ping":85},{"user_id":849,"name":"maddieline","steam_id":76561198018674125,"connected_time":825000000000,"state":"active","ping":52},{"user_id":832,"name":"rose","steam_id":76561197995200743,"connected_time":2242000000000,"state":"active","ping":64},{"user_id":843,"name":"Drapph","steam_id":76561199384213314,"connected_time":1567000000000,"state":"active","ping":105},{"user_id":840,"name":"Vintage Collector Dox","steam_id":76561198240339332,"connected_time":1940000000000,"state":"active","ping":116},{"user_id":801,"name":"SCUD missile up your ass","steam_id":76561198066452726,"connected_time":4635000000000,"state":"active","ping":75},{"user_id":819,"name":"Generator","steam_id":76561198011762257,"connected_time":3459000000000,"state":"active","ping":132},{"user_id":790,"name":"Reaptiles","steam_id":76561198414817784,"connected_time":5465000000000,"state":"active","ping":37},{"user_id":752,"name":"Bagoool","steam_id":76561198065368286,"connected_time":9159000000000,"state":"active","ping":70},{"user_id":851,"name":"Dob Bole","steam_id":76561198056367220,"connected_time":410000000000,"state":"active","ping":75},{"user_id":848,"name":"Freddy fazbear","steam_id":76561199247095754,"connected_time":1343000000000,"state":"active","ping":64},{"user_id":822,"name":"JamesBlakeFan11","steam_id":76561198440539769,"connected_time":3323000000000,"state":"active","ping":74},{"user_id":850,"name":"Cylia","steam_id":76561198127716804,"connected_time":616000000000,"state":"active","ping":64},{"user_id":776,"name":"Rommel2007","steam_id":76561198041744631,"connected_time":7157000000000,"state":"active","ping":82},{"user_id":804,"name":"Yummy Kabobz","steam_id":76561198067661705,"connected_time":4483000000000,"state":"active","ping":120}]},{"server_id":406,"name":"Uncletopia | Seattle | 3 | Stopwatch Beta","name_short":"sea-3","host":"sea-1.us.uncletopia.com","port":27035,"enabled":true,"region":"us-west","cc":"us","latitude":47.608013,"longitude":-122.33517,"reserved":0,"last_update":"0001-01-01T00:00:00Z","name_a2s":"Uncletopia | Seattle | 3 | Stopwatch Beta","protocol":17,"map":"workshop/pl_summercoast_rc8e.ugc1761528829","folder":"tf","game":"Team Fortress","app_id":440,"player_count":0,"max_players":24,"Bots":0,"server_type":"Dedicated","server_os":"Linux","password":true,"vac":true,"version":"7882260","steam_id":85568392924515217,"keywords":["nocrits","nodmgspread","payload","uncletopia"],"game_id":440,"stv_port":27036,"stv_name":"Uncletopia | Seattle | 3 | Stopwatch Beta | STV","players":null},{"server_id":17,"name":"Uncletopia | San Francisco | 1 | All Maps","name_short":"sfo-1","host":"sfo-1.us.uncletopia.com","port":27015,"enabled":true,"region":"us-west","cc":"us","latitude":37.77397,"longitude":-122.4313,"reserved":0,"last_update":"0001-01-01T00:00:00Z","name_a2s":"Uncletopia | San Francisco | 1 | All Maps","protocol":17,"map":"koth_viaduct","folder":"tf","game":"Team Fortress","app_id":440,"player_count":0,"max_players":24,"Bots":0,"server_type":"Dedicated","server_os":"Linux","password":true,"vac":true,"version":"7882260","steam_id":85568392924469999,"keywords":["cp","nocrits","nodmgspread","uncletopia"],"game_id":440,"stv_port":27016,"stv_name":"Uncletopia | San Francisco | 1 | All Maps | STV","players":null},{"server_id":18,"name":"Uncletopia | San Francisco | 2 | All Maps","name_short":"sfo-2","host":"sfo-1.us.uncletopia.com","port":27025,"enabled":true,"region":"us-west","cc":"us","latitude":37.77397,"longitude":-122.4313,"reserved":0,"last_update":"0001-01-01T00:00:00Z","name_a2s":"Uncletopia | San Francisco | 2 | All Maps","protocol":17,"map":"koth_harvest_final","folder":"tf","game":"Team Fortress","app_id":440,"player_count":0,"max_players":24,"Bots":0,"server_type":"Dedicated","server_os":"Linux","password":true,"vac":true,"version":"7882260","steam_id":85568392924470000,"keywords":["cp","nocrits","nodmgspread","uncletopia"],"game_id":440,"stv_port":27026,"stv_name":"Uncletopia | San Francisco | 2 | All Maps | STV","players":null},{"server_id":19,"name":"Uncletopia | San Francisco | 3 | Stopwatch Beta","name_short":"sfo-3","host":"sfo-1.us.uncletopia.com","port":27035,"enabled":true,"region":"us-west","cc":"us","latitude":37.77397,"longitude":-122.4313,"reserved":0,"last_update":"0001-01-01T00:00:00Z","name_a2s":"Uncletopia | San Francisco | 3 | Stopwatch Beta","protocol":17,"map":"pl_snowycoast","folder":"tf","game":"Team Fortress","app_id":440,"player_count":0,"max_players":24,"Bots":0,"server_type":"Dedicated","server_os":"Linux","password":true,"vac":true,"version":"7882260","steam_id":85568392924742824,"keywords":["nocrits","nodmgspread","payload","uncletopia"],"game_id":440,"stv_port":27036,"stv_name":"Uncletopia | San Francisco | 3 | Stopwatch Beta | STV","players":null},{"server_id":20,"name":"Uncletopia | San Francisco | 4 | Community","name_short":"sfo-4","host":"sfo-1.us.uncletopia.com","port":27045,"enabled":true,"region":"us-west","cc":"us","latitude":37.77397,"longitude":-122.4313,"reserved":0,"last_update":"0001-01-01T00:00:00Z","name_a2s":"Uncletopia | San Francisco | 4 | Community","protocol":17,"map":"workshop/koth_ramjam_rc1.ugc459778887","folder":"tf","game":"Team Fortress","app_id":440,"player_count":0,"max_players":24,"Bots":0,"server_type":"Dedicated","server_os":"Linux","password":true,"vac":true,"version":"7882260","steam_id":85568392924742826,"keywords":["cp","nocrits","nodmgspread","uncletopia"],"game_id":440,"stv_port":27046,"stv_name":"Uncletopia | San Francisco | 4 | Community | STV","players":null},{"server_id":141,"name":"Uncletopia | Sydney | 1 | All Maps","name_short":"syd-1","host":"syd-1.au.uncletopia.com","port":27015,"enabled":true,"region":"au","cc":"au","latitude":-33.865143,"longitude":151.2099,"reserved":0,"last_update":"0001-01-01T00:00:00Z","name_a2s":"Uncletopia | Sydney | 1 | All Maps","protocol":17,"map":"pl_upward","folder":"tf","game":"Team Fortress","app_id":440,"player_count":24,"max_players":24,"Bots":0,"server_type":"Dedicated","server_os":"Linux","password":true,"vac":true,"version":"7882260","steam_id":85568392924470001,"keywords":["nocrits","nodmgspread","payload","uncletopia"],"game_id":440,"stv_port":27016,"stv_name":"Uncletopia | Sydney | 1 | All Maps | STV","players":[{"user_id":204,"name":"Kevin Parker","steam_id":76561198060677406,"connected_time":2706000000000,"state":"active","ping":88},{"user_id":223,"name":"Paniken Skywalker","steam_id":76561198057265615,"connected_time":1178000000000,"state":"active","ping":71},{"user_id":221,"name":"miyamoto is daddy","steam_id":76561199483818230,"connected_time":1505000000000,"state":"active","ping":80},{"user_id":222,"name":"GANGBANG MAN","steam_id":76561198061201028,"connected_time":1422000000000,"state":"active","ping":44},{"user_id":213,"name":"4-Star Yelp Review","steam_id":76561197995258180,"connected_time":2100000000000,"state":"active","ping":56},{"user_id":224,"name":"wombraidre","steam_id":76561199375834537,"connected_time":1122000000000,"state":"active","ping":123},{"user_id":225,"name":"Aquila","steam_id":76561198042520637,"connected_time":1121000000000,"state":"active","ping":42},{"user_id":234,"name":"timboe","steam_id":76561198003442007,"connected_time":205000000000,"state":"active","ping":50},{"user_id":228,"name":"the rodent","steam_id":76561198140069003,"connected_time":1084000000000,"state":"active","ping":92},{"user_id":162,"name":"Jodelkönig Franzl Lang","steam_id":76561198007667830,"connected_time":6875000000000,"state":"active","ping":54},{"user_id":233,"name":"little raw meat boy","steam_id":76561199248254676,"connected_time":665000000000,"state":"active","ping":60},{"user_id":227,"name":"DropBearWarrior","steam_id":76561198352774039,"connected_time":1106000000000,"state":"active","ping":73},{"user_id":200,"name":"sweet","steam_id":76561198075311236,"connected_time":3162000000000,"state":"active","ping":56},{"user_id":184,"name":"CypressFluff (She/Her)","steam_id":76561198174667818,"connected_time":4784000000000,"state":"active","ping":58},{"user_id":137,"name":"Sentry Gun (EpicGuy4227)","steam_id":76561198094132328,"connected_time":8471000000000,"state":"active","ping":68},{"user_id":187,"name":"Abraham Lincoln","steam_id":76561198095292515,"connected_time":4253000000000,"state":"active","ping":69},{"user_id":185,"name":"vent","steam_id":76561197984081096,"connected_time":4292000000000,"state":"active","ping":68},{"user_id":229,"name":"Craig1532","steam_id":76561198024231625,"connected_time":1063000000000,"state":"active","ping":61},{"user_id":189,"name":"whiteshaq","steam_id":76561198131988811,"connected_time":4183000000000,"state":"active","ping":47},{"user_id":231,"name":"cibo","steam_id":76561198798929932,"connected_time":690000000000,"state":"active","ping":72},{"user_id":219,"name":"The Goon","steam_id":76561198434696450,"connected_time":1685000000000,"state":"active","ping":159},{"user_id":173,"name":"Marmalade Cat","steam_id":76561198086309767,"connected_time":5993000000000,"state":"active","ping":62},{"user_id":129,"name":"Zoey","steam_id":76561198126153554,"connected_time":8941000000000,"state":"active","ping":77},{"user_id":210,"name":"Jiffy360","steam_id":76561198149550772,"connected_time":2109000000000,"state":"active","ping":93}]},{"server_id":123,"name":"Uncletopia | Sydney | 2 | All Maps","name_short":"syd-2","host":"syd-1.au.uncletopia.com","port":27025,"enabled":true,"region":"au","cc":"au","latitude":-33.865143,"longitude":151.2099,"reserved":0,"last_update":"0001-01-01T00:00:00Z","name_a2s":"Uncletopia | Sydney | 2 | All Maps","protocol":17,"map":"cp_dustbowl","folder":"tf","game":"Team Fortress","app_id":440,"player_count":0,"max_players":24,"Bots":0,"server_type":"Dedicated","server_os":"Linux","password":true,"vac":true,"version":"7882260","steam_id":85568392924470002,"keywords":["cp","nocrits","nodmgspread","uncletopia"],"game_id":440,"stv_port":27026,"stv_name":"Uncletopia | Sydney | 2 | All Maps | STV","players":null},{"server_id":395,"name":"Uncletopia | Sydney | 3 | All Maps","name_short":"syd-3","host":"syd-1.au.uncletopia.com","port":27035,"enabled":true,"region":"au","cc":"au","latitude":-33.865143,"longitude":151.2099,"reserved":0,"last_update":"0001-01-01T00:00:00Z","name_a2s":"Uncletopia | Sydney | 3 | All Maps","protocol":17,"map":"cp_process_final","folder":"tf","game":"Team Fortress","app_id":440,"player_count":0,"max_players":24,"Bots":0,"server_type":"Dedicated","server_os":"Linux","password":true,"vac":true,"version":"7882260","steam_id":85568392925194467,"keywords":["cp","nocrits","nodmgspread","uncletopia"],"game_id":440,"stv_port":27036,"stv_name":"Uncletopia | Sydney | 3 | All Maps | STV","players":null},{"server_id":396,"name":"Uncletopia | Sydney | 4 | All Maps","name_short":"syd-4","host":"syd-1.au.uncletopia.com","port":27045,"enabled":true,"region":"au","cc":"au","latitude":-33.865143,"longitude":151.2099,"reserved":0,"last_update":"0001-01-01T00:00:00Z","name_a2s":"Uncletopia | Sydney | 4 | All Maps","protocol":17,"map":"pl_snowycoast","folder":"tf","game":"Team Fortress","app_id":440,"player_count":0,"max_players":24,"Bots":0,"server_type":"Dedicated","server_os":"Linux","password":true,"vac":true,"version":"7882260","steam_id":85568392925397958,"keywords":["nocrits","nodmgspread","payload","uncletopia"],"game_id":440,"stv_port":27046,"stv_name":"Uncletopia | Sydney | 4 | All Maps | STV","players":null},{"server_id":58,"name":"Uncletopia | Sydney | 5 | Stopwatch Beta","name_short":"syd-5","host":"syd-1.au.uncletopia.com","port":27055,"enabled":true,"region":"au","cc":"au","latitude":-33.865143,"longitude":151.2099,"reserved":0,"last_update":"0001-01-01T00:00:00Z","name_a2s":"Uncletopia | Sydney | 5 | Stopwatch Beta","protocol":17,"map":"koth_viaduct","folder":"tf","game":"Team Fortress","app_id":440,"player_count":0,"max_players":24,"Bots":0,"server_type":"Dedicated","server_os":"Linux","password":true,"vac":true,"version":"7882260","steam_id":85568392925397959,"keywords":["cp","nocrits","nodmgspread","uncletopia"],"game_id":440,"stv_port":27056,"stv_name":"Uncletopia | Sydney | 5 | Stopwatch Beta | STV","players":null},{"server_id":59,"name":"Uncletopia | Sydney | 6 | Community","name_short":"syd-6","host":"syd-1.au.uncletopia.com","port":27065,"enabled":true,"region":"au","cc":"au","latitude":-33.865143,"longitude":151.2099,"reserved":0,"last_update":"0001-01-01T00:00:00Z","name_a2s":"Uncletopia | Sydney | 6 | Community","protocol":17,"map":"workshop/koth_ramjam_rc1.ugc459778887","folder":"tf","game":"Team Fortress","app_id":440,"player_count":0,"max_players":24,"Bots":0,"server_type":"Dedicated","server_os":"Linux","password":true,"vac":true,"version":"7882260","steam_id":85568392925397960,"keywords":["cp","nocrits","nodmgspread","uncletopia"],"game_id":440,"stv_port":27066,"stv_name":"Uncletopia | Sydney | 6 | Community | STV","players":null},{"server_id":49,"name":"Uncletopia | Warsaw | 1 | All Maps","name_short":"waw-1","host":"waw-1.pl.uncletopia.com","port":27015,"enabled":true,"region":"eu","cc":"pl","latitude":52.2297,"longitude":21.017532,"reserved":0,"last_update":"0001-01-01T00:00:00Z","name_a2s":"","protocol":0,"map":"","folder":"","game":"","app_id":0,"player_count":0,"max_players":0,"Bots":0,"server_type":"","server_os":"","password":false,"vac":false,"version":"","steam_id":0,"keywords":null,"game_id":0,"stv_port":0,"stv_name":"","players":null},{"server_id":50,"name":"Uncletopia | Warsaw | 2 | All Maps","name_short":"waw-2","host":"waw-1.pl.uncletopia.com","port":27025,"enabled":true,"region":"eu","cc":"pl","latitude":52.2297,"longitude":21.017532,"reserved":0,"last_update":"0001-01-01T00:00:00Z","name_a2s":"Uncletopia | Warsaw | 2 | All Maps","protocol":17,"map":"koth_viaduct","folder":"tf","game":"Team Fortress","app_id":440,"player_count":0,"max_players":24,"Bots":0,"server_type":"Dedicated","server_os":"Linux","password":true,"vac":true,"version":"7882260","steam_id":85568392925397851,"keywords":["cp","nocrits","nodmgspread","uncletopia"],"game_id":440,"stv_port":27026,"stv_name":"Uncletopia | Warsaw | 2 | All Maps | STV","players":null},{"server_id":51,"name":"Uncletopia | Warsaw | 3 | All Maps","name_short":"waw-3","host":"waw-1.pl.uncletopia.com","port":27035,"enabled":true,"region":"eu","cc":"pl","latitude":52.2297,"longitude":21.017532,"reserved":0,"last_update":"0001-01-01T00:00:00Z","name_a2s":"Uncletopia | Warsaw | 3 | All Maps","protocol":17,"map":"pl_badwater","folder":"tf","game":"Team Fortress","app_id":440,"player_count":0,"max_players":24,"Bots":0,"server_type":"Dedicated","server_os":"Linux","password":true,"vac":true,"version":"7882260","steam_id":85568392925397852,"keywords":["nocrits","nodmgspread","payload","uncletopia"],"game_id":440,"stv_port":27036,"stv_name":"Uncletopia | Warsaw | 3 | All Maps | STV","players":null},{"server_id":52,"name":"Uncletopia | Warsaw | 4 | All Maps","name_short":"waw-4","host":"waw-1.pl.uncletopia.com","port":27045,"enabled":true,"region":"eu","cc":"pl","latitude":52.2297,"longitude":21.017532,"reserved":0,"last_update":"0001-01-01T00:00:00Z","name_a2s":"Uncletopia | Warsaw | 4 | All Maps","protocol":17,"map":"koth_cascade","folder":"tf","game":"Team Fortress","app_id":440,"player_count":0,"max_players":24,"Bots":0,"server_type":"Dedicated","server_os":"Linux","password":true,"vac":true,"version":"7882260","steam_id":85568392925397853,"keywords":["cp","nocrits","nodmgspread","uncletopia"],"game_id":440,"stv_port":27046,"stv_name":"Uncletopia | Warsaw | 4 | All Maps | STV","players":null},{"server_id":53,"name":"Uncletopia | Warsaw | 5 | Stopwatch Beta","name_short":"waw-5","host":"waw-1.pl.uncletopia.com","port":27055,"enabled":true,"region":"eu","cc":"pl","latitude":52.2297,"longitude":21.017532,"reserved":0,"last_update":"0001-01-01T00:00:00Z","name_a2s":"Uncletopia | Warsaw | 5 | Stopwatch Beta","protocol":17,"map":"cp_dustbowl","folder":"tf","game":"Team Fortress","app_id":440,"player_count":0,"max_players":24,"Bots":0,"server_type":"Dedicated","server_os":"Linux","password":true,"vac":true,"version":"7882260","steam_id":85568392925397854,"keywords":["cp","nocrits","nodmgspread","uncletopia"],"game_id":440,"stv_port":27056,"stv_name":"Uncletopia | Warsaw | 5 | Stopwatch Beta | STV","players":null},{"server_id":54,"name":"Uncletopia | Warsaw | 6 | Community","name_short":"waw-6","host":"waw-1.pl.uncletopia.com","port":27065,"enabled":true,"region":"eu","cc":"pl","latitude":52.2297,"longitude":21.017532,"reserved":0,"last_update":"0001-01-01T00:00:00Z","name_a2s":"Uncletopia | Warsaw | 6 | Community","protocol":17,"map":"cp_dustbowl","folder":"tf","game":"Team Fortress","app_id":440,"player_count":0,"max_players":24,"Bots":0,"server_type":"Dedicated","server_os":"Linux","password":true,"vac":true,"version":"7882260","steam_id":85568392925397856,"keywords":["cp","nocrits","nodmgspread","uncletopia"],"game_id":440,"stv_port":27066,"stv_name":"Uncletopia | Warsaw | 6 | Community | STV","players":null}]}