{"status":true,"message":"","result":[{"server_id":9,"name":"Uncletopia | Atlanta | 1 | All Maps","name_short":"atl-1","host":"atl-1.us.uncletopia.com","port":27015,"enabled":true,"region":"us-east","cc":"us","latitude":33.753746,"longitude":-84.38633,"reserved":0,"last_update":"0001-01-01T00:00:00Z","name_a2s":"Uncletopia | Atlanta | 1 | All Maps","protocol":17,"map":"cp_snakewater_final1","folder":"tf","game":"Team Fortress","app_id":440,"player_count":23,"max_players":24,"Bots":0,"server_type":"Dedicated","server_os":"Linux","password":true,"vac":true,"version":"7695204","steam_id":85568392924469982,"keywords":["cp","nocrits","nodmgspread","uncletopia"],"game_id":440,"stv_port":27016,"stv_name":"Uncletopia | Atlanta | 1 | All Maps | STV","players":[{"user_id":662,"name":"Maerk","steam_id":76561199119121016,"connected_time":2755000000000,"state":"active","ping":165},{"user_id":647,"name":"FemboyNate","steam_id":76561198146636410,"connected_time":4003000000000,"state":"active","ping":45},{"user_id":650,"name":"Bottom Trans Cowgirl","steam_id":76561198304239680,"connected_time":3543000000000,"state":"active","ping":68},{"user_id":571,"name":"santa mommy","steam_id":76561199230929836,"connected_time":11317000000000,"state":"active","ping":78},{"user_id":696,"name":"MEDIC!","steam_id":76561198149344029,"connected_time":83000000000,"state":"active","ping":67},{"user_id":693,"name":"Tenrou","steam_id":76561198061448188,"connected_time":235000000000,"state":"active","ping":111},{"user_id":671,"name":"npc_sashasource_v7","steam_id":76561198108951802,"connected_time":1662000000000,"state":"active","ping":39},{"user_id":676,"name":"Trev","steam_id":76561198111417325,"connected_time":986000000000,"state":"active","ping":91},{"user_id":677,"name":"LuciD","steam_id":76561198242842394,"connected_time":982000000000,"state":"active","ping":90},{"user_id":679,"name":"Stanelystrickland2010","steam_id":76561198968945333,"connected_time":874000000000,"state":"active","ping":69},{"user_id":656,"name":"BoddhosDaughter","steam_id":76561198140202317,"connected_time":3133000000000,"state":"active","ping":56},{"user_id":580,"name":"joe lft","steam_id":76561198045781320,"connected_time":10971000000000,"state":"active","ping":89},{"user_id":669,"name":"cola","steam_id":76561198374390458,"connected_time":1905000000000,"state":"active","ping":54},{"user_id":512,"name":"ATL1 | eish","steam_id":76561198089463603,"connected_time":14175000000000,"state":"active","ping":119},{"user_id":690,"name":"St. Michael","steam_id":76561198037611052,"connected_time":345000000000,"state":"active","ping":61},{"user_id":681,"name":"Eugene","steam_id":76561198128269352,"connected_time":806000000000,"state":"active","ping":104},{"user_id":691,"name":"Elena Manetta","steam_id":76561197998344054,"connected_time":324000000000,"state":"active","ping":57},{"user_id":694,"name":"PuG-BL1Tz","steam_id":76561198846456931,"connected_time":233000000000,"state":"active","ping":110},{"user_id":601,"name":"ATL1 | Crystron","steam_id":76561198880437428,"connected_time":8846000000000,"state":"active","ping":73},{"user_id":641,"name":"Boop","steam_id":76561198376703875,"connected_time":4537000000000,"state":"active","ping":90},{"user_id":684,"name":"Zont","steam_id":76561197985526581,"connected_time":636000000000,"state":"active","ping":93},{"user_id":685,"name":"Sqiddwr","steam_id":76561197998071622,"connected_time":599000000000,"state":"active","ping":104},{"user_id":692,"name":"johnny","steam_id":76561198294281809,"connected_time":322000000000,"state":"active","ping":106}]},{"server_id":400,"name":"Uncletopia | Atlanta | 3 | All Maps","name_short":"atl-3","host":"atl-1.us.uncletopia.com","port":27035,"enabled":true,"region":"us-east","cc":"us","latitude":33.753746,"longitude":-84.38633,"reserved":0,"last_update":"0001-01-01T00:00:00Z","name_a2s":"Uncletopia | Atlanta | 3 | All Maps","protocol":17,"map":"koth_highpass","folder":"tf","game":"Team Fortress","app_id":440,"player_count":0,"max_players":24,"Bots":0,"server_type":"Dedicated","server_os":"Linux","password":true,"vac":true,"version":"7695204","steam_id":85568392924515187,"keywords":["cp","nocrits","nodmgspread","uncletopia"],"game_id":440,"stv_port":27036,"stv_name":"Uncletopia | Atlanta | 3 | All Maps | STV","players":null},{"server_id":401,"name":"Uncletopia | Atlanta | 4 | No Payload","name_short":"atl-4","host":"atl-1.us.uncletopia.com","port":27045,"enabled":true,"region":"us-east","cc":"us","latitude":33.753746,"longitude":-84.38633,"reserved":0,"last_update":"0001-01-01T00:00:00Z","name_a2s":"Uncletopia | Atlanta | 4 | No Payload","protocol":17,"map":"plr_pipeline","folder":"tf","game":"Team Fortress","app_id":440,"player_count":0,"max_players":24,"Bots":0,"server_type":"Dedicated","server_os":"Linux","password":true,"vac":true,"version":"7695204","steam_id":85568392924515188,"keywords":["nocrits","nodmgspread","payload","uncletopia"],"game_id":440,"stv_port":27046,"stv_name":"Uncletopia | Atlanta | 4 | No Payload | STV","players":null},{"server_id":2,"name":"Uncletopia | Chicago | 1 | All Maps","name_short":"chi-1","host":"chi-1.us.uncletopia.com","port":27015,"enabled":true,"region":"us-central","cc":"us","latitude":41.881832,"longitude":-87.62318,"reserved":0,"last_update":"0001-01-01T00:00:00Z","name_a2s":"Uncletopia | Chicago | 1 | All Maps","protocol":17,"map":"pl_snowycoast","folder":"tf","game":"Team Fortress","app_id":440,"player_count":3,"max_players":24,"Bots":0,"server_type":"Dedicated","server_os":"Linux","password":true,"vac":true,"version":"7695204","steam_id":85568392924469984,"keywords":["nocrits","nodmgspread","payload","uncletopia"],"game_id":440,"stv_port":27016,"stv_name":"Uncletopia | Chicago | 1 | All Maps | STV","players":[{"user_id":902,"name":"doomedbubble","steam_id":76561199207651020,"connected_time":1069000000000,"state":"active","ping":92},{"user_id":900,"name":"Uhonlapjanteszika","steam_id":76561199431280503,"connected_time":1720000000000,"state":"active","ping":66},{"user_id":901,"name":"TheMadDoctor(He/Him)","steam_id":76561198846198407,"connected_time":1319000000000,"state":"active","ping":85}]},{"server_id":106,"name":"Uncletopia | Chicago | 2 | All Maps","name_short":"chi-2","host":"chi-1.us.uncletopia.com","port":27025,"enabled":true,"region":"us-central","cc":"us","latitude":41.881832,"longitude":-87.62318,"reserved":0,"last_update":"0001-01-01T00:00:00Z","name_a2s":"Uncletopia | Chicago | 2 | All Maps","protocol":17,"map":"koth_lakeside_final","folder":"tf","game":"Team Fortress","app_id":440,"player_count":0,"max_players":24,"Bots":0,"server_type":"Dedicated","server_os":"Linux","password":true,"vac":true,"version":"7695204","steam_id":85568392924469985,"keywords":["cp","nocrits","nodmgspread","uncletopia"],"game_id":440,"stv_port":27026,"stv_name":"Uncletopia | Chicago | 2 | All Maps | STV","players":null},{"server_id":402,"name":"Uncletopia | Chicago | 3 | All Maps","name_short":"chi-3","host":"chi-1.us.uncletopia.com","port":27035,"enabled":true,"region":"us-central","cc":"us","latitude":41.881832,"longitude":-87.62318,"reserved":0,"last_update":"0001-01-01T00:00:00Z","name_a2s":"Uncletopia | Chicago | 3 | All Maps","protocol":17,"map":"koth_cascade","folder":"tf","game":"Team Fortress","app_id":440,"player_count":0,"max_players":24,"Bots":0,"server_type":"Dedicated","server_os":"Linux","password":true,"vac":true,"version":"7695204","steam_id":85568392924515191,"keywords":["cp","nocrits","nodmgspread","uncletopia"],"game_id":440,"stv_port":27036,"stv_name":"Uncletopia | Chicago | 3 | All Maps | STV","players":null},{"server_id":403,"name":"Uncletopia | Chicago | 4 | All Maps","name_short":"chi-4","host":"chi-1.us.uncletopia.com","port":27045,"enabled":true,"region":"us-central","cc":"us","latitude":41.881832,"longitude":-87.62318,"reserved":0,"last_update":"0001-01-01T00:00:00Z","name_a2s":"Uncletopia | Chicago | 4 | All Maps","protocol":17,"map":"koth_lakeside_final","folder":"tf","game":"Team Fortress","app_id":440,"player_count":0,"max_players":24,"Bots":0,"server_type":"Dedicated","server_os":"Linux","password":true,"vac":true,"version":"7695204","steam_id":85568392924515193,"keywords":["cp","nocrits","nodmgspread","uncletopia"],"game_id":440,"stv_port":27046,"stv_name":"Uncletopia | Chicago | 4 | All Maps | STV","players":null},{"server_id":36,"name":"Uncletopia | Chicago | 5 | All Maps","name_short":"chi-5","host":"chi-2.us.uncletopia.com","port":27015,"enabled":true,"region":"us-central","cc":"us","latitude":41.881832,"longitude":-87.62318,"reserved":0,"last_update":"0001-01-01T00:00:00Z","name_a2s":"Uncletopia | Chicago | 5 | All Maps","protocol":17,"map":"pl_barnblitz","folder":"tf","game":"Team Fortress","app_id":440,"player_count":13,"max_players":24,"Bots":0,"server_type":"Dedicated","server_os":"Linux","password":true,"vac":true,"version":"7695204","steam_id":85568392924866362,"keywords":["nocrits","nodmgspread","payload","uncletopia"],"game_id":440,"stv_port":27016,"stv_name":"Uncletopia | Chicago | 5 | All Maps | STV","players":[{"user_id":276,"name":"victordead121","steam_id":76561199180843121,"connected_time":1482000000000,"state":"active","ping":115},{"user_id":290,"name":"Elizabeth truss","steam_id":76561198058250979,"connected_time":286000000000,"state":"active","ping":60},{"user_id":250,"name":"MFB","steam_id":76561198170923095,"connected_time":3819000000000,"state":"active","ping":66},{"user_id":272,"name":"defs98","steam_id":76561198134813102,"connected_time":1998000000000,"state":"active","ping":57},{"user_id":128,"name":"Convo-B-Gone","steam_id":76561198029527751,"connected_time":12669000000000,"state":"active","ping":54},{"user_id":282,"name":"_","steam_id":76561198149536267,"connected_time":678000000000,"state":"active","ping":72},{"user_id":283,"name":"Team Fortress enjoyer","steam_id":76561199150609123,"connected_time":556000000000,"state":"active","ping":151},{"user_id":284,"name":"RogueSawdust","steam_id":76561199146023599,"connected_time":538000000000,"state":"active","ping":103},{"user_id":285,"name":"herb","steam_id":76561198185980055,"connected_time":512000000000,"state":"active","ping":55},{"user_id":256,"name":"Cleric","steam_id":76561198045887994,"connected_time":3693000000000,"state":"active","ping":46},{"user_id":288,"name":"Mrangryface98","steam_id":76561198036776117,"connected_time":354000000000,"state":"active","ping":75},{"user_id":289,"name":"Pickle Warrior","steam_id":76561198143842250,"connected_time":342000000000,"state":"active","ping":63},{"user_id":262,"name":"BALL FART BARON","steam_id":76561198410061750,"connected_time":3563000000000,"state":"active","ping":60}]},{"server_id":37,"name":"Uncletopia | Chicago | 6 | All Maps","name_short":"chi-6","host":"chi-2.us.uncletopia.com","port":27025,"enabled":true,"region":"us-central","cc":"us","latitude":41.881832,"longitude":-87.62318,"reserved":0,"last_update":"0001-01-01T00:00:00Z","name_a2s":"Uncletopia | Chicago | 6 | All Maps","protocol":17,"map":"koth_viaduct","folder":"tf","game":"Team Fortress","app_id":440,"player_count":0,"max_players":24,"Bots":0,"server_type":"Dedicated","server_os":"Linux","password":true,"vac":true,"version":"7695204","steam_id":85568392924866363,"keywords":["cp","nocrits","nodmgspread","uncletopia"],"game_id":440,"stv_port":27026,"stv_name":"Uncletopia | Chicago | 6 | All Maps | STV","players":null},{"server_id":38,"name":"Uncletopia | Chicago | 7 | No Payload","name_short":"chi-7","host":"chi-2.us.uncletopia.com","port":27035,"enabled":true,"region":"us-central","cc":"us","latitude":41.881832,"longitude":-87.62318,"reserved":0,"last_update":"0001-01-01T00:00:00Z","name_a2s":"Uncletopia | Chicago | 7 | No Payload","protocol":17,"map":"koth_viaduct","folder":"tf","game":"Team Fortress","app_id":440,"player_count":3,"max_players":24,"Bots":0,"server_type":"Dedicated","server_os":"Linux","password":true,"vac":true,"version":"7695204","steam_id":85568392924866364,"keywords":["cp","nocrits","nodmgspread","uncletopia"],"game_id":440,"stv_port":27036,"stv_name":"Uncletopia | Chicago | 7 | No Payload | STV","players":[{"user_id":671,"name":"Lazi","steam_id":76561198195913655,"connected_time":4473000000000,"state":"active","ping":62},{"user_id":672,"name":"Aiden148","steam_id":76561198065092531,"connected_time":4448000000000,"state":"active","ping":34},{"user_id":677,"name":"Lord Fuckwad","steam_id":76561198153195329,"connected_time":1778000000000,"state":"active","ping":55}]},{"server_id":39,"name":"Uncletopia | Chicago | 8 | Community","name_short":"chi-8","host":"chi-2.us.uncletopia.com","port":27045,"enabled":true,"region":"us-central","cc":"us","latitude":41.881832,"longitude":-87.62318,"reserved":0,"last_update":"0001-01-01T00:00:00Z","name_a2s":"Uncletopia | Chicago | 8 | Community","protocol":17,"map":"workshop/cp_overgrown_rc7b.ugc503939302","folder":"tf","game":"Team Fortress","app_id":440,"player_count":0,"max_players":24,"Bots":0,"server_type":"Dedicated","server_os":"Linux","password":true,"vac":true,"version":"7695204","steam_id":85568392924866365,"keywords":["cp","nocrits","nodmgspread","uncletopia"],"game_id":440,"stv_port":27046,"stv_name":"Uncletopia | Chicago | 8 | Community | STV","players":null},{"server_id":8,"name":"Uncletopia | Dallas | 1 | All Maps","name_short":"dal-1","host":"dal-1.us.uncletopia.com","port":27015,"enabled":true,"region":"us-central","cc":"us","latitude":32.779167,"longitude":-96.80889,"reserved":0,"last_update":"0001-01-01T00:00:00Z","name_a2s":"Uncletopia | Dallas | 1 | All Maps","protocol":17,"map":"pl_pier","folder":"tf","game":"Team Fortress","app_id":440,"player_count":17,"max_players":24,"Bots":0,"server_type":"Dedicated","server_os":"Linux","password":true,"vac":true,"version":"7695204","steam_id":85568392924469986,"keywords":["nocrits","nodmgspread","payload","uncletopia"],"game_id":440,"stv_port":27016,"stv_name":"Uncletopia | Dallas | 1 | All Maps | STV","players":[{"user_id":369,"name":"Mr.ToasterOven","steam_id":76561199120586450,"connected_time":1169000000000,"state":"active","ping":64},{"user_id":353,"name":"Gelliterate","steam_id":76561198107233070,"connected_time":2045000000000,"state":"active","ping":45},{"user_id":379,"name":"Snakeye3490","steam_id":76561198197060503,"connected_time":40000000000,"state":"active","ping":50},{"user_id":378,"name":"earth fan chan","steam_id":76561198110046630,"connected_time":194000000000,"state":"active","ping":58},{"user_id":370,"name":"Spinch","steam_id":76561198296224166,"connected_time":1061000000000,"state":"active","ping":73},{"user_id":356,"name":"Fake21","steam_id":76561198282065071,"connected_time":1945000000000,"state":"active","ping":48},{"user_id":357,"name":"GatorAIDS","steam_id":76561198043220092,"connected_time":1921000000000,"state":"active","ping":52},{"user_id":351,"name":"The Caretaker","steam_id":76561198125241411,"connected_time":2374000000000,"state":"active","ping":99},{"user_id":358,"name":"turtlemanwes","steam_id":76561199119234005,"connected_time":1847000000000,"state":"active","ping":76},{"user_id":376,"name":"autumnal.messenger","steam_id":76561199345816635,"connected_time":219000000000,"state":"active","ping":102},{"user_id":269,"name":"plink","steam_id":76561198057829889,"connected_time":8614000000000,"state":"active","ping":46},{"user_id":280,"name":"Murk Wahlberg","steam_id":76561198131467867,"connected_time":7695000000000,"state":"active","ping":75},{"user_id":377,"name":"brb","steam_id":76561198125947844,"connected_time":202000000000,"state":"active","ping":90},{"user_id":360,"name":"keria","steam_id":76561198039837656,"connected_time":1746000000000,"state":"active","ping":75},{"user_id":366,"name":"harlowng","steam_id":76561198060542928,"connected_time":1605000000000,"state":"active","ping":115},{"user_id":372,"name":"a soul must somehow strive","steam_id":76561198096806703,"connected_time":577000000000,"state":"active","ping":74},{"user_id":368,"name":"GarretGood","steam_id":76561198071881495,"connected_time":1379000000000,"state":"active","ping":85}]},{"server_id":108,"name":"Uncletopia | Dallas | 2 | All Maps","name_short":"dal-2","host":"dal-1.us.uncletopia.com","port":27025,"enabled":true,"region":"us-central","cc":"us","latitude":32.779167,"longitude":-96.80889,"reserved":0,"last_update":"0001-01-01T00:00:00Z","name_a2s":"Uncletopia | Dallas | 2 | All Maps","protocol":17,"map":"pl_hoodoo_final","folder":"tf","game":"Team Fortress","app_id":440,"player_count":19,"max_players":24,"Bots":0,"server_type":"Dedicated","server_os":"Linux","password":true,"vac":true,"version":"7695204","steam_id":85568392924469988,"keywords":["nocrits","nodmgspread","payload","uncletopia"],"game_id":440,"stv_port":27026,"stv_name":"Uncletopia | Dallas | 2 | All Maps | STV","players":[{"user_id":473,"name":"god's sleepiest puppygirl","steam_id":76561198128164970,"connected_time":963000000000,"state":"active","ping":72},{"user_id":462,"name":"ikercard","steam_id":76561198821297273,"connected_time":2531000000000,"state":"active","ping":61},{"user_id":474,"name":"larry","steam_id":76561198139630467,"connected_time":959000000000,"state":"active","ping":36},{"user_id":475,"name":"dumbass","steam_id":76561198410957728,"connected_time":943000000000,"state":"active","ping":65},{"user_id":491,"name":"Friends of Tina Kotek","steam_id":76561198257921898,"connected_time":32000000000,"state":"active","ping":111},{"user_id":471,"name":"Oscidor","steam_id":76561198362839738,"connected_time":1172000000000,"state":"active","ping":59},{"user_id":476,"name":"Mythical_Mason","steam_id":76561199169054790,"connected_time":861000000000,"state":"active","ping":67},{"user_id":469,"name":"huiei","steam_id":76561198073763735,"connected_time":1617000000000,"state":"active","ping":84},{"user_id":410,"name":"Floor Cheetos","steam_id":76561198062763756,"connected_time":8043000000000,"state":"active","ping":74},{"user_id":483,"name":"Ponderosa","steam_id":76561198141301335,"connected_time":491000000000,"state":"active","ping":50},{"user_id":470,"name":"twitch.tv/Yoshi21 | TF2Pugs.com","steam_id":76561198002516729,"connected_time":1353000000000,"state":"active","ping":73},{"user_id":461,"name":"Jag_Samurott","steam_id":76561198262036126,"connected_time":2693000000000,"state":"active","ping":49},{"user_id":480,"name":"Etomb","steam_id":76561198210017208,"connected_time":788000000000,"state":"active","ping":73},{"user_id":417,"name":"That Scrumpy Dumpy","steam_id":76561198147375997,"connected_time":6965000000000,"state":"active","ping":63},{"user_id":457,"name":"Gammaplex","steam_id":76561198981228176,"connected_time":3312000000000,"state":"active","ping":75},{"user_id":419,"name":"Spha","steam_id":76561198796297800,"connected_time":6414000000000,"state":"active","ping":62},{"user_id":488,"name":"Detective Parks","steam_id":76561198153415500,"connected_time":267000000000,"state":"active","ping":46},{"user_id":360,"name":"GameGuru the Green Gryphon","steam_id":76561198118495354,"connected_time":12664000000000,"state":"active","ping":61},{"user_id":379,"name":"b.net queue waiter","steam_id":76561197968787431,"connected_time":10588000000000,"state":"active","ping":110}]},{"server_id":5,"name":"Uncletopia | Frankfurt | 1 | All Maps","name_short":"frk-1","host":"frk-1.de.uncletopia.com","port":27015,"enabled":true,"region":"eu","cc":"de","latitude":50.110924,"longitude":8.682127,"reserved":0,"last_update":"0001-01-01T00:00:00Z","name_a2s":"Uncletopia | Frankfurt | 1 | All Maps","protocol":17,"map":"koth_viaduct","folder":"tf","game":"Team Fortress","app_id":440,"player_count":0,"max_players":24,"Bots":0,"server_type":"Dedicated","server_os":"Linux","password":true,"vac":true,"version":"7695204","steam_id":85568392924469989,"keywords":["cp","nocrits","nodmgspread","uncletopia"],"game_id":440,"stv_port":0,"stv_name":"","players":null},{"server_id":110,"name":"Uncletopia | Frankfurt | 2 | All Maps","name_short":"frk-2","host":"frk-1.de.uncletopia.com","port":27025,"enabled":true,"region":"eu","cc":"de","latitude":50.110924,"longitude":8.682127,"reserved":0,"last_update":"0001-01-01T00:00:00Z","name_a2s":"Uncletopia | Frankfurt | 2 | All Maps","protocol":17,"map":"cp_dustbowl","folder":"tf","game":"Team Fortress","app_id":440,"player_count":0,"max_players":24,"Bots":0,"server_type":"Dedicated","server_os":"Linux","password":true,"vac":true,"version":"7695204","steam_id":85568392924469990,"keywords":["cp","nocrits","nodmgspread","uncletopia"],"game_id":440,"stv_port":27026,"stv_name":"Uncletopia | Frankfurt | 2 | All Maps | STV","players":null},{"server_id":308,"name":"Uncletopia | Frankfurt | 3 | All Maps","name_short":"frk-3","host":"frk-1.de.uncletopia.com","port":27035,"enabled":true,"region":"eu","cc":"de","latitude":50.110924,"longitude":8.682127,"reserved":0,"last_update":"0001-01-01T00:00:00Z","name_a2s":"Uncletopia | Frankfurt | 3 | All Maps","protocol":17,"map":"pl_badwater","folder":"tf","game":"Team Fortress","app_id":440,"player_count":0,"max_players":24,"Bots":0,"server_type":"Dedicated","server_os":"Linux","password":true,"vac":true,"version":"7695204","steam_id":85568392924504274,"keywords":["nocrits","nodmgspread","payload","uncletopia"],"game_id":440,"stv_port":0,"stv_name":"","players":null},{"server_id":309,"name":"Uncletopia | Frankfurt | 4 | All Maps","name_short":"frk-4","host":"frk-1.de.uncletopia.com","port":27045,"enabled":true,"region":"eu","cc":"de","latitude":50.110924,"longitude":8.682127,"reserved":0,"last_update":"0001-01-01T00:00:00Z","name_a2s":"Uncletopia | Frankfurt | 4 | All Maps","protocol":17,"map":"koth_highpass","folder":"tf","game":"Team Fortress","app_id":440,"player_count":0,"max_players":24,"Bots":0,"server_type":"Dedicated","server_os":"Linux","password":true,"vac":true,"version":"7695204","steam_id":85568392924504275,"keywords":["cp","nocrits","nodmgspread","uncletopia"],"game_id":440,"stv_port":0,"stv_name":"","players":null},{"server_id":310,"name":"Uncletopia | Frankfurt | 5 | All Maps","name_short":"frk-5","host":"frk-1.de.uncletopia.com","port":27055,"enabled":true,"region":"eu","cc":"de","latitude":50.110924,"longitude":8.682127,"reserved":0,"last_update":"0001-01-01T00:00:00Z","name_a2s":"Uncletopia | Frankfurt | 5 | All Maps","protocol":17,"map":"pl_pier","folder":"tf","game":"Team Fortress","app_id":440,"player_count":0,"max_players":24,"Bots":0,"server_type":"Dedicated","server_os":"Linux","password":true,"vac":true,"version":"7695204","steam_id":85568392924504277,"keywords":["nocrits","nodmgspread","payload","uncletopia"],"game_id":440,"stv_port":0,"stv_name":"","players":null},{"server_id":311,"name":"Uncletopia | Frankfurt | 6 | All Maps","name_short":"frk-6","host":"frk-1.de.uncletopia.com","port":27065,"enabled":true,"region":"eu","cc":"de","latitude":50.110924,"longitude":8.682127,"reserved":0,"last_update":"0001-01-01T00:00:00Z","name_a2s":"Uncletopia | Frankfurt | 6 | All Maps","protocol":17,"map":"pl_barnblitz","folder":"tf","game":"Team Fortress","app_id":440,"player_count":0,"max_players":24,"Bots":0,"server_type":"Dedicated","server_os":"Linux","password":true,"vac":true,"version":"7695204","steam_id":85568392924504278,"keywords":["nocrits","nodmgspread","payload","uncletopia"],"game_id":440,"stv_port":0,"stv_name":"","players":null},{"server_id":23,"name":"Uncletopia | Frankfurt | 7 | No Payload","name_short":"frk-7","host":"frk-1.de.uncletopia.com","port":27075,"enabled":true,"region":"eu","cc":"de","latitude":50.110924,"longitude":8.682127,"reserved":0,"last_update":"0001-01-01T00:00:00Z","name_a2s":"Uncletopia | Frankfurt | 7 | No Payload","protocol":17,"map":"pl_snowycoast","folder":"tf","game":"Team Fortress","app_id":440,"player_count":0,"max_players":24,"Bots":0,"server_type":"Dedicated","server_os":"Linux","password":true,"vac":true,"version":"7695204","steam_id":85568392924742827,"keywords":["nocrits","nodmgspread","payload","uncletopia"],"game_id":440,"stv_port":0,"stv_name":"","players":null},{"server_id":24,"name":"Uncletopia | Frankfurt | 8 | Community","name_short":"frk-8","host":"frk-1.de.uncletopia.com","port":27085,"enabled":true,"region":"eu","cc":"de","latitude":50.110924,"longitude":8.682127,"reserved":0,"last_update":"0001-01-01T00:00:00Z","name_a2s":"Uncletopia | Frankfurt | 8 | Community","protocol":17,"map":"koth_lakeside_final","folder":"tf","game":"Team Fortress","app_id":440,"player_count":0,"max_players":24,"Bots":0,"server_type":"Dedicated","server_os":"Linux","password":true,"vac":true,"version":"7695204","steam_id":85568392924742828,"keywords":["cp","nocrits","nodmgspread","uncletopia"],"game_id":440,"stv_port":0,"stv_name":"","players":null},{"server_id":202,"name":"Uncletopia | Hong Kong | 1 | All Maps","name_short":"hgk-1","host":"hgk-1.hk.uncletopia.com","port":27015,"enabled":true,"region":"asia","cc":"hk","latitude":22.302711,"longitude":114.177216,"reserved":0,"last_update":"0001-01-01T00:00:00Z","name_a2s":"Uncletopia | Hong Kong | 1 | All Maps","protocol":17,"map":"pl_upward","folder":"tf","game":"Team Fortress","app_id":440,"player_count":24,"max_players":24,"Bots":0,"server_type":"Dedicated","server_os":"Linux","password":true,"vac":true,"version":"7695204","steam_id":85568392924494504,"keywords":["nocrits","nodmgspread","payload","uncletopia"],"game_id":440,"stv_port":27016,"stv_name":"Uncletopia | Hong Kong | 1 | All Maps | STV","players":[{"user_id":149,"name":"he just like me frfr","steam_id":76561198868906547,"connected_time":1101000000000,"state":"active","ping":80},{"user_id":156,"name":"Tribal Mana","steam_id":76561198011757567,"connected_time":785000000000,"state":"active","ping":95},{"user_id":154,"name":"lk❆","steam_id":76561199077602424,"connected_time":857000000000,"state":"active","ping":52},{"user_id":104,"name":"silversol","steam_id":76561198004570036,"connected_time":4925000000000,"state":"active","ping":90},{"user_id":89,"name":"r","steam_id":76561198811024417,"connected_time":5300000000000,"state":"active","ping":62},{"user_id":163,"name":"Trivia","steam_id":76561198889862851,"connected_time":544000000000,"state":"active","ping":42},{"user_id":158,"name":"can we get much higher","steam_id":76561199390507975,"connected_time":699000000000,"state":"active","ping":51},{"user_id":27,"name":"Nimbus","steam_id":76561198877713016,"connected_time":10697000000000,"state":"active","ping":87},{"user_id":99,"name":"The Blue Signet","steam_id":76561198982932902,"connected_time":5056000000000,"state":"active","ping":84},{"user_id":143,"name":"doggybile","steam_id":76561199235409252,"connected_time":1354000000000,"state":"active","ping":48},{"user_id":137,"name":"Nephew Nate","steam_id":76561199137872034,"connected_time":1729000000000,"state":"active","ping":99},{"user_id":155,"name":"MS PowerPoint","steam_id":76561198369523192,"connected_time":809000000000,"state":"active","ping":64},{"user_id":164,"name":"bocchi the cock sucka","steam_id":76561198169178491,"connected_time":472000000000,"state":"active","ping":44},{"user_id":127,"name":"Piggy","steam_id":76561199293416159,"connected_time":3001000000000,"state":"active","ping":79},{"user_id":138,"name":"Shterman","steam_id":76561198074411229,"connected_time":1727000000000,"state":"active","ping":76},{"user_id":125,"name":"murder","steam_id":76561198748035294,"connected_time":3161000000000,"state":"active","ping":112},{"user_id":48,"name":"timmy.1366","steam_id":76561199065433547,"connected_time":9198000000000,"state":"active","ping":82},{"user_id":159,"name":"Comeheresissy","steam_id":76561199404612680,"connected_time":667000000000,"state":"active","ping":76},{"user_id":160,"name":"Hydron","steam_id":76561198341520996,"connected_time":631000000000,"state":"active","ping":147},{"user_id":161,"name":"iced","steam_id":76561198999114004,"connected_time":608000000000,"state":"active","ping":104},{"user_id":126,"name":"Elma Aibadenshi","steam_id":76561198347554551,"connected_time":3114000000000,"state":"active","ping":72},{"user_id":165,"name":"floating pussy homing missle","steam_id":76561198262120562,"connected_time":464000000000,"state":"active","ping":82},{"user_id":167,"name":"n y x \u003c3❀❀","steam_id":76561198337154745,"connected_time":31000000000,"state":"active","ping":709},{"user_id":88,"name":"Violezine","steam_id":76561199000502615,"connected_time":5311000000000,"state":"active","ping":81}]},{"server_id":1,"name":"Uncletopia | Los Angeles | 1 | All Maps","name_short":"lax-1","host":"lax-1.us.uncletopia.com","port":27015,"enabled":true,"region":"us-west","cc":"us","latitude":33.94279,"longitude":-118.41004,"reserved":0,"last_update":"0001-01-01T00:00:00Z","name_a2s":"Uncletopia | Los Angeles | 1 | All Maps","protocol":17,"map":"koth_viaduct","folder":"tf","game":"Team Fortress","app_id":440,"player_count":0,"max_players":24,"Bots":0,"server_type":"Dedicated","server_os":"Linux","password":true,"vac":true,"version":"7695204","steam_id":85568392924469991,"keywords":["cp","nocrits","nodmgspread","uncletopia"],"game_id":440,"stv_port":27016,"stv_name":"Uncletopia | Los Angeles | 1 | All Maps | STV","players":null},{"server_id":112,"name":"Uncletopia | Los Angeles | 2 | All Maps","name_short":"lax-2","host":"lax-1.us.uncletopia.com","port":27025,"enabled":true,"region":"us-west","cc":"us","latitude":33.94279,"longitude":-118.41004,"reserved":0,"last_update":"0001-01-01T00:00:00Z","name_a2s":"Uncletopia | Los Angeles | 2 | All Maps","protocol":17,"map":"koth_highpass","folder":"tf","game":"Team Fortress","app_id":440,"player_count":0,"max_players":24,"Bots":0,"server_type":"Dedicated","server_os":"Linux","password":true,"vac":true,"version":"7695204","steam_id":85568392924469992,"keywords":["cp","nocrits","nodmgspread","uncletopia"],"game_id":440,"stv_port":27026,"stv_name":"Uncletopia | Los Angeles | 2 | All Maps | STV","players":null},{"server_id":324,"name":"Uncletopia | Los Angeles | 3 | All Maps","name_short":"lax-3","host":"lax-1.us.uncletopia.com","port":27035,"enabled":true,"region":"us-west","cc":"us","latitude":33.94279,"longitude":-118.41004,"reserved":0,"last_update":"0001-01-01T00:00:00Z","name_a2s":"Uncletopia | Los Angeles | 3 | All Maps","protocol":17,"map":"cp_snakewater_final1","folder":"tf","game":"Team Fortress","app_id":440,"player_count":0,"max_players":24,"Bots":0,"server_type":"Dedicated","server_os":"Linux","password":true,"vac":true,"version":"7695204","steam_id":85568392924510198,"keywords":["cp","nocrits","nodmgspread","uncletopia"],"game_id":440,"stv_port":27036,"stv_name":"Uncletopia | Los Angeles | 3 | All Maps | STV","players":null},{"server_id":25,"name":"Uncletopia | Los Angeles | 4 | No Payload","name_short":"lax-4","host":"lax-1.us.uncletopia.com","port":27045,"enabled":true,"region":"us-west","cc":"us","latitude":33.94279,"longitude":-118.41004,"reserved":0,"last_update":"0001-01-01T00:00:00Z","name_a2s":"Uncletopia | Los Angeles | 4 | No Payload","protocol":17,"map":"cp_gullywash_final1","folder":"tf","game":"Team Fortress","app_id":440,"player_count":0,"max_players":24,"Bots":0,"server_type":"Dedicated","server_os":"Linux","password":true,"vac":true,"version":"7695204","steam_id":85568392924510199,"keywords":["cp","nocrits","nodmgspread","uncletopia"],"game_id":440,"stv_port":27046,"stv_name":"Uncletopia | Los Angeles | 4 | No Payload | STV","players":null},{"server_id":11,"name":"Uncletopia | London | 1 | All Maps","name_short":"lon-1","host":"lon-1.uk.uncletopia.com","port":27015,"enabled":true,"region":"eu","cc":"gb","latitude":51.509865,"longitude":-0.118092,"reserved":0,"last_update":"0001-01-01T00:00:00Z","name_a2s":"Uncletopia | London | 1 | All Maps","protocol":17,"map":"pl_upward","folder":"tf","game":"Team Fortress","app_id":440,"player_count":0,"max_players":24,"Bots":0,"server_type":"Dedicated","server_os":"Linux","password":true,"vac":true,"version":"7695204","steam_id":85568392924367362,"keywords":["nocrits","nodmgspread","payload","uncletopia"],"game_id":440,"stv_port":0,"stv_name":"","players":null},{"server_id":114,"name":"Uncletopia | London | 2 | All Maps","name_short":"lon-2","host":"lon-1.uk.uncletopia.com","port":27025,"enabled":true,"region":"eu","cc":"gb","latitude":51.509865,"longitude":-0.118092,"reserved":0,"last_update":"0001-01-01T00:00:00Z","name_a2s":"Uncletopia | London | 2 | All Maps","protocol":17,"map":"cp_sunshine","folder":"tf","game":"Team Fortress","app_id":440,"player_count":0,"max_players":24,"Bots":0,"server_type":"Dedicated","server_os":"Linux","password":true,"vac":true,"version":"7695204","steam_id":85568392924470941,"keywords":["cp","nocrits","nodmgspread","uncletopia"],"game_id":440,"stv_port":0,"stv_name":"","players":null},{"server_id":320,"name":"Uncletopia | London | 3 | All Maps","name_short":"lon-3","host":"lon-1.uk.uncletopia.com","port":27035,"enabled":true,"region":"eu","cc":"gb","latitude":51.509865,"longitude":-0.118092,"reserved":0,"last_update":"0001-01-01T00:00:00Z","name_a2s":"Uncletopia | London | 3 | All Maps","protocol":17,"map":"pl_badwater","folder":"tf","game":"Team Fortress","app_id":440,"player_count":14,"max_players":24,"Bots":0,"server_type":"Dedicated","server_os":"Linux","password":true,"vac":true,"version":"7695204","steam_id":85568392924510192,"keywords":["nocrits","nodmgspread","payload","uncletopia"],"game_id":440,"stv_port":27036,"stv_name":"Uncletopia | London | 3 | All Maps | STV","players":[{"user_id":20,"name":"streetcar named desire","steam_id":76561199441798722,"connected_time":2225000000000,"state":"active","ping":85},{"user_id":23,"name":"Fred","steam_id":76561198107137362,"connected_time":1248000000000,"state":"active","ping":50},{"user_id":24,"name":"emti","steam_id":76561198836233001,"connected_time":933000000000,"state":"active","ping":73},{"user_id":22,"name":"Perämiehenä","steam_id":76561197968945306,"connected_time":1464000000000,"state":"active","ping":73},{"user_id":25,"name":"xX_averagespymain_Xx","steam_id":76561199218227502,"connected_time":898000000000,"state":"active","ping":119},{"user_id":26,"name":"Enigmus","steam_id":76561197994063627,"connected_time":838000000000,"state":"active","ping":75},{"user_id":27,"name":"default enjoyer","steam_id":76561198097789669,"connected_time":825000000000,"state":"active","ping":70},{"user_id":28,"name":"xXdoge gaming 42069Xx","steam_id":76561198372971096,"connected_time":748000000000,"state":"active","ping":75},{"user_id":30,"name":"Kolerea","steam_id":76561198310290773,"connected_time":352000000000,"state":"active","ping":86},{"user_id":31,"name":"Peat","steam_id":76561197992168067,"connected_time":194000000000,"state":"active","ping":65},{"user_id":32,"name":"King Kunito","steam_id":76561198042549177,"connected_time":179000000000,"state":"active","ping":45},{"user_id":33,"name":".::[SerafeTTiN]::.","steam_id":76561198009471724,"connected_time":113000000000,"state":"active","ping":90},{"user_id":34,"name":"Solrayo","steam_id":76561197993336779,"connected_time":61000000000,"state":"active","ping":78},{"user_id":35,"name":"Squash Banana","steam_id":76561198055480280,"connected_time":50000000000,"state":"active","ping":94}]},{"server_id":321,"name":"Uncletopia | London | 4 | All Maps","name_short":"lon-4","host":"lon-1.uk.uncletopia.com","port":27045,"enabled":true,"region":"eu","cc":"gb","latitude":51.509865,"longitude":-0.118092,"reserved":0,"last_update":"0001-01-01T00:00:00Z","name_a2s":"Uncletopia | London | 4 | All Maps","protocol":17,"map":"koth_viaduct","folder":"tf","game":"Team Fortress","app_id":440,"player_count":0,"max_players":24,"Bots":0,"server_type":"Dedicated","server_os":"Linux","password":true,"vac":true,"version":"7695204","steam_id":85568392924510193,"keywords":["cp","nocrits","nodmgspread","uncletopia"],"game_id":440,"stv_port":0,"stv_name":"","players":null},{"server_id":21,"name":"Uncletopia | London | 5 | All Maps","name_short":"lon-5","host":"lon-1.uk.uncletopia.com","port":27055,"enabled":true,"region":"eu","cc":"gb","latitude":51.509865,"longitude":-0.118092,"reserved":0,"last_update":"0001-01-01T00:00:00Z","name_a2s":"Uncletopia | London | 5 | All Maps","protocol":17,"map":"koth_cascade","folder":"tf","game":"Team Fortress","app_id":440,"player_count":0,"max_players":24,"Bots":0,"server_type":"Dedicated","server_os":"Linux","password":true,"vac":true,"version":"7695204","steam_id":85568392924742829,"keywords":["cp","nocrits","nodmgspread","uncletopia"],"game_id":440,"stv_port":0,"stv_name":"","players":null},{"server_id":22,"name":"Uncletopia | London | 6 | All Maps","name_short":"lon-6","host":"lon-1.uk.uncletopia.com","port":27065,"enabled":true,"region":"eu","cc":"gb","latitude":51.509865,"longitude":-0.118092,"reserved":0,"last_update":"0001-01-01T00:00:00Z","name_a2s":"Uncletopia | London | 6 | All Maps","protocol":17,"map":"pl_pier","folder":"tf","game":"Team Fortress","app_id":440,"player_count":0,"max_players":24,"Bots":0,"server_type":"Dedicated","server_os":"Linux","password":true,"vac":true,"version":"7695204","steam_id":85568392924742830,"keywords":["nocrits","nodmgspread","payload","uncletopia"],"game_id":440,"stv_port":0,"stv_name":"","players":null},{"server_id":40,"name":"Uncletopia | London | 7 | No Payload","name_short":"lon-7","host":"lon-1.uk.uncletopia.com","port":27075,"enabled":true,"region":"eu","cc":"gb","latitude":51.509865,"longitude":-0.118092,"reserved":0,"last_update":"0001-01-01T00:00:00Z","name_a2s":"Uncletopia | London | 7 | No Payload","protocol":17,"map":"cp_snakewater_final1","folder":"tf","game":"Team Fortress","app_id":440,"player_count":0,"max_players":24,"Bots":0,"server_type":"Dedicated","server_os":"Linux","password":true,"vac":true,"version":"7695204","steam_id":85568392924964314,"keywords":["cp","nocrits","nodmgspread","uncletopia"],"game_id":440,"stv_port":0,"stv_name":"","players":null},{"server_id":41,"name":"Uncletopia | London | 8 | Community","name_short":"lon-8","host":"lon-1.uk.uncletopia.com","port":27085,"enabled":true,"region":"eu","cc":"gb","latitude":51.509865,"longitude":-0.118092,"reserved":0,"last_update":"0001-01-01T00:00:00Z","name_a2s":"Uncletopia | London | 8 | Community","protocol":17,"map":"cp_dustbowl","folder":"tf","game":"Team Fortress","app_id":440,"player_count":0,"max_players":24,"Bots":0,"server_type":"Dedicated","server_os":"Linux","password":true,"vac":true,"version":"7695204","steam_id":85568392924964315,"keywords":["cp","nocrits","nodmgspread","uncletopia"],"game_id":440,"stv_port":0,"stv_name":"","players":null},{"server_id":300,"name":"Uncletopia | Montréal | 1 | All Maps","name_short":"mtl-1","host":"mtl-1.ca.uncletopia.com","port":27015,"enabled":true,"region":"us-east","cc":"ca","latitude":45.50889,"longitude":-73.56167,"reserved":0,"last_update":"0001-01-01T00:00:00Z","name_a2s":"Uncletopia | Montréal | 1 | All Maps","protocol":17,"map":"koth_highpass","folder":"tf","game":"Team Fortress","app_id":440,"player_count":0,"max_players":24,"Bots":0,"server_type":"Dedicated","server_os":"Linux","password":true,"vac":true,"version":"7695204","steam_id":85568392924500087,"keywords":["cp","nocrits","nodmgspread","uncletopia"],"game_id":440,"stv_port":27016,"stv_name":"Uncletopia | Montréal | 1 | All Maps | STV","players":null},{"server_id":301,"name":"Uncletopia | Montréal | 2 | All Maps","name_short":"mtl-2","host":"mtl-1.ca.uncletopia.com","port":27025,"enabled":true,"region":"us-east","cc":"ca","latitude":45.50889,"longitude":-73.56167,"reserved":0,"last_update":"0001-01-01T00:00:00Z","name_a2s":"Uncletopia | Montréal | 2 | All Maps","protocol":17,"map":"cp_snakewater_final1","folder":"tf","game":"Team Fortress","app_id":440,"player_count":0,"max_players":24,"Bots":0,"server_type":"Dedicated","server_os":"Linux","password":true,"vac":true,"version":"7695204","steam_id":85568392924500088,"keywords":["cp","nocrits","nodmgspread","uncletopia"],"game_id":440,"stv_port":27026,"stv_name":"Uncletopia | Montréal | 2 | All Maps | STV","players":null},{"server_id":302,"name":"Uncletopia | Montréal | 3 | All Maps","name_short":"mtl-3","host":"mtl-1.ca.uncletopia.com","port":27035,"enabled":true,"region":"us-east","cc":"ca","latitude":45.50889,"longitude":-73.56167,"reserved":0,"last_update":"0001-01-01T00:00:00Z","name_a2s":"Uncletopia | Montréal | 3 | All Maps","protocol":17,"map":"koth_viaduct","folder":"tf","game":"Team Fortress","app_id":440,"player_count":0,"max_players":24,"Bots":0,"server_type":"Dedicated","server_os":"Linux","password":true,"vac":true,"version":"7695204","steam_id":85568392924500089,"keywords":["cp","nocrits","nodmgspread","uncletopia"],"game_id":440,"stv_port":0,"stv_name":"","players":null},{"server_id":303,"name":"Uncletopia | Montréal | 4 | No Payload","name_short":"mtl-4","host":"mtl-1.ca.uncletopia.com","port":27045,"enabled":true,"region":"us-east","cc":"ca","latitude":45.50889,"longitude":-73.56167,"reserved":0,"last_update":"0001-01-01T00:00:00Z","name_a2s":"Uncletopia | Montréal | 4 | No Payload","protocol":17,"map":"plr_pipeline","folder":"tf","game":"Team Fortress","app_id":440,"player_count":0,"max_players":24,"Bots":0,"server_type":"Dedicated","server_os":"Linux","password":true,"vac":true,"version":"7695204","steam_id":85568392924500090,"keywords":["nocrits","nodmgspread","payload","uncletopia"],"game_id":440,"stv_port":27046,"stv_name":"Uncletopia | Montréal | 4 | No Payload | STV","players":null},{"server_id":13,"name":"Uncletopia | New York City | 1 | All Maps","name_short":"nyc-1","host":"nyc-1.us.uncletopia.com","port":27015,"enabled":true,"region":"us-east","cc":"us","latitude":40.73061,"longitude":-73.93524,"reserved":0,"last_update":"0001-01-01T00:00:00Z","name_a2s":"Uncletopia | New York City | 1 | All Maps","protocol":17,"map":"pl_borneo","folder":"tf","game":"Team Fortress","app_id":440,"player_count":0,"max_players":24,"Bots":0,"server_type":"Dedicated","server_os":"Linux","password":true,"vac":true,"version":"7695204","steam_id":85568392924469993,"keywords":["nocrits","nodmgspread","payload","uncletopia"],"game_id":440,"stv_port":27016,"stv_name":"Uncletopia | New York City | 1 | All Maps | STV","players":null},{"server_id":14,"name":"Uncletopia | New York City | 2 | All Maps","name_short":"nyc-2","host":"nyc-1.us.uncletopia.com","port":27025,"enabled":true,"region":"us-east","cc":"us","latitude":40.73061,"longitude":-73.93524,"reserved":0,"last_update":"0001-01-01T00:00:00Z","name_a2s":"Uncletopia | New York City | 2 | All Maps","protocol":17,"map":"pl_swiftwater_final1","folder":"tf","game":"Team Fortress","app_id":440,"player_count":21,"max_players":24,"Bots":0,"server_type":"Dedicated","server_os":"Linux","password":true,"vac":true,"version":"7695204","steam_id":85568392924469994,"keywords":["nocrits","nodmgspread","payload","uncletopia"],"game_id":440,"stv_port":27026,"stv_name":"Uncletopia | New York City | 2 | All Maps | STV","players":[{"user_id":699,"name":"Flu","steam_id":76561197982138904,"connected_time":2174000000000,"state":"active","ping":77},{"user_id":709,"name":"Halcyon","steam_id":76561197999409268,"connected_time":133000000000,"state":"active","ping":55},{"user_id":655,"name":"ansoonii","steam_id":76561198092494136,"connected_time":4231000000000,"state":"active","ping":80},{"user_id":700,"name":"Pimp_Enlarge","steam_id":76561198055525094,"connected_time":2080000000000,"state":"active","ping":111},{"user_id":605,"name":"Casual Costanza","steam_id":76561198024409325,"connected_time":8108000000000,"state":"active","ping":63},{"user_id":708,"name":"segway cop","steam_id":76561198225609936,"connected_time":186000000000,"state":"active","ping":43},{"user_id":683,"name":"benzo(k)fluoranthene","steam_id":76561198183889254,"connected_time":3076000000000,"state":"active","ping":64},{"user_id":610,"name":"Basically a free kill","steam_id":76561198002162167,"connected_time":7851000000000,"state":"active","ping":139},{"user_id":676,"name":"TH0DER","steam_id":76561198165530604,"connected_time":3453000000000,"state":"active","ping":111},{"user_id":684,"name":"tel aviv tattler","steam_id":76561198013520234,"connected_time":3072000000000,"state":"active","ping":48},{"user_id":701,"name":"Nosferatu","steam_id":76561198048205270,"connected_time":1964000000000,"state":"active","ping":58},{"user_id":710,"name":"Scooter O'Boyl","steam_id":76561197971687069,"connected_time":30000000000,"state":"active","ping":56},{"user_id":616,"name":"ඞ","steam_id":76561198275101482,"connected_time":7413000000000,"state":"active","ping":121},{"user_id":711,"name":"Yongle","steam_id":76561198068591156,"connected_time":5000000000,"state":"spawning","ping":81},{"user_id":706,"name":"Fever Dreams","steam_id":76561198116614620,"connected_time":1131000000000,"state":"active","ping":87},{"user_id":634,"name":"Riske","steam_id":76561198115840568,"connected_time":6844000000000,"state":"active","ping":63},{"user_id":666,"name":"Xbox_Pro_2016","steam_id":76561198176126519,"connected_time":3658000000000,"state":"active","ping":54},{"user_id":664,"name":"Martin Looter King 8)","steam_id":76561198010301281,"connected_time":3734000000000,"state":"active","ping":59},{"user_id":670,"name":"ZachTBH","steam_id":76561198028431126,"connected_time":3622000000000,"state":"active","ping":96},{"user_id":697,"name":"Amaretto Sour","steam_id":76561198063112844,"connected_time":2238000000000,"state":"active","ping":60},{"user_id":702,"name":"reis","steam_id":76561199232952016,"connected_time":1528000000000,"state":"active","ping":165}]},{"server_id":15,"name":"Uncletopia | New York City | 3 | All Maps","name_short":"nyc-3","host":"nyc-1.us.uncletopia.com","port":27035,"enabled":true,"region":"us-east","cc":"us","latitude":40.73061,"longitude":-73.93524,"reserved":0,"last_update":"0001-01-01T00:00:00Z","name_a2s":"Uncletopia | New York City | 3 | All Maps","protocol":17,"map":"pl_barnblitz","folder":"tf","game":"Team Fortress","app_id":440,"player_count":25,"max_players":24,"Bots":0,"server_type":"Dedicated","server_os":"Linux","password":true,"vac":true,"version":"7695204","steam_id":85568392924742820,"keywords":["nocrits","nodmgspread","payload","uncletopia"],"game_id":440,"stv_port":27036,"stv_name":"Uncletopia | New York City | 3 | All Maps | STV","players":[{"user_id":211,"name":"{[F.H]} Hydroida","steam_id":76561197999797274,"connected_time":2567000000000,"state":"active","ping":62},{"user_id":226,"name":"breadBREH","steam_id":76561199260475539,"connected_time":1627000000000,"state":"active","ping":97},{"user_id":232,"name":"Death_Esquire","steam_id":76561198372526899,"connected_time":472000000000,"state":"active","ping":63},{"user_id":223,"name":"sewer rat","steam_id":76561198077439259,"connected_time":1770000000000,"state":"active","ping":91},{"user_id":203,"name":"The15th1205","steam_id":76561198063487868,"connected_time":3177000000000,"state":"active","ping":51},{"user_id":193,"name":"Plain Toast","steam_id":76561198451580251,"connected_time":3596000000000,"state":"active","ping":73},{"user_id":198,"name":"Gas Powered Fish","steam_id":76561198162268605,"connected_time":3346000000000,"state":"active","ping":92},{"user_id":233,"name":"hoots","steam_id":76561198015609525,"connected_time":450000000000,"state":"active","ping":50},{"user_id":224,"name":"fitotutus","steam_id":76561197974993253,"connected_time":1728000000000,"state":"active","ping":74},{"user_id":133,"name":"poobis","steam_id":76561198094801861,"connected_time":8950000000000,"state":"active","ping":87},{"user_id":201,"name":"davidflyswag","steam_id":76561198979060652,"connected_time":3206000000000,"state":"active","ping":75},{"user_id":134,"name":"ow#n","steam_id":76561198048969516,"connected_time":8929000000000,"state":"active","ping":121},{"user_id":230,"name":"Egoleo","steam_id":76561198079107785,"connected_time":717000000000,"state":"active","ping":99},{"user_id":221,"name":"not skinless (i have skin)","steam_id":76561198214138391,"connected_time":1826000000000,"state":"active","ping":103},{"user_id":236,"name":"uu","steam_id":76561197994492154,"connected_time":391000000000,"state":"active","ping":139},{"user_id":235,"name":"floof","steam_id":76561198167756375,"connected_time":424000000000,"state":"active","ping":107},{"user_id":107,"name":"hahafunny21","steam_id":76561199045893767,"connected_time":11646000000000,"state":"active","ping":83},{"user_id":35,"name":"BMongrel","steam_id":76561198072166677,"connected_time":17252000000000,"state":"active","ping":73},{"user_id":217,"name":"Broggle","steam_id":76561199145984492,"connected_time":1972000000000,"state":"active","ping":79},{"user_id":229,"name":"mr.captaink4","steam_id":76561198950929347,"connected_time":971000000000,"state":"active","ping":68},{"user_id":210,"name":"Merkshadows","steam_id":76561199023957463,"connected_time":2635000000000,"state":"active","ping":103},{"user_id":214,"name":"Chat only you baloney d=","steam_id":76561198847974905,"connected_time":2454000000000,"state":"active","ping":112},{"user_id":231,"name":"ElephantBlog","steam_id":76561198052905261,"connected_time":687000000000,"state":"active","ping":55},{"user_id":249,"name":"BlurryChase","steam_id":76561198068372573,"connected_time":0,"state":"spawning","ping":43},{"user_id":44,"name":"Big Domino","steam_id":76561198055743516,"connected_time":17150000000000,"state":"active","ping":56}]},{"server_id":16,"name":"Uncletopia | New York City | 4 | Community","name_short":"nyc-4","host":"nyc-1.us.uncletopia.com","port":27045,"enabled":true,"region":"us-east","cc":"us","latitude":40.73061,"longitude":-73.93524,"reserved":0,"last_update":"0001-01-01T00:00:00Z","name_a2s":"Uncletopia | New York City | 4 | Community","protocol":17,"map":"workshop/pl_vigil_rc9.ugc1266210012","folder":"tf","game":"Team Fortress","app_id":440,"player_count":0,"max_players":24,"Bots":0,"server_type":"Dedicated","server_os":"Linux","password":true,"vac":true,"version":"7695204","steam_id":85568392924742821,"keywords":["nocrits","nodmgspread","payload","uncletopia"],"game_id":440,"stv_port":27046,"stv_name":"Uncletopia | New York City | 4 | Community | STV","players":null},{"server_id":142,"name":"Uncletopia | São Paulo | 1 | All Maps","name_short":"sao-1","host":"sao-1.br.uncletopia.com","port":27015,"enabled":true,"region":"sa","cc":"br","latitude":-23.533773,"longitude":-46.62529,"reserved":0,"last_update":"0001-01-01T00:00:00Z","name_a2s":"Uncletopia | São Paulo | 1 | All Maps","protocol":17,"map":"cp_snakewater_final1","folder":"tf","game":"Team Fortress","app_id":440,"player_count":0,"max_players":24,"Bots":0,"server_type":"Dedicated","server_os":"Linux","password":true,"vac":true,"version":"7695204","steam_id":85568392924469996,"keywords":["cp","nocrits","nodmgspread","uncletopia"],"game_id":440,"stv_port":27016,"stv_name":"Uncletopia | São Paulo | 1 | All Maps | STV","players":null},{"server_id":143,"name":"Uncletopia | São Paulo | 2 | All Maps","name_short":"sao-2","host":"sao-2.br.uncletopia.com","port":27015,"enabled":true,"region":"sa","cc":"br","latitude":-23.533773,"longitude":-46.62529,"reserved":0,"last_update":"0001-01-01T00:00:00Z","name_a2s":"Uncletopia | São Paulo | 2 | All Maps","protocol":17,"map":"koth_highpass","folder":"tf","game":"Team Fortress","app_id":440,"player_count":0,"max_players":24,"Bots":0,"server_type":"Dedicated","server_os":"Linux","password":true,"vac":true,"version":"7695204","steam_id":85568392924485349,"keywords":["cp","nocrits","nodmgspread","uncletopia"],"game_id":440,"stv_port":27016,"stv_name":"Uncletopia | São Paulo | 2 | All Maps | STV","players":null},{"server_id":7,"name":"Uncletopia | Seattle | 1 | All Maps","name_short":"sea-1","host":"sea-1.us.uncletopia.com","port":27015,"enabled":true,"region":"us-west","cc":"us","latitude":47.608013,"longitude":-122.33517,"reserved":0,"last_update":"0001-01-01T00:00:00Z","name_a2s":"Uncletopia | Seattle | 1 | All Maps","protocol":17,"map":"cp_gorge","folder":"tf","game":"Team Fortress","app_id":440,"player_count":24,"max_players":24,"Bots":0,"server_type":"Dedicated","server_os":"Linux","password":true,"vac":true,"version":"7695204","steam_id":85568392924469997,"keywords":["cp","nocrits","nodmgspread","uncletopia"],"game_id":440,"stv_port":27016,"stv_name":"Uncletopia | Seattle | 1 | All Maps | STV","players":[{"user_id":533,"name":"cybercat","steam_id":76561199120774107,"connected_time":2381000000000,"state":"active","ping":69},{"user_id":542,"name":"SvicidalBug","steam_id":76561198221390504,"connected_time":1244000000000,"state":"active","ping":62},{"user_id":554,"name":"Taint","steam_id":76561198121610238,"connected_time":57000000000,"state":"active","ping":51},{"user_id":502,"name":"Junko","steam_id":76561198146089003,"connected_time":4310000000000,"state":"active","ping":100},{"user_id":521,"name":"Level 99 Mudcrab","steam_id":76561198077452771,"connected_time":3629000000000,"state":"active","ping":59},{"user_id":537,"name":"Blackbeard","steam_id":76561198046952265,"connected_time":1478000000000,"state":"active","ping":45},{"user_id":552,"name":"King Keifer","steam_id":76561198141070466,"connected_time":159000000000,"state":"active","ping":48},{"user_id":550,"name":"An Old Lady","steam_id":76561198047480318,"connected_time":184000000000,"state":"active","ping":77},{"user_id":522,"name":"Xyvanereth","steam_id":76561198844137326,"connected_time":3576000000000,"state":"active","ping":39},{"user_id":535,"name":"Sir Loincloth","steam_id":76561198033073991,"connected_time":1554000000000,"state":"active","ping":61},{"user_id":543,"name":"Dreamy Sweat from 2hu","steam_id":76561198094602446,"connected_time":1056000000000,"state":"active","ping":50},{"user_id":546,"name":"kab789","steam_id":76561198069842202,"connected_time":722000000000,"state":"active","ping":107},{"user_id":553,"name":"Reisen Udongein Inaba","steam_id":76561198051082314,"connected_time":158000000000,"state":"active","ping":74},{"user_id":532,"name":"Anchor","steam_id":76561197987177933,"connected_time":2684000000000,"state":"active","ping":97},{"user_id":497,"name":"ÒwÓ","steam_id":76561197997304387,"connected_time":4779000000000,"state":"active","ping":102},{"user_id":523,"name":"Arsonist Goose","steam_id":76561198147441830,"connected_time":3567000000000,"state":"active","ping":74},{"user_id":548,"name":"bappo del taco","steam_id":76561199068510270,"connected_time":704000000000,"state":"active","ping":67},{"user_id":534,"name":"Kenpachi","steam_id":76561198803824764,"connected_time":1987000000000,"state":"active","ping":73},{"user_id":517,"name":"Joker Joestar","steam_id":76561198115696839,"connected_time":3850000000000,"state":"active","ping":102},{"user_id":539,"name":"Fachedin","steam_id":76561198041850415,"connected_time":1428000000000,"state":"active","ping":69},{"user_id":549,"name":"Smeven","steam_id":76561198271977651,"connected_time":661000000000,"state":"active","ping":63},{"user_id":525,"name":"MG","steam_id":76561197980131846,"connected_time":3482000000000,"state":"active","ping":74},{"user_id":541,"name":"Mike Bean Burritos","steam_id":76561198173430607,"connected_time":1340000000000,"state":"active","ping":47},{"user_id":551,"name":"ed","steam_id":76561198080475712,"connected_time":182000000000,"state":"active","ping":67}]},{"server_id":119,"name":"Uncletopia | Seattle | 2 | All Maps","name_short":"sea-2","host":"sea-1.us.uncletopia.com","port":27025,"enabled":true,"region":"us-west","cc":"us","latitude":47.608013,"longitude":-122.33517,"reserved":0,"last_update":"0001-01-01T00:00:00Z","name_a2s":"Uncletopia | Seattle | 2 | All Maps","protocol":17,"map":"pl_upward","folder":"tf","game":"Team Fortress","app_id":440,"player_count":24,"max_players":24,"Bots":0,"server_type":"Dedicated","server_os":"Linux","password":true,"vac":true,"version":"7695204","steam_id":85568392924469998,"keywords":["nocrits","nodmgspread","payload","uncletopia"],"game_id":440,"stv_port":27026,"stv_name":"Uncletopia | Seattle | 2 | All Maps | STV","players":[{"user_id":619,"name":"sara","steam_id":76561198283462369,"connected_time":1327000000000,"state":"active","ping":87},{"user_id":576,"name":"Swayze","steam_id":76561198138015867,"connected_time":3978000000000,"state":"active","ping":48},{"user_id":620,"name":"GUINNESS ANYONE?","steam_id":76561197985970131,"connected_time":1195000000000,"state":"active","ping":118},{"user_id":535,"name":"JJP","steam_id":76561198032914094,"connected_time":6752000000000,"state":"active","ping":67},{"user_id":624,"name":"kermitcreeper(ZAZA)","steam_id":76561199222829972,"connected_time":391000000000,"state":"active","ping":112},{"user_id":604,"name":"Naffers","steam_id":76561198195957335,"connected_time":2299000000000,"state":"active","ping":43},{"user_id":570,"name":"pasta b0i","steam_id":76561198088131563,"connected_time":4527000000000,"state":"active","ping":80},{"user_id":622,"name":"goldhed","steam_id":76561198051751133,"connected_time":982000000000,"state":"active","ping":59},{"user_id":598,"name":"GUITAR GAMING!!!","steam_id":76561198199604767,"connected_time":3022000000000,"state":"active","ping":53},{"user_id":594,"name":"Team Fortress 2 Gaming","steam_id":76561198056866024,"connected_time":3136000000000,"state":"active","ping":50},{"user_id":608,"name":"SIMAX","steam_id":76561199243011400,"connected_time":2038000000000,"state":"active","ping":80},{"user_id":609,"name":"pandora da king","steam_id":76561198075490385,"connected_time":1976000000000,"state":"active","ping":76},{"user_id":611,"name":"Bubbamanme","steam_id":76561198119778504,"connected_time":1950000000000,"state":"active","ping":52},{"user_id":626,"name":"bullet man","steam_id":76561198080058079,"connected_time":217000000000,"state":"active","ping":55},{"user_id":585,"name":"mumbles","steam_id":76561197994528974,"connected_time":3550000000000,"state":"active","ping":88},{"user_id":618,"name":"PoonaniTsunami","steam_id":76561197965367308,"connected_time":1615000000000,"state":"active","ping":44},{"user_id":575,"name":"Allotrope","steam_id":76561197998450103,"connected_time":4094000000000,"state":"active","ping":89},{"user_id":571,"name":"LynBoByn","steam_id":76561198052911142,"connected_time":4414000000000,"state":"active","ping":123},{"user_id":614,"name":"taishang","steam_id":76561198065328284,"connected_time":1848000000000,"state":"active","ping":99},{"user_id":627,"name":"Frongus","steam_id":76561197979056451,"connected_time":157000000000,"state":"active","ping":45},{"user_id":616,"name":"OmniXVII","steam_id":76561198027183394,"connected_time":1749000000000,"state":"active","ping":89},{"user_id":591,"name":"ShielÐ","steam_id":76561198102884594,"connected_time":3199000000000,"state":"active","ping":62},{"user_id":628,"name":"explosives anonymous","steam_id":76561198141862936,"connected_time":73000000000,"state":"active","ping":61},{"user_id":593,"name":"Cam","steam_id":76561198047295832,"connected_time":3191000000000,"state":"active","ping":77}]},{"server_id":17,"name":"Uncletopia | San Francisco | 1 | All Maps","name_short":"sfo-1","host":"sfo-1.us.uncletopia.com","port":27015,"enabled":true,"region":"us-west","cc":"us","latitude":37.77397,"longitude":-122.4313,"reserved":0,"last_update":"0001-01-01T00:00:00Z","name_a2s":"Uncletopia | San Francisco | 1 | All Maps","protocol":17,"map":"pl_frontier_final","folder":"tf","game":"Team Fortress","app_id":440,"player_count":15,"max_players":24,"Bots":0,"server_type":"Dedicated","server_os":"Linux","password":true,"vac":true,"version":"7695204","steam_id":85568392924469999,"keywords":["nocrits","nodmgspread","payload","uncletopia"],"game_id":440,"stv_port":27016,"stv_name":"Uncletopia | San Francisco | 1 | All Maps | STV","players":[{"user_id":919,"name":"ElectronX","steam_id":76561198116034988,"connected_time":1666000000000,"state":"active","ping":44},{"user_id":920,"name":"zig","steam_id":76561199020345303,"connected_time":1651000000000,"state":"active","ping":53},{"user_id":892,"name":"Can You Feel It Mr.Krabs","steam_id":76561198128302414,"connected_time":3357000000000,"state":"active","ping":62},{"user_id":905,"name":"Madvillain","steam_id":76561198037734204,"connected_time":2452000000000,"state":"active","ping":40},{"user_id":950,"name":"Seagoll","steam_id":76561198017953606,"connected_time":206000000000,"state":"active","ping":100},{"user_id":898,"name":"Cypress","steam_id":76561198070560915,"connected_time":3020000000000,"state":"active","ping":60},{"user_id":931,"name":"Joe (Mother)","steam_id":76561198054822700,"connected_time":1356000000000,"state":"active","ping":43},{"user_id":921,"name":"archduke of osha violations","steam_id":76561198177717465,"connected_time":1647000000000,"state":"active","ping":122},{"user_id":951,"name":"Amogous Supreme","steam_id":76561198025476774,"connected_time":187000000000,"state":"active","ping":47},{"user_id":922,"name":"backyard scientist","steam_id":76561198879205905,"connected_time":1641000000000,"state":"active","ping":73},{"user_id":924,"name":"SwineFlu","steam_id":76561197989014109,"connected_time":1591000000000,"state":"active","ping":66},{"user_id":870,"name":"DeckofDragons","steam_id":76561198057398213,"connected_time":5168000000000,"state":"active","ping":65},{"user_id":909,"name":"Sad Sapling","steam_id":76561198075612150,"connected_time":2276000000000,"state":"active","ping":61},{"user_id":933,"name":"dumb rat","steam_id":76561198048998504,"connected_time":1216000000000,"state":"active","ping":33},{"user_id":929,"name":"GLUMBc9bonkhelmscout","steam_id":76561198304265800,"connected_time":1402000000000,"state":"active","ping":79}]},{"server_id":18,"name":"Uncletopia | San Francisco | 2 | All Maps","name_short":"sfo-2","host":"sfo-1.us.uncletopia.com","port":27025,"enabled":true,"region":"us-west","cc":"us","latitude":37.77397,"longitude":-122.4313,"reserved":0,"last_update":"0001-01-01T00:00:00Z","name_a2s":"Uncletopia | San Francisco | 2 | All Maps","protocol":17,"map":"koth_lakeside_final","folder":"tf","game":"Team Fortress","app_id":440,"player_count":2,"max_players":24,"Bots":0,"server_type":"Dedicated","server_os":"Linux","password":true,"vac":true,"version":"7695204","steam_id":85568392924470000,"keywords":["cp","nocrits","nodmgspread","uncletopia"],"game_id":440,"stv_port":27026,"stv_name":"Uncletopia | San Francisco | 2 | All Maps | STV","players":[{"user_id":16,"name":"EatSomeBEES","steam_id":76561198047334307,"connected_time":794000000000,"state":"active","ping":62},{"user_id":17,"name":"DragonNinja2002","steam_id":76561199075606157,"connected_time":643000000000,"state":"active","ping":52}]},{"server_id":19,"name":"Uncletopia | San Francisco | 3 | No Payload","name_short":"sfo-3","host":"sfo-1.us.uncletopia.com","port":27035,"enabled":true,"region":"us-west","cc":"us","latitude":37.77397,"longitude":-122.4313,"reserved":0,"last_update":"0001-01-01T00:00:00Z","name_a2s":"Uncletopia | San Francisco | 3 | No Payload","protocol":17,"map":"koth_harvest_final","folder":"tf","game":"Team Fortress","app_id":440,"player_count":0,"max_players":24,"Bots":0,"server_type":"Dedicated","server_os":"Linux","password":true,"vac":true,"version":"7695204","steam_id":85568392924742824,"keywords":["cp","nocrits","nodmgspread","uncletopia"],"game_id":440,"stv_port":27036,"stv_name":"Uncletopia | San Francisco | 3 | No Payload | STV","players":null},{"server_id":20,"name":"Uncletopia | San Francisco | 4 | Community","name_short":"sfo-4","host":"sfo-1.us.uncletopia.com","port":27045,"enabled":true,"region":"us-west","cc":"us","latitude":37.77397,"longitude":-122.4313,"reserved":0,"last_update":"0001-01-01T00:00:00Z","name_a2s":"Uncletopia | San Francisco | 4 | Community","protocol":17,"map":"koth_highpass","folder":"tf","game":"Team Fortress","app_id":440,"player_count":0,"max_players":24,"Bots":0,"server_type":"Dedicated","server_os":"Linux","password":true,"vac":true,"version":"7695204","steam_id":85568392924742826,"keywords":["cp","nocrits","nodmgspread","uncletopia"],"game_id":440,"stv_port":0,"stv_name":"","players":null},{"server_id":141,"name":"Uncletopia | Sydney | 1 | All Maps","name_short":"syd-1","host":"syd-1.au.uncletopia.com","port":27015,"enabled":true,"region":"au","cc":"au","latitude":-33.865143,"longitude":151.2099,"reserved":0,"last_update":"0001-01-01T00:00:00Z","name_a2s":"Uncletopia | Sydney | 1 | All Maps","protocol":17,"map":"cp_process_final","folder":"tf","game":"Team Fortress","app_id":440,"player_count":24,"max_players":24,"Bots":0,"server_type":"Dedicated","server_os":"Linux","password":true,"vac":true,"version":"7695204","steam_id":85568392924470001,"keywords":["cp","nocrits","nodmgspread","uncletopia"],"game_id":440,"stv_port":27016,"stv_name":"Uncletopia | Sydney | 1 | All Maps | STV","players":[{"user_id":358,"name":"viirv","steam_id":76561198190097862,"connected_time":2667000000000,"state":"active","ping":66},{"user_id":379,"name":"Azzy","steam_id":76561198096245286,"connected_time":739000000000,"state":"active","ping":52},{"user_id":377,"name":"Dingo","steam_id":76561198315774295,"connected_time":759000000000,"state":"active","ping":61},{"user_id":372,"name":"bill","steam_id":76561198066726621,"connected_time":1571000000000,"state":"active","ping":45},{"user_id":376,"name":"o p t i v e","steam_id":76561198131756192,"connected_time":765000000000,"state":"active","ping":87},{"user_id":385,"name":"AzureFox","steam_id":76561198108179408,"connected_time":630000000000,"state":"active","ping":95},{"user_id":380,"name":"sat_","steam_id":76561198170693338,"connected_time":711000000000,"state":"active","ping":85},{"user_id":340,"name":"headstomper69","steam_id":76561198025887810,"connected_time":4043000000000,"state":"active","ping":51},{"user_id":247,"name":"SBS | uber_gamer92","steam_id":76561198029766209,"connected_time":13152000000000,"state":"active","ping":54},{"user_id":342,"name":"blicky","steam_id":76561198029829077,"connected_time":3934000000000,"state":"active","ping":90},{"user_id":371,"name":"scubasteve","steam_id":76561198101975391,"connected_time":1903000000000,"state":"active","ping":47},{"user_id":388,"name":"Kintaro","steam_id":76561199400481258,"connected_time":430000000000,"state":"active","ping":40},{"user_id":387,"name":"TW_light2022","steam_id":76561199393566784,"connected_time":536000000000,"state":"active","ping":66},{"user_id":330,"name":"table","steam_id":76561199218095319,"connected_time":5398000000000,"state":"active","ping":49},{"user_id":381,"name":"Skulls","steam_id":76561197985470159,"connected_time":700000000000,"state":"active","ping":60},{"user_id":389,"name":"Tees","steam_id":76561199174602317,"connected_time":348000000000,"state":"active","ping":55},{"user_id":370,"name":"Akunébíokwudigbo","steam_id":76561198197777382,"connected_time":2016000000000,"state":"active","ping":50},{"user_id":369,"name":"shirt without the r","steam_id":76561199071810220,"connected_time":2101000000000,"state":"active","ping":60},{"user_id":382,"name":"verb","steam_id":76561198103206527,"connected_time":676000000000,"state":"active","ping":45},{"user_id":383,"name":"l.ion","steam_id":76561198261172910,"connected_time":675000000000,"state":"active","ping":47},{"user_id":352,"name":"On My Way to Smooch You, I Am","steam_id":76561198041713339,"connected_time":3075000000000,"state":"active","ping":70},{"user_id":384,"name":"carrot monster","steam_id":76561199056025092,"connected_time":650000000000,"state":"active","ping":47},{"user_id":390,"name":"Reddaye","steam_id":76561198025232124,"connected_time":166000000000,"state":"active","ping":44},{"user_id":331,"name":"Captain Canadia","steam_id":76561198167967735,"connected_time":5130000000000,"state":"active","ping":53}]},{"server_id":123,"name":"Uncletopia | Sydney | 2 | All Maps","name_short":"syd-2","host":"syd-1.au.uncletopia.com","port":27025,"enabled":true,"region":"au","cc":"au","latitude":-33.865143,"longitude":151.2099,"reserved":0,"last_update":"0001-01-01T00:00:00Z","name_a2s":"Uncletopia | Sydney | 2 | All Maps","protocol":17,"map":"koth_highpass","folder":"tf","game":"Team Fortress","app_id":440,"player_count":0,"max_players":24,"Bots":0,"server_type":"Dedicated","server_os":"Linux","password":true,"vac":true,"version":"7695204","steam_id":85568392924470002,"keywords":["cp","nocrits","nodmgspread","uncletopia"],"game_id":440,"stv_port":27026,"stv_name":"Uncletopia | Sydney | 2 | All Maps | STV","players":null},{"server_id":395,"name":"Uncletopia | Sydney | 3 | All Maps","name_short":"syd-3","host":"syd-1.au.uncletopia.com","port":27035,"enabled":true,"region":"au","cc":"au","latitude":-33.865143,"longitude":151.2099,"reserved":0,"last_update":"0001-01-01T00:00:00Z","name_a2s":"Uncletopia | Sydney | 3 | All Maps","protocol":17,"map":"koth_highpass","folder":"tf","game":"Team Fortress","app_id":440,"player_count":0,"max_players":24,"Bots":0,"server_type":"Dedicated","server_os":"Linux","password":true,"vac":true,"version":"7695204","steam_id":85568392925194467,"keywords":["cp","nocrits","nodmgspread","uncletopia"],"game_id":440,"stv_port":27036,"stv_name":"Uncletopia | Sydney | 3 | All Maps | STV","players":null},{"server_id":396,"name":"Uncletopia | Sydney | 4 | All Maps","name_short":"syd-4","host":"syd-1.au.uncletopia.com","port":27045,"enabled":true,"region":"au","cc":"au","latitude":-33.865143,"longitude":151.2099,"reserved":0,"last_update":"0001-01-01T00:00:00Z","name_a2s":"Uncletopia | Sydney | 4 | All Maps","protocol":17,"map":"koth_cascade","folder":"tf","game":"Team Fortress","app_id":440,"player_count":24,"max_players":24,"Bots":0,"server_type":"Dedicated","server_os":"Linux","password":true,"vac":true,"version":"7695204","steam_id":85568392925397958,"keywords":["cp","nocrits","nodmgspread","uncletopia"],"game_id":440,"stv_port":27046,"stv_name":"Uncletopia | Sydney | 4 | All Maps | STV","players":[{"user_id":178,"name":"UglyBarnicle","steam_id":76561198075921599,"connected_time":775000000000,"state":"active","ping":96},{"user_id":179,"name":"Rashid Of The Dank Memes","steam_id":76561198281398078,"connected_time":760000000000,"state":"active","ping":59},{"user_id":180,"name":"Madison Ivy","steam_id":76561198074674290,"connected_time":758000000000,"state":"active","ping":60},{"user_id":151,"name":"Yeehaw","steam_id":76561198039684922,"connected_time":3880000000000,"state":"active","ping":41},{"user_id":63,"name":"tropical mango brain aneurysm","steam_id":76561199005815714,"connected_time":9987000000000,"state":"active","ping":58},{"user_id":141,"name":"KeeperOfBalance","steam_id":76561198028070089,"connected_time":4680000000000,"state":"active","ping":79},{"user_id":17,"name":"CoolJosh3k","steam_id":76561197997407342,"connected_time":14351000000000,"state":"active","ping":51},{"user_id":164,"name":"Soggy Con-Guog","steam_id":76561198115327706,"connected_time":2795000000000,"state":"active","ping":57},{"user_id":177,"name":"hendog","steam_id":76561198063477445,"connected_time":875000000000,"state":"active","ping":67},{"user_id":174,"name":"Big Booty Llama","steam_id":76561198074422721,"connected_time":1848000000000,"state":"active","ping":68},{"user_id":165,"name":"juddmandeluxe_","steam_id":76561198044228552,"connected_time":2792000000000,"state":"active","ping":66},{"user_id":173,"name":"PhatWifri","steam_id":76561198171490029,"connected_time":2109000000000,"state":"active","ping":55},{"user_id":136,"name":"Worst Sniper","steam_id":76561198025733081,"connected_time":5093000000000,"state":"active","ping":79},{"user_id":163,"name":"Pop_corny","steam_id":76561198400595110,"connected_time":2930000000000,"state":"active","ping":37},{"user_id":142,"name":"witchita!","steam_id":76561198951178401,"connected_time":4393000000000,"state":"active","ping":72},{"user_id":157,"name":"nahlhu","steam_id":76561198161550762,"connected_time":3303000000000,"state":"active","ping":64},{"user_id":170,"name":"toots","steam_id":76561198094589768,"connected_time":2293000000000,"state":"active","ping":69},{"user_id":184,"name":"shreb","steam_id":76561199000517547,"connected_time":341000000000,"state":"active","ping":110},{"user_id":158,"name":"barry","steam_id":76561198074859469,"connected_time":3232000000000,"state":"active","ping":53},{"user_id":181,"name":"EJ Knucks","steam_id":76561198948818351,"connected_time":742000000000,"state":"active","ping":59},{"user_id":182,"name":"Pendultan","steam_id":76561198375639770,"connected_time":499000000000,"state":"active","ping":51},{"user_id":176,"name":"Link","steam_id":76561198043171944,"connected_time":898000000000,"state":"active","ping":48},{"user_id":185,"name":"TheChiquenMahn","steam_id":76561198296335387,"connected_time":330000000000,"state":"active","ping":107},{"user_id":186,"name":"pneuma","steam_id":76561198310550094,"connected_time":44000000000,"state":"active","ping":56}]},{"server_id":58,"name":"Uncletopia | Sydney | 5 | No Payload","name_short":"syd-5","host":"syd-1.au.uncletopia.com","port":27055,"enabled":true,"region":"au","cc":"au","latitude":-33.865143,"longitude":151.2099,"reserved":0,"last_update":"0001-01-01T00:00:00Z","name_a2s":"Uncletopia | Sydney | 5 | No Payload","protocol":17,"map":"koth_viaduct","folder":"tf","game":"Team Fortress","app_id":440,"player_count":0,"max_players":24,"Bots":0,"server_type":"Dedicated","server_os":"Linux","password":true,"vac":true,"version":"7695204","steam_id":85568392925397959,"keywords":["cp","nocrits","nodmgspread","uncletopia"],"game_id":440,"stv_port":0,"stv_name":"","players":null},{"server_id":59,"name":"Uncletopia | Sydney | 6 | Community","name_short":"syd-6","host":"syd-1.au.uncletopia.com","port":27065,"enabled":true,"region":"au","cc":"au","latitude":-33.865143,"longitude":151.2099,"reserved":0,"last_update":"0001-01-01T00:00:00Z","name_a2s":"Uncletopia | Sydney | 6 | Community","protocol":17,"map":"workshop/koth_ashville_final.ugc2130459942","folder":"tf","game":"Team Fortress","app_id":440,"player_count":0,"max_players":24,"Bots":0,"server_type":"Dedicated","server_os":"Linux","password":true,"vac":true,"version":"7695204","steam_id":85568392925397960,"keywords":["cp","nocrits","nodmgspread","uncletopia"],"game_id":440,"stv_port":27066,"stv_name":"Uncletopia | Sydney | 6 | Community | STV","players":null},{"server_id":49,"name":"Uncletopia | Warsaw | 1 | All Maps","name_short":"waw-1","host":"waw-1.pl.uncletopia.com","port":27015,"enabled":true,"region":"eu","cc":"pl","latitude":52.2297,"longitude":21.017532,"reserved":0,"last_update":"0001-01-01T00:00:00Z","name_a2s":"Uncletopia | Warsaw | 1 | All Maps","protocol":17,"map":"pl_frontier_final","folder":"tf","game":"Team Fortress","app_id":440,"player_count":0,"max_players":24,"Bots":0,"server_type":"Dedicated","server_os":"Linux","password":true,"vac":true,"version":"7695204","steam_id":85568392925397850,"keywords":["nocrits","nodmgspread","payload","uncletopia"],"game_id":440,"stv_port":0,"stv_name":"","players":null},{"server_id":50,"name":"Uncletopia | Warsaw | 2 | All Maps","name_short":"waw-2","host":"waw-1.pl.uncletopia.com","port":27025,"enabled":true,"region":"eu","cc":"pl","latitude":52.2297,"longitude":21.017532,"reserved":0,"last_update":"0001-01-01T00:00:00Z","name_a2s":"Uncletopia | Warsaw | 2 | All Maps","protocol":17,"map":"cp_snakewater_final1","folder":"tf","game":"Team Fortress","app_id":440,"player_count":0,"max_players":24,"Bots":0,"server_type":"Dedicated","server_os":"Linux","password":true,"vac":true,"version":"7695204","steam_id":85568392925397851,"keywords":["cp","nocrits","nodmgspread","uncletopia"],"game_id":440,"stv_port":0,"stv_name":"","players":null},{"server_id":51,"name":"Uncletopia | Warsaw | 3 | All Maps","name_short":"waw-3","host":"waw-1.pl.uncletopia.com","port":27035,"enabled":true,"region":"eu","cc":"pl","latitude":52.2297,"longitude":21.017532,"reserved":0,"last_update":"0001-01-01T00:00:00Z","name_a2s":"Uncletopia | Warsaw | 3 | All Maps","protocol":17,"map":"pl_barnblitz","folder":"tf","game":"Team Fortress","app_id":440,"player_count":0,"max_players":24,"Bots":0,"server_type":"Dedicated","server_os":"Linux","password":true,"vac":true,"version":"7695204","steam_id":85568392925397852,"keywords":["nocrits","nodmgspread","payload","uncletopia"],"game_id":440,"stv_port":0,"stv_name":"","players":null},{"server_id":52,"name":"Uncletopia | Warsaw | 4 | All Maps","name_short":"waw-4","host":"waw-1.pl.uncletopia.com","port":27045,"enabled":true,"region":"eu","cc":"pl","latitude":52.2297,"longitude":21.017532,"reserved":0,"last_update":"0001-01-01T00:00:00Z","name_a2s":"Uncletopia | Warsaw | 4 | All Maps","protocol":17,"map":"cp_altitude","folder":"tf","game":"Team Fortress","app_id":440,"player_count":0,"max_players":24,"Bots":0,"server_type":"Dedicated","server_os":"Linux","password":true,"vac":true,"version":"7695204","steam_id":85568392925397853,"keywords":["cp","nocrits","nodmgspread","uncletopia"],"game_id":440,"stv_port":0,"stv_name":"","players":null},{"server_id":53,"name":"Uncletopia | Warsaw | 5 | No Payload","name_short":"waw-5","host":"waw-1.pl.uncletopia.com","port":27055,"enabled":true,"region":"eu","cc":"pl","latitude":52.2297,"longitude":21.017532,"reserved":0,"last_update":"0001-01-01T00:00:00Z","name_a2s":"Uncletopia | Warsaw | 5 | No Payload","protocol":17,"map":"pl_badwater","folder":"tf","game":"Team Fortress","app_id":440,"player_count":0,"max_players":24,"Bots":0,"server_type":"Dedicated","server_os":"Linux","password":true,"vac":true,"version":"7695204","steam_id":85568392925397854,"keywords":["nocrits","nodmgspread","payload","uncletopia"],"game_id":440,"stv_port":0,"stv_name":"","players":null},{"server_id":54,"name":"Uncletopia | Warsaw | 6 | Community","name_short":"waw-6","host":"waw-1.pl.uncletopia.com","port":27065,"enabled":true,"region":"eu","cc":"pl","latitude":52.2297,"longitude":21.017532,"reserved":0,"last_update":"0001-01-01T00:00:00Z","name_a2s":"Uncletopia | Warsaw | 6 | Community","protocol":17,"map":"pl_barnblitz","folder":"tf","game":"Team Fortress","app_id":440,"player_count":0,"max_players":24,"Bots":0,"server_type":"Dedicated","server_os":"Linux","password":true,"vac":true,"version":"7695204","steam_id":85568392925397856,"keywords":["nocrits","nodmgspread","payload","uncletopia"],"game_id":440,"stv_port":0,"stv_name":"","players":null}]}