{"status":true,"message":"","result":[{"server_id":9,"name":"Uncletopia | Atlanta | 1 | All Maps","name_short":"atl-1","host":"atl-1.us.uncletopia.com","port":27015,"enabled":true,"region":"us-east","cc":"us","latitude":33.753746,"longitude":-84.38633,"reserved":0,"last_update":"0001-01-01T00:00:00Z","name_a2s":"Uncletopia | Atlanta | 1 | All Maps","protocol":17,"map":"pl_swiftwater_final1","folder":"tf","game":"Team Fortress","app_id":440,"player_count":0,"max_players":24,"Bots":0,"server_type":"Dedicated","server_os":"Linux","password":true,"vac":true,"version":"7757534","steam_id":85568392924469982,"keywords":["nocrits","nodmgspread","payload","uncletopia"],"game_id":440,"stv_port":27016,"stv_name":"Uncletopia | Atlanta | 1 | All Maps | STV","players":null},{"server_id":400,"name":"Uncletopia | Atlanta | 3 | Community","name_short":"atl-3","host":"atl-1.us.uncletopia.com","port":27035,"enabled":true,"region":"us-east","cc":"us","latitude":33.753746,"longitude":-84.38633,"reserved":0,"last_update":"0001-01-01T00:00:00Z","name_a2s":"Uncletopia | Atlanta | 3 | Community","protocol":17,"map":"workshop/pl_vigil_rc9.ugc1266210012","folder":"tf","game":"Team Fortress","app_id":440,"player_count":0,"max_players":24,"Bots":0,"server_type":"Dedicated","server_os":"Linux","password":true,"vac":true,"version":"7757534","steam_id":85568392924515187,"keywords":["nocrits","nodmgspread","payload","uncletopia"],"game_id":440,"stv_port":27036,"stv_name":"Uncletopia | Atlanta | 3 | Community | STV","players":null},{"server_id":401,"name":"Uncletopia | Atlanta | 4 | No Payload","name_short":"atl-4","host":"atl-1.us.uncletopia.com","port":27045,"enabled":true,"region":"us-east","cc":"us","latitude":33.753746,"longitude":-84.38633,"reserved":0,"last_update":"0001-01-01T00:00:00Z","name_a2s":"","protocol":0,"map":"","folder":"","game":"","app_id":0,"player_count":0,"max_players":0,"Bots":0,"server_type":"","server_os":"","password":false,"vac":false,"version":"","steam_id":0,"keywords":null,"game_id":0,"stv_port":0,"stv_name":"","players":null},{"server_id":2,"name":"Uncletopia | Chicago | 1 | All Maps","name_short":"chi-1","host":"chi-1.us.uncletopia.com","port":27015,"enabled":true,"region":"us-central","cc":"us","latitude":41.881832,"longitude":-87.62318,"reserved":0,"last_update":"0001-01-01T00:00:00Z","name_a2s":"Uncletopia | Chicago | 1 | All Maps","protocol":17,"map":"koth_cascade","folder":"tf","game":"Team Fortress","app_id":440,"player_count":0,"max_players":24,"Bots":0,"server_type":"Dedicated","server_os":"Linux","password":true,"vac":true,"version":"7757534","steam_id":85568392924469984,"keywords":["cp","nocrits","nodmgspread","uncletopia"],"game_id":440,"stv_port":27016,"stv_name":"Uncletopia | Chicago | 1 | All Maps | STV","players":null},{"server_id":106,"name":"Uncletopia | Chicago | 2 | All Maps","name_short":"chi-2","host":"chi-1.us.uncletopia.com","port":27025,"enabled":true,"region":"us-central","cc":"us","latitude":41.881832,"longitude":-87.62318,"reserved":0,"last_update":"0001-01-01T00:00:00Z","name_a2s":"Uncletopia | Chicago | 2 | All Maps","protocol":17,"map":"pl_borneo","folder":"tf","game":"Team Fortress","app_id":440,"player_count":21,"max_players":24,"Bots":0,"server_type":"Dedicated","server_os":"Linux","password":true,"vac":true,"version":"7757534","steam_id":85568392924469985,"keywords":["nocrits","nodmgspread","payload","uncletopia"],"game_id":440,"stv_port":27026,"stv_name":"Uncletopia | Chicago | 2 | All Maps | STV","players":[{"user_id":372,"name":"leonardo doujinshi","steam_id":76561198025810326,"connected_time":971000000000,"state":"active","ping":65},{"user_id":385,"name":"unchmiri","steam_id":76561199181659125,"connected_time":339000000000,"state":"active","ping":75},{"user_id":381,"name":"Medic gaming","steam_id":76561199053687718,"connected_time":555000000000,"state":"active","ping":120},{"user_id":389,"name":"DagyDin","steam_id":76561199212257554,"connected_time":189000000000,"state":"active","ping":54},{"user_id":367,"name":"A bowl of cereal","steam_id":76561198237348656,"connected_time":1079000000000,"state":"active","ping":111},{"user_id":374,"name":"aaron","steam_id":76561198308883028,"connected_time":923000000000,"state":"active","ping":111},{"user_id":368,"name":"Omni","steam_id":76561198035774007,"connected_time":1075000000000,"state":"active","ping":72},{"user_id":255,"name":"blue gatorade","steam_id":76561198413125750,"connected_time":5292000000000,"state":"active","ping":64},{"user_id":256,"name":"roo the observer","steam_id":76561198120684348,"connected_time":5283000000000,"state":"active","ping":49},{"user_id":387,"name":"Raizen","steam_id":76561199092445367,"connected_time":264000000000,"state":"active","ping":45},{"user_id":375,"name":"creepycrawler","steam_id":76561198352016831,"connected_time":783000000000,"state":"active","ping":61},{"user_id":390,"name":"Resistance","steam_id":76561198146782074,"connected_time":174000000000,"state":"active","ping":54},{"user_id":370,"name":"Lucy","steam_id":76561198032590343,"connected_time":1050000000000,"state":"active","ping":80},{"user_id":342,"name":"Grandpa Baozhai","steam_id":76561198086667725,"connected_time":2697000000000,"state":"active","ping":101},{"user_id":343,"name":"lker","steam_id":76561197976975075,"connected_time":2674000000000,"state":"active","ping":60},{"user_id":380,"name":"Zombie Girl","steam_id":76561198093327371,"connected_time":571000000000,"state":"active","ping":134},{"user_id":376,"name":"VidzCMC","steam_id":76561198848142973,"connected_time":782000000000,"state":"active","ping":55},{"user_id":363,"name":"Luxcraz","steam_id":76561198035278349,"connected_time":1499000000000,"state":"active","ping":59},{"user_id":392,"name":"Cooksandcleans™","steam_id":76561198049696128,"connected_time":35000000000,"state":"active","ping":74},{"user_id":383,"name":"Omegasutoraiki","steam_id":76561198154972862,"connected_time":466000000000,"state":"active","ping":60},{"user_id":335,"name":"kilroy_39","steam_id":76561198205173325,"connected_time":3484000000000,"state":"active","ping":84}]},{"server_id":402,"name":"Uncletopia | Chicago | 3 | All Maps","name_short":"chi-3","host":"chi-1.us.uncletopia.com","port":27035,"enabled":true,"region":"us-central","cc":"us","latitude":41.881832,"longitude":-87.62318,"reserved":0,"last_update":"0001-01-01T00:00:00Z","name_a2s":"Uncletopia | Chicago | 3 | All Maps","protocol":17,"map":"koth_viaduct","folder":"tf","game":"Team Fortress","app_id":440,"player_count":0,"max_players":24,"Bots":0,"server_type":"Dedicated","server_os":"Linux","password":true,"vac":true,"version":"7757534","steam_id":85568392924515191,"keywords":["cp","nocrits","nodmgspread","uncletopia"],"game_id":440,"stv_port":27036,"stv_name":"Uncletopia | Chicago | 3 | All Maps | STV","players":null},{"server_id":403,"name":"Uncletopia | Chicago | 4 | All Maps","name_short":"chi-4","host":"chi-1.us.uncletopia.com","port":27045,"enabled":true,"region":"us-central","cc":"us","latitude":41.881832,"longitude":-87.62318,"reserved":0,"last_update":"0001-01-01T00:00:00Z","name_a2s":"Uncletopia | Chicago | 4 | All Maps","protocol":17,"map":"pl_snowycoast","folder":"tf","game":"Team Fortress","app_id":440,"player_count":0,"max_players":24,"Bots":0,"server_type":"Dedicated","server_os":"Linux","password":true,"vac":true,"version":"7757534","steam_id":85568392924515193,"keywords":["nocrits","nodmgspread","payload","uncletopia"],"game_id":440,"stv_port":27046,"stv_name":"Uncletopia | Chicago | 4 | All Maps | STV","players":null},{"server_id":36,"name":"Uncletopia | Chicago | 5 | All Maps","name_short":"chi-5","host":"chi-2.us.uncletopia.com","port":27015,"enabled":true,"region":"us-central","cc":"us","latitude":41.881832,"longitude":-87.62318,"reserved":0,"last_update":"0001-01-01T00:00:00Z","name_a2s":"Uncletopia | Chicago | 5 | All Maps","protocol":17,"map":"pl_snowycoast","folder":"tf","game":"Team Fortress","app_id":440,"player_count":0,"max_players":24,"Bots":0,"server_type":"Dedicated","server_os":"Linux","password":true,"vac":true,"version":"7757534","steam_id":85568392924866362,"keywords":["nocrits","nodmgspread","payload","uncletopia"],"game_id":440,"stv_port":27016,"stv_name":"Uncletopia | Chicago | 5 | All Maps | STV","players":null},{"server_id":37,"name":"Uncletopia | Chicago | 6 | All Maps","name_short":"chi-6","host":"chi-2.us.uncletopia.com","port":27025,"enabled":true,"region":"us-central","cc":"us","latitude":41.881832,"longitude":-87.62318,"reserved":0,"last_update":"0001-01-01T00:00:00Z","name_a2s":"Uncletopia | Chicago | 6 | All Maps","protocol":17,"map":"koth_highpass","folder":"tf","game":"Team Fortress","app_id":440,"player_count":0,"max_players":24,"Bots":0,"server_type":"Dedicated","server_os":"Linux","password":true,"vac":true,"version":"7757534","steam_id":85568392924866363,"keywords":["cp","nocrits","nodmgspread","uncletopia"],"game_id":440,"stv_port":27026,"stv_name":"Uncletopia | Chicago | 6 | All Maps | STV","players":null},{"server_id":38,"name":"Uncletopia | Chicago | 7 | Stopwatch Beta","name_short":"chi-7","host":"chi-2.us.uncletopia.com","port":27035,"enabled":true,"region":"us-central","cc":"us","latitude":41.881832,"longitude":-87.62318,"reserved":0,"last_update":"0001-01-01T00:00:00Z","name_a2s":"Uncletopia | Chicago | 7 | Stopwatch Beta","protocol":17,"map":"koth_viaduct","folder":"tf","game":"Team Fortress","app_id":440,"player_count":0,"max_players":24,"Bots":0,"server_type":"Dedicated","server_os":"Linux","password":true,"vac":true,"version":"7757534","steam_id":85568392924866364,"keywords":["cp","nocrits","nodmgspread","uncletopia"],"game_id":440,"stv_port":27036,"stv_name":"Uncletopia | Chicago | 7 | Stopwatch Beta | STV","players":null},{"server_id":39,"name":"Uncletopia | Chicago | 8 | Community","name_short":"chi-8","host":"chi-2.us.uncletopia.com","port":27045,"enabled":true,"region":"us-central","cc":"us","latitude":41.881832,"longitude":-87.62318,"reserved":0,"last_update":"0001-01-01T00:00:00Z","name_a2s":"Uncletopia | Chicago | 8 | Community","protocol":17,"map":"workshop/koth_trenchfoot_b1a.ugc731436616","folder":"tf","game":"Team Fortress","app_id":440,"player_count":0,"max_players":24,"Bots":0,"server_type":"Dedicated","server_os":"Linux","password":true,"vac":true,"version":"7757534","steam_id":85568392924866365,"keywords":["cp","nocrits","nodmgspread","uncletopia"],"game_id":440,"stv_port":27046,"stv_name":"Uncletopia | Chicago | 8 | Community | STV","players":null},{"server_id":8,"name":"Uncletopia | Dallas | 1 | All Maps","name_short":"dal-1","host":"dal-1.us.uncletopia.com","port":27015,"enabled":true,"region":"us-central","cc":"us","latitude":32.779167,"longitude":-96.80889,"reserved":0,"last_update":"0001-01-01T00:00:00Z","name_a2s":"Uncletopia | Dallas | 1 | All Maps","protocol":17,"map":"pl_snowycoast","folder":"tf","game":"Team Fortress","app_id":440,"player_count":2,"max_players":24,"Bots":0,"server_type":"Dedicated","server_os":"Linux","password":true,"vac":true,"version":"7757534","steam_id":85568392924469986,"keywords":["nocrits","nodmgspread","payload","uncletopia"],"game_id":440,"stv_port":27016,"stv_name":"Uncletopia | Dallas | 1 | All Maps | STV","players":[{"user_id":564,"name":"Dor_atar","steam_id":76561198973980542,"connected_time":1775000000000,"state":"active","ping":188},{"user_id":565,"name":"HeliosTXG","steam_id":76561198096625364,"connected_time":1440000000000,"state":"active","ping":55}]},{"server_id":108,"name":"Uncletopia | Dallas | 2 | All Maps","name_short":"dal-2","host":"dal-1.us.uncletopia.com","port":27025,"enabled":true,"region":"us-central","cc":"us","latitude":32.779167,"longitude":-96.80889,"reserved":0,"last_update":"0001-01-01T00:00:00Z","name_a2s":"Uncletopia | Dallas | 2 | All Maps","protocol":17,"map":"koth_highpass","folder":"tf","game":"Team Fortress","app_id":440,"player_count":0,"max_players":24,"Bots":0,"server_type":"Dedicated","server_os":"Linux","password":true,"vac":true,"version":"7757534","steam_id":85568392924469988,"keywords":["cp","nocrits","nodmgspread","uncletopia"],"game_id":440,"stv_port":27026,"stv_name":"Uncletopia | Dallas | 2 | All Maps | STV","players":null},{"server_id":5,"name":"Uncletopia | Frankfurt | 1 | All Maps","name_short":"frk-1","host":"frk-1.de.uncletopia.com","port":27015,"enabled":true,"region":"eu","cc":"de","latitude":50.110924,"longitude":8.682127,"reserved":0,"last_update":"0001-01-01T00:00:00Z","name_a2s":"Uncletopia | Frankfurt | 1 | All Maps","protocol":17,"map":"pl_upward","folder":"tf","game":"Team Fortress","app_id":440,"player_count":24,"max_players":24,"Bots":0,"server_type":"Dedicated","server_os":"Linux","password":true,"vac":true,"version":"7757534","steam_id":85568392924469989,"keywords":["nocrits","nodmgspread","payload","uncletopia"],"game_id":440,"stv_port":27016,"stv_name":"Uncletopia | Frankfurt | 1 | All Maps | STV","players":[{"user_id":6,"name":"AwZooom","steam_id":76561198154061149,"connected_time":3408000000000,"state":"active","ping":41},{"user_id":7,"name":"Mike Rizzowski","steam_id":76561198798657045,"connected_time":3337000000000,"state":"active","ping":75},{"user_id":8,"name":"Lobster Overlord","steam_id":76561198144692530,"connected_time":2489000000000,"state":"active","ping":44},{"user_id":45,"name":"Der Geist des Hans Rosling","steam_id":76561198049231109,"connected_time":453000000000,"state":"active","ping":59},{"user_id":49,"name":"Groose","steam_id":76561198261094295,"connected_time":104000000000,"state":"active","ping":57},{"user_id":12,"name":"...","steam_id":76561198969234594,"connected_time":2159000000000,"state":"active","ping":70},{"user_id":13,"name":"Rambi","steam_id":76561199058078505,"connected_time":1914000000000,"state":"active","ping":149},{"user_id":32,"name":"Повелитель дачи","steam_id":76561198927694734,"connected_time":880000000000,"state":"active","ping":70},{"user_id":37,"name":"Kanksteli","steam_id":76561198035919109,"connected_time":771000000000,"state":"active","ping":74},{"user_id":20,"name":"Churaq Cyril","steam_id":76561198125381319,"connected_time":1251000000000,"state":"active","ping":87},{"user_id":21,"name":"CRAZY VIKING","steam_id":76561198061440669,"connected_time":1221000000000,"state":"active","ping":67},{"user_id":40,"name":"galaxy","steam_id":76561198164819022,"connected_time":673000000000,"state":"active","ping":68},{"user_id":23,"name":"burger","steam_id":76561198071674964,"connected_time":1198000000000,"state":"active","ping":66},{"user_id":48,"name":"{dogs}კობა77koba77[ASS]","steam_id":76561198154218182,"connected_time":197000000000,"state":"active","ping":50},{"user_id":47,"name":"Virigos","steam_id":76561198322441994,"connected_time":216000000000,"state":"active","ping":58},{"user_id":41,"name":"I was good before.","steam_id":76561198187045217,"connected_time":650000000000,"state":"active","ping":85},{"user_id":27,"name":"Corpus Christi","steam_id":76561198417999443,"connected_time":1083000000000,"state":"active","ping":94},{"user_id":33,"name":"two z b","steam_id":76561199149307190,"connected_time":878000000000,"state":"active","ping":75},{"user_id":34,"name":"dollar foot long","steam_id":76561199250808808,"connected_time":862000000000,"state":"active","ping":77},{"user_id":35,"name":"W.","steam_id":76561198444036574,"connected_time":841000000000,"state":"active","ping":70},{"user_id":36,"name":"Asfreild","steam_id":76561198055901120,"connected_time":811000000000,"state":"active","ping":76},{"user_id":42,"name":"spearfishNL","steam_id":76561199077022985,"connected_time":592000000000,"state":"active","ping":63},{"user_id":44,"name":"SocialistBacon","steam_id":76561198055872267,"connected_time":550000000000,"state":"active","ping":73}]},{"server_id":110,"name":"Uncletopia | Frankfurt | 2 | All Maps","name_short":"frk-2","host":"frk-1.de.uncletopia.com","port":27025,"enabled":true,"region":"eu","cc":"de","latitude":50.110924,"longitude":8.682127,"reserved":0,"last_update":"0001-01-01T00:00:00Z","name_a2s":"Uncletopia | Frankfurt | 2 | All Maps","protocol":17,"map":"pl_badwater","folder":"tf","game":"Team Fortress","app_id":440,"player_count":24,"max_players":24,"Bots":0,"server_type":"Dedicated","server_os":"Linux","password":true,"vac":true,"version":"7757534","steam_id":85568392924469990,"keywords":["nocrits","nodmgspread","payload","uncletopia"],"game_id":440,"stv_port":27026,"stv_name":"Uncletopia | Frankfurt | 2 | All Maps | STV","players":[{"user_id":195,"name":"1 death = 1 dip","steam_id":76561198081559669,"connected_time":801000000000,"state":"active","ping":76},{"user_id":188,"name":"Luna","steam_id":76561199140738350,"connected_time":1956000000000,"state":"active","ping":60},{"user_id":158,"name":"Rin-Nakaret","steam_id":76561197971051188,"connected_time":4367000000000,"state":"active","ping":65},{"user_id":203,"name":"on1on (pickled)","steam_id":76561197995304137,"connected_time":57000000000,"state":"active","ping":60},{"user_id":197,"name":"hud_saytext_time 0","steam_id":76561198010327228,"connected_time":761000000000,"state":"active","ping":75},{"user_id":194,"name":"GIA","steam_id":76561199216124328,"connected_time":915000000000,"state":"active","ping":61},{"user_id":182,"name":"ChickyCoop","steam_id":76561199072983488,"connected_time":2395000000000,"state":"active","ping":78},{"user_id":169,"name":"Rezolt","steam_id":76561198069074807,"connected_time":3220000000000,"state":"active","ping":113},{"user_id":198,"name":"Денис Базука","steam_id":76561198835849082,"connected_time":760000000000,"state":"active","ping":102},{"user_id":204,"name":"Potat Master |Potato Industries","steam_id":76561199112380553,"connected_time":54000000000,"state":"spawning","ping":75},{"user_id":181,"name":"citronous","steam_id":76561198093290934,"connected_time":2475000000000,"state":"active","ping":53},{"user_id":192,"name":"Crisps","steam_id":76561198088973774,"connected_time":1276000000000,"state":"active","ping":45},{"user_id":133,"name":"テイルス","steam_id":76561198022403271,"connected_time":6534000000000,"state":"active","ping":46},{"user_id":190,"name":"hichem","steam_id":76561198056197307,"connected_time":1862000000000,"state":"active","ping":57},{"user_id":200,"name":"AmadStatistician","steam_id":76561198163654770,"connected_time":728000000000,"state":"active","ping":69},{"user_id":153,"name":"Zatusrex","steam_id":76561198104147805,"connected_time":4494000000000,"state":"active","ping":68},{"user_id":152,"name":"Wario","steam_id":76561198356089255,"connected_time":4497000000000,"state":"active","ping":61},{"user_id":159,"name":"Enigmus","steam_id":76561197994063627,"connected_time":4331000000000,"state":"active","ping":87},{"user_id":189,"name":"KAZAM | Tervez","steam_id":76561198045459068,"connected_time":1951000000000,"state":"active","ping":118},{"user_id":193,"name":"erobrine2","steam_id":76561198173218318,"connected_time":1019000000000,"state":"active","ping":55},{"user_id":151,"name":"dob:cob","steam_id":76561198253323044,"connected_time":4525000000000,"state":"active","ping":72},{"user_id":160,"name":"glyph","steam_id":76561197980736364,"connected_time":4316000000000,"state":"active","ping":75},{"user_id":202,"name":"MAKENTAKEN","steam_id":76561199127359587,"connected_time":311000000000,"state":"active","ping":92},{"user_id":126,"name":"oepidus","steam_id":76561198963841479,"connected_time":7199000000000,"state":"active","ping":82}]},{"server_id":308,"name":"Uncletopia | Frankfurt | 3 | All Maps","name_short":"frk-3","host":"frk-1.de.uncletopia.com","port":27035,"enabled":true,"region":"eu","cc":"de","latitude":50.110924,"longitude":8.682127,"reserved":0,"last_update":"0001-01-01T00:00:00Z","name_a2s":"Uncletopia | Frankfurt | 3 | All Maps","protocol":17,"map":"pl_borneo","folder":"tf","game":"Team Fortress","app_id":440,"player_count":0,"max_players":24,"Bots":0,"server_type":"Dedicated","server_os":"Linux","password":true,"vac":true,"version":"7757534","steam_id":85568392924504274,"keywords":["nocrits","nodmgspread","payload","uncletopia"],"game_id":440,"stv_port":27036,"stv_name":"Uncletopia | Frankfurt | 3 | All Maps | STV","players":null},{"server_id":309,"name":"Uncletopia | Frankfurt | 4 | All Maps","name_short":"frk-4","host":"frk-1.de.uncletopia.com","port":27045,"enabled":true,"region":"eu","cc":"de","latitude":50.110924,"longitude":8.682127,"reserved":0,"last_update":"0001-01-01T00:00:00Z","name_a2s":"Uncletopia | Frankfurt | 4 | All Maps","protocol":17,"map":"pl_pier","folder":"tf","game":"Team Fortress","app_id":440,"player_count":0,"max_players":24,"Bots":0,"server_type":"Dedicated","server_os":"Linux","password":true,"vac":true,"version":"7757534","steam_id":85568392924504275,"keywords":["nocrits","nodmgspread","payload","uncletopia"],"game_id":440,"stv_port":27046,"stv_name":"Uncletopia | Frankfurt | 4 | All Maps | STV","players":null},{"server_id":310,"name":"Uncletopia | Frankfurt | 5 | All Maps","name_short":"frk-5","host":"frk-1.de.uncletopia.com","port":27055,"enabled":true,"region":"eu","cc":"de","latitude":50.110924,"longitude":8.682127,"reserved":0,"last_update":"0001-01-01T00:00:00Z","name_a2s":"Uncletopia | Frankfurt | 5 | All Maps","protocol":17,"map":"pl_swiftwater_final1","folder":"tf","game":"Team Fortress","app_id":440,"player_count":0,"max_players":24,"Bots":0,"server_type":"Dedicated","server_os":"Linux","password":true,"vac":true,"version":"7757534","steam_id":85568392924504277,"keywords":["nocrits","nodmgspread","payload","uncletopia"],"game_id":440,"stv_port":27056,"stv_name":"Uncletopia | Frankfurt | 5 | All Maps | STV","players":null},{"server_id":311,"name":"Uncletopia | Frankfurt | 6 | All Maps","name_short":"frk-6","host":"frk-1.de.uncletopia.com","port":27065,"enabled":true,"region":"eu","cc":"de","latitude":50.110924,"longitude":8.682127,"reserved":0,"last_update":"0001-01-01T00:00:00Z","name_a2s":"Uncletopia | Frankfurt | 6 | All Maps","protocol":17,"map":"pl_barnblitz","folder":"tf","game":"Team Fortress","app_id":440,"player_count":0,"max_players":24,"Bots":0,"server_type":"Dedicated","server_os":"Linux","password":true,"vac":true,"version":"7757534","steam_id":85568392924504278,"keywords":["nocrits","nodmgspread","payload","uncletopia"],"game_id":440,"stv_port":27066,"stv_name":"Uncletopia | Frankfurt | 6 | All Maps | STV","players":null},{"server_id":23,"name":"Uncletopia | Frankfurt | 7 | Stopwatch Beta","name_short":"frk-7","host":"frk-1.de.uncletopia.com","port":27075,"enabled":true,"region":"eu","cc":"de","latitude":50.110924,"longitude":8.682127,"reserved":0,"last_update":"0001-01-01T00:00:00Z","name_a2s":"Uncletopia | Frankfurt | 7 | Stopwatch Beta","protocol":17,"map":"pl_borneo","folder":"tf","game":"Team Fortress","app_id":440,"player_count":0,"max_players":24,"Bots":0,"server_type":"Dedicated","server_os":"Linux","password":true,"vac":true,"version":"7757534","steam_id":85568392924742827,"keywords":["nocrits","nodmgspread","payload","uncletopia"],"game_id":440,"stv_port":27076,"stv_name":"Uncletopia | Frankfurt | 7 | Stopwatch Beta | STV","players":null},{"server_id":24,"name":"Uncletopia | Frankfurt | 8 | Community","name_short":"frk-8","host":"frk-1.de.uncletopia.com","port":27085,"enabled":true,"region":"eu","cc":"de","latitude":50.110924,"longitude":8.682127,"reserved":0,"last_update":"0001-01-01T00:00:00Z","name_a2s":"Uncletopia | Frankfurt | 8 | Community","protocol":17,"map":"koth_viaduct","folder":"tf","game":"Team Fortress","app_id":440,"player_count":0,"max_players":24,"Bots":0,"server_type":"Dedicated","server_os":"Linux","password":true,"vac":true,"version":"7757534","steam_id":85568392924742828,"keywords":["cp","nocrits","nodmgspread","uncletopia"],"game_id":440,"stv_port":27086,"stv_name":"Uncletopia | Frankfurt | 8 | Community | STV","players":null},{"server_id":202,"name":"Uncletopia | Hong Kong | 1 | All Maps","name_short":"hgk-1","host":"hgk-1.hk.uncletopia.com","port":27015,"enabled":true,"region":"asia","cc":"hk","latitude":22.302711,"longitude":114.177216,"reserved":0,"last_update":"0001-01-01T00:00:00Z","name_a2s":"Uncletopia | Hong Kong | 1 | All Maps","protocol":17,"map":"pl_swiftwater_final1","folder":"tf","game":"Team Fortress","app_id":440,"player_count":23,"max_players":24,"Bots":0,"server_type":"Dedicated","server_os":"Linux","password":true,"vac":true,"version":"7757534","steam_id":85568392924494504,"keywords":["nocrits","nodmgspread","payload","uncletopia"],"game_id":440,"stv_port":27016,"stv_name":"Uncletopia | Hong Kong | 1 | All Maps | STV","players":[{"user_id":233,"name":"Darknight","steam_id":76561199090139287,"connected_time":6294000000000,"state":"active","ping":97},{"user_id":227,"name":"Taokaka","steam_id":76561198158666692,"connected_time":7293000000000,"state":"active","ping":44},{"user_id":256,"name":"swookang","steam_id":76561198234388288,"connected_time":906000000000,"state":"active","ping":87},{"user_id":257,"name":"Dr. Piss Rat","steam_id":76561199074809838,"connected_time":903000000000,"state":"active","ping":70},{"user_id":250,"name":"Buttman","steam_id":76561198044693388,"connected_time":2596000000000,"state":"active","ping":54},{"user_id":251,"name":"Kirov airship","steam_id":76561199024960087,"connected_time":1871000000000,"state":"active","ping":55},{"user_id":270,"name":"Puddin","steam_id":76561198140052918,"connected_time":49000000000,"state":"active","ping":93},{"user_id":236,"name":"van that kidnapped you","steam_id":76561198147851090,"connected_time":6115000000000,"state":"active","ping":85},{"user_id":162,"name":"Noyour","steam_id":76561198323259830,"connected_time":13479000000000,"state":"active","ping":110},{"user_id":260,"name":"帕","steam_id":76561198439343999,"connected_time":851000000000,"state":"active","ping":78},{"user_id":147,"name":"linne","steam_id":76561198230213828,"connected_time":14330000000000,"state":"active","ping":59},{"user_id":258,"name":"Stupid B l #saveTF2","steam_id":76561198131423270,"connected_time":898000000000,"state":"active","ping":96},{"user_id":263,"name":"lisa.","steam_id":76561198302102818,"connected_time":778000000000,"state":"active","ping":72},{"user_id":268,"name":"Bertengkar","steam_id":76561198213031155,"connected_time":357000000000,"state":"active","ping":97},{"user_id":217,"name":":)","steam_id":76561198437941450,"connected_time":7939000000000,"state":"active","ping":89},{"user_id":255,"name":"P","steam_id":76561198304514505,"connected_time":910000000000,"state":"active","ping":74},{"user_id":245,"name":"water tastes good","steam_id":76561199375947670,"connected_time":2629000000000,"state":"active","ping":74},{"user_id":266,"name":"happyman","steam_id":76561198045585030,"connected_time":659000000000,"state":"active","ping":62},{"user_id":248,"name":"✧BaKa BAzooKA✧(◕▿◕ )","steam_id":76561198061628689,"connected_time":2608000000000,"state":"active","ping":54},{"user_id":241,"name":"corpse_cadaver","steam_id":76561199225360457,"connected_time":5019000000000,"state":"active","ping":70},{"user_id":223,"name":"Urotsuki","steam_id":76561198074339034,"connected_time":7315000000000,"state":"active","ping":75},{"user_id":249,"name":"3wfFbdrjEze5d2G","steam_id":76561198435900451,"connected_time":2602000000000,"state":"active","ping":119},{"user_id":143,"name":"kid named kidnap","steam_id":76561199146847474,"connected_time":14916000000000,"state":"active","ping":55}]},{"server_id":1,"name":"Uncletopia | Los Angeles | 1 | All Maps","name_short":"lax-1","host":"lax-1.us.uncletopia.com","port":27015,"enabled":true,"region":"us-west","cc":"us","latitude":33.94279,"longitude":-118.41004,"reserved":0,"last_update":"0001-01-01T00:00:00Z","name_a2s":"Uncletopia | Los Angeles | 1 | All Maps","protocol":17,"map":"pl_upward","folder":"tf","game":"Team Fortress","app_id":440,"player_count":24,"max_players":24,"Bots":0,"server_type":"Dedicated","server_os":"Linux","password":true,"vac":true,"version":"7757534","steam_id":85568392924469991,"keywords":["nocrits","nodmgspread","payload","uncletopia"],"game_id":440,"stv_port":27016,"stv_name":"Uncletopia | Los Angeles | 1 | All Maps | STV","players":[{"user_id":303,"name":"Bandit","steam_id":76561198008344745,"connected_time":1175000000000,"state":"active","ping":91},{"user_id":315,"name":"Bo Stunkulus","steam_id":76561198829326796,"connected_time":844000000000,"state":"active","ping":57},{"user_id":285,"name":"The Pansexual","steam_id":76561199098806826,"connected_time":2139000000000,"state":"active","ping":87},{"user_id":309,"name":"DoomoPelota","steam_id":76561198326462587,"connected_time":961000000000,"state":"active","ping":98},{"user_id":312,"name":"perkaperkins","steam_id":76561198870734551,"connected_time":941000000000,"state":"active","ping":83},{"user_id":269,"name":"hart","steam_id":76561198046073848,"connected_time":2997000000000,"state":"active","ping":73},{"user_id":326,"name":"cringy","steam_id":76561198323000455,"connected_time":318000000000,"state":"active","ping":62},{"user_id":298,"name":"HiggsBoson","steam_id":76561198356538323,"connected_time":1359000000000,"state":"active","ping":70},{"user_id":300,"name":"Titocheeto","steam_id":76561198994684924,"connected_time":1302000000000,"state":"active","ping":104},{"user_id":286,"name":"Yuhh","steam_id":76561199112894955,"connected_time":2046000000000,"state":"active","ping":89},{"user_id":308,"name":"Tech Deck","steam_id":76561199070437675,"connected_time":1015000000000,"state":"active","ping":58},{"user_id":327,"name":"Spiker!","steam_id":76561198344491858,"connected_time":264000000000,"state":"active","ping":61},{"user_id":328,"name":"The Announcer's Feet","steam_id":76561199443456893,"connected_time":205000000000,"state":"active","ping":76},{"user_id":322,"name":"Slippery","steam_id":76561199469441947,"connected_time":542000000000,"state":"active","ping":106},{"user_id":329,"name":"im overdosing on copium","steam_id":76561198319442494,"connected_time":198000000000,"state":"active","ping":56},{"user_id":318,"name":"0ll0","steam_id":76561198841446030,"connected_time":816000000000,"state":"active","ping":45},{"user_id":299,"name":"Sakisano","steam_id":76561198245814880,"connected_time":1339000000000,"state":"active","ping":105},{"user_id":319,"name":"Creature","steam_id":76561198194585781,"connected_time":792000000000,"state":"active","ping":60},{"user_id":324,"name":"Quaker Oats","steam_id":76561197992800293,"connected_time":410000000000,"state":"active","ping":113},{"user_id":320,"name":"Kaluka","steam_id":76561198036861445,"connected_time":783000000000,"state":"active","ping":107},{"user_id":323,"name":"lyzth","steam_id":76561199328342891,"connected_time":508000000000,"state":"active","ping":95},{"user_id":294,"name":"b♥bb[Y!]","steam_id":76561198029549729,"connected_time":1823000000000,"state":"active","ping":51},{"user_id":242,"name":"mtn.dewdrinker1999","steam_id":76561198021308963,"connected_time":6919000000000,"state":"active","ping":75},{"user_id":297,"name":"Lychee","steam_id":76561198403878342,"connected_time":1425000000000,"state":"active","ping":49}]},{"server_id":112,"name":"Uncletopia | Los Angeles | 2 | All Maps","name_short":"lax-2","host":"lax-1.us.uncletopia.com","port":27025,"enabled":true,"region":"us-west","cc":"us","latitude":33.94279,"longitude":-118.41004,"reserved":0,"last_update":"0001-01-01T00:00:00Z","name_a2s":"Uncletopia | Los Angeles | 2 | All Maps","protocol":17,"map":"cp_process_final","folder":"tf","game":"Team Fortress","app_id":440,"player_count":0,"max_players":24,"Bots":0,"server_type":"Dedicated","server_os":"Linux","password":true,"vac":true,"version":"7757534","steam_id":85568392924469992,"keywords":["cp","nocrits","nodmgspread","uncletopia"],"game_id":440,"stv_port":27026,"stv_name":"Uncletopia | Los Angeles | 2 | All Maps | STV","players":null},{"server_id":324,"name":"Uncletopia | Los Angeles | 3 | All Maps","name_short":"lax-3","host":"lax-1.us.uncletopia.com","port":27035,"enabled":true,"region":"us-west","cc":"us","latitude":33.94279,"longitude":-118.41004,"reserved":0,"last_update":"0001-01-01T00:00:00Z","name_a2s":"Uncletopia | Los Angeles | 3 | All Maps","protocol":17,"map":"pl_upward","folder":"tf","game":"Team Fortress","app_id":440,"player_count":0,"max_players":24,"Bots":0,"server_type":"Dedicated","server_os":"Linux","password":true,"vac":true,"version":"7757534","steam_id":85568392924510198,"keywords":["nocrits","nodmgspread","payload","uncletopia"],"game_id":440,"stv_port":27036,"stv_name":"Uncletopia | Los Angeles | 3 | All Maps | STV","players":null},{"server_id":25,"name":"Uncletopia | Los Angeles | 4 | Stopwatch Beta","name_short":"lax-4","host":"lax-1.us.uncletopia.com","port":27045,"enabled":true,"region":"us-west","cc":"us","latitude":33.94279,"longitude":-118.41004,"reserved":0,"last_update":"0001-01-01T00:00:00Z","name_a2s":"Uncletopia | Los Angeles | 4 | Stopwatch Beta","protocol":17,"map":"cp_dustbowl","folder":"tf","game":"Team Fortress","app_id":440,"player_count":0,"max_players":24,"Bots":0,"server_type":"Dedicated","server_os":"Linux","password":true,"vac":true,"version":"7757534","steam_id":85568392924510199,"keywords":["cp","nocrits","nodmgspread","uncletopia"],"game_id":440,"stv_port":27046,"stv_name":"Uncletopia | Los Angeles | 4 | Stopwatch Beta | STV","players":null},{"server_id":11,"name":"Uncletopia | London | 1 | All Maps","name_short":"lon-1","host":"lon-1.uk.uncletopia.com","port":27015,"enabled":true,"region":"eu","cc":"gb","latitude":51.509865,"longitude":-0.118092,"reserved":0,"last_update":"0001-01-01T00:00:00Z","name_a2s":"Uncletopia | London | 1 | All Maps","protocol":17,"map":"pl_pier","folder":"tf","game":"Team Fortress","app_id":440,"player_count":0,"max_players":24,"Bots":0,"server_type":"Dedicated","server_os":"Linux","password":true,"vac":true,"version":"7757534","steam_id":85568392924367362,"keywords":["nocrits","nodmgspread","payload","uncletopia"],"game_id":440,"stv_port":27016,"stv_name":"Uncletopia | London | 1 | All Maps | STV","players":null},{"server_id":114,"name":"Uncletopia | London | 2 | All Maps","name_short":"lon-2","host":"lon-1.uk.uncletopia.com","port":27025,"enabled":true,"region":"eu","cc":"gb","latitude":51.509865,"longitude":-0.118092,"reserved":0,"last_update":"0001-01-01T00:00:00Z","name_a2s":"Uncletopia | London | 2 | All Maps","protocol":17,"map":"pl_pier","folder":"tf","game":"Team Fortress","app_id":440,"player_count":0,"max_players":24,"Bots":0,"server_type":"Dedicated","server_os":"Linux","password":true,"vac":true,"version":"7757534","steam_id":85568392924470941,"keywords":["nocrits","nodmgspread","payload","uncletopia"],"game_id":440,"stv_port":27026,"stv_name":"Uncletopia | London | 2 | All Maps | STV","players":null},{"server_id":320,"name":"Uncletopia | London | 3 | All Maps","name_short":"lon-3","host":"lon-1.uk.uncletopia.com","port":27035,"enabled":true,"region":"eu","cc":"gb","latitude":51.509865,"longitude":-0.118092,"reserved":0,"last_update":"0001-01-01T00:00:00Z","name_a2s":"Uncletopia | London | 3 | All Maps","protocol":17,"map":"cp_dustbowl","folder":"tf","game":"Team Fortress","app_id":440,"player_count":9,"max_players":24,"Bots":0,"server_type":"Dedicated","server_os":"Linux","password":true,"vac":true,"version":"7757534","steam_id":85568392924510192,"keywords":["cp","nocrits","nodmgspread","uncletopia"],"game_id":440,"stv_port":27036,"stv_name":"Uncletopia | London | 3 | All Maps | STV","players":[{"user_id":28,"name":"KOMENTATOR","steam_id":76561198361101790,"connected_time":1089000000000,"state":"active","ping":70},{"user_id":4,"name":"Truegr","steam_id":76561198811912339,"connected_time":7969000000000,"state":"active","ping":55},{"user_id":39,"name":"presidentialAIDS","steam_id":76561199257284077,"connected_time":1000000000,"state":"spawning","ping":107},{"user_id":30,"name":"EkmeK","steam_id":76561198077212595,"connected_time":829000000000,"state":"active","ping":126},{"user_id":33,"name":"DarkFady","steam_id":76561198179099523,"connected_time":730000000000,"state":"active","ping":113},{"user_id":35,"name":"MattyCzek","steam_id":76561198881990395,"connected_time":343000000000,"state":"active","ping":90},{"user_id":36,"name":"Brinier","steam_id":76561199012604288,"connected_time":330000000000,"state":"active","ping":69},{"user_id":37,"name":"Sanji_Bukaj","steam_id":76561199205251708,"connected_time":91000000000,"state":"active","ping":84},{"user_id":38,"name":"Zogg","steam_id":76561198352683491,"connected_time":87000000000,"state":"active","ping":37}]},{"server_id":321,"name":"Uncletopia | London | 4 | All Maps","name_short":"lon-4","host":"lon-1.uk.uncletopia.com","port":27045,"enabled":true,"region":"eu","cc":"gb","latitude":51.509865,"longitude":-0.118092,"reserved":0,"last_update":"0001-01-01T00:00:00Z","name_a2s":"Uncletopia | London | 4 | All Maps","protocol":17,"map":"pl_barnblitz","folder":"tf","game":"Team Fortress","app_id":440,"player_count":0,"max_players":24,"Bots":0,"server_type":"Dedicated","server_os":"Linux","password":true,"vac":true,"version":"7757534","steam_id":85568392924510193,"keywords":["nocrits","nodmgspread","payload","uncletopia"],"game_id":440,"stv_port":27046,"stv_name":"Uncletopia | London | 4 | All Maps | STV","players":null},{"server_id":21,"name":"Uncletopia | London | 5 | All Maps","name_short":"lon-5","host":"lon-1.uk.uncletopia.com","port":27055,"enabled":true,"region":"eu","cc":"gb","latitude":51.509865,"longitude":-0.118092,"reserved":0,"last_update":"0001-01-01T00:00:00Z","name_a2s":"Uncletopia | London | 5 | All Maps","protocol":17,"map":"pl_pier","folder":"tf","game":"Team Fortress","app_id":440,"player_count":0,"max_players":24,"Bots":0,"server_type":"Dedicated","server_os":"Linux","password":true,"vac":true,"version":"7757534","steam_id":85568392924742829,"keywords":["nocrits","nodmgspread","payload","uncletopia"],"game_id":440,"stv_port":27056,"stv_name":"Uncletopia | London | 5 | All Maps | STV","players":null},{"server_id":22,"name":"Uncletopia | London | 6 | All Maps","name_short":"lon-6","host":"lon-1.uk.uncletopia.com","port":27065,"enabled":true,"region":"eu","cc":"gb","latitude":51.509865,"longitude":-0.118092,"reserved":0,"last_update":"0001-01-01T00:00:00Z","name_a2s":"Uncletopia | London | 6 | All Maps","protocol":17,"map":"koth_highpass","folder":"tf","game":"Team Fortress","app_id":440,"player_count":0,"max_players":24,"Bots":0,"server_type":"Dedicated","server_os":"Linux","password":true,"vac":true,"version":"7757534","steam_id":85568392924742830,"keywords":["cp","nocrits","nodmgspread","uncletopia"],"game_id":440,"stv_port":27066,"stv_name":"Uncletopia | London | 6 | All Maps | STV","players":null},{"server_id":40,"name":"Uncletopia | London | 7 | No Payload","name_short":"lon-7","host":"lon-1.uk.uncletopia.com","port":27075,"enabled":true,"region":"eu","cc":"gb","latitude":51.509865,"longitude":-0.118092,"reserved":0,"last_update":"0001-01-01T00:00:00Z","name_a2s":"Uncletopia | London | 7 | No Payload","protocol":17,"map":"koth_highpass","folder":"tf","game":"Team Fortress","app_id":440,"player_count":0,"max_players":24,"Bots":0,"server_type":"Dedicated","server_os":"Linux","password":true,"vac":true,"version":"7757534","steam_id":85568392924964314,"keywords":["cp","nocrits","nodmgspread","uncletopia"],"game_id":440,"stv_port":27076,"stv_name":"Uncletopia | London | 7 | No Payload | STV","players":null},{"server_id":41,"name":"Uncletopia | London | 8 | Community","name_short":"lon-8","host":"lon-1.uk.uncletopia.com","port":27085,"enabled":true,"region":"eu","cc":"gb","latitude":51.509865,"longitude":-0.118092,"reserved":0,"last_update":"0001-01-01T00:00:00Z","name_a2s":"Uncletopia | London | 8 | Community","protocol":17,"map":"cp_altitude","folder":"tf","game":"Team Fortress","app_id":440,"player_count":0,"max_players":24,"Bots":0,"server_type":"Dedicated","server_os":"Linux","password":true,"vac":true,"version":"7757534","steam_id":85568392924964315,"keywords":["cp","nocrits","nodmgspread","uncletopia"],"game_id":440,"stv_port":27086,"stv_name":"Uncletopia | London | 8 | Community | STV","players":null},{"server_id":300,"name":"Uncletopia | Montréal | 1 | All Maps","name_short":"mtl-1","host":"mtl-1.ca.uncletopia.com","port":27015,"enabled":true,"region":"us-east","cc":"ca","latitude":45.50889,"longitude":-73.56167,"reserved":0,"last_update":"0001-01-01T00:00:00Z","name_a2s":"Uncletopia | Montréal | 1 | All Maps","protocol":17,"map":"koth_highpass","folder":"tf","game":"Team Fortress","app_id":440,"player_count":0,"max_players":24,"Bots":0,"server_type":"Dedicated","server_os":"Linux","password":true,"vac":true,"version":"7757534","steam_id":85568392924500087,"keywords":["cp","nocrits","nodmgspread","uncletopia"],"game_id":440,"stv_port":27016,"stv_name":"Uncletopia | Montréal | 1 | All Maps | STV","players":null},{"server_id":301,"name":"Uncletopia | Montréal | 2 | All Maps","name_short":"mtl-2","host":"mtl-1.ca.uncletopia.com","port":27025,"enabled":true,"region":"us-east","cc":"ca","latitude":45.50889,"longitude":-73.56167,"reserved":0,"last_update":"0001-01-01T00:00:00Z","name_a2s":"Uncletopia | Montréal | 2 | All Maps","protocol":17,"map":"cp_process_final","folder":"tf","game":"Team Fortress","app_id":440,"player_count":0,"max_players":24,"Bots":0,"server_type":"Dedicated","server_os":"Linux","password":true,"vac":true,"version":"7757534","steam_id":85568392924500088,"keywords":["cp","nocrits","nodmgspread","uncletopia"],"game_id":440,"stv_port":27026,"stv_name":"Uncletopia | Montréal | 2 | All Maps | STV","players":null},{"server_id":302,"name":"Uncletopia | Montréal | 3 | All Maps","name_short":"mtl-3","host":"mtl-1.ca.uncletopia.com","port":27035,"enabled":true,"region":"us-east","cc":"ca","latitude":45.50889,"longitude":-73.56167,"reserved":0,"last_update":"0001-01-01T00:00:00Z","name_a2s":"Uncletopia | Montréal | 3 | All Maps","protocol":17,"map":"pl_frontier_final","folder":"tf","game":"Team Fortress","app_id":440,"player_count":0,"max_players":24,"Bots":0,"server_type":"Dedicated","server_os":"Linux","password":true,"vac":true,"version":"7757534","steam_id":85568392924500089,"keywords":["nocrits","nodmgspread","payload","uncletopia"],"game_id":440,"stv_port":27036,"stv_name":"Uncletopia | Montréal | 3 | All Maps | STV","players":null},{"server_id":303,"name":"Uncletopia | Montréal | 4 | No Payload","name_short":"mtl-4","host":"mtl-1.ca.uncletopia.com","port":27045,"enabled":true,"region":"us-east","cc":"ca","latitude":45.50889,"longitude":-73.56167,"reserved":0,"last_update":"0001-01-01T00:00:00Z","name_a2s":"Uncletopia | Montréal | 4 | No Payload","protocol":17,"map":"cp_steel","folder":"tf","game":"Team Fortress","app_id":440,"player_count":0,"max_players":24,"Bots":0,"server_type":"Dedicated","server_os":"Linux","password":true,"vac":true,"version":"7757534","steam_id":85568392924500090,"keywords":["cp","nocrits","nodmgspread","uncletopia"],"game_id":440,"stv_port":27046,"stv_name":"Uncletopia | Montréal | 4 | No Payload | STV","players":null},{"server_id":13,"name":"Uncletopia | New York City | 1 | All Maps","name_short":"nyc-1","host":"nyc-1.us.uncletopia.com","port":27015,"enabled":true,"region":"us-east","cc":"us","latitude":40.73061,"longitude":-73.93524,"reserved":0,"last_update":"0001-01-01T00:00:00Z","name_a2s":"Uncletopia | New York City | 1 | All Maps","protocol":17,"map":"cp_process_final","folder":"tf","game":"Team Fortress","app_id":440,"player_count":0,"max_players":24,"Bots":0,"server_type":"Dedicated","server_os":"Linux","password":true,"vac":true,"version":"7757534","steam_id":85568392924469993,"keywords":["cp","nocrits","nodmgspread","uncletopia"],"game_id":440,"stv_port":27016,"stv_name":"Uncletopia | New York City | 1 | All Maps | STV","players":null},{"server_id":14,"name":"Uncletopia | New York City | 2 | All Maps","name_short":"nyc-2","host":"nyc-1.us.uncletopia.com","port":27025,"enabled":true,"region":"us-east","cc":"us","latitude":40.73061,"longitude":-73.93524,"reserved":0,"last_update":"0001-01-01T00:00:00Z","name_a2s":"Uncletopia | New York City | 2 | All Maps","protocol":17,"map":"cp_altitude","folder":"tf","game":"Team Fortress","app_id":440,"player_count":0,"max_players":24,"Bots":0,"server_type":"Dedicated","server_os":"Linux","password":true,"vac":true,"version":"7757534","steam_id":85568392924469994,"keywords":["cp","nocrits","nodmgspread","uncletopia"],"game_id":440,"stv_port":27026,"stv_name":"Uncletopia | New York City | 2 | All Maps | STV","players":null},{"server_id":15,"name":"Uncletopia | New York City | 3 | Stopwatch Beta","name_short":"nyc-3","host":"nyc-1.us.uncletopia.com","port":27035,"enabled":true,"region":"us-east","cc":"us","latitude":40.73061,"longitude":-73.93524,"reserved":0,"last_update":"0001-01-01T00:00:00Z","name_a2s":"Uncletopia | New York City | 3 | Stopwatch Beta","protocol":17,"map":"cp_gullywash_final1","folder":"tf","game":"Team Fortress","app_id":440,"player_count":0,"max_players":24,"Bots":0,"server_type":"Dedicated","server_os":"Linux","password":true,"vac":true,"version":"7757534","steam_id":85568392924742820,"keywords":["cp","nocrits","nodmgspread","uncletopia"],"game_id":440,"stv_port":27036,"stv_name":"Uncletopia | New York City | 3 | Stopwatch Beta | STV","players":null},{"server_id":16,"name":"Uncletopia | New York City | 4 | Community","name_short":"nyc-4","host":"nyc-1.us.uncletopia.com","port":27045,"enabled":true,"region":"us-east","cc":"us","latitude":40.73061,"longitude":-73.93524,"reserved":0,"last_update":"0001-01-01T00:00:00Z","name_a2s":"Uncletopia | New York City | 4 | Community","protocol":17,"map":"workshop/koth_ashville_final.ugc2130459942","folder":"tf","game":"Team Fortress","app_id":440,"player_count":0,"max_players":24,"Bots":0,"server_type":"Dedicated","server_os":"Linux","password":true,"vac":true,"version":"7757534","steam_id":85568392924742821,"keywords":["cp","nocrits","nodmgspread","uncletopia"],"game_id":440,"stv_port":27046,"stv_name":"Uncletopia | New York City | 4 | Community | STV","players":null},{"server_id":142,"name":"Uncletopia | São Paulo | 1 | All Maps","name_short":"sao-1","host":"sao-1.br.uncletopia.com","port":27015,"enabled":true,"region":"sa","cc":"br","latitude":-23.533773,"longitude":-46.62529,"reserved":0,"last_update":"0001-01-01T00:00:00Z","name_a2s":"Uncletopia | São Paulo | 1 | All Maps","protocol":17,"map":"cp_altitude","folder":"tf","game":"Team Fortress","app_id":440,"player_count":0,"max_players":24,"Bots":0,"server_type":"Dedicated","server_os":"Linux","password":true,"vac":true,"version":"7757534","steam_id":85568392924469996,"keywords":["cp","nocrits","nodmgspread","uncletopia"],"game_id":440,"stv_port":27016,"stv_name":"Uncletopia | São Paulo | 1 | All Maps | STV","players":null},{"server_id":143,"name":"Uncletopia | São Paulo | 2 | All Maps","name_short":"sao-2","host":"sao-2.br.uncletopia.com","port":27015,"enabled":true,"region":"sa","cc":"br","latitude":-23.533773,"longitude":-46.62529,"reserved":0,"last_update":"0001-01-01T00:00:00Z","name_a2s":"Uncletopia | São Paulo | 2 | All Maps","protocol":17,"map":"koth_viaduct","folder":"tf","game":"Team Fortress","app_id":440,"player_count":0,"max_players":24,"Bots":0,"server_type":"Dedicated","server_os":"Linux","password":true,"vac":true,"version":"7757534","steam_id":85568392924485349,"keywords":["cp","nocrits","nodmgspread","uncletopia"],"game_id":440,"stv_port":27016,"stv_name":"Uncletopia | São Paulo | 2 | All Maps | STV","players":null},{"server_id":7,"name":"Uncletopia | Seattle | 1 | All Maps","name_short":"sea-1","host":"sea-1.us.uncletopia.com","port":27015,"enabled":true,"region":"us-west","cc":"us","latitude":47.608013,"longitude":-122.33517,"reserved":0,"last_update":"0001-01-01T00:00:00Z","name_a2s":"Uncletopia | Seattle | 1 | All Maps","protocol":17,"map":"koth_cascade","folder":"tf","game":"Team Fortress","app_id":440,"player_count":18,"max_players":24,"Bots":0,"server_type":"Dedicated","server_os":"Linux","password":true,"vac":true,"version":"7757534","steam_id":85568392924469997,"keywords":["cp","nocrits","nodmgspread","uncletopia"],"game_id":440,"stv_port":27016,"stv_name":"Uncletopia | Seattle | 1 | All Maps | STV","players":[{"user_id":213,"name":"Doctor™","steam_id":76561198134309750,"connected_time":7238000000000,"state":"active","ping":94},{"user_id":314,"name":"Clean your room","steam_id":76561198011617388,"connected_time":366000000000,"state":"active","ping":55},{"user_id":309,"name":"Tweeterhead","steam_id":76561198399117913,"connected_time":1036000000000,"state":"active","ping":51},{"user_id":318,"name":"Cunny Warrior 77","steam_id":76561198811760680,"connected_time":87000000000,"state":"active","ping":91},{"user_id":276,"name":"chrischrischris3018@yahoo.com","steam_id":76561198137316053,"connected_time":2640000000000,"state":"active","ping":112},{"user_id":267,"name":"ScoutBox","steam_id":76561198111539895,"connected_time":3009000000000,"state":"active","ping":77},{"user_id":311,"name":"[TrC] Nosy","steam_id":76561197978859310,"connected_time":739000000000,"state":"active","ping":58},{"user_id":299,"name":"Duncan Idaho","steam_id":76561197988963861,"connected_time":1670000000000,"state":"active","ping":122},{"user_id":301,"name":"exephur","steam_id":76561198135763234,"connected_time":1653000000000,"state":"active","ping":60},{"user_id":269,"name":"Zee❤","steam_id":76561198274550638,"connected_time":2985000000000,"state":"active","ping":115},{"user_id":277,"name":"Celia [ +/- ] ✔","steam_id":76561198067164431,"connected_time":2634000000000,"state":"active","ping":71},{"user_id":312,"name":"mumbles","steam_id":76561197994528974,"connected_time":453000000000,"state":"active","ping":75},{"user_id":310,"name":"El pandora","steam_id":76561198075490385,"connected_time":941000000000,"state":"active","ping":77},{"user_id":224,"name":"jorts","steam_id":76561199041179985,"connected_time":6839000000000,"state":"active","ping":60},{"user_id":319,"name":"Enchanced","steam_id":76561198797393854,"connected_time":78000000000,"state":"active","ping":57},{"user_id":286,"name":"IzzyHoP","steam_id":76561197995927883,"connected_time":2455000000000,"state":"active","ping":53},{"user_id":198,"name":"p9 delight","steam_id":76561197980280272,"connected_time":8916000000000,"state":"active","ping":44},{"user_id":297,"name":"rorywashere /ᐠ - ˕ -マ Ⳋ","steam_id":76561198065825165,"connected_time":1871000000000,"state":"active","ping":109}]},{"server_id":119,"name":"Uncletopia | Seattle | 2 | All Maps","name_short":"sea-2","host":"sea-1.us.uncletopia.com","port":27025,"enabled":true,"region":"us-west","cc":"us","latitude":47.608013,"longitude":-122.33517,"reserved":0,"last_update":"0001-01-01T00:00:00Z","name_a2s":"Uncletopia | Seattle | 2 | All Maps","protocol":17,"map":"koth_viaduct","folder":"tf","game":"Team Fortress","app_id":440,"player_count":4,"max_players":24,"Bots":0,"server_type":"Dedicated","server_os":"Linux","password":true,"vac":true,"version":"7757534","steam_id":85568392924469998,"keywords":["cp","nocrits","nodmgspread","uncletopia"],"game_id":440,"stv_port":27026,"stv_name":"Uncletopia | Seattle | 2 | All Maps | STV","players":[{"user_id":366,"name":"Ediot","steam_id":76561199349494096,"connected_time":516000000000,"state":"active","ping":136},{"user_id":355,"name":"i am weed","steam_id":76561198419896433,"connected_time":3745000000000,"state":"active","ping":45},{"user_id":356,"name":"Pyrolimited","steam_id":76561198195455657,"connected_time":3531000000000,"state":"active","ping":43},{"user_id":367,"name":"ChuChu","steam_id":76561199443647976,"connected_time":514000000000,"state":"active","ping":90}]},{"server_id":406,"name":"Uncletopia | Seattle | 3 | Stopwatch Beta","name_short":"sea-3","host":"sea-1.us.uncletopia.com","port":27035,"enabled":true,"region":"us-west","cc":"us","latitude":47.608013,"longitude":-122.33517,"reserved":0,"last_update":"0001-01-01T00:00:00Z","name_a2s":"Uncletopia | Seattle | 3 | Stopwatch Beta","protocol":17,"map":"pl_swiftwater_final1","folder":"tf","game":"Team Fortress","app_id":440,"player_count":0,"max_players":24,"Bots":0,"server_type":"Dedicated","server_os":"Linux","password":true,"vac":true,"version":"7757534","steam_id":85568392924515217,"keywords":["nocrits","nodmgspread","payload","uncletopia"],"game_id":440,"stv_port":27036,"stv_name":"Uncletopia | Seattle | 3 | Stopwatch Beta | STV","players":null},{"server_id":17,"name":"Uncletopia | San Francisco | 1 | All Maps","name_short":"sfo-1","host":"sfo-1.us.uncletopia.com","port":27015,"enabled":true,"region":"us-west","cc":"us","latitude":37.77397,"longitude":-122.4313,"reserved":0,"last_update":"0001-01-01T00:00:00Z","name_a2s":"Uncletopia | San Francisco | 1 | All Maps","protocol":17,"map":"pl_barnblitz","folder":"tf","game":"Team Fortress","app_id":440,"player_count":21,"max_players":24,"Bots":0,"server_type":"Dedicated","server_os":"Linux","password":true,"vac":true,"version":"7757534","steam_id":85568392924469999,"keywords":["nocrits","nodmgspread","payload","uncletopia"],"game_id":440,"stv_port":27016,"stv_name":"Uncletopia | San Francisco | 1 | All Maps | STV","players":[{"user_id":457,"name":"unlucky","steam_id":76561199204822104,"connected_time":435000000000,"state":"active","ping":57},{"user_id":447,"name":"Syrup","steam_id":76561198335677073,"connected_time":1496000000000,"state":"active","ping":59},{"user_id":440,"name":"façade","steam_id":76561199157009256,"connected_time":1710000000000,"state":"active","ping":45},{"user_id":408,"name":"flop","steam_id":76561199230528008,"connected_time":3527000000000,"state":"active","ping":67},{"user_id":461,"name":"Vampire","steam_id":76561198162559558,"connected_time":46000000000,"state":"active","ping":102},{"user_id":462,"name":"condefsa","steam_id":76561198968560730,"connected_time":23000000000,"state":"spawning","ping":196},{"user_id":444,"name":"Adawnby","steam_id":76561198103057295,"connected_time":1681000000000,"state":"active","ping":87},{"user_id":405,"name":"mritea","steam_id":76561198872799796,"connected_time":3782000000000,"state":"active","ping":108},{"user_id":427,"name":":)","steam_id":76561198377852701,"connected_time":2977000000000,"state":"active","ping":112},{"user_id":458,"name":"WAnker","steam_id":76561198366451484,"connected_time":402000000000,"state":"active","ping":55},{"user_id":459,"name":"The Bombinomicon","steam_id":76561198209881263,"connected_time":357000000000,"state":"active","ping":57},{"user_id":455,"name":"Soft Fuzzy Horse","steam_id":76561198005777544,"connected_time":471000000000,"state":"active","ping":57},{"user_id":415,"name":"sera","steam_id":76561198120360801,"connected_time":3342000000000,"state":"active","ping":59},{"user_id":445,"name":"Goob","steam_id":76561198256918638,"connected_time":1617000000000,"state":"active","ping":45},{"user_id":377,"name":"me","steam_id":76561199468285784,"connected_time":5879000000000,"state":"active","ping":41},{"user_id":417,"name":"jango fett wrist rocket","steam_id":76561198014920568,"connected_time":3323000000000,"state":"active","ping":105},{"user_id":454,"name":"twin","steam_id":76561198055626638,"connected_time":695000000000,"state":"active","ping":146},{"user_id":456,"name":"bepsu","steam_id":76561198826566231,"connected_time":467000000000,"state":"active","ping":75},{"user_id":443,"name":"lazybones","steam_id":76561199191149784,"connected_time":1685000000000,"state":"active","ping":48},{"user_id":448,"name":"143","steam_id":76561199473015151,"connected_time":1327000000000,"state":"active","ping":109},{"user_id":375,"name":"roger roger","steam_id":76561198130032444,"connected_time":6408000000000,"state":"active","ping":72}]},{"server_id":18,"name":"Uncletopia | San Francisco | 2 | All Maps","name_short":"sfo-2","host":"sfo-1.us.uncletopia.com","port":27025,"enabled":true,"region":"us-west","cc":"us","latitude":37.77397,"longitude":-122.4313,"reserved":0,"last_update":"0001-01-01T00:00:00Z","name_a2s":"Uncletopia | San Francisco | 2 | All Maps","protocol":17,"map":"pl_swiftwater_final1","folder":"tf","game":"Team Fortress","app_id":440,"player_count":0,"max_players":24,"Bots":0,"server_type":"Dedicated","server_os":"Linux","password":true,"vac":true,"version":"7757534","steam_id":85568392924470000,"keywords":["nocrits","nodmgspread","payload","uncletopia"],"game_id":440,"stv_port":27026,"stv_name":"Uncletopia | San Francisco | 2 | All Maps | STV","players":null},{"server_id":19,"name":"Uncletopia | San Francisco | 3 | Stopwatch Beta","name_short":"sfo-3","host":"sfo-1.us.uncletopia.com","port":27035,"enabled":true,"region":"us-west","cc":"us","latitude":37.77397,"longitude":-122.4313,"reserved":0,"last_update":"0001-01-01T00:00:00Z","name_a2s":"Uncletopia | San Francisco | 3 | Stopwatch Beta","protocol":17,"map":"workshop/koth_ramjam_rc1.ugc459778887","folder":"tf","game":"Team Fortress","app_id":440,"player_count":0,"max_players":24,"Bots":0,"server_type":"Dedicated","server_os":"Linux","password":true,"vac":true,"version":"7757534","steam_id":85568392924742824,"keywords":["cp","nocrits","nodmgspread","uncletopia"],"game_id":440,"stv_port":27036,"stv_name":"Uncletopia | San Francisco | 3 | Stopwatch Beta | STV","players":null},{"server_id":20,"name":"Uncletopia | San Francisco | 4 | Community","name_short":"sfo-4","host":"sfo-1.us.uncletopia.com","port":27045,"enabled":true,"region":"us-west","cc":"us","latitude":37.77397,"longitude":-122.4313,"reserved":0,"last_update":"0001-01-01T00:00:00Z","name_a2s":"Uncletopia | San Francisco | 4 | Community","protocol":17,"map":"workshop/pl_corrode_rc2.ugc546577989","folder":"tf","game":"Team Fortress","app_id":440,"player_count":0,"max_players":24,"Bots":0,"server_type":"Dedicated","server_os":"Linux","password":true,"vac":true,"version":"7757534","steam_id":85568392924742826,"keywords":["nocrits","nodmgspread","payload","uncletopia"],"game_id":440,"stv_port":27046,"stv_name":"Uncletopia | San Francisco | 4 | Community | STV","players":null},{"server_id":141,"name":"Uncletopia | Sydney | 1 | All Maps","name_short":"syd-1","host":"syd-1.au.uncletopia.com","port":27015,"enabled":true,"region":"au","cc":"au","latitude":-33.865143,"longitude":151.2099,"reserved":0,"last_update":"0001-01-01T00:00:00Z","name_a2s":"Uncletopia | Sydney | 1 | All Maps","protocol":17,"map":"cp_process_final","folder":"tf","game":"Team Fortress","app_id":440,"player_count":0,"max_players":24,"Bots":0,"server_type":"Dedicated","server_os":"Linux","password":true,"vac":true,"version":"7757534","steam_id":85568392924470001,"keywords":["cp","nocrits","nodmgspread","uncletopia"],"game_id":440,"stv_port":27016,"stv_name":"Uncletopia | Sydney | 1 | All Maps | STV","players":null},{"server_id":123,"name":"Uncletopia | Sydney | 2 | All Maps","name_short":"syd-2","host":"syd-1.au.uncletopia.com","port":27025,"enabled":true,"region":"au","cc":"au","latitude":-33.865143,"longitude":151.2099,"reserved":0,"last_update":"0001-01-01T00:00:00Z","name_a2s":"Uncletopia | Sydney | 2 | All Maps","protocol":17,"map":"pl_thundermountain","folder":"tf","game":"Team Fortress","app_id":440,"player_count":24,"max_players":24,"Bots":0,"server_type":"Dedicated","server_os":"Linux","password":true,"vac":true,"version":"7757534","steam_id":85568392924470002,"keywords":["nocrits","nodmgspread","payload","uncletopia"],"game_id":440,"stv_port":27026,"stv_name":"Uncletopia | Sydney | 2 | All Maps | STV","players":[{"user_id":348,"name":"beet","steam_id":76561198097873940,"connected_time":4557000000000,"state":"active","ping":57},{"user_id":344,"name":"SUCC MY DUCC","steam_id":76561198127068703,"connected_time":4749000000000,"state":"active","ping":65},{"user_id":386,"name":"Oysenberry","steam_id":76561198125443335,"connected_time":587000000000,"state":"active","ping":44},{"user_id":361,"name":"soupy","steam_id":76561198073734936,"connected_time":2822000000000,"state":"active","ping":86},{"user_id":374,"name":"Apteryx","steam_id":76561197976460834,"connected_time":1812000000000,"state":"active","ping":65},{"user_id":378,"name":"FrOStY","steam_id":76561198088155805,"connected_time":1423000000000,"state":"active","ping":75},{"user_id":320,"name":"Charm","steam_id":76561198028891054,"connected_time":6341000000000,"state":"active","ping":60},{"user_id":388,"name":"saudi ambassador messi","steam_id":76561198031293430,"connected_time":475000000000,"state":"active","ping":87},{"user_id":342,"name":"Cup","steam_id":76561198038485845,"connected_time":4810000000000,"state":"active","ping":36},{"user_id":274,"name":"Paula","steam_id":76561198010688399,"connected_time":10247000000000,"state":"active","ping":97},{"user_id":321,"name":"CypressFluff (She/Her)","steam_id":76561198174667818,"connected_time":6329000000000,"state":"active","ping":65},{"user_id":341,"name":"Mac","steam_id":76561198063407128,"connected_time":4814000000000,"state":"active","ping":55},{"user_id":383,"name":"FrontlineNinja","steam_id":76561198046731954,"connected_time":1192000000000,"state":"active","ping":42},{"user_id":379,"name":"Corrupt","steam_id":76561198008567328,"connected_time":1423000000000,"state":"active","ping":100},{"user_id":385,"name":"electro599","steam_id":76561198058148858,"connected_time":602000000000,"state":"active","ping":60},{"user_id":373,"name":"Monad (Trans-Girl Arc)","steam_id":76561198895999428,"connected_time":1829000000000,"state":"active","ping":54},{"user_id":376,"name":"Doctor Estonia","steam_id":76561198057365089,"connected_time":1439000000000,"state":"active","ping":100},{"user_id":351,"name":"Shadow Puppeteer","steam_id":76561198151121997,"connected_time":4357000000000,"state":"active","ping":77},{"user_id":384,"name":"Xbox Turn On","steam_id":76561198878584642,"connected_time":1175000000000,"state":"active","ping":107},{"user_id":355,"name":"Zoey","steam_id":76561198126153554,"connected_time":3799000000000,"state":"active","ping":71},{"user_id":325,"name":"The Fesh Pince Of Blair","steam_id":76561198124442611,"connected_time":5968000000000,"state":"active","ping":82},{"user_id":301,"name":"LightningBlock","steam_id":76561198289997742,"connected_time":7721000000000,"state":"active","ping":34},{"user_id":380,"name":"Toody","steam_id":76561198212656752,"connected_time":1422000000000,"state":"active","ping":46},{"user_id":343,"name":"Jamie2Cool","steam_id":76561198155695809,"connected_time":4810000000000,"state":"active","ping":91}]},{"server_id":395,"name":"Uncletopia | Sydney | 3 | All Maps","name_short":"syd-3","host":"syd-1.au.uncletopia.com","port":27035,"enabled":true,"region":"au","cc":"au","latitude":-33.865143,"longitude":151.2099,"reserved":0,"last_update":"0001-01-01T00:00:00Z","name_a2s":"Uncletopia | Sydney | 3 | All Maps","protocol":17,"map":"pl_barnblitz","folder":"tf","game":"Team Fortress","app_id":440,"player_count":0,"max_players":24,"Bots":0,"server_type":"Dedicated","server_os":"Linux","password":true,"vac":true,"version":"7757534","steam_id":85568392925194467,"keywords":["nocrits","nodmgspread","payload","uncletopia"],"game_id":440,"stv_port":27036,"stv_name":"Uncletopia | Sydney | 3 | All Maps | STV","players":null},{"server_id":396,"name":"Uncletopia | Sydney | 4 | All Maps","name_short":"syd-4","host":"syd-1.au.uncletopia.com","port":27045,"enabled":true,"region":"au","cc":"au","latitude":-33.865143,"longitude":151.2099,"reserved":0,"last_update":"0001-01-01T00:00:00Z","name_a2s":"Uncletopia | Sydney | 4 | All Maps","protocol":17,"map":"koth_viaduct","folder":"tf","game":"Team Fortress","app_id":440,"player_count":0,"max_players":24,"Bots":0,"server_type":"Dedicated","server_os":"Linux","password":true,"vac":true,"version":"7757534","steam_id":85568392925397958,"keywords":["cp","nocrits","nodmgspread","uncletopia"],"game_id":440,"stv_port":27046,"stv_name":"Uncletopia | Sydney | 4 | All Maps | STV","players":null},{"server_id":58,"name":"Uncletopia | Sydney | 5 | Stopwatch Beta","name_short":"syd-5","host":"syd-1.au.uncletopia.com","port":27055,"enabled":true,"region":"au","cc":"au","latitude":-33.865143,"longitude":151.2099,"reserved":0,"last_update":"0001-01-01T00:00:00Z","name_a2s":"Uncletopia | Sydney | 5 | Stopwatch Beta","protocol":17,"map":"koth_cascade","folder":"tf","game":"Team Fortress","app_id":440,"player_count":0,"max_players":24,"Bots":0,"server_type":"Dedicated","server_os":"Linux","password":true,"vac":true,"version":"7757534","steam_id":85568392925397959,"keywords":["cp","nocrits","nodmgspread","uncletopia"],"game_id":440,"stv_port":27056,"stv_name":"Uncletopia | Sydney | 5 | Stopwatch Beta | STV","players":null},{"server_id":59,"name":"Uncletopia | Sydney | 6 | Community","name_short":"syd-6","host":"syd-1.au.uncletopia.com","port":27065,"enabled":true,"region":"au","cc":"au","latitude":-33.865143,"longitude":151.2099,"reserved":0,"last_update":"0001-01-01T00:00:00Z","name_a2s":"Uncletopia | Sydney | 6 | Community","protocol":17,"map":"workshop/koth_trenchfoot_b1a.ugc731436616","folder":"tf","game":"Team Fortress","app_id":440,"player_count":9,"max_players":24,"Bots":0,"server_type":"Dedicated","server_os":"Linux","password":true,"vac":true,"version":"7757534","steam_id":85568392925397960,"keywords":["cp","nocrits","nodmgspread","uncletopia"],"game_id":440,"stv_port":27066,"stv_name":"Uncletopia | Sydney | 6 | Community | STV","players":[{"user_id":9,"name":"Branko","steam_id":76561199262196710,"connected_time":3284000000000,"state":"active","ping":44},{"user_id":11,"name":"tourist from banan bay","steam_id":76561199446773766,"connected_time":2125000000000,"state":"active","ping":137},{"user_id":23,"name":"Jacob","steam_id":76561198059341907,"connected_time":207000000000,"state":"active","ping":58},{"user_id":24,"name":"cfif 2008","steam_id":76561199262187402,"connected_time":166000000000,"state":"active","ping":381},{"user_id":25,"name":"actually peter griffin","steam_id":76561199449300267,"connected_time":120000000000,"state":"active","ping":118},{"user_id":15,"name":"Slippo","steam_id":76561198079649290,"connected_time":1645000000000,"state":"active","ping":54},{"user_id":16,"name":"Splooge Fellow","steam_id":76561198067993108,"connected_time":1640000000000,"state":"active","ping":45},{"user_id":19,"name":"Pew pew pew!","steam_id":76561198004120277,"connected_time":528000000000,"state":"active","ping":46},{"user_id":18,"name":"Lincoln2603","steam_id":76561198170236666,"connected_time":820000000000,"state":"active","ping":44}]},{"server_id":49,"name":"Uncletopia | Warsaw | 1 | All Maps","name_short":"waw-1","host":"waw-1.pl.uncletopia.com","port":27015,"enabled":true,"region":"eu","cc":"pl","latitude":52.2297,"longitude":21.017532,"reserved":0,"last_update":"0001-01-01T00:00:00Z","name_a2s":"","protocol":0,"map":"","folder":"","game":"","app_id":0,"player_count":0,"max_players":0,"Bots":0,"server_type":"","server_os":"","password":false,"vac":false,"version":"","steam_id":0,"keywords":null,"game_id":0,"stv_port":0,"stv_name":"","players":null},{"server_id":50,"name":"Uncletopia | Warsaw | 2 | All Maps","name_short":"waw-2","host":"waw-1.pl.uncletopia.com","port":27025,"enabled":true,"region":"eu","cc":"pl","latitude":52.2297,"longitude":21.017532,"reserved":0,"last_update":"0001-01-01T00:00:00Z","name_a2s":"Uncletopia | Warsaw | 2 | All Maps","protocol":17,"map":"pl_upward","folder":"tf","game":"Team Fortress","app_id":440,"player_count":0,"max_players":24,"Bots":0,"server_type":"Dedicated","server_os":"Linux","password":true,"vac":true,"version":"7757534","steam_id":85568392925397851,"keywords":["nocrits","nodmgspread","payload","uncletopia"],"game_id":440,"stv_port":27026,"stv_name":"Uncletopia | Warsaw | 2 | All Maps | STV","players":null},{"server_id":51,"name":"Uncletopia | Warsaw | 3 | All Maps","name_short":"waw-3","host":"waw-1.pl.uncletopia.com","port":27035,"enabled":true,"region":"eu","cc":"pl","latitude":52.2297,"longitude":21.017532,"reserved":0,"last_update":"0001-01-01T00:00:00Z","name_a2s":"Uncletopia | Warsaw | 3 | All Maps","protocol":17,"map":"pl_barnblitz","folder":"tf","game":"Team Fortress","app_id":440,"player_count":0,"max_players":24,"Bots":0,"server_type":"Dedicated","server_os":"Linux","password":true,"vac":true,"version":"7757534","steam_id":85568392925397852,"keywords":["nocrits","nodmgspread","payload","uncletopia"],"game_id":440,"stv_port":27036,"stv_name":"Uncletopia | Warsaw | 3 | All Maps | STV","players":null},{"server_id":52,"name":"Uncletopia | Warsaw | 4 | All Maps","name_short":"waw-4","host":"waw-1.pl.uncletopia.com","port":27045,"enabled":true,"region":"eu","cc":"pl","latitude":52.2297,"longitude":21.017532,"reserved":0,"last_update":"0001-01-01T00:00:00Z","name_a2s":"Uncletopia | Warsaw | 4 | All Maps","protocol":17,"map":"cp_altitude","folder":"tf","game":"Team Fortress","app_id":440,"player_count":0,"max_players":24,"Bots":0,"server_type":"Dedicated","server_os":"Linux","password":true,"vac":true,"version":"7757534","steam_id":85568392925397853,"keywords":["cp","nocrits","nodmgspread","uncletopia"],"game_id":440,"stv_port":27046,"stv_name":"Uncletopia | Warsaw | 4 | All Maps | STV","players":null},{"server_id":53,"name":"Uncletopia | Warsaw | 5 | Stopwatch Beta","name_short":"waw-5","host":"waw-1.pl.uncletopia.com","port":27055,"enabled":true,"region":"eu","cc":"pl","latitude":52.2297,"longitude":21.017532,"reserved":0,"last_update":"0001-01-01T00:00:00Z","name_a2s":"Uncletopia | Warsaw | 5 | Stopwatch Beta","protocol":17,"map":"pl_pier","folder":"tf","game":"Team Fortress","app_id":440,"player_count":0,"max_players":24,"Bots":0,"server_type":"Dedicated","server_os":"Linux","password":true,"vac":true,"version":"7757534","steam_id":85568392925397854,"keywords":["nocrits","nodmgspread","payload","uncletopia"],"game_id":440,"stv_port":27056,"stv_name":"Uncletopia | Warsaw | 5 | Stopwatch Beta | STV","players":null},{"server_id":54,"name":"Uncletopia | Warsaw | 6 | Community","name_short":"waw-6","host":"waw-1.pl.uncletopia.com","port":27065,"enabled":true,"region":"eu","cc":"pl","latitude":52.2297,"longitude":21.017532,"reserved":0,"last_update":"0001-01-01T00:00:00Z","name_a2s":"Uncletopia | Warsaw | 6 | Community","protocol":17,"map":"koth_highpass","folder":"tf","game":"Team Fortress","app_id":440,"player_count":0,"max_players":24,"Bots":0,"server_type":"Dedicated","server_os":"Linux","password":true,"vac":true,"version":"7757534","steam_id":85568392925397856,"keywords":["cp","nocrits","nodmgspread","uncletopia"],"game_id":440,"stv_port":27066,"stv_name":"Uncletopia | Warsaw | 6 | Community | STV","players":null}]}