{"status":true,"message":"","result":[{"server_id":9,"name":"Uncletopia | Atlanta | 1 | All Maps","name_short":"atl-1","host":"atl-1.us.uncletopia.com","port":27015,"enabled":true,"region":"us-east","cc":"us","latitude":33.753746,"longitude":-84.38633,"reserved":0,"last_update":"0001-01-01T00:00:00Z","name_a2s":"Uncletopia | Atlanta | 1 | All Maps","protocol":17,"map":"koth_cascade","folder":"tf","game":"Team Fortress","app_id":440,"player_count":0,"max_players":24,"Bots":0,"server_type":"Dedicated","server_os":"Linux","password":true,"vac":true,"version":"7961495","steam_id":85568392924469982,"keywords":["cp","nocrits","nodmgspread","uncletopia"],"game_id":440,"stv_port":27016,"stv_name":"Uncletopia | Atlanta | 1 | All Maps | STV","players":null},{"server_id":104,"name":"Uncletopia | Atlanta | 2 | All Maps","name_short":"atl-2","host":"atl-1.us.uncletopia.com","port":27025,"enabled":true,"region":"us-east","cc":"us","latitude":33.753746,"longitude":-84.38633,"reserved":0,"last_update":"0001-01-01T00:00:00Z","name_a2s":"Uncletopia | Atlanta | 2 | All Maps","protocol":17,"map":"pl_swiftwater_final1","folder":"tf","game":"Team Fortress","app_id":440,"player_count":23,"max_players":24,"Bots":0,"server_type":"Dedicated","server_os":"Linux","password":true,"vac":true,"version":"7961495","steam_id":85568392924469983,"keywords":["nocrits","nodmgspread","payload","uncletopia"],"game_id":440,"stv_port":27026,"stv_name":"Uncletopia | Atlanta | 2 | All Maps | STV","players":null},{"server_id":400,"name":"Uncletopia | Atlanta | 3 | Stopwatch","name_short":"atl-3","host":"atl-1.us.uncletopia.com","port":27035,"enabled":true,"region":"us-east","cc":"us","latitude":33.753746,"longitude":-84.38633,"reserved":0,"last_update":"0001-01-01T00:00:00Z","name_a2s":"Uncletopia | Atlanta | 3 | Stopwatch","protocol":17,"map":"cp_process_final","folder":"tf","game":"Team Fortress","app_id":440,"player_count":0,"max_players":24,"Bots":0,"server_type":"Dedicated","server_os":"Linux","password":true,"vac":true,"version":"7961495","steam_id":85568392924515187,"keywords":["cp","nocrits","nodmgspread","uncletopia"],"game_id":440,"stv_port":27036,"stv_name":"Uncletopia | Atlanta | 3 | Stopwatch | STV","players":null},{"server_id":401,"name":"Uncletopia | Atlanta | 4 | Community","name_short":"atl-4","host":"atl-1.us.uncletopia.com","port":27045,"enabled":true,"region":"us-east","cc":"us","latitude":33.753746,"longitude":-84.38633,"reserved":0,"last_update":"0001-01-01T00:00:00Z","name_a2s":"Uncletopia | Atlanta | 4 | Community","protocol":17,"map":"pl_vigil_rc10","folder":"tf","game":"Team Fortress","app_id":440,"player_count":0,"max_players":24,"Bots":0,"server_type":"Dedicated","server_os":"Linux","password":true,"vac":true,"version":"7961495","steam_id":85568392924515188,"keywords":["nocrits","nodmgspread","payload","uncletopia"],"game_id":440,"stv_port":27046,"stv_name":"Uncletopia | Atlanta | 4 | Community | STV","players":null},{"server_id":2,"name":"Uncletopia | Chicago | 1 | All Maps","name_short":"chi-1","host":"chi-1.us.uncletopia.com","port":27015,"enabled":true,"region":"us-central","cc":"us","latitude":41.881832,"longitude":-87.62318,"reserved":0,"last_update":"0001-01-01T00:00:00Z","name_a2s":"Uncletopia | Chicago | 1 | All Maps","protocol":17,"map":"pl_pier","folder":"tf","game":"Team Fortress","app_id":440,"player_count":24,"max_players":24,"Bots":0,"server_type":"Dedicated","server_os":"Linux","password":true,"vac":true,"version":"7961495","steam_id":85568392924469984,"keywords":["nocrits","nodmgspread","payload","uncletopia"],"game_id":440,"stv_port":27016,"stv_name":"Uncletopia | Chicago | 1 | All Maps | STV","players":[{"user_id":382,"name":"orlando \"eredyn\" arcia","steam_id":76561198868116439,"connected_time":2403000000000,"state":"active","ping":65},{"user_id":424,"name":"papa smerf","steam_id":76561199019665031,"connected_time":94000000000,"state":"active","ping":56},{"user_id":332,"name":"blob","steam_id":76561198122375328,"connected_time":6230000000000,"state":"active","ping":54},{"user_id":414,"name":"HemoTox","steam_id":76561197999713466,"connected_time":690000000000,"state":"active","ping":67},{"user_id":403,"name":"An Electric Blue Lobster","steam_id":76561198303125229,"connected_time":1749000000000,"state":"active","ping":57},{"user_id":385,"name":"Nathan","steam_id":76561199132214008,"connected_time":2361000000000,"state":"active","ping":79},{"user_id":374,"name":"Blur","steam_id":76561198062314111,"connected_time":4245000000000,"state":"active","ping":75},{"user_id":405,"name":"DoctrZoot","steam_id":76561199171835450,"connected_time":1403000000000,"state":"active","ping":85},{"user_id":402,"name":"Lamp","steam_id":76561198369922506,"connected_time":1925000000000,"state":"active","ping":63},{"user_id":420,"name":"Milkmur","steam_id":76561198210043821,"connected_time":454000000000,"state":"active","ping":71},{"user_id":408,"name":"Gene Takovic","steam_id":76561198120442624,"connected_time":1223000000000,"state":"active","ping":75},{"user_id":331,"name":"Rex","steam_id":76561198138365053,"connected_time":6355000000000,"state":"active","ping":134},{"user_id":412,"name":"Jamie","steam_id":76561198058840477,"connected_time":726000000000,"state":"active","ping":101},{"user_id":409,"name":"A Future US Army Soldier","steam_id":76561198008263869,"connected_time":1223000000000,"state":"active","ping":74},{"user_id":324,"name":"Ras","steam_id":76561198123546775,"connected_time":6892000000000,"state":"active","ping":88},{"user_id":419,"name":"gIBBY","steam_id":76561198080099598,"connected_time":467000000000,"state":"active","ping":80},{"user_id":407,"name":"SPIRE_FAN","steam_id":76561198001486573,"connected_time":1345000000000,"state":"active","ping":68},{"user_id":411,"name":"Lili W.","steam_id":76561199391478575,"connected_time":729000000000,"state":"active","ping":100},{"user_id":421,"name":"Bee","steam_id":76561198074681324,"connected_time":253000000000,"state":"active","ping":62},{"user_id":423,"name":"ganchy","steam_id":76561198088384838,"connected_time":171000000000,"state":"active","ping":73},{"user_id":415,"name":"mn","steam_id":76561198042357436,"connected_time":630000000000,"state":"active","ping":81},{"user_id":416,"name":"Likeia #Savetf2","steam_id":76561198005214207,"connected_time":628000000000,"state":"active","ping":59},{"user_id":417,"name":"coffee bagel","steam_id":76561198141198352,"connected_time":606000000000,"state":"active","ping":42},{"user_id":418,"name":"Baby Oil Johnson","steam_id":76561198983866005,"connected_time":593000000000,"state":"active","ping":74}]},{"server_id":106,"name":"Uncletopia | Chicago | 2 | All Maps","name_short":"chi-2","host":"chi-1.us.uncletopia.com","port":27025,"enabled":true,"region":"us-central","cc":"us","latitude":41.881832,"longitude":-87.62318,"reserved":0,"last_update":"0001-01-01T00:00:00Z","name_a2s":"Uncletopia | Chicago | 2 | All Maps","protocol":17,"map":"pl_badwater","folder":"tf","game":"Team Fortress","app_id":440,"player_count":23,"max_players":24,"Bots":0,"server_type":"Dedicated","server_os":"Linux","password":true,"vac":true,"version":"7961495","steam_id":85568392924469985,"keywords":["nocrits","nodmgspread","payload","uncletopia"],"game_id":440,"stv_port":27026,"stv_name":"Uncletopia | Chicago | 2 | All Maps | STV","players":[{"user_id":540,"name":"Plinko","steam_id":76561197968530638,"connected_time":661000000000,"state":"active","ping":58},{"user_id":541,"name":"igotmail","steam_id":76561198070631899,"connected_time":643000000000,"state":"active","ping":63},{"user_id":492,"name":"uzr","steam_id":76561198799343084,"connected_time":4053000000000,"state":"active","ping":104},{"user_id":543,"name":"Cranial Brain Trauma","steam_id":76561198055876398,"connected_time":475000000000,"state":"active","ping":69},{"user_id":516,"name":"Kritzburgh","steam_id":76561198149466938,"connected_time":2303000000000,"state":"active","ping":72},{"user_id":535,"name":"Tony Pajamas","steam_id":76561198102299438,"connected_time":793000000000,"state":"active","ping":59},{"user_id":466,"name":"Mecha","steam_id":76561198014927379,"connected_time":5959000000000,"state":"active","ping":74},{"user_id":542,"name":"JellyParrot","steam_id":76561199190990163,"connected_time":629000000000,"state":"active","ping":67},{"user_id":549,"name":"5yt LFB","steam_id":76561198041643833,"connected_time":297000000000,"state":"active","ping":86},{"user_id":528,"name":"Trigger!","steam_id":76561198061514186,"connected_time":1401000000000,"state":"active","ping":90},{"user_id":522,"name":"Arizona Ranger","steam_id":76561199104829802,"connected_time":2234000000000,"state":"active","ping":101},{"user_id":518,"name":"Captain Bug","steam_id":76561198137763878,"connected_time":2284000000000,"state":"active","ping":87},{"user_id":533,"name":"afroadam","steam_id":76561197993377919,"connected_time":1073000000000,"state":"active","ping":68},{"user_id":546,"name":"SlurpyTheDog","steam_id":76561198799733154,"connected_time":320000000000,"state":"active","ping":67},{"user_id":548,"name":"toastman","steam_id":76561198207073088,"connected_time":313000000000,"state":"active","ping":76},{"user_id":530,"name":"Dr. Ducks","steam_id":76561198116100707,"connected_time":1389000000000,"state":"active","ping":73},{"user_id":459,"name":"FOX News goblin","steam_id":76561198167648580,"connected_time":6397000000000,"state":"active","ping":84},{"user_id":551,"name":"shut up","steam_id":76561198139761609,"connected_time":280000000000,"state":"active","ping":68},{"user_id":523,"name":"Babymozfather","steam_id":76561199485566302,"connected_time":2192000000000,"state":"active","ping":125},{"user_id":545,"name":"Its_Salty[ST]","steam_id":76561198273978887,"connected_time":443000000000,"state":"active","ping":67},{"user_id":547,"name":"atmBomb","steam_id":76561198055557988,"connected_time":319000000000,"state":"active","ping":92},{"user_id":552,"name":"D","steam_id":76561198292908619,"connected_time":280000000000,"state":"active","ping":75},{"user_id":539,"name":"chen","steam_id":76561198064872330,"connected_time":706000000000,"state":"active","ping":100}]},{"server_id":402,"name":"Uncletopia | Chicago | 3 | All Maps","name_short":"chi-3","host":"chi-1.us.uncletopia.com","port":27035,"enabled":true,"region":"us-central","cc":"us","latitude":41.881832,"longitude":-87.62318,"reserved":0,"last_update":"0001-01-01T00:00:00Z","name_a2s":"Uncletopia | Chicago | 3 | All Maps","protocol":17,"map":"pl_frontier_final","folder":"tf","game":"Team Fortress","app_id":440,"player_count":24,"max_players":24,"Bots":0,"server_type":"Dedicated","server_os":"Linux","password":true,"vac":true,"version":"7961495","steam_id":85568392924515191,"keywords":["nocrits","nodmgspread","payload","uncletopia"],"game_id":440,"stv_port":27036,"stv_name":"Uncletopia | Chicago | 3 | All Maps | STV","players":[{"user_id":124,"name":"jonathan park","steam_id":76561198133616658,"connected_time":4001000000000,"state":"active","ping":100},{"user_id":185,"name":"Smiles","steam_id":76561198107197973,"connected_time":459000000000,"state":"active","ping":57},{"user_id":162,"name":"-SFC- Spiritual Opium Peddler","steam_id":76561198024886023,"connected_time":2320000000000,"state":"active","ping":66},{"user_id":182,"name":"SwaggerEggs","steam_id":76561199057357191,"connected_time":531000000000,"state":"active","ping":115},{"user_id":194,"name":"d1pp_","steam_id":76561198395577807,"connected_time":126000000000,"state":"active","ping":65},{"user_id":187,"name":"Shaby_Frost","steam_id":76561198401334563,"connected_time":438000000000,"state":"active","ping":45},{"user_id":171,"name":"hutty","steam_id":76561198062721414,"connected_time":1720000000000,"state":"active","ping":66},{"user_id":158,"name":"Kxmi","steam_id":76561198192730827,"connected_time":2404000000000,"state":"active","ping":56},{"user_id":181,"name":"benny worm","steam_id":76561198163238434,"connected_time":548000000000,"state":"active","ping":74},{"user_id":139,"name":"Bussy Bandit","steam_id":76561198034028769,"connected_time":3176000000000,"state":"active","ping":63},{"user_id":183,"name":"LevelRaisin","steam_id":76561198082924440,"connected_time":511000000000,"state":"active","ping":49},{"user_id":164,"name":"glass marauder","steam_id":76561198102774990,"connected_time":2087000000000,"state":"active","ping":75},{"user_id":195,"name":"LightBulbGlue #SaveTF2","steam_id":76561198329573529,"connected_time":28000000000,"state":"active","ping":67},{"user_id":177,"name":"average manicotti enjoyer","steam_id":76561198059535856,"connected_time":1462000000000,"state":"active","ping":80},{"user_id":175,"name":"Masonicle","steam_id":76561198192327657,"connected_time":1691000000000,"state":"active","ping":72},{"user_id":170,"name":"Paddy","steam_id":76561198037001457,"connected_time":1784000000000,"state":"active","ping":70},{"user_id":154,"name":"Floating Peasant","steam_id":76561198000183671,"connected_time":2543000000000,"state":"active","ping":62},{"user_id":131,"name":"EIMB KILLER","steam_id":76561198046870291,"connected_time":3866000000000,"state":"active","ping":61},{"user_id":161,"name":"juicy j the j stands for juicy","steam_id":76561198113990147,"connected_time":2360000000000,"state":"active","ping":90},{"user_id":142,"name":"5unny PHD IN HATEOLOGY","steam_id":76561198133111058,"connected_time":2774000000000,"state":"active","ping":76},{"user_id":191,"name":"Forgis on the jeep","steam_id":76561198893301630,"connected_time":315000000000,"state":"active","ping":54},{"user_id":106,"name":"WonksWorkshop","steam_id":76561198231504420,"connected_time":4887000000000,"state":"active","ping":184},{"user_id":188,"name":"averted","steam_id":76561198067784310,"connected_time":422000000000,"state":"active","ping":67},{"user_id":193,"name":"Red","steam_id":76561198001939529,"connected_time":260000000000,"state":"active","ping":101}]},{"server_id":403,"name":"Uncletopia | Chicago | 4 | All Maps","name_short":"chi-4","host":"chi-1.us.uncletopia.com","port":27045,"enabled":true,"region":"us-central","cc":"us","latitude":41.881832,"longitude":-87.62318,"reserved":0,"last_update":"0001-01-01T00:00:00Z","name_a2s":"Uncletopia | Chicago | 4 | All Maps","protocol":17,"map":"koth_cascade","folder":"tf","game":"Team Fortress","app_id":440,"player_count":0,"max_players":24,"Bots":0,"server_type":"Dedicated","server_os":"Linux","password":true,"vac":true,"version":"7961495","steam_id":85568392924515193,"keywords":["cp","nocrits","nodmgspread","uncletopia"],"game_id":440,"stv_port":27046,"stv_name":"Uncletopia | Chicago | 4 | All Maps | STV","players":null},{"server_id":36,"name":"Uncletopia | Chicago | 5 | All Maps","name_short":"chi-5","host":"chi-2.us.uncletopia.com","port":27015,"enabled":true,"region":"us-central","cc":"us","latitude":41.881832,"longitude":-87.62318,"reserved":0,"last_update":"0001-01-01T00:00:00Z","name_a2s":"Uncletopia | Chicago | 5 | All Maps","protocol":17,"map":"koth_viaduct","folder":"tf","game":"Team Fortress","app_id":440,"player_count":0,"max_players":24,"Bots":0,"server_type":"Dedicated","server_os":"Linux","password":true,"vac":true,"version":"7961495","steam_id":85568392924866362,"keywords":["cp","nocrits","nodmgspread","uncletopia"],"game_id":440,"stv_port":27016,"stv_name":"Uncletopia | Chicago | 5 | All Maps | STV","players":null},{"server_id":37,"name":"Uncletopia | Chicago | 6 | All Maps","name_short":"chi-6","host":"chi-2.us.uncletopia.com","port":27025,"enabled":true,"region":"us-central","cc":"us","latitude":41.881832,"longitude":-87.62318,"reserved":0,"last_update":"0001-01-01T00:00:00Z","name_a2s":"Uncletopia | Chicago | 6 | All Maps","protocol":17,"map":"pl_barnblitz","folder":"tf","game":"Team Fortress","app_id":440,"player_count":24,"max_players":24,"Bots":0,"server_type":"Dedicated","server_os":"Linux","password":true,"vac":true,"version":"7961495","steam_id":85568392924866363,"keywords":["nocrits","nodmgspread","payload","uncletopia"],"game_id":440,"stv_port":27026,"stv_name":"Uncletopia | Chicago | 6 | All Maps | STV","players":[{"user_id":259,"name":"GotYourNose","steam_id":76561198803527852,"connected_time":863000000000,"state":"active","ping":61},{"user_id":233,"name":"Lord Cutler Beckett","steam_id":76561198091356047,"connected_time":2630000000000,"state":"active","ping":54},{"user_id":256,"name":"bananer_man_74","steam_id":76561199484199687,"connected_time":1071000000000,"state":"active","ping":63},{"user_id":263,"name":"mountainkug","steam_id":76561199491802535,"connected_time":265000000000,"state":"active","ping":99},{"user_id":215,"name":"VixianUwU","steam_id":76561198948815060,"connected_time":4145000000000,"state":"active","ping":80},{"user_id":218,"name":"HeavyMettleDick","steam_id":76561198001925087,"connected_time":3607000000000,"state":"active","ping":75},{"user_id":243,"name":"SupremeGarbo","steam_id":76561198018260268,"connected_time":2068000000000,"state":"active","ping":74},{"user_id":248,"name":"A Quiet Fartwell","steam_id":76561198397009880,"connected_time":1540000000000,"state":"active","ping":66},{"user_id":224,"name":"unpronounceable","steam_id":76561198271860748,"connected_time":3506000000000,"state":"active","ping":148},{"user_id":222,"name":"dubspol","steam_id":76561198114845137,"connected_time":3526000000000,"state":"active","ping":69},{"user_id":267,"name":"WitheringLeo","steam_id":76561198046722918,"connected_time":28000000000,"state":"active","ping":93},{"user_id":187,"name":"[GUT] RiDiK¬Æ","steam_id":76561197969756446,"connected_time":6193000000000,"state":"active","ping":56},{"user_id":231,"name":"avant","steam_id":76561198104921055,"connected_time":2779000000000,"state":"active","ping":87},{"user_id":262,"name":"DemonDoesThings","steam_id":76561198845023442,"connected_time":304000000000,"state":"active","ping":67},{"user_id":141,"name":"ImStillWorking","steam_id":76561199126648834,"connected_time":8851000000000,"state":"active","ping":86},{"user_id":249,"name":"Person","steam_id":76561198073885832,"connected_time":1332000000000,"state":"active","ping":114},{"user_id":266,"name":"Elevator","steam_id":76561198974286387,"connected_time":123000000000,"state":"active","ping":72},{"user_id":247,"name":"Gloomy","steam_id":76561198053742522,"connected_time":1647000000000,"state":"active","ping":131},{"user_id":236,"name":"sleepy","steam_id":76561198060317354,"connected_time":2482000000000,"state":"active","ping":60},{"user_id":252,"name":"6t26j","steam_id":76561198278282836,"connected_time":1181000000000,"state":"active","ping":57},{"user_id":265,"name":"matthewp14556","steam_id":76561199487692335,"connected_time":144000000000,"state":"active","ping":75},{"user_id":254,"name":"IepicI","steam_id":76561199030987614,"connected_time":1099000000000,"state":"active","ping":78},{"user_id":255,"name":"boog","steam_id":76561197993699665,"connected_time":1089000000000,"state":"active","ping":79},{"user_id":245,"name":"HarryjusttHarry","steam_id":76561198982810452,"connected_time":2027000000000,"state":"active","ping":81}]},{"server_id":38,"name":"Uncletopia | Chicago | 7 | Stopwatch","name_short":"chi-7","host":"chi-2.us.uncletopia.com","port":27035,"enabled":true,"region":"us-central","cc":"us","latitude":41.881832,"longitude":-87.62318,"reserved":0,"last_update":"0001-01-01T00:00:00Z","name_a2s":"Uncletopia | Chicago | 7 | Stopwatch","protocol":17,"map":"cp_granary","folder":"tf","game":"Team Fortress","app_id":440,"player_count":0,"max_players":24,"Bots":0,"server_type":"Dedicated","server_os":"Linux","password":true,"vac":true,"version":"7961495","steam_id":85568392924866364,"keywords":["cp","nocrits","nodmgspread","uncletopia"],"game_id":440,"stv_port":27036,"stv_name":"Uncletopia | Chicago | 7 | Stopwatch | STV","players":null},{"server_id":39,"name":"Uncletopia | Chicago | 8 | Community","name_short":"chi-8","host":"chi-2.us.uncletopia.com","port":27045,"enabled":true,"region":"us-central","cc":"us","latitude":41.881832,"longitude":-87.62318,"reserved":0,"last_update":"0001-01-01T00:00:00Z","name_a2s":"Uncletopia | Chicago | 8 | Community","protocol":17,"map":"workshop/koth_slaughter_rc1.ugc1712845210","folder":"tf","game":"Team Fortress","app_id":440,"player_count":0,"max_players":24,"Bots":0,"server_type":"Dedicated","server_os":"Linux","password":true,"vac":true,"version":"7961495","steam_id":85568392924866365,"keywords":["cp","nocrits","nodmgspread","uncletopia"],"game_id":440,"stv_port":27046,"stv_name":"Uncletopia | Chicago | 8 | Community | STV","players":null},{"server_id":8,"name":"Uncletopia | Dallas | 1 | All Maps","name_short":"dal-1","host":"dal-1.us.uncletopia.com","port":27015,"enabled":true,"region":"us-central","cc":"us","latitude":32.779167,"longitude":-96.80889,"reserved":0,"last_update":"0001-01-01T00:00:00Z","name_a2s":"Uncletopia | Dallas | 1 | All Maps","protocol":17,"map":"pl_borneo","folder":"tf","game":"Team Fortress","app_id":440,"player_count":25,"max_players":24,"Bots":0,"server_type":"Dedicated","server_os":"Linux","password":true,"vac":true,"version":"7961495","steam_id":85568392924469986,"keywords":["nocrits","nodmgspread","payload","uncletopia"],"game_id":440,"stv_port":27016,"stv_name":"Uncletopia | Dallas | 1 | All Maps | STV","players":[{"user_id":184,"name":"Cervid√©","steam_id":76561198098579497,"connected_time":2667000000000,"state":"active","ping":102},{"user_id":208,"name":"DistantJragon","steam_id":76561198117563641,"connected_time":244000000000,"state":"active","ping":82},{"user_id":176,"name":"BrowniesCake","steam_id":76561198164081149,"connected_time":3586000000000,"state":"active","ping":81},{"user_id":202,"name":"Tanner The Fish Man","steam_id":76561198372696640,"connected_time":1092000000000,"state":"active","ping":70},{"user_id":185,"name":"lucky","steam_id":76561198323426623,"connected_time":2655000000000,"state":"active","ping":101},{"user_id":163,"name":"Kirby.exe","steam_id":76561198242714582,"connected_time":5065000000000,"state":"active","ping":53},{"user_id":213,"name":"Dog Athletic Association","steam_id":76561198002964332,"connected_time":217000000000,"state":"active","ping":109},{"user_id":93,"name":"whale_lord420","steam_id":76561199014469424,"connected_time":9720000000000,"state":"active","ping":71},{"user_id":187,"name":"dab","steam_id":76561197997990613,"connected_time":2626000000000,"state":"active","ping":90},{"user_id":204,"name":"I KEEP IT REAL","steam_id":76561199127423378,"connected_time":1070000000000,"state":"active","ping":91},{"user_id":214,"name":"fish fingers","steam_id":76561199078516567,"connected_time":210000000000,"state":"active","ping":132},{"user_id":189,"name":"Rustyorion","steam_id":76561198439186347,"connected_time":2492000000000,"state":"active","ping":109},{"user_id":207,"name":"Bogey","steam_id":76561198096227944,"connected_time":249000000000,"state":"active","ping":45},{"user_id":194,"name":"flippercurve","steam_id":76561199238295034,"connected_time":1708000000000,"state":"active","ping":74},{"user_id":218,"name":"guy","steam_id":76561198196443262,"connected_time":131000000000,"state":"active","ping":78},{"user_id":201,"name":"lil homie gay ass","steam_id":76561198044804626,"connected_time":1456000000000,"state":"active","ping":60},{"user_id":221,"name":"Cam","steam_id":76561198139174433,"connected_time":6000000000,"state":"spawning","ping":60},{"user_id":209,"name":"Chol","steam_id":76561198122054259,"connected_time":239000000000,"state":"active","ping":83},{"user_id":195,"name":"Boingo","steam_id":76561199086931535,"connected_time":1707000000000,"state":"active","ping":55},{"user_id":212,"name":"Makin Bacon","steam_id":76561199042257741,"connected_time":230000000000,"state":"active","ping":88},{"user_id":200,"name":"Shalom","steam_id":76561198410005222,"connected_time":1598000000000,"state":"active","ping":64},{"user_id":159,"name":"flu walrus","steam_id":76561198207940136,"connected_time":5306000000000,"state":"active","ping":53},{"user_id":206,"name":"Kosmo","steam_id":76561198079015843,"connected_time":254000000000,"state":"active","ping":61},{"user_id":215,"name":"for eel? on cod? no carp?","steam_id":76561198095121758,"connected_time":209000000000,"state":"active","ping":80},{"user_id":217,"name":"EmotreX","steam_id":76561198366518989,"connected_time":183000000000,"state":"active","ping":55}]},{"server_id":108,"name":"Uncletopia | Dallas | 2 | All Maps","name_short":"dal-2","host":"dal-1.us.uncletopia.com","port":27025,"enabled":true,"region":"us-central","cc":"us","latitude":32.779167,"longitude":-96.80889,"reserved":0,"last_update":"0001-01-01T00:00:00Z","name_a2s":"Uncletopia | Dallas | 2 | All Maps","protocol":17,"map":"koth_nucleus","folder":"tf","game":"Team Fortress","app_id":440,"player_count":24,"max_players":24,"Bots":0,"server_type":"Dedicated","server_os":"Linux","password":true,"vac":true,"version":"7961495","steam_id":85568392924469988,"keywords":["cp","nocrits","nodmgspread","uncletopia"],"game_id":440,"stv_port":27026,"stv_name":"Uncletopia | Dallas | 2 | All Maps | STV","players":[{"user_id":16,"name":"Sup m8","steam_id":76561198081659121,"connected_time":1767000000000,"state":"active","ping":45},{"user_id":48,"name":"Pixelated Pussy","steam_id":76561198002511088,"connected_time":145000000000,"state":"active","ping":86},{"user_id":20,"name":"Buttercup","steam_id":76561198030816577,"connected_time":995000000000,"state":"active","ping":59},{"user_id":19,"name":"menonamed","steam_id":76561198199564382,"connected_time":1293000000000,"state":"active","ping":83},{"user_id":47,"name":"BOB","steam_id":76561198000787196,"connected_time":316000000000,"state":"active","ping":146},{"user_id":22,"name":"I ate all the cheese","steam_id":76561198993205822,"connected_time":954000000000,"state":"active","ping":80},{"user_id":23,"name":"Fresh Lychee","steam_id":76561198045399559,"connected_time":952000000000,"state":"active","ping":76},{"user_id":27,"name":"DavidTheBurrito","steam_id":76561198231940844,"connected_time":802000000000,"state":"active","ping":75},{"user_id":45,"name":"KingKlutz","steam_id":76561198027323788,"connected_time":413000000000,"state":"active","ping":81},{"user_id":37,"name":"ConfidentLaptop","steam_id":76561198078591413,"connected_time":676000000000,"state":"active","ping":84},{"user_id":29,"name":"Sanic","steam_id":76561198083124962,"connected_time":771000000000,"state":"active","ping":53},{"user_id":30,"name":"deep fried water","steam_id":76561198077272494,"connected_time":765000000000,"state":"active","ping":69},{"user_id":31,"name":"Bottom Dweller","steam_id":76561198066806674,"connected_time":758000000000,"state":"active","ping":83},{"user_id":32,"name":"Addy \u003c3","steam_id":76561198045819723,"connected_time":748000000000,"state":"active","ping":125},{"user_id":46,"name":"Rock Kickass","steam_id":76561198450510841,"connected_time":383000000000,"state":"active","ping":95},{"user_id":38,"name":"MantisToboggan","steam_id":76561197969447887,"connected_time":674000000000,"state":"active","ping":160},{"user_id":35,"name":"Si1entSn1pa","steam_id":76561198170095479,"connected_time":741000000000,"state":"active","ping":87},{"user_id":36,"name":"Defragmented","steam_id":76561198854210081,"connected_time":720000000000,"state":"active","ping":71},{"user_id":49,"name":"eryn üó∫","steam_id":76561198004433070,"connected_time":105000000000,"state":"active","ping":57},{"user_id":40,"name":"artichoke","steam_id":76561198980994364,"connected_time":621000000000,"state":"active","ping":105},{"user_id":41,"name":"Kamin","steam_id":76561198255299559,"connected_time":598000000000,"state":"active","ping":67},{"user_id":42,"name":"Freedy","steam_id":76561199115274103,"connected_time":588000000000,"state":"active","ping":90},{"user_id":43,"name":"rogerofminecraft","steam_id":76561199220257695,"connected_time":584000000000,"state":"active","ping":166},{"user_id":44,"name":"loot","steam_id":76561198069954956,"connected_time":561000000000,"state":"active","ping":64}]},{"server_id":404,"name":"Uncletopia | Dallas | 3 | All Maps","name_short":"dal-3","host":"dal-1.us.uncletopia.com","port":27035,"enabled":true,"region":"us-central","cc":"us","latitude":32.779167,"longitude":-96.80889,"reserved":0,"last_update":"0001-01-01T00:00:00Z","name_a2s":"Uncletopia | Dallas | 3 | All Maps","protocol":17,"map":"pl_badwater","folder":"tf","game":"Team Fortress","app_id":440,"player_count":0,"max_players":24,"Bots":0,"server_type":"Dedicated","server_os":"Linux","password":true,"vac":true,"version":"7961495","steam_id":85568392924515219,"keywords":["nocrits","nodmgspread","payload","uncletopia"],"game_id":440,"stv_port":27036,"stv_name":"Uncletopia | Dallas | 3 | All Maps | STV","players":null},{"server_id":405,"name":"Uncletopia | Dallas | 4 | Community","name_short":"dal-4","host":"dal-1.us.uncletopia.com","port":27045,"enabled":true,"region":"us-central","cc":"us","latitude":32.779167,"longitude":-96.80889,"reserved":0,"last_update":"0001-01-01T00:00:00Z","name_a2s":"Uncletopia | Dallas | 4 | Community","protocol":17,"map":"pl_pier","folder":"tf","game":"Team Fortress","app_id":440,"player_count":0,"max_players":24,"Bots":0,"server_type":"Dedicated","server_os":"Linux","password":true,"vac":true,"version":"7961495","steam_id":85568392924515220,"keywords":["nocrits","nodmgspread","payload","uncletopia"],"game_id":440,"stv_port":27046,"stv_name":"Uncletopia | Dallas | 4 | Community | STV","players":null},{"server_id":5,"name":"Uncletopia | Frankfurt | 1 | All Maps","name_short":"frk-1","host":"frk-1.de.uncletopia.com","port":27015,"enabled":true,"region":"eu","cc":"de","latitude":50.110924,"longitude":8.682127,"reserved":0,"last_update":"0001-01-01T00:00:00Z","name_a2s":"Uncletopia | Frankfurt | 1 | All Maps","protocol":17,"map":"pl_barnblitz","folder":"tf","game":"Team Fortress","app_id":440,"player_count":24,"max_players":24,"Bots":0,"server_type":"Dedicated","server_os":"Linux","password":true,"vac":true,"version":"7961495","steam_id":85568392924469989,"keywords":["nocrits","nodmgspread","payload","uncletopia"],"game_id":440,"stv_port":27016,"stv_name":"Uncletopia | Frankfurt | 1 | All Maps | STV","players":[{"user_id":340,"name":"Baklava Enjoyer","steam_id":76561198990679631,"connected_time":2060000000000,"state":"active","ping":71},{"user_id":309,"name":"MR BUBBLES","steam_id":76561198019005259,"connected_time":4661000000000,"state":"active","ping":98},{"user_id":342,"name":"hieronimus","steam_id":76561198085900150,"connected_time":1880000000000,"state":"active","ping":59},{"user_id":343,"name":"kipod616","steam_id":76561198431183777,"connected_time":1858000000000,"state":"active","ping":100},{"user_id":318,"name":"n-ski","steam_id":76561198020550849,"connected_time":4438000000000,"state":"active","ping":79},{"user_id":372,"name":"Alpha","steam_id":76561198133229149,"connected_time":153000000000,"state":"active","ping":93},{"user_id":345,"name":"Schwalt","steam_id":76561199101289318,"connected_time":1823000000000,"state":"active","ping":66},{"user_id":367,"name":"Megra","steam_id":76561198198504762,"connected_time":547000000000,"state":"active","ping":116},{"user_id":300,"name":"ozz-man","steam_id":76561198084676522,"connected_time":5845000000000,"state":"active","ping":104},{"user_id":371,"name":"golfmastr","steam_id":76561198993144124,"connected_time":240000000000,"state":"active","ping":67},{"user_id":363,"name":"Û†Ä°Û†Ä°","steam_id":76561198125381319,"connected_time":731000000000,"state":"active","ping":57},{"user_id":368,"name":"caramel‚ù§","steam_id":76561198819353867,"connected_time":441000000000,"state":"active","ping":50},{"user_id":365,"name":"simon","steam_id":76561197960506122,"connected_time":684000000000,"state":"active","ping":78},{"user_id":366,"name":"Egor Pomidor","steam_id":76561199175688390,"connected_time":583000000000,"state":"active","ping":75},{"user_id":352,"name":"Rojapokemona","steam_id":76561198179925894,"connected_time":1349000000000,"state":"active","ping":63},{"user_id":369,"name":"Dewotter","steam_id":76561198007653168,"connected_time":421000000000,"state":"active","ping":71},{"user_id":353,"name":"–õ—ã—Å—ã–π –∏–∑ –∫—É—Ö–Ω–∏","steam_id":76561199072741842,"connected_time":1335000000000,"state":"active","ping":79},{"user_id":245,"name":"Jonak","steam_id":76561198080832458,"connected_time":9112000000000,"state":"active","ping":70},{"user_id":370,"name":"Pepegi","steam_id":76561198001230113,"connected_time":408000000000,"state":"active","ping":74},{"user_id":359,"name":"dunduu","steam_id":76561198875240717,"connected_time":907000000000,"state":"active","ping":67},{"user_id":317,"name":".mostech","steam_id":76561198180506521,"connected_time":4452000000000,"state":"active","ping":77},{"user_id":354,"name":"an idiot","steam_id":76561198172542535,"connected_time":1324000000000,"state":"active","ping":71},{"user_id":320,"name":"–ë—ã–¥–ª–∞ –≤–æ–π","steam_id":76561198041371314,"connected_time":4413000000000,"state":"active","ping":133},{"user_id":355,"name":"mAx","steam_id":76561198449332498,"connected_time":1320000000000,"state":"active","ping":80}]},{"server_id":110,"name":"Uncletopia | Frankfurt | 2 | All Maps","name_short":"frk-2","host":"frk-1.de.uncletopia.com","port":27025,"enabled":true,"region":"eu","cc":"de","latitude":50.110924,"longitude":8.682127,"reserved":0,"last_update":"0001-01-01T00:00:00Z","name_a2s":"Uncletopia | Frankfurt | 2 | All Maps","protocol":17,"map":"pl_swiftwater_final1","folder":"tf","game":"Team Fortress","app_id":440,"player_count":24,"max_players":24,"Bots":0,"server_type":"Dedicated","server_os":"Linux","password":true,"vac":true,"version":"7961495","steam_id":85568392924469990,"keywords":["nocrits","nodmgspread","payload","uncletopia"],"game_id":440,"stv_port":27026,"stv_name":"Uncletopia | Frankfurt | 2 | All Maps | STV","players":[{"user_id":94,"name":"Karvinen","steam_id":76561198031490602,"connected_time":441000000000,"state":"active","ping":69},{"user_id":41,"name":"SUKRE","steam_id":76561197971417211,"connected_time":3171000000000,"state":"active","ping":69},{"user_id":42,"name":"Fleezer","steam_id":76561198286200584,"connected_time":3156000000000,"state":"active","ping":75},{"user_id":90,"name":"Master Of Noob","steam_id":76561198217926783,"connected_time":970000000000,"state":"active","ping":65},{"user_id":93,"name":"Happy Little Accidents","steam_id":76561198153810367,"connected_time":539000000000,"state":"active","ping":65},{"user_id":95,"name":"Heisenberg","steam_id":76561198369074751,"connected_time":426000000000,"state":"active","ping":70},{"user_id":78,"name":"—Ä–µnis the menace","steam_id":76561198066103295,"connected_time":1294000000000,"state":"active","ping":78},{"user_id":79,"name":"H0RS3SQU1RT3R","steam_id":76561198100590345,"connected_time":1286000000000,"state":"active","ping":101},{"user_id":49,"name":"niandits","steam_id":76561198419798900,"connected_time":2842000000000,"state":"active","ping":234},{"user_id":51,"name":"Cosmetic brain","steam_id":76561198055936410,"connected_time":2768000000000,"state":"active","ping":78},{"user_id":55,"name":"Lorenzo Lovers","steam_id":76561198073973581,"connected_time":2491000000000,"state":"active","ping":80},{"user_id":89,"name":"The Daniella","steam_id":76561198023075547,"connected_time":982000000000,"state":"active","ping":62},{"user_id":91,"name":"Venenakki","steam_id":76561198311526482,"connected_time":830000000000,"state":"active","ping":60},{"user_id":62,"name":"Naiten","steam_id":76561198051894514,"connected_time":2015000000000,"state":"active","ping":71},{"user_id":63,"name":"TheDeath","steam_id":76561198265038954,"connected_time":1963000000000,"state":"active","ping":68},{"user_id":88,"name":"Axio","steam_id":76561198046826031,"connected_time":1021000000000,"state":"active","ping":75},{"user_id":66,"name":"√ì Cill√≠n","steam_id":76561198122403824,"connected_time":1900000000000,"state":"active","ping":62},{"user_id":67,"name":"kuadalma","steam_id":76561198295155593,"connected_time":1874000000000,"state":"active","ping":75},{"user_id":86,"name":"Burgoo_King","steam_id":76561198133572225,"connected_time":1066000000000,"state":"active","ping":72},{"user_id":92,"name":"‚ô¨ ·¥õ·¥á·¥ã…™·¥õ ‚ô¨","steam_id":76561198111704722,"connected_time":788000000000,"state":"active","ping":81},{"user_id":96,"name":"XuMuK","steam_id":76561198102102340,"connected_time":77000000000,"state":"active","ping":73},{"user_id":84,"name":"MrRoAndrei","steam_id":76561198205282000,"connected_time":1183000000000,"state":"active","ping":87},{"user_id":85,"name":"gentleman pyro","steam_id":76561198800662332,"connected_time":1173000000000,"state":"active","ping":78},{"user_id":75,"name":"isterkvarn","steam_id":76561198080064844,"connected_time":1519000000000,"state":"active","ping":69}]},{"server_id":308,"name":"Uncletopia | Frankfurt | 3 | All Maps","name_short":"frk-3","host":"frk-1.de.uncletopia.com","port":27035,"enabled":true,"region":"eu","cc":"de","latitude":50.110924,"longitude":8.682127,"reserved":0,"last_update":"0001-01-01T00:00:00Z","name_a2s":"Uncletopia | Frankfurt | 3 | All Maps","protocol":17,"map":"cp_snakewater_final1","folder":"tf","game":"Team Fortress","app_id":440,"player_count":23,"max_players":24,"Bots":0,"server_type":"Dedicated","server_os":"Linux","password":true,"vac":true,"version":"7961495","steam_id":85568392924504274,"keywords":["cp","nocrits","nodmgspread","uncletopia"],"game_id":440,"stv_port":27036,"stv_name":"Uncletopia | Frankfurt | 3 | All Maps | STV","players":[{"user_id":516,"name":"H1DD3 gaming","steam_id":76561198855897385,"connected_time":4347000000000,"state":"active","ping":57},{"user_id":522,"name":"you like buff tf2 men don't you","steam_id":76561198837586838,"connected_time":3839000000000,"state":"active","ping":67},{"user_id":529,"name":"yush","steam_id":76561198121688934,"connected_time":3387000000000,"state":"active","ping":68},{"user_id":501,"name":"NOPE[D34d$h0t][$w3g][Mlg]","steam_id":76561198120072267,"connected_time":5201000000000,"state":"active","ping":77},{"user_id":551,"name":"Mr_Pulse_","steam_id":76561198095001602,"connected_time":1474000000000,"state":"active","ping":90},{"user_id":485,"name":"CMD_God","steam_id":76561198333037007,"connected_time":6959000000000,"state":"active","ping":66},{"user_id":569,"name":"hipster_doofus","steam_id":76561197970902697,"connected_time":321000000000,"state":"active","ping":69},{"user_id":545,"name":"Driver's drunkest God","steam_id":76561198969373800,"connected_time":2083000000000,"state":"active","ping":69},{"user_id":565,"name":"rets_","steam_id":76561198061551392,"connected_time":842000000000,"state":"active","ping":51},{"user_id":532,"name":"XPullaHiiri","steam_id":76561198031652375,"connected_time":3223000000000,"state":"active","ping":80},{"user_id":554,"name":"shoras","steam_id":76561198019680159,"connected_time":1400000000000,"state":"active","ping":78},{"user_id":571,"name":"KnugenIV","steam_id":76561198127091993,"connected_time":201000000000,"state":"active","ping":57},{"user_id":539,"name":"Eric Coconut","steam_id":76561198910623003,"connected_time":2399000000000,"state":"active","ping":77},{"user_id":537,"name":"Nittugai","steam_id":76561198067366462,"connected_time":2860000000000,"state":"active","ping":60},{"user_id":568,"name":"Arsonist","steam_id":76561199087953833,"connected_time":459000000000,"state":"active","ping":98},{"user_id":562,"name":"Lux","steam_id":76561198060417740,"connected_time":935000000000,"state":"active","ping":46},{"user_id":566,"name":"JadenMVP","steam_id":76561199235644192,"connected_time":816000000000,"state":"active","ping":76},{"user_id":570,"name":"MostSereneDogeBestDoge","steam_id":76561198061196566,"connected_time":320000000000,"state":"active","ping":76},{"user_id":564,"name":"Moohsem","steam_id":76561198172198154,"connected_time":867000000000,"state":"active","ping":116},{"user_id":544,"name":"‚ôÇ Animan ‚ôÇ Studios ‚ôÇ","steam_id":76561198308302932,"connected_time":2234000000000,"state":"active","ping":89},{"user_id":503,"name":"Fran","steam_id":76561199070516960,"connected_time":4945000000000,"state":"active","ping":61},{"user_id":567,"name":"Waluigi","steam_id":76561199070474380,"connected_time":600000000000,"state":"active","ping":97},{"user_id":547,"name":"domek","steam_id":76561198048447632,"connected_time":2024000000000,"state":"active","ping":67}]},{"server_id":309,"name":"Uncletopia | Frankfurt | 4 | All Maps","name_short":"frk-4","host":"frk-1.de.uncletopia.com","port":27045,"enabled":true,"region":"eu","cc":"de","latitude":50.110924,"longitude":8.682127,"reserved":0,"last_update":"0001-01-01T00:00:00Z","name_a2s":"Uncletopia | Frankfurt | 4 | All Maps","protocol":17,"map":"pl_pier","folder":"tf","game":"Team Fortress","app_id":440,"player_count":24,"max_players":24,"Bots":0,"server_type":"Dedicated","server_os":"Linux","password":true,"vac":true,"version":"7961495","steam_id":85568392924504275,"keywords":["nocrits","nodmgspread","payload","uncletopia"],"game_id":440,"stv_port":27046,"stv_name":"Uncletopia | Frankfurt | 4 | All Maps | STV","players":[{"user_id":218,"name":"Malsi","steam_id":76561199061284165,"connected_time":1327000000000,"state":"active","ping":89},{"user_id":183,"name":"Gewpy","steam_id":76561198164380041,"connected_time":5088000000000,"state":"active","ping":137},{"user_id":228,"name":"pine cone","steam_id":76561198168254686,"connected_time":523000000000,"state":"active","ping":87},{"user_id":202,"name":"Engie's best friend","steam_id":76561197961707932,"connected_time":3426000000000,"state":"active","ping":45},{"user_id":219,"name":"[P-roc] Cmm Bert","steam_id":76561198016658674,"connected_time":1279000000000,"state":"active","ping":85},{"user_id":211,"name":"Asmodeus","steam_id":76561198283156425,"connected_time":1804000000000,"state":"active","ping":70},{"user_id":215,"name":"Mr_Gamr211","steam_id":76561198960079818,"connected_time":1684000000000,"state":"active","ping":109},{"user_id":230,"name":"Xriasp","steam_id":76561198104721321,"connected_time":167000000000,"state":"active","ping":88},{"user_id":220,"name":"Salih","steam_id":76561198287934839,"connected_time":1254000000000,"state":"active","ping":55},{"user_id":225,"name":"IFlippie","steam_id":76561198284359977,"connected_time":1036000000000,"state":"active","ping":58},{"user_id":192,"name":"≈Ωgr√¶√êek113","steam_id":76561198306883632,"connected_time":4843000000000,"state":"active","ping":61},{"user_id":232,"name":"dinorno","steam_id":76561198146276830,"connected_time":9000000000,"state":"spawning","ping":150},{"user_id":216,"name":"Mati [EST]","steam_id":76561197994743813,"connected_time":1598000000000,"state":"active","ping":97},{"user_id":177,"name":"Ixsus\u003c3","steam_id":76561198094756869,"connected_time":5188000000000,"state":"active","ping":56},{"user_id":196,"name":"Economic crisis","steam_id":76561198063562843,"connected_time":4403000000000,"state":"active","ping":68},{"user_id":159,"name":"Grebby","steam_id":76561198029407966,"connected_time":5870000000000,"state":"active","ping":83},{"user_id":130,"name":"dotdotdot","steam_id":76561198057628751,"connected_time":7235000000000,"state":"active","ping":66},{"user_id":179,"name":"Vilmukas","steam_id":76561199106648396,"connected_time":5180000000000,"state":"active","ping":62},{"user_id":195,"name":"TroX","steam_id":76561197992862361,"connected_time":4487000000000,"state":"active","ping":78},{"user_id":222,"name":"Real (Real)","steam_id":76561198323425034,"connected_time":1227000000000,"state":"active","ping":72},{"user_id":229,"name":"dirty rascal","steam_id":76561198000871038,"connected_time":257000000000,"state":"active","ping":60},{"user_id":227,"name":"Hey, I¬¥m Andy!","steam_id":76561198060337777,"connected_time":603000000000,"state":"active","ping":80},{"user_id":190,"name":"Gengloid","steam_id":76561198273249730,"connected_time":4949000000000,"state":"active","ping":151},{"user_id":160,"name":"I_Forgot_My_Name","steam_id":76561198173424578,"connected_time":5824000000000,"state":"active","ping":71}]},{"server_id":310,"name":"Uncletopia | Frankfurt | 5 | All Maps","name_short":"frk-5","host":"frk-1.de.uncletopia.com","port":27055,"enabled":true,"region":"eu","cc":"de","latitude":50.110924,"longitude":8.682127,"reserved":0,"last_update":"0001-01-01T00:00:00Z","name_a2s":"Uncletopia | Frankfurt | 5 | All Maps","protocol":17,"map":"cp_dustbowl","folder":"tf","game":"Team Fortress","app_id":440,"player_count":7,"max_players":24,"Bots":0,"server_type":"Dedicated","server_os":"Linux","password":true,"vac":true,"version":"7961495","steam_id":85568392924504277,"keywords":["cp","nocrits","nodmgspread","uncletopia"],"game_id":440,"stv_port":27056,"stv_name":"Uncletopia | Frankfurt | 5 | All Maps | STV","players":[{"user_id":113,"name":"ERBLIN011","steam_id":76561198302006065,"connected_time":182000000000,"state":"active","ping":86},{"user_id":115,"name":"m1chaels","steam_id":76561198196998545,"connected_time":87000000000,"state":"active","ping":53},{"user_id":116,"name":"skeleton_archer_1","steam_id":76561198407636430,"connected_time":68000000000,"state":"active","ping":104},{"user_id":117,"name":"Merca #savetf2","steam_id":76561198088782472,"connected_time":35000000000,"state":"active","ping":48},{"user_id":108,"name":"Huzd","steam_id":76561198329617950,"connected_time":427000000000,"state":"active","ping":62},{"user_id":112,"name":"roblan11","steam_id":76561198066839258,"connected_time":320000000000,"state":"active","ping":33},{"user_id":75,"name":"Archive","steam_id":76561198071255385,"connected_time":3137000000000,"state":"active","ping":98}]},{"server_id":311,"name":"Uncletopia | Frankfurt | 6 | All Maps","name_short":"frk-6","host":"frk-1.de.uncletopia.com","port":27065,"enabled":true,"region":"eu","cc":"de","latitude":50.110924,"longitude":8.682127,"reserved":0,"last_update":"0001-01-01T00:00:00Z","name_a2s":"Uncletopia | Frankfurt | 6 | All Maps","protocol":17,"map":"pl_swiftwater_final1","folder":"tf","game":"Team Fortress","app_id":440,"player_count":24,"max_players":24,"Bots":0,"server_type":"Dedicated","server_os":"Linux","password":true,"vac":true,"version":"7961495","steam_id":85568392924504278,"keywords":["nocrits","nodmgspread","payload","uncletopia"],"game_id":440,"stv_port":27066,"stv_name":"Uncletopia | Frankfurt | 6 | All Maps | STV","players":[{"user_id":199,"name":"Dandroid7","steam_id":76561198947673092,"connected_time":70000000000,"state":"active","ping":51},{"user_id":131,"name":"Gr8gy","steam_id":76561198801350782,"connected_time":3850000000000,"state":"active","ping":82},{"user_id":169,"name":"Man behind the slaughter","steam_id":76561199121979061,"connected_time":2488000000000,"state":"active","ping":53},{"user_id":135,"name":"Joe Pyron","steam_id":76561198193454030,"connected_time":3393000000000,"state":"active","ping":61},{"user_id":136,"name":"[Blank]","steam_id":76561198188501865,"connected_time":3371000000000,"state":"active","ping":72},{"user_id":137,"name":"Tonyx","steam_id":76561198414263237,"connected_time":3335000000000,"state":"active","ping":69},{"user_id":177,"name":"squillisky","steam_id":76561198083569327,"connected_time":2345000000000,"state":"active","ping":67},{"user_id":194,"name":"Ghostler","steam_id":76561198008734235,"connected_time":725000000000,"state":"active","ping":52},{"user_id":140,"name":"GuyWithoutAPie","steam_id":76561198054512149,"connected_time":3303000000000,"state":"active","ping":61},{"user_id":179,"name":"_Alonso","steam_id":76561198041893314,"connected_time":2088000000000,"state":"active","ping":45},{"user_id":188,"name":"2023","steam_id":76561198857712172,"connected_time":1003000000000,"state":"active","ping":58},{"user_id":166,"name":"Morfeus","steam_id":76561198136069762,"connected_time":2636000000000,"state":"active","ping":52},{"user_id":162,"name":"average enjoyer","steam_id":76561198988985546,"connected_time":2770000000000,"state":"active","ping":64},{"user_id":192,"name":"competitive sex","steam_id":76561198060530483,"connected_time":853000000000,"state":"active","ping":77},{"user_id":182,"name":"gmem","steam_id":76561198070006725,"connected_time":1857000000000,"state":"active","ping":62},{"user_id":152,"name":"‚ô• Kentucky Fried Femboys ‚ô•","steam_id":76561199202438796,"connected_time":2839000000000,"state":"active","ping":49},{"user_id":185,"name":"xiiski","steam_id":76561198152387747,"connected_time":1590000000000,"state":"active","ping":96},{"user_id":168,"name":"Amon Gus","steam_id":76561199094540960,"connected_time":2550000000000,"state":"active","ping":65},{"user_id":198,"name":"Mocassino Felice","steam_id":76561198050715598,"connected_time":487000000000,"state":"active","ping":49},{"user_id":171,"name":"Itai","steam_id":76561198804555329,"connected_time":2421000000000,"state":"active","ping":93},{"user_id":184,"name":"Yrj√∂ Koskinen Yrj√∂-Koskinen","steam_id":76561198368181145,"connected_time":1714000000000,"state":"active","ping":75},{"user_id":186,"name":"coin dexter","steam_id":76561198092376975,"connected_time":1568000000000,"state":"active","ping":46},{"user_id":189,"name":"Jones","steam_id":76561198134347032,"connected_time":919000000000,"state":"active","ping":72},{"user_id":174,"name":"√áodar","steam_id":76561198235518444,"connected_time":2372000000000,"state":"active","ping":51}]},{"server_id":23,"name":"Uncletopia | Frankfurt | 7 | Stopwatch","name_short":"frk-7","host":"frk-1.de.uncletopia.com","port":27075,"enabled":true,"region":"eu","cc":"de","latitude":50.110924,"longitude":8.682127,"reserved":0,"last_update":"0001-01-01T00:00:00Z","name_a2s":"Uncletopia | Frankfurt | 7 | Stopwatch","protocol":17,"map":"cp_snakewater_final1","folder":"tf","game":"Team Fortress","app_id":440,"player_count":23,"max_players":24,"Bots":0,"server_type":"Dedicated","server_os":"Linux","password":true,"vac":true,"version":"7961495","steam_id":85568392924742827,"keywords":["cp","nocrits","nodmgspread","uncletopia"],"game_id":440,"stv_port":27076,"stv_name":"Uncletopia | Frankfurt | 7 | Stopwatch | STV","players":[{"user_id":801,"name":"Maatiainen","steam_id":76561198173790753,"connected_time":200000000000,"state":"active","ping":82},{"user_id":799,"name":"soupalognionycrouton","steam_id":76561199021878433,"connected_time":474000000000,"state":"active","ping":81},{"user_id":747,"name":"sex defender","steam_id":76561198121816815,"connected_time":3400000000000,"state":"active","ping":74},{"user_id":785,"name":"i am trash man","steam_id":76561198079524152,"connected_time":1386000000000,"state":"active","ping":55},{"user_id":804,"name":"IShagMyCat","steam_id":76561199384639549,"connected_time":109000000000,"state":"active","ping":69},{"user_id":787,"name":"Aspartus","steam_id":76561198101385763,"connected_time":1368000000000,"state":"active","ping":45},{"user_id":665,"name":"Richard_HUN","steam_id":76561198299050967,"connected_time":7552000000000,"state":"active","ping":100},{"user_id":798,"name":"SynK","steam_id":76561198443473087,"connected_time":723000000000,"state":"active","ping":74},{"user_id":788,"name":"combine","steam_id":76561198007909007,"connected_time":1365000000000,"state":"active","ping":52},{"user_id":775,"name":"Kestrel","steam_id":76561198144033005,"connected_time":2226000000000,"state":"active","ping":65},{"user_id":755,"name":"M2rtRa","steam_id":76561198111036466,"connected_time":3051000000000,"state":"active","ping":61},{"user_id":803,"name":"hoos","steam_id":76561198045985910,"connected_time":151000000000,"state":"active","ping":142},{"user_id":761,"name":"Sobreat","steam_id":76561199496391315,"connected_time":2679000000000,"state":"active","ping":65},{"user_id":796,"name":"Hypergonadism","steam_id":76561198294895726,"connected_time":990000000000,"state":"active","ping":61},{"user_id":764,"name":"newborn babies","steam_id":76561198127273128,"connected_time":2619000000000,"state":"active","ping":60},{"user_id":792,"name":"Solima","steam_id":76561198045349099,"connected_time":1297000000000,"state":"active","ping":49},{"user_id":752,"name":"Spooks","steam_id":76561199171471823,"connected_time":3176000000000,"state":"active","ping":61},{"user_id":732,"name":"God's Goofiest Goober","steam_id":76561198103175187,"connected_time":3781000000000,"state":"active","ping":64},{"user_id":790,"name":"Roxanne","steam_id":76561198349648942,"connected_time":1337000000000,"state":"active","ping":82},{"user_id":795,"name":"lol","steam_id":76561198104438656,"connected_time":1082000000000,"state":"active","ping":61},{"user_id":783,"name":"Xeno","steam_id":76561198975556646,"connected_time":1457000000000,"state":"active","ping":45},{"user_id":806,"name":"jas_the_man","steam_id":76561198147991471,"connected_time":93000000000,"state":"active","ping":177},{"user_id":807,"name":"The Bucket","steam_id":76561199131973613,"connected_time":93000000000,"state":"active","ping":100}]},{"server_id":24,"name":"Uncletopia | Frankfurt | 8 | Community","name_short":"frk-8","host":"frk-1.de.uncletopia.com","port":27085,"enabled":true,"region":"eu","cc":"de","latitude":50.110924,"longitude":8.682127,"reserved":0,"last_update":"0001-01-01T00:00:00Z","name_a2s":"Uncletopia | Frankfurt | 8 | Community","protocol":17,"map":"workshop/pl_boundary_final1.ugc456799153","folder":"tf","game":"Team Fortress","app_id":440,"player_count":24,"max_players":24,"Bots":0,"server_type":"Dedicated","server_os":"Linux","password":true,"vac":true,"version":"7961495","steam_id":85568392924742828,"keywords":["nocrits","nodmgspread","payload","uncletopia"],"game_id":440,"stv_port":27086,"stv_name":"Uncletopia | Frankfurt | 8 | Community | STV","players":[{"user_id":217,"name":"Zipnet","steam_id":76561198000218824,"connected_time":527000000000,"state":"active","ping":65},{"user_id":198,"name":"akakez","steam_id":76561198095432821,"connected_time":1563000000000,"state":"active","ping":120},{"user_id":199,"name":"pizzashit (real)","steam_id":76561198097507847,"connected_time":1462000000000,"state":"active","ping":75},{"user_id":207,"name":"ANGELFISH","steam_id":76561198027536466,"connected_time":968000000000,"state":"active","ping":103},{"user_id":222,"name":"you're ugleh","steam_id":76561198056844850,"connected_time":444000000000,"state":"active","ping":75},{"user_id":167,"name":"Tohseno","steam_id":76561197995813008,"connected_time":4681000000000,"state":"active","ping":53},{"user_id":204,"name":"Pietro Badoglio","steam_id":76561198302435743,"connected_time":1186000000000,"state":"active","ping":74},{"user_id":206,"name":"Masster","steam_id":76561198136111053,"connected_time":1051000000000,"state":"active","ping":85},{"user_id":211,"name":"purplecan","steam_id":76561199208283508,"connected_time":728000000000,"state":"active","ping":74},{"user_id":209,"name":"enterprise02","steam_id":76561198182026939,"connected_time":871000000000,"state":"active","ping":59},{"user_id":210,"name":"asda9376","steam_id":76561199128278728,"connected_time":790000000000,"state":"active","ping":62},{"user_id":213,"name":"Natural Causes","steam_id":76561198880517558,"connected_time":614000000000,"state":"active","ping":79},{"user_id":185,"name":"Benzo Fury","steam_id":76561198025259336,"connected_time":2902000000000,"state":"active","ping":56},{"user_id":161,"name":"pyro gaming","steam_id":76561198087970118,"connected_time":5114000000000,"state":"active","ping":92},{"user_id":214,"name":"YO MAMA(CZ)","steam_id":76561198057308825,"connected_time":613000000000,"state":"active","ping":60},{"user_id":25,"name":"arhrhthur","steam_id":76561199199499453,"connected_time":12633000000000,"state":"active","ping":68},{"user_id":162,"name":"Doctor Medic","steam_id":76561198100957443,"connected_time":5108000000000,"state":"active","ping":73},{"user_id":226,"name":"Scipionemiliano","steam_id":76561198027646559,"connected_time":147000000000,"state":"active","ping":106},{"user_id":218,"name":"Little Villain","steam_id":76561198048634585,"connected_time":520000000000,"state":"active","ping":74},{"user_id":227,"name":"Special Agent Big Smoke","steam_id":76561198154468827,"connected_time":135000000000,"state":"active","ping":74},{"user_id":220,"name":"bliss","steam_id":76561198067459427,"connected_time":499000000000,"state":"active","ping":45},{"user_id":225,"name":"Goop","steam_id":76561198169958065,"connected_time":295000000000,"state":"active","ping":59},{"user_id":224,"name":"Mike","steam_id":76561198266996665,"connected_time":392000000000,"state":"active","ping":60},{"user_id":124,"name":"Space","steam_id":76561198021572167,"connected_time":7967000000000,"state":"active","ping":60}]},{"server_id":202,"name":"Uncletopia | Hong Kong | 1 | All Maps","name_short":"hgk-1","host":"hgk-1.hk.uncletopia.com","port":27015,"enabled":true,"region":"asia","cc":"hk","latitude":22.302711,"longitude":114.177216,"reserved":0,"last_update":"0001-01-01T00:00:00Z","name_a2s":"Uncletopia | Hong Kong | 1 | All Maps","protocol":17,"map":"pl_frontier_final","folder":"tf","game":"Team Fortress","app_id":440,"player_count":0,"max_players":24,"Bots":0,"server_type":"Dedicated","server_os":"Linux","password":true,"vac":true,"version":"7961495","steam_id":85568392924494504,"keywords":["nocrits","nodmgspread","payload","uncletopia"],"game_id":440,"stv_port":27016,"stv_name":"Uncletopia | Hong Kong | 1 | All Maps | STV","players":null},{"server_id":1,"name":"Uncletopia | Los Angeles | 1 | All Maps","name_short":"lax-1","host":"lax-1.us.uncletopia.com","port":27015,"enabled":true,"region":"us-west","cc":"us","latitude":33.94279,"longitude":-118.41004,"reserved":0,"last_update":"0001-01-01T00:00:00Z","name_a2s":"Uncletopia | Los Angeles | 1 | All Maps","protocol":17,"map":"koth_viaduct","folder":"tf","game":"Team Fortress","app_id":440,"player_count":0,"max_players":24,"Bots":0,"server_type":"Dedicated","server_os":"Linux","password":true,"vac":true,"version":"7961495","steam_id":85568392924469991,"keywords":["cp","nocrits","nodmgspread","uncletopia"],"game_id":440,"stv_port":27016,"stv_name":"Uncletopia | Los Angeles | 1 | All Maps | STV","players":null},{"server_id":112,"name":"Uncletopia | Los Angeles | 2 | All Maps","name_short":"lax-2","host":"lax-1.us.uncletopia.com","port":27025,"enabled":true,"region":"us-west","cc":"us","latitude":33.94279,"longitude":-118.41004,"reserved":0,"last_update":"0001-01-01T00:00:00Z","name_a2s":"Uncletopia | Los Angeles | 2 | All Maps","protocol":17,"map":"koth_highpass","folder":"tf","game":"Team Fortress","app_id":440,"player_count":0,"max_players":24,"Bots":0,"server_type":"Dedicated","server_os":"Linux","password":true,"vac":true,"version":"7961495","steam_id":85568392924469992,"keywords":["cp","nocrits","nodmgspread","uncletopia"],"game_id":440,"stv_port":27026,"stv_name":"Uncletopia | Los Angeles | 2 | All Maps | STV","players":null},{"server_id":324,"name":"Uncletopia | Los Angeles | 3 | All Maps","name_short":"lax-3","host":"lax-1.us.uncletopia.com","port":27035,"enabled":true,"region":"us-west","cc":"us","latitude":33.94279,"longitude":-118.41004,"reserved":0,"last_update":"0001-01-01T00:00:00Z","name_a2s":"Uncletopia | Los Angeles | 3 | All Maps","protocol":17,"map":"pl_pier","folder":"tf","game":"Team Fortress","app_id":440,"player_count":24,"max_players":24,"Bots":0,"server_type":"Dedicated","server_os":"Linux","password":true,"vac":true,"version":"7961495","steam_id":85568392924510198,"keywords":["nocrits","nodmgspread","payload","uncletopia"],"game_id":440,"stv_port":27036,"stv_name":"Uncletopia | Los Angeles | 3 | All Maps | STV","players":[{"user_id":88,"name":"Lily Thorn","steam_id":76561198305488625,"connected_time":44000000000,"state":"active","ping":87},{"user_id":51,"name":"Imitation Caucasian","steam_id":76561198320536166,"connected_time":3105000000000,"state":"active","ping":72},{"user_id":85,"name":"Frank Accardi","steam_id":76561198017275707,"connected_time":395000000000,"state":"active","ping":65},{"user_id":83,"name":"MNIJ","steam_id":76561199209509468,"connected_time":732000000000,"state":"active","ping":67},{"user_id":78,"name":"Woody","steam_id":76561198055842769,"connected_time":1004000000000,"state":"active","ping":45},{"user_id":48,"name":"Satori Komeiji","steam_id":76561198158211423,"connected_time":3154000000000,"state":"active","ping":46},{"user_id":58,"name":"Happy Chaos","steam_id":76561198194248527,"connected_time":2573000000000,"state":"active","ping":74},{"user_id":89,"name":"Bombat","steam_id":76561198083096946,"connected_time":43000000000,"state":"active","ping":65},{"user_id":80,"name":"[chef] iron","steam_id":76561197970888616,"connected_time":927000000000,"state":"active","ping":87},{"user_id":66,"name":"YourLocalArsonist","steam_id":76561199111922751,"connected_time":2085000000000,"state":"active","ping":118},{"user_id":73,"name":"cooljason08","steam_id":76561198248153988,"connected_time":1248000000000,"state":"active","ping":100},{"user_id":86,"name":"antiblastic","steam_id":76561199442190101,"connected_time":347000000000,"state":"active","ping":93},{"user_id":90,"name":"meme","steam_id":76561199170771700,"connected_time":40000000000,"state":"active","ping":53},{"user_id":69,"name":"FULL COMMANDO","steam_id":76561197977702774,"connected_time":1940000000000,"state":"active","ping":110},{"user_id":75,"name":"Bluedime","steam_id":76561198123181025,"connected_time":1215000000000,"state":"active","ping":97},{"user_id":79,"name":"algebruh","steam_id":76561199379415267,"connected_time":955000000000,"state":"active","ping":127},{"user_id":70,"name":"Schnitz","steam_id":76561198265484253,"connected_time":1484000000000,"state":"active","ping":53},{"user_id":77,"name":"Antwan","steam_id":76561198246200638,"connected_time":1087000000000,"state":"active","ping":72},{"user_id":23,"name":"Emery UwU","steam_id":76561198046185190,"connected_time":4909000000000,"state":"active","ping":46},{"user_id":24,"name":"MalnourishedHalloweenDecoration","steam_id":76561198873540641,"connected_time":4876000000000,"state":"active","ping":70},{"user_id":71,"name":"Child Devourer","steam_id":76561198218558897,"connected_time":1479000000000,"state":"active","ping":129},{"user_id":81,"name":"warren","steam_id":76561198136331136,"connected_time":911000000000,"state":"active","ping":119},{"user_id":87,"name":"Anthid","steam_id":76561198074493797,"connected_time":294000000000,"state":"active","ping":75},{"user_id":55,"name":"Stupid Idiot","steam_id":76561198241315370,"connected_time":2990000000000,"state":"active","ping":107}]},{"server_id":25,"name":"Uncletopia | Los Angeles | 4 | Stopwatch","name_short":"lax-4","host":"lax-1.us.uncletopia.com","port":27045,"enabled":true,"region":"us-west","cc":"us","latitude":33.94279,"longitude":-118.41004,"reserved":0,"last_update":"0001-01-01T00:00:00Z","name_a2s":"Uncletopia | Los Angeles | 4 | Stopwatch","protocol":17,"map":"workshop/koth_bagel_rc6.ugc2514036946","folder":"tf","game":"Team Fortress","app_id":440,"player_count":0,"max_players":24,"Bots":0,"server_type":"Dedicated","server_os":"Linux","password":true,"vac":true,"version":"7961495","steam_id":85568392924510199,"keywords":["cp","nocrits","nodmgspread","uncletopia"],"game_id":440,"stv_port":27046,"stv_name":"Uncletopia | Los Angeles | 4 | Stopwatch | STV","players":null},{"server_id":11,"name":"Uncletopia | London | 1 | All Maps","name_short":"lon-1","host":"lon-1.uk.uncletopia.com","port":27015,"enabled":true,"region":"eu","cc":"gb","latitude":51.509865,"longitude":-0.118092,"reserved":0,"last_update":"0001-01-01T00:00:00Z","name_a2s":"Uncletopia | London | 1 | All Maps","protocol":17,"map":"pl_barnblitz","folder":"tf","game":"Team Fortress","app_id":440,"player_count":24,"max_players":24,"Bots":0,"server_type":"Dedicated","server_os":"Linux","password":true,"vac":true,"version":"7961495","steam_id":85568392924367362,"keywords":["nocrits","nodmgspread","payload","uncletopia"],"game_id":440,"stv_port":27016,"stv_name":"Uncletopia | London | 1 | All Maps | STV","players":[{"user_id":483,"name":"spy main 69420","steam_id":76561199437330739,"connected_time":11006000000000,"state":"active","ping":133},{"user_id":628,"name":"‚ú™ Danny","steam_id":76561198104483241,"connected_time":1395000000000,"state":"active","ping":49},{"user_id":612,"name":"furry feet ü§§ü§§","steam_id":76561198723244199,"connected_time":2353000000000,"state":"active","ping":77},{"user_id":624,"name":"Rai_to","steam_id":76561199013720618,"connected_time":2063000000000,"state":"active","ping":90},{"user_id":625,"name":"stinker","steam_id":76561198799649223,"connected_time":2053000000000,"state":"active","ping":44},{"user_id":639,"name":"Krefa12","steam_id":76561198268375393,"connected_time":695000000000,"state":"active","ping":90},{"user_id":623,"name":"SOPHIIEE","steam_id":76561198443798981,"connected_time":2101000000000,"state":"active","ping":55},{"user_id":635,"name":"png.png","steam_id":76561198444446521,"connected_time":765000000000,"state":"active","ping":99},{"user_id":617,"name":"Angst","steam_id":76561197970562002,"connected_time":2239000000000,"state":"active","ping":60},{"user_id":632,"name":"Big Al","steam_id":76561198079585198,"connected_time":1041000000000,"state":"active","ping":56},{"user_id":616,"name":"gabagool","steam_id":76561198307111838,"connected_time":2290000000000,"state":"active","ping":34},{"user_id":626,"name":"slic","steam_id":76561198219197248,"connected_time":2040000000000,"state":"active","ping":48},{"user_id":637,"name":"FISH_EGG","steam_id":76561198881794548,"connected_time":751000000000,"state":"active","ping":139},{"user_id":627,"name":"dthz","steam_id":76561198174210334,"connected_time":1744000000000,"state":"active","ping":58},{"user_id":578,"name":"halow","steam_id":76561198061505163,"connected_time":4038000000000,"state":"active","ping":107},{"user_id":638,"name":"Stunner/John „ÉÑ","steam_id":76561199085822219,"connected_time":743000000000,"state":"active","ping":90},{"user_id":584,"name":"Dex","steam_id":76561197981134247,"connected_time":3751000000000,"state":"active","ping":45},{"user_id":643,"name":"Prome","steam_id":76561199050383942,"connected_time":592000000000,"state":"active","ping":57},{"user_id":606,"name":"Aaron","steam_id":76561197990046953,"connected_time":2419000000000,"state":"active","ping":53},{"user_id":621,"name":"Black Mesa Employee","steam_id":76561198184151394,"connected_time":2114000000000,"state":"active","ping":47},{"user_id":582,"name":"Ducky[WADZ]","steam_id":76561198060341245,"connected_time":4022000000000,"state":"active","ping":81},{"user_id":634,"name":"hmscole09","steam_id":76561198811362788,"connected_time":988000000000,"state":"active","ping":54},{"user_id":640,"name":"Fwebbie","steam_id":76561199006875621,"connected_time":683000000000,"state":"active","ping":98},{"user_id":645,"name":"NI","steam_id":76561198941142018,"connected_time":56000000000,"state":"active","ping":198}]},{"server_id":114,"name":"Uncletopia | London | 2 | All Maps","name_short":"lon-2","host":"lon-1.uk.uncletopia.com","port":27025,"enabled":true,"region":"eu","cc":"gb","latitude":51.509865,"longitude":-0.118092,"reserved":0,"last_update":"0001-01-01T00:00:00Z","name_a2s":"Uncletopia | London | 2 | All Maps","protocol":17,"map":"pl_badwater","folder":"tf","game":"Team Fortress","app_id":440,"player_count":23,"max_players":24,"Bots":0,"server_type":"Dedicated","server_os":"Linux","password":true,"vac":true,"version":"7961495","steam_id":85568392924470941,"keywords":["nocrits","nodmgspread","payload","uncletopia"],"game_id":440,"stv_port":27026,"stv_name":"Uncletopia | London | 2 | All Maps | STV","players":[{"user_id":484,"name":"eMcP!","steam_id":76561198382509396,"connected_time":907000000000,"state":"active","ping":78},{"user_id":460,"name":"S.Scary","steam_id":76561198248602386,"connected_time":2636000000000,"state":"active","ping":77},{"user_id":486,"name":"Gooby","steam_id":76561198383937031,"connected_time":730000000000,"state":"active","ping":57},{"user_id":468,"name":"ornithology 1:1","steam_id":76561198097239850,"connected_time":2315000000000,"state":"active","ping":69},{"user_id":436,"name":"Mr. Mundy","steam_id":76561198132008918,"connected_time":4128000000000,"state":"active","ping":77},{"user_id":487,"name":"R0mulone","steam_id":76561198352513792,"connected_time":702000000000,"state":"active","ping":62},{"user_id":496,"name":"CutieObserve :(","steam_id":76561198214445703,"connected_time":200000000000,"state":"active","ping":52},{"user_id":497,"name":"Umbraprism","steam_id":76561197984504910,"connected_time":180000000000,"state":"active","ping":57},{"user_id":423,"name":"Udinese Dion","steam_id":76561198067931573,"connected_time":4554000000000,"state":"active","ping":59},{"user_id":490,"name":"goose","steam_id":76561198169291125,"connected_time":626000000000,"state":"active","ping":53},{"user_id":477,"name":"mr.resetti","steam_id":76561198974520642,"connected_time":1532000000000,"state":"active","ping":79},{"user_id":491,"name":"neovrtl","steam_id":76561199371471038,"connected_time":618000000000,"state":"active","ping":55},{"user_id":421,"name":"Nick","steam_id":76561198036109469,"connected_time":4665000000000,"state":"active","ping":82},{"user_id":446,"name":"DaCZ","steam_id":76561198093301141,"connected_time":3507000000000,"state":"active","ping":70},{"user_id":472,"name":"Ceiling fan enthusiast","steam_id":76561197989214268,"connected_time":2096000000000,"state":"active","ping":62},{"user_id":473,"name":"LordTrap.exe","steam_id":76561198318089716,"connected_time":2036000000000,"state":"active","ping":58},{"user_id":495,"name":"hichem","steam_id":76561198056197307,"connected_time":392000000000,"state":"active","ping":45},{"user_id":478,"name":"Rock..","steam_id":76561198004641963,"connected_time":1346000000000,"state":"active","ping":81},{"user_id":493,"name":"Ricey","steam_id":76561198832961307,"connected_time":582000000000,"state":"active","ping":45},{"user_id":498,"name":"corrosive taekwondo","steam_id":76561197982510441,"connected_time":164000000000,"state":"active","ping":45},{"user_id":466,"name":"ROX","steam_id":76561198272289320,"connected_time":2471000000000,"state":"active","ping":63},{"user_id":418,"name":"Hexagon","steam_id":76561198151205758,"connected_time":5323000000000,"state":"active","ping":57},{"user_id":494,"name":"harrison","steam_id":76561198990132243,"connected_time":558000000000,"state":"active","ping":70}]},{"server_id":320,"name":"Uncletopia | London | 3 | All Maps","name_short":"lon-3","host":"lon-1.uk.uncletopia.com","port":27035,"enabled":true,"region":"eu","cc":"gb","latitude":51.509865,"longitude":-0.118092,"reserved":0,"last_update":"0001-01-01T00:00:00Z","name_a2s":"Uncletopia | London | 3 | All Maps","protocol":17,"map":"pl_frontier_final","folder":"tf","game":"Team Fortress","app_id":440,"player_count":23,"max_players":24,"Bots":0,"server_type":"Dedicated","server_os":"Linux","password":true,"vac":true,"version":"7961495","steam_id":85568392924510192,"keywords":["nocrits","nodmgspread","payload","uncletopia"],"game_id":440,"stv_port":27036,"stv_name":"Uncletopia | London | 3 | All Maps | STV","players":[{"user_id":429,"name":"Maid","steam_id":76561198104863288,"connected_time":65000000000,"state":"active","ping":47},{"user_id":412,"name":"‚ù§Luna Bee‚ù§","steam_id":76561199230209215,"connected_time":1784000000000,"state":"active","ping":63},{"user_id":426,"name":"mr sparkles","steam_id":76561197980736364,"connected_time":362000000000,"state":"active","ping":89},{"user_id":399,"name":"w+m1","steam_id":76561198010428082,"connected_time":2302000000000,"state":"active","ping":70},{"user_id":421,"name":"EDIBLE MORMONS","steam_id":76561199145282057,"connected_time":791000000000,"state":"active","ping":87},{"user_id":425,"name":"Cream Corn","steam_id":76561198043791586,"connected_time":632000000000,"state":"active","ping":106},{"user_id":430,"name":"bleeeeh :P","steam_id":76561198139729249,"connected_time":59000000000,"state":"active","ping":90},{"user_id":428,"name":"ham","steam_id":76561198092186935,"connected_time":145000000000,"state":"active","ping":45},{"user_id":371,"name":"Vince","steam_id":76561198128953279,"connected_time":4754000000000,"state":"active","ping":67},{"user_id":395,"name":"Gimble","steam_id":76561198964372777,"connected_time":2487000000000,"state":"active","ping":56},{"user_id":413,"name":"Hyppy ja liipasin pohjaan :D","steam_id":76561198080669698,"connected_time":1491000000000,"state":"active","ping":96},{"user_id":431,"name":"Ultir","steam_id":76561198880096224,"connected_time":33000000000,"state":"active","ping":63},{"user_id":418,"name":"Noam","steam_id":76561198057789807,"connected_time":1266000000000,"state":"active","ping":90},{"user_id":373,"name":"JustaBadPlaya","steam_id":76561198408318646,"connected_time":4634000000000,"state":"active","ping":55},{"user_id":358,"name":"BabyYodaIsMySoda","steam_id":76561198321846861,"connected_time":5968000000000,"state":"active","ping":71},{"user_id":416,"name":"SpilledMilk","steam_id":76561198174123971,"connected_time":1398000000000,"state":"active","ping":78},{"user_id":432,"name":"unnamed","steam_id":76561198083700067,"connected_time":17000000000,"state":"active","ping":139},{"user_id":349,"name":"Snake-chan","steam_id":76561199044755854,"connected_time":7074000000000,"state":"active","ping":85},{"user_id":424,"name":"xXxXx_..--.._G4m3R_..--.._xXxXx","steam_id":76561199184831395,"connected_time":739000000000,"state":"active","ping":37},{"user_id":419,"name":"kat","steam_id":76561198879664338,"connected_time":1256000000000,"state":"active","ping":76},{"user_id":409,"name":"Oak","steam_id":76561198067315672,"connected_time":1899000000000,"state":"active","ping":49},{"user_id":427,"name":"High Fructose Porn Syrup","steam_id":76561197998825323,"connected_time":195000000000,"state":"active","ping":42},{"user_id":411,"name":"im tired","steam_id":76561198812159557,"connected_time":1884000000000,"state":"active","ping":82}]},{"server_id":321,"name":"Uncletopia | London | 4 | All Maps","name_short":"lon-4","host":"lon-1.uk.uncletopia.com","port":27045,"enabled":true,"region":"eu","cc":"gb","latitude":51.509865,"longitude":-0.118092,"reserved":0,"last_update":"0001-01-01T00:00:00Z","name_a2s":"Uncletopia | London | 4 | All Maps","protocol":17,"map":"pl_upward","folder":"tf","game":"Team Fortress","app_id":440,"player_count":24,"max_players":24,"Bots":0,"server_type":"Dedicated","server_os":"Linux","password":true,"vac":true,"version":"7961495","steam_id":85568392924510193,"keywords":["nocrits","nodmgspread","payload","uncletopia"],"game_id":440,"stv_port":27046,"stv_name":"Uncletopia | London | 4 | All Maps | STV","players":[{"user_id":505,"name":"BIG FUCKING BACON","steam_id":76561198014856290,"connected_time":1009000000000,"state":"active","ping":69},{"user_id":525,"name":"Testicular torsion","steam_id":76561198119547399,"connected_time":336000000000,"state":"active","ping":67},{"user_id":528,"name":"Jayem","steam_id":76561198076470685,"connected_time":265000000000,"state":"active","ping":65},{"user_id":530,"name":"wheel bread","steam_id":76561199062586342,"connected_time":47000000000,"state":"active","ping":54},{"user_id":497,"name":"jonas","steam_id":76561199441196540,"connected_time":1351000000000,"state":"active","ping":74},{"user_id":480,"name":"richard","steam_id":76561199042470246,"connected_time":2962000000000,"state":"active","ping":89},{"user_id":517,"name":"KLAMA  ‚ù§","steam_id":76561198351549661,"connected_time":789000000000,"state":"active","ping":74},{"user_id":531,"name":"doeks","steam_id":76561198129504653,"connected_time":25000000000,"state":"active","ping":107},{"user_id":526,"name":"Uselss Joe","steam_id":76561198275853629,"connected_time":333000000000,"state":"active","ping":60},{"user_id":510,"name":"≈†tƒõp√°n","steam_id":76561198275742101,"connected_time":916000000000,"state":"active","ping":74},{"user_id":511,"name":"üó£Ô∏èüí¨üíØüíØüî•üî•‚Äº","steam_id":76561198190816499,"connected_time":913000000000,"state":"active","ping":80},{"user_id":512,"name":"Bottle O' Scrumpy","steam_id":76561199244250562,"connected_time":892000000000,"state":"active","ping":105},{"user_id":529,"name":"Nonok","steam_id":76561199480685498,"connected_time":248000000000,"state":"active","ping":73},{"user_id":521,"name":"madhead200","steam_id":76561198119498666,"connected_time":588000000000,"state":"active","ping":68},{"user_id":520,"name":"laser","steam_id":76561198036030697,"connected_time":636000000000,"state":"active","ping":68},{"user_id":533,"name":"jaime8D","steam_id":76561197980590671,"connected_time":3000000000,"state":"spawning","ping":74},{"user_id":499,"name":"KermSlinger","steam_id":76561198854027069,"connected_time":1297000000000,"state":"active","ping":68},{"user_id":500,"name":"STOMP","steam_id":76561198070819203,"connected_time":1278000000000,"state":"active","ping":59},{"user_id":445,"name":"Zerfesh","steam_id":76561198117534358,"connected_time":6526000000000,"state":"active","ping":108},{"user_id":527,"name":"spherewithahat","steam_id":76561199122192660,"connected_time":287000000000,"state":"active","ping":130},{"user_id":515,"name":"cristi","steam_id":76561198075600806,"connected_time":826000000000,"state":"active","ping":60},{"user_id":522,"name":"Vince","steam_id":76561199103000131,"connected_time":584000000000,"state":"active","ping":45},{"user_id":474,"name":"twscsvl","steam_id":76561198045304929,"connected_time":3038000000000,"state":"active","ping":87}]},{"server_id":21,"name":"Uncletopia | London | 5 | All Maps","name_short":"lon-5","host":"lon-1.uk.uncletopia.com","port":27055,"enabled":true,"region":"eu","cc":"gb","latitude":51.509865,"longitude":-0.118092,"reserved":0,"last_update":"0001-01-01T00:00:00Z","name_a2s":"Uncletopia | London | 5 | All Maps","protocol":17,"map":"pl_thundermountain","folder":"tf","game":"Team Fortress","app_id":440,"player_count":24,"max_players":24,"Bots":0,"server_type":"Dedicated","server_os":"Linux","password":true,"vac":true,"version":"7961495","steam_id":85568392924742829,"keywords":["nocrits","nodmgspread","payload","uncletopia"],"game_id":440,"stv_port":27056,"stv_name":"Uncletopia | London | 5 | All Maps | STV","players":[{"user_id":298,"name":"Dogdigger","steam_id":76561198032893130,"connected_time":6428000000000,"state":"active","ping":100},{"user_id":352,"name":"Laura ‚ù§","steam_id":76561198975652501,"connected_time":2200000000000,"state":"active","ping":89},{"user_id":362,"name":"Caruzon - Obismal","steam_id":76561198036211170,"connected_time":1788000000000,"state":"active","ping":84},{"user_id":376,"name":"Spotmonkey","steam_id":76561198003994092,"connected_time":1080000000000,"state":"active","ping":60},{"user_id":355,"name":"Cimbasso","steam_id":76561198968050004,"connected_time":1888000000000,"state":"active","ping":154},{"user_id":371,"name":"R8N - Obismal","steam_id":76561198007482714,"connected_time":1578000000000,"state":"active","ping":80},{"user_id":372,"name":"highest noon","steam_id":76561199103959197,"connected_time":1540000000000,"state":"active","ping":100},{"user_id":360,"name":"jorgemaioneze","steam_id":76561198282523699,"connected_time":1809000000000,"state":"active","ping":67},{"user_id":361,"name":"froge","steam_id":76561198304959766,"connected_time":1799000000000,"state":"active","ping":82},{"user_id":323,"name":"Macci - Obismal","steam_id":76561198050485404,"connected_time":4687000000000,"state":"active","ping":79},{"user_id":382,"name":"Ziy???","steam_id":76561197995765491,"connected_time":780000000000,"state":"active","ping":48},{"user_id":378,"name":"Xiqui","steam_id":76561198818386611,"connected_time":1057000000000,"state":"active","ping":77},{"user_id":347,"name":"patrick","steam_id":76561198086684892,"connected_time":2440000000000,"state":"active","ping":112},{"user_id":363,"name":"‚ô•Itsge‚ô•","steam_id":76561198389946860,"connected_time":1777000000000,"state":"active","ping":110},{"user_id":364,"name":"The Queen of England","steam_id":76561198862449376,"connected_time":1757000000000,"state":"active","ping":57},{"user_id":365,"name":"Pain in a Box","steam_id":76561197990777173,"connected_time":1738000000000,"state":"active","ping":98},{"user_id":370,"name":"Deemask√©","steam_id":76561199225833593,"connected_time":1651000000000,"state":"active","ping":52},{"user_id":385,"name":"yuck","steam_id":76561197987249568,"connected_time":386000000000,"state":"active","ping":104},{"user_id":386,"name":"Maddox","steam_id":76561198026419869,"connected_time":379000000000,"state":"active","ping":78},{"user_id":368,"name":"Space","steam_id":76561198378357559,"connected_time":1671000000000,"state":"active","ping":45},{"user_id":369,"name":"Clemonster","steam_id":76561198341727831,"connected_time":1667000000000,"state":"active","ping":62},{"user_id":344,"name":"Burpman","steam_id":76561198022897937,"connected_time":3396000000000,"state":"active","ping":46},{"user_id":375,"name":"Dapper Pan Man","steam_id":76561197981874399,"connected_time":1479000000000,"state":"active","ping":95},{"user_id":388,"name":"carrots saved my life","steam_id":76561198069649097,"connected_time":337000000000,"state":"active","ping":60}]},{"server_id":22,"name":"Uncletopia | London | 6 | All Maps","name_short":"lon-6","host":"lon-1.uk.uncletopia.com","port":27065,"enabled":true,"region":"eu","cc":"gb","latitude":51.509865,"longitude":-0.118092,"reserved":0,"last_update":"0001-01-01T00:00:00Z","name_a2s":"Uncletopia | London | 6 | All Maps","protocol":17,"map":"pl_frontier_final","folder":"tf","game":"Team Fortress","app_id":440,"player_count":24,"max_players":24,"Bots":0,"server_type":"Dedicated","server_os":"Linux","password":true,"vac":true,"version":"7961495","steam_id":85568392924742830,"keywords":["nocrits","nodmgspread","payload","uncletopia"],"game_id":440,"stv_port":27066,"stv_name":"Uncletopia | London | 6 | All Maps | STV","players":[{"user_id":158,"name":"Funborg","steam_id":76561198119526733,"connected_time":2678000000000,"state":"active","ping":97},{"user_id":164,"name":"Gent","steam_id":76561198037167890,"connected_time":1762000000000,"state":"active","ping":88},{"user_id":165,"name":"ploks21","steam_id":76561199014144978,"connected_time":1651000000000,"state":"active","ping":87},{"user_id":128,"name":"Voks_","steam_id":76561198159687785,"connected_time":3723000000000,"state":"active","ping":76},{"user_id":202,"name":"Norkkom","steam_id":76561198027073521,"connected_time":131000000000,"state":"active","ping":121},{"user_id":186,"name":"Hentacles Tentai","steam_id":76561198086965937,"connected_time":546000000000,"state":"active","ping":47},{"user_id":181,"name":"nug","steam_id":76561198055396568,"connected_time":1105000000000,"state":"active","ping":67},{"user_id":145,"name":"finbar","steam_id":76561198056812396,"connected_time":3477000000000,"state":"active","ping":75},{"user_id":205,"name":"Morty","steam_id":76561198227437620,"connected_time":65000000000,"state":"active","ping":75},{"user_id":152,"name":"Max Power","steam_id":76561198019269089,"connected_time":3042000000000,"state":"active","ping":57},{"user_id":190,"name":"Professional facestab","steam_id":76561198258721056,"connected_time":386000000000,"state":"active","ping":51},{"user_id":191,"name":"milo","steam_id":76561198119016918,"connected_time":375000000000,"state":"active","ping":61},{"user_id":206,"name":"mohemmedmokhter2005","steam_id":76561199197650506,"connected_time":54000000000,"state":"active","ping":111},{"user_id":194,"name":"hitscanner","steam_id":76561198295302437,"connected_time":319000000000,"state":"active","ping":73},{"user_id":203,"name":"Kjat","steam_id":76561198839433592,"connected_time":111000000000,"state":"active","ping":63},{"user_id":196,"name":"Impusle_","steam_id":76561199001634963,"connected_time":277000000000,"state":"active","ping":45},{"user_id":198,"name":"cuddle","steam_id":76561198805181599,"connected_time":192000000000,"state":"active","ping":60},{"user_id":180,"name":"Slazaa","steam_id":76561197993252446,"connected_time":1129000000000,"state":"active","ping":45},{"user_id":199,"name":"fence_","steam_id":76561198150386379,"connected_time":190000000000,"state":"active","ping":47},{"user_id":200,"name":"Flamy?","steam_id":76561198024332838,"connected_time":181000000000,"state":"active","ping":86},{"user_id":201,"name":"minecrafter","steam_id":76561198797989834,"connected_time":150000000000,"state":"active","ping":39},{"user_id":183,"name":"meriones","steam_id":76561198034234373,"connected_time":1085000000000,"state":"active","ping":42},{"user_id":204,"name":"E¬≤ FTH","steam_id":76561198066287815,"connected_time":90000000000,"state":"active","ping":120},{"user_id":114,"name":"SuntanPikachu","steam_id":76561198121242476,"connected_time":5349000000000,"state":"active","ping":55}]},{"server_id":40,"name":"Uncletopia | London | 7 | Stopwatch","name_short":"lon-7","host":"lon-1.uk.uncletopia.com","port":27075,"enabled":true,"region":"eu","cc":"gb","latitude":51.509865,"longitude":-0.118092,"reserved":0,"last_update":"0001-01-01T00:00:00Z","name_a2s":"Uncletopia | London | 7 | Stopwatch","protocol":17,"map":"koth_highpass","folder":"tf","game":"Team Fortress","app_id":440,"player_count":0,"max_players":24,"Bots":0,"server_type":"Dedicated","server_os":"Linux","password":true,"vac":true,"version":"7961495","steam_id":85568392924964314,"keywords":["cp","nocrits","nodmgspread","uncletopia"],"game_id":440,"stv_port":27076,"stv_name":"Uncletopia | London | 7 | Stopwatch | STV","players":null},{"server_id":41,"name":"Uncletopia | London | 8 | Community","name_short":"lon-8","host":"lon-1.uk.uncletopia.com","port":27085,"enabled":true,"region":"eu","cc":"gb","latitude":51.509865,"longitude":-0.118092,"reserved":0,"last_update":"0001-01-01T00:00:00Z","name_a2s":"Uncletopia | London | 8 | Community","protocol":17,"map":"workshop/cp_kalinka_rc6a.ugc1272700588","folder":"tf","game":"Team Fortress","app_id":440,"player_count":0,"max_players":24,"Bots":0,"server_type":"Dedicated","server_os":"Linux","password":true,"vac":true,"version":"7961495","steam_id":85568392924964315,"keywords":["cp","nocrits","nodmgspread","uncletopia"],"game_id":440,"stv_port":27086,"stv_name":"Uncletopia | London | 8 | Community | STV","players":null},{"server_id":300,"name":"Uncletopia | Montr√©al | 1 | All Maps","name_short":"mtl-1","host":"mtl-1.ca.uncletopia.com","port":27015,"enabled":true,"region":"us-east","cc":"ca","latitude":45.50889,"longitude":-73.56167,"reserved":0,"last_update":"0001-01-01T00:00:00Z","name_a2s":"","protocol":0,"map":"","folder":"","game":"","app_id":0,"player_count":4,"max_players":0,"Bots":0,"server_type":"","server_os":"","password":false,"vac":false,"version":"","steam_id":0,"keywords":null,"game_id":0,"stv_port":0,"stv_name":"","players":[{"user_id":24,"name":"plastic tub of sour cherry ball","steam_id":76561199390537886,"connected_time":874000000000,"state":"active","ping":85},{"user_id":25,"name":"Raed duudi","steam_id":76561199259741356,"connected_time":831000000000,"state":"active","ping":164},{"user_id":26,"name":"Cwiishe","steam_id":76561199482943969,"connected_time":361000000000,"state":"active","ping":53},{"user_id":27,"name":"Prey","steam_id":76561198043901319,"connected_time":270000000000,"state":"active","ping":52}]},{"server_id":301,"name":"Uncletopia | Montr√©al | 2 | ???","name_short":"mtl-2","host":"mtl-1.ca.uncletopia.com","port":27025,"enabled":true,"region":"us-east","cc":"ca","latitude":45.50889,"longitude":-73.56167,"reserved":0,"last_update":"0001-01-01T00:00:00Z","name_a2s":"","protocol":0,"map":"","folder":"","game":"","app_id":0,"player_count":0,"max_players":0,"Bots":0,"server_type":"","server_os":"","password":false,"vac":false,"version":"","steam_id":0,"keywords":null,"game_id":0,"stv_port":0,"stv_name":"","players":null},{"server_id":302,"name":"Uncletopia | Montr√©al | 3 | All Maps","name_short":"mtl-3","host":"mtl-1.ca.uncletopia.com","port":27035,"enabled":true,"region":"us-east","cc":"ca","latitude":45.50889,"longitude":-73.56167,"reserved":0,"last_update":"0001-01-01T00:00:00Z","name_a2s":"","protocol":0,"map":"","folder":"","game":"","app_id":0,"player_count":0,"max_players":0,"Bots":0,"server_type":"","server_os":"","password":false,"vac":false,"version":"","steam_id":0,"keywords":null,"game_id":0,"stv_port":0,"stv_name":"","players":null},{"server_id":303,"name":"Uncletopia | Montr√©al | 4 | No Payload","name_short":"mtl-4","host":"mtl-1.ca.uncletopia.com","port":27045,"enabled":true,"region":"us-east","cc":"ca","latitude":45.50889,"longitude":-73.56167,"reserved":0,"last_update":"0001-01-01T00:00:00Z","name_a2s":"","protocol":0,"map":"","folder":"","game":"","app_id":0,"player_count":0,"max_players":0,"Bots":0,"server_type":"","server_os":"","password":false,"vac":false,"version":"","steam_id":0,"keywords":null,"game_id":0,"stv_port":0,"stv_name":"","players":null},{"server_id":13,"name":"Uncletopia | New York City | 1 | All Maps","name_short":"nyc-1","host":"nyc-1.us.uncletopia.com","port":27015,"enabled":true,"region":"us-east","cc":"us","latitude":40.73061,"longitude":-73.93524,"reserved":0,"last_update":"0001-01-01T00:00:00Z","name_a2s":"Uncletopia | New York City | 1 | All Maps","protocol":17,"map":"pl_pier","folder":"tf","game":"Team Fortress","app_id":440,"player_count":21,"max_players":24,"Bots":0,"server_type":"Dedicated","server_os":"Linux","password":true,"vac":true,"version":"7961495","steam_id":85568392924469993,"keywords":["nocrits","nodmgspread","payload","uncletopia"],"game_id":440,"stv_port":27016,"stv_name":"Uncletopia | New York City | 1 | All Maps | STV","players":[{"user_id":147,"name":"Pluto","steam_id":76561198338593690,"connected_time":206000000000,"state":"active","ping":76},{"user_id":148,"name":"Lil' Diabeetus","steam_id":76561198330119627,"connected_time":198000000000,"state":"active","ping":84},{"user_id":82,"name":"aqua","steam_id":76561199407709552,"connected_time":4261000000000,"state":"active","ping":68},{"user_id":121,"name":"Pork Soda","steam_id":76561198119575082,"connected_time":2087000000000,"state":"active","ping":65},{"user_id":149,"name":"dicksnip","steam_id":76561198356515396,"connected_time":156000000000,"state":"active","ping":85},{"user_id":112,"name":"Jazz2T","steam_id":76561198154418867,"connected_time":2958000000000,"state":"active","ping":104},{"user_id":150,"name":"Mobster Lobster","steam_id":76561198025376883,"connected_time":123000000000,"state":"active","ping":70},{"user_id":136,"name":"CoconutNeutral","steam_id":76561198277110108,"connected_time":1131000000000,"state":"active","ping":73},{"user_id":111,"name":"A Puppy","steam_id":76561198828184456,"connected_time":3044000000000,"state":"active","ping":45},{"user_id":90,"name":"ColbertDolbert?","steam_id":76561198299613842,"connected_time":3603000000000,"state":"active","ping":90},{"user_id":152,"name":"Maron Tickles","steam_id":76561199125982967,"connected_time":34000000000,"state":"active","ping":72},{"user_id":113,"name":"Knifedge825","steam_id":76561198423967605,"connected_time":2950000000000,"state":"active","ping":70},{"user_id":151,"name":"zman","steam_id":76561198117177676,"connected_time":67000000000,"state":"active","ping":56},{"user_id":153,"name":"Mr. Dick‚Ñ¢","steam_id":76561198047309044,"connected_time":11000000000,"state":"spawning","ping":71},{"user_id":154,"name":"BluJay","steam_id":76561198361356969,"connected_time":5000000000,"state":"spawning","ping":65},{"user_id":142,"name":"Clumsy","steam_id":76561198056345245,"connected_time":466000000000,"state":"active","ping":62},{"user_id":140,"name":"Wigl","steam_id":76561198019324464,"connected_time":791000000000,"state":"active","ping":57},{"user_id":137,"name":"triple_range_merge","steam_id":76561198991225026,"connected_time":962000000000,"state":"active","ping":62},{"user_id":48,"name":"Bottom feeder","steam_id":76561198181298169,"connected_time":6451000000000,"state":"active","ping":70},{"user_id":146,"name":"capeeKo","steam_id":76561197970346623,"connected_time":256000000000,"state":"active","ping":64},{"user_id":145,"name":"bran","steam_id":76561199028457134,"connected_time":325000000000,"state":"active","ping":46}]},{"server_id":14,"name":"Uncletopia | New York City | 2 | All Maps","name_short":"nyc-2","host":"nyc-1.us.uncletopia.com","port":27025,"enabled":true,"region":"us-east","cc":"us","latitude":40.73061,"longitude":-73.93524,"reserved":0,"last_update":"0001-01-01T00:00:00Z","name_a2s":"Uncletopia | New York City | 2 | All Maps","protocol":17,"map":"pl_barnblitz","folder":"tf","game":"Team Fortress","app_id":440,"player_count":24,"max_players":24,"Bots":0,"server_type":"Dedicated","server_os":"Linux","password":true,"vac":true,"version":"7961495","steam_id":85568392924469994,"keywords":["nocrits","nodmgspread","payload","uncletopia"],"game_id":440,"stv_port":27026,"stv_name":"Uncletopia | New York City | 2 | All Maps | STV","players":[{"user_id":307,"name":"turd ferguson","steam_id":76561198071620782,"connected_time":1108000000000,"state":"active","ping":69},{"user_id":260,"name":"Smokey Ian","steam_id":76561199128786637,"connected_time":4366000000000,"state":"active","ping":88},{"user_id":318,"name":"SolmonFish","steam_id":76561198942169006,"connected_time":178000000000,"state":"active","ping":66},{"user_id":293,"name":"Mr. Sauce","steam_id":76561198055512324,"connected_time":1680000000000,"state":"active","ping":61},{"user_id":319,"name":"Poi","steam_id":76561198176914898,"connected_time":168000000000,"state":"active","ping":85},{"user_id":310,"name":"Cellus","steam_id":76561198067204847,"connected_time":773000000000,"state":"active","ping":58},{"user_id":296,"name":"Keymaster","steam_id":76561198881514228,"connected_time":1489000000000,"state":"active","ping":59},{"user_id":304,"name":"citrus","steam_id":76561198294606679,"connected_time":1232000000000,"state":"active","ping":51},{"user_id":320,"name":"Sigiferd","steam_id":76561198148788110,"connected_time":166000000000,"state":"active","ping":127},{"user_id":189,"name":"SpaceSanctum","steam_id":76561198805242305,"connected_time":7931000000000,"state":"active","ping":45},{"user_id":172,"name":"googa","steam_id":76561198133130452,"connected_time":9919000000000,"state":"active","ping":45},{"user_id":322,"name":"Doctor Nic","steam_id":76561198035844950,"connected_time":83000000000,"state":"active","ping":73},{"user_id":276,"name":"Linguine Alfredo","steam_id":76561198022045816,"connected_time":3454000000000,"state":"active","ping":63},{"user_id":309,"name":"De","steam_id":76561198206728044,"connected_time":977000000000,"state":"active","ping":77},{"user_id":323,"name":"Dombo","steam_id":76561198108191209,"connected_time":73000000000,"state":"active","ping":120},{"user_id":314,"name":"asbestos","steam_id":76561198079178866,"connected_time":395000000000,"state":"active","ping":50},{"user_id":281,"name":"Fish","steam_id":76561199258053772,"connected_time":3121000000000,"state":"active","ping":86},{"user_id":324,"name":"Lovedaddy","steam_id":76561198006569710,"connected_time":60000000000,"state":"active","ping":75},{"user_id":201,"name":"the keebler","steam_id":76561199486326945,"connected_time":7165000000000,"state":"active","ping":88},{"user_id":312,"name":"He Who Dared Say \"SuS\"","steam_id":76561198123441203,"connected_time":673000000000,"state":"active","ping":74},{"user_id":311,"name":"ceo of whiffing stabs","steam_id":76561198085696816,"connected_time":728000000000,"state":"active","ping":68},{"user_id":315,"name":"Purp","steam_id":76561198044559535,"connected_time":373000000000,"state":"active","ping":74},{"user_id":326,"name":"The Mug Man","steam_id":76561198283468122,"connected_time":47000000000,"state":"active","ping":59},{"user_id":327,"name":"frid","steam_id":76561198005806915,"connected_time":34000000000,"state":"active","ping":68}]},{"server_id":15,"name":"Uncletopia | New York City | 3 | Stopwatch","name_short":"nyc-3","host":"nyc-1.us.uncletopia.com","port":27035,"enabled":true,"region":"us-east","cc":"us","latitude":40.73061,"longitude":-73.93524,"reserved":0,"last_update":"0001-01-01T00:00:00Z","name_a2s":"Uncletopia | New York City | 3 | Stopwatch","protocol":17,"map":"cp_process_final","folder":"tf","game":"Team Fortress","app_id":440,"player_count":0,"max_players":24,"Bots":0,"server_type":"Dedicated","server_os":"Linux","password":true,"vac":true,"version":"7961495","steam_id":85568392924742820,"keywords":["cp","nocrits","nodmgspread","uncletopia"],"game_id":440,"stv_port":27036,"stv_name":"Uncletopia | New York City | 3 | Stopwatch | STV","players":null},{"server_id":16,"name":"Uncletopia | New York City | 4 | Community","name_short":"nyc-4","host":"nyc-1.us.uncletopia.com","port":27045,"enabled":true,"region":"us-east","cc":"us","latitude":40.73061,"longitude":-73.93524,"reserved":0,"last_update":"0001-01-01T00:00:00Z","name_a2s":"Uncletopia | New York City | 4 | Community","protocol":17,"map":"workshop/koth_trenchfoot_b1a.ugc731436616","folder":"tf","game":"Team Fortress","app_id":440,"player_count":0,"max_players":24,"Bots":0,"server_type":"Dedicated","server_os":"Linux","password":true,"vac":true,"version":"7961495","steam_id":85568392924742821,"keywords":["cp","nocrits","nodmgspread","uncletopia"],"game_id":440,"stv_port":27046,"stv_name":"Uncletopia | New York City | 4 | Community | STV","players":null},{"server_id":142,"name":"Uncletopia | S√£o Paulo | 1 | All Maps","name_short":"sao-1","host":"sao-1.br.uncletopia.com","port":27015,"enabled":true,"region":"sa","cc":"br","latitude":-23.533773,"longitude":-46.62529,"reserved":0,"last_update":"0001-01-01T00:00:00Z","name_a2s":"Uncletopia | S√£o Paulo | 1 | All Maps","protocol":17,"map":"koth_lakeside_final","folder":"tf","game":"Team Fortress","app_id":440,"player_count":1,"max_players":24,"Bots":0,"server_type":"Dedicated","server_os":"Linux","password":true,"vac":true,"version":"7961495","steam_id":85568392924469996,"keywords":["cp","nocrits","nodmgspread","uncletopia"],"game_id":440,"stv_port":27016,"stv_name":"Uncletopia | S√£o Paulo | 1 | All Maps | STV","players":[{"user_id":8,"name":"jotalucas2245","steam_id":76561199479903071,"connected_time":559000000000,"state":"active","ping":94}]},{"server_id":143,"name":"Uncletopia | S√£o Paulo | 2 | Community","name_short":"sao-2","host":"sao-2.br.uncletopia.com","port":27015,"enabled":true,"region":"sa","cc":"br","latitude":-23.533773,"longitude":-46.62529,"reserved":0,"last_update":"0001-01-01T00:00:00Z","name_a2s":"Uncletopia | S√£o Paulo | 2 | Community","protocol":17,"map":"workshop/koth_ramjam_rc1.ugc459778887","folder":"tf","game":"Team Fortress","app_id":440,"player_count":0,"max_players":24,"Bots":0,"server_type":"Dedicated","server_os":"Linux","password":true,"vac":true,"version":"7961495","steam_id":85568392924485349,"keywords":["cp","nocrits","nodmgspread","uncletopia"],"game_id":440,"stv_port":27016,"stv_name":"Uncletopia | S√£o Paulo | 2 | Community | STV","players":null},{"server_id":7,"name":"Uncletopia | Seattle | 1 | All Maps","name_short":"sea-1","host":"sea-1.us.uncletopia.com","port":27015,"enabled":true,"region":"us-west","cc":"us","latitude":47.608013,"longitude":-122.33517,"reserved":0,"last_update":"0001-01-01T00:00:00Z","name_a2s":"Uncletopia | Seattle | 1 | All Maps","protocol":17,"map":"pl_frontier_final","folder":"tf","game":"Team Fortress","app_id":440,"player_count":24,"max_players":24,"Bots":0,"server_type":"Dedicated","server_os":"Linux","password":true,"vac":true,"version":"7961495","steam_id":85568392924469997,"keywords":["nocrits","nodmgspread","payload","uncletopia"],"game_id":440,"stv_port":27016,"stv_name":"Uncletopia | Seattle | 1 | All Maps | STV","players":[{"user_id":138,"name":"„Åµ„Çè„Åµ„ÇèÊØõÂ∏É","steam_id":76561198088403016,"connected_time":5971000000000,"state":"active","ping":151},{"user_id":208,"name":"PageBoiSkull","steam_id":76561198237353578,"connected_time":1419000000000,"state":"active","ping":70},{"user_id":201,"name":"Ashanti Clan","steam_id":76561198032651105,"connected_time":1683000000000,"state":"active","ping":68},{"user_id":165,"name":"mu","steam_id":76561197997530228,"connected_time":4166000000000,"state":"active","ping":53},{"user_id":172,"name":"Mr Clean","steam_id":76561198061104964,"connected_time":3787000000000,"state":"active","ping":101},{"user_id":207,"name":"Lesbian Futa Mommy","steam_id":76561198130479030,"connected_time":1432000000000,"state":"active","ping":56},{"user_id":226,"name":"vinc3nt10","steam_id":76561199122195012,"connected_time":366000000000,"state":"active","ping":83},{"user_id":188,"name":"NeptuneÀñ‚Å∫ÔΩ°Àö‚ãÜÀô‚ô•","steam_id":76561199054203198,"connected_time":3291000000000,"state":"active","ping":136},{"user_id":196,"name":"mega","steam_id":76561198089520959,"connected_time":2453000000000,"state":"active","ping":98},{"user_id":216,"name":"Skabbety","steam_id":76561198168044257,"connected_time":936000000000,"state":"active","ping":38},{"user_id":191,"name":"Urby","steam_id":76561199074391666,"connected_time":2899000000000,"state":"active","ping":57},{"user_id":134,"name":"Daz","steam_id":76561198041431938,"connected_time":6138000000000,"state":"active","ping":52},{"user_id":230,"name":"Keamy","steam_id":76561199471434875,"connected_time":164000000000,"state":"active","ping":42},{"user_id":217,"name":"my mom","steam_id":76561199225201569,"connected_time":930000000000,"state":"active","ping":117},{"user_id":211,"name":"Robin Suarez","steam_id":76561198014698593,"connected_time":1196000000000,"state":"active","ping":51},{"user_id":218,"name":"Mii Guest C, From Wii Sports","steam_id":76561198197964803,"connected_time":910000000000,"state":"active","ping":68},{"user_id":227,"name":"catberg","steam_id":76561198111995277,"connected_time":348000000000,"state":"active","ping":113},{"user_id":214,"name":"Captain Parker","steam_id":76561198882415101,"connected_time":1000000000000,"state":"active","ping":85},{"user_id":210,"name":"FI LO","steam_id":76561198976530881,"connected_time":1297000000000,"state":"active","ping":67},{"user_id":221,"name":"bleach‚Ç™","steam_id":76561198004482768,"connected_time":844000000000,"state":"active","ping":93},{"user_id":228,"name":"joethefool","steam_id":76561199015436319,"connected_time":347000000000,"state":"active","ping":121},{"user_id":225,"name":"Username","steam_id":76561199033122306,"connected_time":542000000000,"state":"active","ping":153},{"user_id":224,"name":"ElephantHydrogen4277882","steam_id":76561198175741741,"connected_time":684000000000,"state":"active","ping":68},{"user_id":229,"name":"*The* Wardoug41","steam_id":76561198255780869,"connected_time":336000000000,"state":"active","ping":131}]},{"server_id":119,"name":"Uncletopia | Seattle | 2 | All Maps","name_short":"sea-2","host":"sea-1.us.uncletopia.com","port":27025,"enabled":true,"region":"us-west","cc":"us","latitude":47.608013,"longitude":-122.33517,"reserved":0,"last_update":"0001-01-01T00:00:00Z","name_a2s":"Uncletopia | Seattle | 2 | All Maps","protocol":17,"map":"pl_swiftwater_final1","folder":"tf","game":"Team Fortress","app_id":440,"player_count":2,"max_players":24,"Bots":0,"server_type":"Dedicated","server_os":"Linux","password":true,"vac":true,"version":"7961495","steam_id":85568392924469998,"keywords":["nocrits","nodmgspread","payload","uncletopia"],"game_id":440,"stv_port":27026,"stv_name":"Uncletopia | Seattle | 2 | All Maps | STV","players":[{"user_id":12,"name":"spiderland","steam_id":76561198335992132,"connected_time":172000000000,"state":"active","ping":30},{"user_id":13,"name":"Doony","steam_id":76561198073472571,"connected_time":86000000000,"state":"active","ping":37}]},{"server_id":406,"name":"Uncletopia | Seattle | 3 | Stopwatch","name_short":"sea-3","host":"sea-1.us.uncletopia.com","port":27035,"enabled":true,"region":"us-west","cc":"us","latitude":47.608013,"longitude":-122.33517,"reserved":0,"last_update":"0001-01-01T00:00:00Z","name_a2s":"Uncletopia | Seattle | 3 | Stopwatch","protocol":17,"map":"workshop/cp_process_f12.ugc2302948105","folder":"tf","game":"Team Fortress","app_id":440,"player_count":0,"max_players":24,"Bots":0,"server_type":"Dedicated","server_os":"Linux","password":true,"vac":true,"version":"7961495","steam_id":85568392924515217,"keywords":["cp","nocrits","nodmgspread","uncletopia"],"game_id":440,"stv_port":27036,"stv_name":"Uncletopia | Seattle | 3 | Stopwatch | STV","players":null},{"server_id":17,"name":"Uncletopia | San Francisco | 1 | All Maps","name_short":"sfo-1","host":"sfo-1.us.uncletopia.com","port":27015,"enabled":true,"region":"us-west","cc":"us","latitude":37.77397,"longitude":-122.4313,"reserved":0,"last_update":"0001-01-01T00:00:00Z","name_a2s":"Uncletopia | San Francisco | 1 | All Maps","protocol":17,"map":"koth_cascade","folder":"tf","game":"Team Fortress","app_id":440,"player_count":0,"max_players":24,"Bots":0,"server_type":"Dedicated","server_os":"Linux","password":true,"vac":true,"version":"7961495","steam_id":85568392924469999,"keywords":["cp","nocrits","nodmgspread","uncletopia"],"game_id":440,"stv_port":27016,"stv_name":"Uncletopia | San Francisco | 1 | All Maps | STV","players":null},{"server_id":18,"name":"Uncletopia | San Francisco | 2 | All Maps","name_short":"sfo-2","host":"sfo-1.us.uncletopia.com","port":27025,"enabled":true,"region":"us-west","cc":"us","latitude":37.77397,"longitude":-122.4313,"reserved":0,"last_update":"0001-01-01T00:00:00Z","name_a2s":"Uncletopia | San Francisco | 2 | All Maps","protocol":17,"map":"koth_cascade","folder":"tf","game":"Team Fortress","app_id":440,"player_count":0,"max_players":24,"Bots":0,"server_type":"Dedicated","server_os":"Linux","password":true,"vac":true,"version":"7961495","steam_id":85568392924470000,"keywords":["cp","nocrits","nodmgspread","uncletopia"],"game_id":440,"stv_port":27026,"stv_name":"Uncletopia | San Francisco | 2 | All Maps | STV","players":null},{"server_id":19,"name":"Uncletopia | San Francisco | 3 | Stopwatch","name_short":"sfo-3","host":"sfo-1.us.uncletopia.com","port":27035,"enabled":true,"region":"us-west","cc":"us","latitude":37.77397,"longitude":-122.4313,"reserved":0,"last_update":"0001-01-01T00:00:00Z","name_a2s":"Uncletopia | San Francisco | 3 | Stopwatch","protocol":17,"map":"pl_pier","folder":"tf","game":"Team Fortress","app_id":440,"player_count":0,"max_players":24,"Bots":0,"server_type":"Dedicated","server_os":"Linux","password":true,"vac":true,"version":"7961495","steam_id":85568392924742824,"keywords":["nocrits","nodmgspread","payload","uncletopia"],"game_id":440,"stv_port":27036,"stv_name":"Uncletopia | San Francisco | 3 | Stopwatch | STV","players":null},{"server_id":20,"name":"Uncletopia | San Francisco | 4 | Community","name_short":"sfo-4","host":"sfo-1.us.uncletopia.com","port":27045,"enabled":true,"region":"us-west","cc":"us","latitude":37.77397,"longitude":-122.4313,"reserved":0,"last_update":"0001-01-01T00:00:00Z","name_a2s":"Uncletopia | San Francisco | 4 | Community","protocol":17,"map":"pl_pier","folder":"tf","game":"Team Fortress","app_id":440,"player_count":0,"max_players":24,"Bots":0,"server_type":"Dedicated","server_os":"Linux","password":true,"vac":true,"version":"7961495","steam_id":85568392924742826,"keywords":["nocrits","nodmgspread","payload","uncletopia"],"game_id":440,"stv_port":27046,"stv_name":"Uncletopia | San Francisco | 4 | Community | STV","players":null},{"server_id":141,"name":"Uncletopia | Sydney | 1 | All Maps","name_short":"syd-1","host":"syd-1.au.uncletopia.com","port":27015,"enabled":true,"region":"au","cc":"au","latitude":-33.865143,"longitude":151.2099,"reserved":0,"last_update":"0001-01-01T00:00:00Z","name_a2s":"Uncletopia | Sydney | 1 | All Maps","protocol":17,"map":"koth_viaduct","folder":"tf","game":"Team Fortress","app_id":440,"player_count":1,"max_players":24,"Bots":0,"server_type":"Dedicated","server_os":"Linux","password":true,"vac":true,"version":"7961495","steam_id":85568392924470001,"keywords":["cp","nocrits","nodmgspread","uncletopia"],"game_id":440,"stv_port":27016,"stv_name":"Uncletopia | Sydney | 1 | All Maps | STV","players":[{"user_id":3,"name":"rumoi","steam_id":76561198074814865,"connected_time":35000000000,"state":"active","ping":61}]},{"server_id":123,"name":"Uncletopia | Sydney | 2 | All Maps","name_short":"syd-2","host":"syd-1.au.uncletopia.com","port":27025,"enabled":true,"region":"au","cc":"au","latitude":-33.865143,"longitude":151.2099,"reserved":0,"last_update":"0001-01-01T00:00:00Z","name_a2s":"Uncletopia | Sydney | 2 | All Maps","protocol":17,"map":"koth_lakeside_final","folder":"tf","game":"Team Fortress","app_id":440,"player_count":0,"max_players":24,"Bots":0,"server_type":"Dedicated","server_os":"Linux","password":true,"vac":true,"version":"7961495","steam_id":85568392924470002,"keywords":["cp","nocrits","nodmgspread","uncletopia"],"game_id":440,"stv_port":27026,"stv_name":"Uncletopia | Sydney | 2 | All Maps | STV","players":null},{"server_id":395,"name":"Uncletopia | Sydney | 3 | All Maps","name_short":"syd-3","host":"syd-1.au.uncletopia.com","port":27035,"enabled":true,"region":"au","cc":"au","latitude":-33.865143,"longitude":151.2099,"reserved":0,"last_update":"0001-01-01T00:00:00Z","name_a2s":"Uncletopia | Sydney | 3 | All Maps","protocol":17,"map":"pl_frontier_final","folder":"tf","game":"Team Fortress","app_id":440,"player_count":0,"max_players":24,"Bots":0,"server_type":"Dedicated","server_os":"Linux","password":true,"vac":true,"version":"7961495","steam_id":85568392925194467,"keywords":["nocrits","nodmgspread","payload","uncletopia"],"game_id":440,"stv_port":27036,"stv_name":"Uncletopia | Sydney | 3 | All Maps | STV","players":null},{"server_id":396,"name":"Uncletopia | Sydney | 4 | All Maps","name_short":"syd-4","host":"syd-1.au.uncletopia.com","port":27045,"enabled":true,"region":"au","cc":"au","latitude":-33.865143,"longitude":151.2099,"reserved":0,"last_update":"0001-01-01T00:00:00Z","name_a2s":"Uncletopia | Sydney | 4 | All Maps","protocol":17,"map":"cp_process_final","folder":"tf","game":"Team Fortress","app_id":440,"player_count":0,"max_players":24,"Bots":0,"server_type":"Dedicated","server_os":"Linux","password":true,"vac":true,"version":"7961495","steam_id":85568392925397958,"keywords":["cp","nocrits","nodmgspread","uncletopia"],"game_id":440,"stv_port":27046,"stv_name":"Uncletopia | Sydney | 4 | All Maps | STV","players":null},{"server_id":58,"name":"Uncletopia | Sydney | 5 | Stopwatch","name_short":"syd-5","host":"syd-1.au.uncletopia.com","port":27055,"enabled":true,"region":"au","cc":"au","latitude":-33.865143,"longitude":151.2099,"reserved":0,"last_update":"0001-01-01T00:00:00Z","name_a2s":"Uncletopia | Sydney | 5 | Stopwatch","protocol":17,"map":"pl_frontier_final","folder":"tf","game":"Team Fortress","app_id":440,"player_count":0,"max_players":24,"Bots":0,"server_type":"Dedicated","server_os":"Linux","password":true,"vac":true,"version":"7961495","steam_id":85568392925397959,"keywords":["nocrits","nodmgspread","payload","uncletopia"],"game_id":440,"stv_port":27056,"stv_name":"Uncletopia | Sydney | 5 | Stopwatch | STV","players":null},{"server_id":59,"name":"Uncletopia | Sydney | 6 | Community","name_short":"syd-6","host":"syd-1.au.uncletopia.com","port":27065,"enabled":true,"region":"au","cc":"au","latitude":-33.865143,"longitude":151.2099,"reserved":0,"last_update":"0001-01-01T00:00:00Z","name_a2s":"Uncletopia | Sydney | 6 | Community","protocol":17,"map":"cp_sunshine","folder":"tf","game":"Team Fortress","app_id":440,"player_count":0,"max_players":24,"Bots":0,"server_type":"Dedicated","server_os":"Linux","password":true,"vac":true,"version":"7961495","steam_id":85568392925397960,"keywords":["cp","nocrits","nodmgspread","uncletopia"],"game_id":440,"stv_port":27066,"stv_name":"Uncletopia | Sydney | 6 | Community | STV","players":null},{"server_id":49,"name":"Uncletopia | Warsaw | 1 | All Maps","name_short":"waw-1","host":"waw-1.pl.uncletopia.com","port":27015,"enabled":true,"region":"eu","cc":"pl","latitude":52.2297,"longitude":21.017532,"reserved":0,"last_update":"0001-01-01T00:00:00Z","name_a2s":"Uncletopia | Warsaw | 1 | All Maps","protocol":17,"map":"koth_lakeside_final","folder":"tf","game":"Team Fortress","app_id":440,"player_count":0,"max_players":24,"Bots":0,"server_type":"Dedicated","server_os":"Linux","password":true,"vac":true,"version":"7961495","steam_id":85568392925397850,"keywords":["cp","nocrits","nodmgspread","uncletopia"],"game_id":440,"stv_port":27016,"stv_name":"Uncletopia | Warsaw | 1 | All Maps | STV","players":null},{"server_id":50,"name":"Uncletopia | Warsaw | 2 | All Maps","name_short":"waw-2","host":"waw-1.pl.uncletopia.com","port":27025,"enabled":true,"region":"eu","cc":"pl","latitude":52.2297,"longitude":21.017532,"reserved":0,"last_update":"0001-01-01T00:00:00Z","name_a2s":"Uncletopia | Warsaw | 2 | All Maps","protocol":17,"map":"pl_swiftwater_final1","folder":"tf","game":"Team Fortress","app_id":440,"player_count":4,"max_players":24,"Bots":0,"server_type":"Dedicated","server_os":"Linux","password":true,"vac":true,"version":"7961495","steam_id":85568392925397851,"keywords":["nocrits","nodmgspread","payload","uncletopia"],"game_id":440,"stv_port":27026,"stv_name":"Uncletopia | Warsaw | 2 | All Maps | STV","players":[{"user_id":10,"name":"39","steam_id":76561199091672937,"connected_time":2709000000000,"state":"active","ping":86},{"user_id":9,"name":"sk≈ô√≠tek ≈°pind√≠ra","steam_id":76561198406483941,"connected_time":2939000000000,"state":"active","ping":70},{"user_id":12,"name":"nakedpee","steam_id":76561198064345980,"connected_time":813000000000,"state":"active","ping":76},{"user_id":13,"name":"Barbatruc","steam_id":76561198119019916,"connected_time":650000000000,"state":"active","ping":92}]},{"server_id":51,"name":"Uncletopia | Warsaw | 3 | All Maps","name_short":"waw-3","host":"waw-1.pl.uncletopia.com","port":27035,"enabled":true,"region":"eu","cc":"pl","latitude":52.2297,"longitude":21.017532,"reserved":0,"last_update":"0001-01-01T00:00:00Z","name_a2s":"Uncletopia | Warsaw | 3 | All Maps","protocol":17,"map":"koth_highpass","folder":"tf","game":"Team Fortress","app_id":440,"player_count":0,"max_players":24,"Bots":0,"server_type":"Dedicated","server_os":"Linux","password":true,"vac":true,"version":"7961495","steam_id":85568392925397852,"keywords":["cp","nocrits","nodmgspread","uncletopia"],"game_id":440,"stv_port":27036,"stv_name":"Uncletopia | Warsaw | 3 | All Maps | STV","players":null},{"server_id":52,"name":"Uncletopia | Warsaw | 4 | All Maps","name_short":"waw-4","host":"waw-1.pl.uncletopia.com","port":27045,"enabled":true,"region":"eu","cc":"pl","latitude":52.2297,"longitude":21.017532,"reserved":0,"last_update":"0001-01-01T00:00:00Z","name_a2s":"Uncletopia | Warsaw | 4 | All Maps","protocol":17,"map":"cp_mountainlab","folder":"tf","game":"Team Fortress","app_id":440,"player_count":2,"max_players":24,"Bots":0,"server_type":"Dedicated","server_os":"Linux","password":true,"vac":true,"version":"7961495","steam_id":85568392925397853,"keywords":["cp","nocrits","nodmgspread","uncletopia"],"game_id":440,"stv_port":27046,"stv_name":"Uncletopia | Warsaw | 4 | All Maps | STV","players":[{"user_id":10,"name":"Wojtasek0505","steam_id":76561199236721669,"connected_time":819000000000,"state":"active","ping":81},{"user_id":11,"name":"Rybigiusz","steam_id":76561198799311754,"connected_time":796000000000,"state":"active","ping":57}]},{"server_id":53,"name":"Uncletopia | Warsaw | 5 | Stopwatch","name_short":"waw-5","host":"waw-1.pl.uncletopia.com","port":27055,"enabled":true,"region":"eu","cc":"pl","latitude":52.2297,"longitude":21.017532,"reserved":0,"last_update":"0001-01-01T00:00:00Z","name_a2s":"Uncletopia | Warsaw | 5 | Stopwatch","protocol":17,"map":"cp_metalworks","folder":"tf","game":"Team Fortress","app_id":440,"player_count":0,"max_players":24,"Bots":0,"server_type":"Dedicated","server_os":"Linux","password":true,"vac":true,"version":"7961495","steam_id":85568392925397854,"keywords":["cp","nocrits","nodmgspread","uncletopia"],"game_id":440,"stv_port":27056,"stv_name":"Uncletopia | Warsaw | 5 | Stopwatch | STV","players":null},{"server_id":54,"name":"Uncletopia | Warsaw | 6 | Community","name_short":"waw-6","host":"waw-1.pl.uncletopia.com","port":27065,"enabled":true,"region":"eu","cc":"pl","latitude":52.2297,"longitude":21.017532,"reserved":0,"last_update":"0001-01-01T00:00:00Z","name_a2s":"Uncletopia | Warsaw | 6 | Community","protocol":17,"map":"workshop/koth_synthetic_rc6a.ugc1549817316","folder":"tf","game":"Team Fortress","app_id":440,"player_count":0,"max_players":24,"Bots":0,"server_type":"Dedicated","server_os":"Linux","password":true,"vac":true,"version":"7961495","steam_id":85568392925397856,"keywords":["cp","nocrits","nodmgspread","uncletopia"],"game_id":440,"stv_port":27066,"stv_name":"Uncletopia | Warsaw | 6 | Community | STV","players":null}]}