{"status":true,"message":"","result":[{"server_id":9,"name":"Uncletopia | Atlanta | 1 | All Maps","name_short":"atl-1","host":"atl-1.us.uncletopia.com","port":27015,"enabled":true,"region":"us-east","cc":"us","latitude":33.753746,"longitude":-84.38633,"reserved":0,"last_update":"0001-01-01T00:00:00Z","name_a2s":"Uncletopia | Atlanta | 1 | All Maps","protocol":17,"map":"pl_snowycoast","folder":"tf","game":"Team Fortress","app_id":440,"player_count":24,"max_players":24,"Bots":0,"server_type":"Dedicated","server_os":"Linux","password":true,"vac":true,"version":"7742253","steam_id":85568392924469982,"keywords":["nocrits","nodmgspread","payload","uncletopia"],"game_id":440,"stv_port":27016,"stv_name":"Uncletopia | Atlanta | 1 | All Maps | STV","players":[{"user_id":197,"name":"Caberknight TF2 (real)","steam_id":76561198038832034,"connected_time":4139000000000,"state":"active","ping":109},{"user_id":82,"name":"noelle","steam_id":76561198386344068,"connected_time":13549000000000,"state":"active","ping":75},{"user_id":191,"name":"Pixler544","steam_id":76561198240575132,"connected_time":4764000000000,"state":"active","ping":73},{"user_id":228,"name":"Magpies Know All","steam_id":76561198868286632,"connected_time":696000000000,"state":"active","ping":70},{"user_id":230,"name":"burnt_potato","steam_id":76561198877403540,"connected_time":515000000000,"state":"active","ping":117},{"user_id":220,"name":"leonardo doujinshi","steam_id":76561198025810326,"connected_time":1059000000000,"state":"active","ping":60},{"user_id":214,"name":"Obelisk","steam_id":76561198049416866,"connected_time":1606000000000,"state":"active","ping":52},{"user_id":222,"name":"MamaLuigi","steam_id":76561199054368008,"connected_time":1029000000000,"state":"active","ping":78},{"user_id":152,"name":"Coup de Grass","steam_id":76561198011643226,"connected_time":7963000000000,"state":"active","ping":54},{"user_id":210,"name":"SHADOWBURN","steam_id":76561199245670274,"connected_time":2151000000000,"state":"active","ping":113},{"user_id":209,"name":"caberknight tf2","steam_id":76561199273882768,"connected_time":2157000000000,"state":"active","ping":60},{"user_id":174,"name":"Rin \"Hindwing\" Redtail","steam_id":76561199074865638,"connected_time":6393000000000,"state":"active","ping":65},{"user_id":212,"name":"C O M F Y","steam_id":76561198072101210,"connected_time":1982000000000,"state":"active","ping":72},{"user_id":199,"name":"austinsmith","steam_id":76561198167838540,"connected_time":4040000000000,"state":"active","ping":79},{"user_id":223,"name":"Nephs","steam_id":76561198136763403,"connected_time":1029000000000,"state":"active","ping":82},{"user_id":231,"name":"callum","steam_id":76561198070918366,"connected_time":328000000000,"state":"active","ping":105},{"user_id":219,"name":"e0e0","steam_id":76561198293839750,"connected_time":1111000000000,"state":"active","ping":61},{"user_id":234,"name":"Vanny","steam_id":76561198297961039,"connected_time":230000000000,"state":"active","ping":121},{"user_id":206,"name":"Cat_Soldier","steam_id":76561198799974610,"connected_time":3409000000000,"state":"active","ping":68},{"user_id":179,"name":"ATL1 | Lancer Fan Club","steam_id":76561198355495948,"connected_time":5450000000000,"state":"active","ping":89},{"user_id":236,"name":"kosher salt","steam_id":76561198171099271,"connected_time":97000000000,"state":"active","ping":67},{"user_id":208,"name":"Fishstall","steam_id":76561198038126034,"connected_time":3356000000000,"state":"active","ping":92},{"user_id":194,"name":"goober","steam_id":76561198943598378,"connected_time":4588000000000,"state":"active","ping":58},{"user_id":226,"name":"floofy","steam_id":76561198389769098,"connected_time":827000000000,"state":"active","ping":90}]},{"server_id":400,"name":"Uncletopia | Atlanta | 3 | Stopwatch Beta","name_short":"atl-3","host":"atl-1.us.uncletopia.com","port":27035,"enabled":true,"region":"us-east","cc":"us","latitude":33.753746,"longitude":-84.38633,"reserved":0,"last_update":"0001-01-01T00:00:00Z","name_a2s":"Uncletopia | Atlanta | 3 | Stopwatch Beta","protocol":17,"map":"pl_upward","folder":"tf","game":"Team Fortress","app_id":440,"player_count":17,"max_players":24,"Bots":0,"server_type":"Dedicated","server_os":"Linux","password":true,"vac":true,"version":"7742253","steam_id":85568392924515187,"keywords":["nocrits","nodmgspread","payload","uncletopia"],"game_id":440,"stv_port":27036,"stv_name":"Uncletopia | Atlanta | 3 | Stopwatch Beta | STV","players":[{"user_id":23,"name":"Snoopster ツ","steam_id":76561198040170542,"connected_time":1150000000000,"state":"active","ping":76},{"user_id":18,"name":"kemalekmen96","steam_id":76561199442614203,"connected_time":1401000000000,"state":"active","ping":179},{"user_id":19,"name":"raiden","steam_id":76561199215654943,"connected_time":1367000000000,"state":"active","ping":190},{"user_id":28,"name":"scuttles","steam_id":76561199250039100,"connected_time":737000000000,"state":"active","ping":77},{"user_id":47,"name":"xyt0nix","steam_id":76561199437938235,"connected_time":104000000000,"state":"active","ping":47},{"user_id":27,"name":"vinny6","steam_id":76561198386735728,"connected_time":902000000000,"state":"active","ping":60},{"user_id":26,"name":"tjisconfused","steam_id":76561199231962798,"connected_time":975000000000,"state":"active","ping":75},{"user_id":48,"name":"OctoRocket","steam_id":76561198877250477,"connected_time":81000000000,"state":"active","ping":69},{"user_id":30,"name":"Apple kid","steam_id":76561199357412577,"connected_time":556000000000,"state":"active","ping":57},{"user_id":38,"name":"Unk","steam_id":76561198329242141,"connected_time":426000000000,"state":"active","ping":103},{"user_id":42,"name":"garfield","steam_id":76561198114119308,"connected_time":310000000000,"state":"active","ping":44},{"user_id":49,"name":"Sh3ba Spaniel","steam_id":76561198047412394,"connected_time":60000000000,"state":"active","ping":77},{"user_id":35,"name":"gustavoerod","steam_id":76561198431330545,"connected_time":461000000000,"state":"active","ping":81},{"user_id":40,"name":"fiasco","steam_id":76561198070800553,"connected_time":374000000000,"state":"active","ping":59},{"user_id":41,"name":"The Woman Disrespecter","steam_id":76561198964373968,"connected_time":370000000000,"state":"active","ping":111},{"user_id":50,"name":".BL14","steam_id":76561198374604922,"connected_time":49000000000,"state":"spawning","ping":59},{"user_id":51,"name":"Pebbled","steam_id":76561199390347605,"connected_time":0,"state":"spawning","ping":0}]},{"server_id":401,"name":"Uncletopia | Atlanta | 4 | No Payload","name_short":"atl-4","host":"atl-1.us.uncletopia.com","port":27045,"enabled":true,"region":"us-east","cc":"us","latitude":33.753746,"longitude":-84.38633,"reserved":0,"last_update":"0001-01-01T00:00:00Z","name_a2s":"Uncletopia | Atlanta | 4 | No Payload","protocol":17,"map":"pl_pier","folder":"tf","game":"Team Fortress","app_id":440,"player_count":0,"max_players":24,"Bots":0,"server_type":"Dedicated","server_os":"Linux","password":true,"vac":true,"version":"7723704","steam_id":85568392924515188,"keywords":["nocrits","nodmgspread","payload","uncletopia"],"game_id":440,"stv_port":27046,"stv_name":"Uncletopia | Atlanta | 4 | No Payload | STV","players":null},{"server_id":2,"name":"Uncletopia | Chicago | 1 | All Maps","name_short":"chi-1","host":"chi-1.us.uncletopia.com","port":27015,"enabled":true,"region":"us-central","cc":"us","latitude":41.881832,"longitude":-87.62318,"reserved":0,"last_update":"0001-01-01T00:00:00Z","name_a2s":"Uncletopia | Chicago | 1 | All Maps","protocol":17,"map":"pl_upward","folder":"tf","game":"Team Fortress","app_id":440,"player_count":24,"max_players":24,"Bots":0,"server_type":"Dedicated","server_os":"Linux","password":true,"vac":true,"version":"7742253","steam_id":85568392924469984,"keywords":["nocrits","nodmgspread","payload","uncletopia"],"game_id":440,"stv_port":27016,"stv_name":"Uncletopia | Chicago | 1 | All Maps | STV","players":[{"user_id":205,"name":"CoconutRice","steam_id":76561198114909164,"connected_time":2552000000000,"state":"active","ping":46},{"user_id":229,"name":"Shturman","steam_id":76561198165437987,"connected_time":810000000000,"state":"active","ping":57},{"user_id":224,"name":"Ch4rl33","steam_id":76561198037008621,"connected_time":1142000000000,"state":"active","ping":48},{"user_id":214,"name":"PuzzlePuddles","steam_id":76561198856494882,"connected_time":1664000000000,"state":"active","ping":72},{"user_id":188,"name":"musicwilldie","steam_id":76561198395833764,"connected_time":4041000000000,"state":"active","ping":60},{"user_id":203,"name":"StonedGiant","steam_id":76561197984386932,"connected_time":2585000000000,"state":"active","ping":58},{"user_id":231,"name":"Irontothecore","steam_id":76561198387384844,"connected_time":802000000000,"state":"active","ping":61},{"user_id":239,"name":"Waffle Wannabe","steam_id":76561198064510650,"connected_time":156000000000,"state":"active","ping":70},{"user_id":223,"name":"da.epic.dante.2005","steam_id":76561198069580305,"connected_time":1164000000000,"state":"active","ping":56},{"user_id":201,"name":"Rornir","steam_id":76561198081829615,"connected_time":2598000000000,"state":"active","ping":44},{"user_id":225,"name":"Haunting","steam_id":76561198088529360,"connected_time":1135000000000,"state":"active","ping":75},{"user_id":230,"name":"Big Smoke","steam_id":76561198278375987,"connected_time":805000000000,"state":"active","ping":71},{"user_id":218,"name":"Le","steam_id":76561198817754233,"connected_time":1467000000000,"state":"active","ping":63},{"user_id":232,"name":"Fraglin","steam_id":76561198124964000,"connected_time":795000000000,"state":"active","ping":119},{"user_id":233,"name":"yesoko","steam_id":76561198072917024,"connected_time":769000000000,"state":"active","ping":56},{"user_id":216,"name":"kirby7","steam_id":76561199167006749,"connected_time":1549000000000,"state":"active","ping":152},{"user_id":234,"name":"6t26j","steam_id":76561198278282836,"connected_time":727000000000,"state":"active","ping":58},{"user_id":236,"name":"bite of 87 (real NOT CLICKBAIT)","steam_id":76561198045832398,"connected_time":628000000000,"state":"active","ping":81},{"user_id":195,"name":"Soda_black","steam_id":76561198921541055,"connected_time":3766000000000,"state":"active","ping":134},{"user_id":210,"name":"Canaan ❤","steam_id":76561198044337051,"connected_time":2498000000000,"state":"active","ping":101},{"user_id":213,"name":"kosova numer 1","steam_id":76561198114713240,"connected_time":1855000000000,"state":"active","ping":61},{"user_id":220,"name":"Pisser12434","steam_id":76561198835144780,"connected_time":1427000000000,"state":"active","ping":80},{"user_id":199,"name":"[TrC] Dackstrus","steam_id":76561197973518509,"connected_time":3248000000000,"state":"active","ping":109},{"user_id":222,"name":"Sully","steam_id":76561198310784589,"connected_time":1210000000000,"state":"active","ping":72}]},{"server_id":106,"name":"Uncletopia | Chicago | 2 | All Maps","name_short":"chi-2","host":"chi-1.us.uncletopia.com","port":27025,"enabled":true,"region":"us-central","cc":"us","latitude":41.881832,"longitude":-87.62318,"reserved":0,"last_update":"0001-01-01T00:00:00Z","name_a2s":"Uncletopia | Chicago | 2 | All Maps","protocol":17,"map":"pl_upward","folder":"tf","game":"Team Fortress","app_id":440,"player_count":24,"max_players":24,"Bots":0,"server_type":"Dedicated","server_os":"Linux","password":true,"vac":true,"version":"7742253","steam_id":85568392924469985,"keywords":["nocrits","nodmgspread","payload","uncletopia"],"game_id":440,"stv_port":27026,"stv_name":"Uncletopia | Chicago | 2 | All Maps | STV","players":[{"user_id":352,"name":"Big ol' Willy Gaming","steam_id":76561198048545731,"connected_time":95000000000,"state":"active","ping":84},{"user_id":323,"name":"Final_MarioXD","steam_id":76561199184862419,"connected_time":1584000000000,"state":"active","ping":90},{"user_id":335,"name":"A Pizza Already","steam_id":76561198064918401,"connected_time":1450000000000,"state":"active","ping":98},{"user_id":63,"name":"-flagellum","steam_id":76561198006297974,"connected_time":10590000000000,"state":"active","ping":70},{"user_id":353,"name":"The Best Healer","steam_id":76561198079452621,"connected_time":53000000000,"state":"active","ping":96},{"user_id":324,"name":"scrapmetal.crafter.2009","steam_id":76561198138221795,"connected_time":1569000000000,"state":"active","ping":69},{"user_id":252,"name":"ctap2lean","steam_id":76561198068538473,"connected_time":2949000000000,"state":"active","ping":75},{"user_id":253,"name":"Fluffeline","steam_id":76561198352909489,"connected_time":2940000000000,"state":"active","ping":148},{"user_id":347,"name":"Peter Panzerfaust","steam_id":76561198054898482,"connected_time":305000000000,"state":"active","ping":155},{"user_id":343,"name":"sansa musa","steam_id":76561198163723555,"connected_time":362000000000,"state":"active","ping":75},{"user_id":224,"name":"no","steam_id":76561198248853140,"connected_time":3609000000000,"state":"active","ping":48},{"user_id":339,"name":"Dirtbike rider","steam_id":76561198030457066,"connected_time":582000000000,"state":"active","ping":86},{"user_id":331,"name":"Princekouhai","steam_id":76561198029417435,"connected_time":1506000000000,"state":"active","ping":76},{"user_id":344,"name":"FireQuiz","steam_id":76561198107357249,"connected_time":360000000000,"state":"active","ping":106},{"user_id":143,"name":"ddr king","steam_id":76561198061768122,"connected_time":5482000000000,"state":"active","ping":71},{"user_id":349,"name":"Smuggs","steam_id":76561197999456003,"connected_time":270000000000,"state":"active","ping":115},{"user_id":341,"name":"Cheese Graffiti","steam_id":76561198046575913,"connected_time":467000000000,"state":"active","ping":56},{"user_id":350,"name":"w a l k  q u i e t","steam_id":76561198143453873,"connected_time":232000000000,"state":"active","ping":49},{"user_id":342,"name":"turnip","steam_id":76561197999375941,"connected_time":376000000000,"state":"active","ping":77},{"user_id":354,"name":"Blartinator","steam_id":76561198083079605,"connected_time":4000000000,"state":"spawning","ping":76},{"user_id":340,"name":"donti","steam_id":76561197977223197,"connected_time":561000000000,"state":"active","ping":46},{"user_id":328,"name":"misterjozo","steam_id":76561198012300755,"connected_time":1528000000000,"state":"active","ping":107},{"user_id":348,"name":"monstrioz","steam_id":76561199004673069,"connected_time":305000000000,"state":"active","ping":173},{"user_id":251,"name":"Looneymunkey","steam_id":76561198414675183,"connected_time":2978000000000,"state":"active","ping":77}]},{"server_id":402,"name":"Uncletopia | Chicago | 3 | All Maps","name_short":"chi-3","host":"chi-1.us.uncletopia.com","port":27035,"enabled":true,"region":"us-central","cc":"us","latitude":41.881832,"longitude":-87.62318,"reserved":0,"last_update":"0001-01-01T00:00:00Z","name_a2s":"Uncletopia | Chicago | 3 | All Maps","protocol":17,"map":"koth_harvest_final","folder":"tf","game":"Team Fortress","app_id":440,"player_count":24,"max_players":24,"Bots":0,"server_type":"Dedicated","server_os":"Linux","password":true,"vac":true,"version":"7742253","steam_id":85568392924515191,"keywords":["cp","nocrits","nodmgspread","uncletopia"],"game_id":440,"stv_port":27036,"stv_name":"Uncletopia | Chicago | 3 | All Maps | STV","players":[{"user_id":132,"name":"Young-OG","steam_id":76561198058800479,"connected_time":514000000000,"state":"active","ping":81},{"user_id":136,"name":"hamdrinker985","steam_id":76561199241807676,"connected_time":308000000000,"state":"active","ping":93},{"user_id":122,"name":"∀ɐ","steam_id":76561198139718219,"connected_time":1269000000000,"state":"active","ping":63},{"user_id":129,"name":"Exotic","steam_id":76561198094518524,"connected_time":752000000000,"state":"active","ping":39},{"user_id":107,"name":"gromit mug","steam_id":76561198806443221,"connected_time":2032000000000,"state":"active","ping":76},{"user_id":120,"name":"lutican","steam_id":76561198215383452,"connected_time":1517000000000,"state":"active","ping":57},{"user_id":135,"name":"Mr. Tickle","steam_id":76561198126684647,"connected_time":334000000000,"state":"active","ping":60},{"user_id":119,"name":"teamspeakisbeter","steam_id":76561198994349483,"connected_time":1695000000000,"state":"active","ping":82},{"user_id":137,"name":"green drink","steam_id":76561199260739414,"connected_time":290000000000,"state":"active","ping":63},{"user_id":102,"name":"Bitkrin","steam_id":76561198995819530,"connected_time":2944000000000,"state":"active","ping":74},{"user_id":123,"name":"sweatman","steam_id":76561199223050380,"connected_time":1154000000000,"state":"active","ping":76},{"user_id":138,"name":"FP","steam_id":76561198111259720,"connected_time":216000000000,"state":"active","ping":61},{"user_id":140,"name":"WesternSky","steam_id":76561198042873863,"connected_time":72000000000,"state":"active","ping":53},{"user_id":72,"name":"xSwiftblade","steam_id":76561198100635749,"connected_time":6247000000000,"state":"active","ping":72},{"user_id":124,"name":"Scromch","steam_id":76561198045211728,"connected_time":1147000000000,"state":"active","ping":99},{"user_id":131,"name":"NovaSc6ut","steam_id":76561198277163301,"connected_time":561000000000,"state":"active","ping":82},{"user_id":62,"name":"Red","steam_id":76561197998285162,"connected_time":7040000000000,"state":"active","ping":83},{"user_id":125,"name":"odifin","steam_id":76561198081699142,"connected_time":1137000000000,"state":"active","ping":64},{"user_id":121,"name":"cheese","steam_id":76561199059631433,"connected_time":1486000000000,"state":"active","ping":64},{"user_id":118,"name":"king of bogers","steam_id":76561198045731295,"connected_time":1741000000000,"state":"active","ping":63},{"user_id":126,"name":"The Gremlin","steam_id":76561198419066993,"connected_time":1113000000000,"state":"active","ping":104},{"user_id":70,"name":"The Great Eagle Scourge of 1822","steam_id":76561198325086209,"connected_time":6462000000000,"state":"active","ping":100},{"user_id":95,"name":"des","steam_id":76561198079226634,"connected_time":4060000000000,"state":"active","ping":73},{"user_id":139,"name":"derz","steam_id":76561198010742216,"connected_time":132000000000,"state":"active","ping":55}]},{"server_id":403,"name":"Uncletopia | Chicago | 4 | All Maps","name_short":"chi-4","host":"chi-1.us.uncletopia.com","port":27045,"enabled":true,"region":"us-central","cc":"us","latitude":41.881832,"longitude":-87.62318,"reserved":0,"last_update":"0001-01-01T00:00:00Z","name_a2s":"Uncletopia | Chicago | 4 | All Maps","protocol":17,"map":"koth_lakeside_final","folder":"tf","game":"Team Fortress","app_id":440,"player_count":0,"max_players":24,"Bots":0,"server_type":"Dedicated","server_os":"Linux","password":true,"vac":true,"version":"7742253","steam_id":85568392924515193,"keywords":["cp","nocrits","nodmgspread","uncletopia"],"game_id":440,"stv_port":27046,"stv_name":"Uncletopia | Chicago | 4 | All Maps | STV","players":null},{"server_id":36,"name":"Uncletopia | Chicago | 5 | All Maps","name_short":"chi-5","host":"chi-2.us.uncletopia.com","port":27015,"enabled":true,"region":"us-central","cc":"us","latitude":41.881832,"longitude":-87.62318,"reserved":0,"last_update":"0001-01-01T00:00:00Z","name_a2s":"Uncletopia | Chicago | 5 | All Maps","protocol":17,"map":"koth_highpass","folder":"tf","game":"Team Fortress","app_id":440,"player_count":0,"max_players":24,"Bots":0,"server_type":"Dedicated","server_os":"Linux","password":true,"vac":true,"version":"7742253","steam_id":85568392924866362,"keywords":["cp","nocrits","nodmgspread","uncletopia"],"game_id":440,"stv_port":27016,"stv_name":"Uncletopia | Chicago | 5 | All Maps | STV","players":null},{"server_id":37,"name":"Uncletopia | Chicago | 6 | All Maps","name_short":"chi-6","host":"chi-2.us.uncletopia.com","port":27025,"enabled":true,"region":"us-central","cc":"us","latitude":41.881832,"longitude":-87.62318,"reserved":0,"last_update":"0001-01-01T00:00:00Z","name_a2s":"Uncletopia | Chicago | 6 | All Maps","protocol":17,"map":"koth_cascade","folder":"tf","game":"Team Fortress","app_id":440,"player_count":0,"max_players":24,"Bots":0,"server_type":"Dedicated","server_os":"Linux","password":true,"vac":true,"version":"7742253","steam_id":85568392924866363,"keywords":["cp","nocrits","nodmgspread","uncletopia"],"game_id":440,"stv_port":27026,"stv_name":"Uncletopia | Chicago | 6 | All Maps | STV","players":null},{"server_id":38,"name":"Uncletopia | Chicago | 7 | Stopwatch Beta","name_short":"chi-7","host":"chi-2.us.uncletopia.com","port":27035,"enabled":true,"region":"us-central","cc":"us","latitude":41.881832,"longitude":-87.62318,"reserved":0,"last_update":"0001-01-01T00:00:00Z","name_a2s":"Uncletopia | Chicago | 7 | Stopwatch Beta","protocol":17,"map":"cp_altitude","folder":"tf","game":"Team Fortress","app_id":440,"player_count":0,"max_players":24,"Bots":0,"server_type":"Dedicated","server_os":"Linux","password":true,"vac":true,"version":"7742253","steam_id":85568392924866364,"keywords":["cp","nocrits","nodmgspread","uncletopia"],"game_id":440,"stv_port":27036,"stv_name":"Uncletopia | Chicago | 7 | Stopwatch Beta | STV","players":null},{"server_id":39,"name":"Uncletopia | Chicago | 8 | Community","name_short":"chi-8","host":"chi-2.us.uncletopia.com","port":27045,"enabled":true,"region":"us-central","cc":"us","latitude":41.881832,"longitude":-87.62318,"reserved":0,"last_update":"0001-01-01T00:00:00Z","name_a2s":"Uncletopia | Chicago | 8 | Community","protocol":17,"map":"koth_cascade","folder":"tf","game":"Team Fortress","app_id":440,"player_count":0,"max_players":24,"Bots":0,"server_type":"Dedicated","server_os":"Linux","password":true,"vac":true,"version":"7742253","steam_id":85568392924866365,"keywords":["cp","nocrits","nodmgspread","uncletopia"],"game_id":440,"stv_port":27046,"stv_name":"Uncletopia | Chicago | 8 | Community | STV","players":null},{"server_id":8,"name":"Uncletopia | Dallas | 1 | All Maps","name_short":"dal-1","host":"dal-1.us.uncletopia.com","port":27015,"enabled":true,"region":"us-central","cc":"us","latitude":32.779167,"longitude":-96.80889,"reserved":0,"last_update":"0001-01-01T00:00:00Z","name_a2s":"Uncletopia | Dallas | 1 | All Maps","protocol":17,"map":"koth_viaduct","folder":"tf","game":"Team Fortress","app_id":440,"player_count":2,"max_players":24,"Bots":0,"server_type":"Dedicated","server_os":"Linux","password":true,"vac":true,"version":"7742253","steam_id":85568392924469986,"keywords":["cp","nocrits","nodmgspread","uncletopia"],"game_id":440,"stv_port":27016,"stv_name":"Uncletopia | Dallas | 1 | All Maps | STV","players":[{"user_id":11,"name":"sex defender","steam_id":76561199122152458,"connected_time":353000000000,"state":"active","ping":57},{"user_id":12,"name":"Eliza (They/She)","steam_id":76561198108938752,"connected_time":28000000000,"state":"active","ping":81}]},{"server_id":108,"name":"Uncletopia | Dallas | 2 | All Maps","name_short":"dal-2","host":"dal-1.us.uncletopia.com","port":27025,"enabled":true,"region":"us-central","cc":"us","latitude":32.779167,"longitude":-96.80889,"reserved":0,"last_update":"0001-01-01T00:00:00Z","name_a2s":"Uncletopia | Dallas | 2 | All Maps","protocol":17,"map":"koth_lakeside_final","folder":"tf","game":"Team Fortress","app_id":440,"player_count":0,"max_players":24,"Bots":0,"server_type":"Dedicated","server_os":"Linux","password":true,"vac":true,"version":"7742253","steam_id":85568392924469988,"keywords":["cp","nocrits","nodmgspread","uncletopia"],"game_id":440,"stv_port":27026,"stv_name":"Uncletopia | Dallas | 2 | All Maps | STV","players":null},{"server_id":5,"name":"Uncletopia | Frankfurt | 1 | All Maps","name_short":"frk-1","host":"frk-1.de.uncletopia.com","port":27015,"enabled":true,"region":"eu","cc":"de","latitude":50.110924,"longitude":8.682127,"reserved":0,"last_update":"0001-01-01T00:00:00Z","name_a2s":"Uncletopia | Frankfurt | 1 | All Maps","protocol":17,"map":"pl_frontier_final","folder":"tf","game":"Team Fortress","app_id":440,"player_count":24,"max_players":24,"Bots":0,"server_type":"Dedicated","server_os":"Linux","password":true,"vac":true,"version":"7742253","steam_id":85568392924469989,"keywords":["nocrits","nodmgspread","payload","uncletopia"],"game_id":440,"stv_port":27016,"stv_name":"Uncletopia | Frankfurt | 1 | All Maps | STV","players":[{"user_id":312,"name":"FWDTRKR","steam_id":76561198060369427,"connected_time":1738000000000,"state":"active","ping":142},{"user_id":325,"name":"Mor'du","steam_id":76561198274105878,"connected_time":1155000000000,"state":"active","ping":84},{"user_id":322,"name":"The Wolf Leader","steam_id":76561198038007462,"connected_time":1279000000000,"state":"active","ping":60},{"user_id":317,"name":"Seargant Snagge","steam_id":76561198055227276,"connected_time":1588000000000,"state":"active","ping":91},{"user_id":329,"name":"Danburc","steam_id":76561199042955507,"connected_time":755000000000,"state":"active","ping":62},{"user_id":327,"name":"Vollys","steam_id":76561198018077773,"connected_time":871000000000,"state":"active","ping":63},{"user_id":319,"name":"citronous","steam_id":76561198093290934,"connected_time":1442000000000,"state":"active","ping":57},{"user_id":328,"name":"the joy of recycling","steam_id":76561198415564349,"connected_time":853000000000,"state":"active","ping":72},{"user_id":323,"name":"Doriian","steam_id":76561198071438810,"connected_time":1243000000000,"state":"active","ping":86},{"user_id":336,"name":"Denialman (Muted)","steam_id":76561198309182092,"connected_time":305000000000,"state":"active","ping":51},{"user_id":301,"name":"adolf rizzler","steam_id":76561198015876799,"connected_time":2227000000000,"state":"active","ping":64},{"user_id":310,"name":"Buddy","steam_id":76561198050185582,"connected_time":1789000000000,"state":"active","ping":89},{"user_id":271,"name":"Zateske","steam_id":76561198047446276,"connected_time":5101000000000,"state":"active","ping":65},{"user_id":288,"name":"masatin","steam_id":76561198044967818,"connected_time":4083000000000,"state":"active","ping":53},{"user_id":321,"name":"Piox","steam_id":76561198125689157,"connected_time":1314000000000,"state":"active","ping":79},{"user_id":283,"name":"breaking bow","steam_id":76561198076219289,"connected_time":4155000000000,"state":"active","ping":60},{"user_id":337,"name":"brtaba","steam_id":76561198796334790,"connected_time":272000000000,"state":"active","ping":56},{"user_id":330,"name":"Amon Gus","steam_id":76561199094540960,"connected_time":719000000000,"state":"active","ping":62},{"user_id":331,"name":"manKe","steam_id":76561198008564860,"connected_time":718000000000,"state":"active","ping":59},{"user_id":332,"name":"No, Why?","steam_id":76561198888755969,"connected_time":689000000000,"state":"active","ping":78},{"user_id":339,"name":"where is my egg?","steam_id":76561198172542535,"connected_time":54000000000,"state":"active","ping":77},{"user_id":316,"name":"CRWND","steam_id":76561198329810027,"connected_time":1602000000000,"state":"active","ping":52},{"user_id":334,"name":"DespawnedDiamond","steam_id":76561198841944417,"connected_time":520000000000,"state":"active","ping":75},{"user_id":299,"name":"AWP Bodyshot :) ❤","steam_id":76561198029928533,"connected_time":2541000000000,"state":"active","ping":45}]},{"server_id":110,"name":"Uncletopia | Frankfurt | 2 | All Maps","name_short":"frk-2","host":"frk-1.de.uncletopia.com","port":27025,"enabled":true,"region":"eu","cc":"de","latitude":50.110924,"longitude":8.682127,"reserved":0,"last_update":"0001-01-01T00:00:00Z","name_a2s":"Uncletopia | Frankfurt | 2 | All Maps","protocol":17,"map":"koth_lakeside_final","folder":"tf","game":"Team Fortress","app_id":440,"player_count":0,"max_players":24,"Bots":0,"server_type":"Dedicated","server_os":"Linux","password":true,"vac":true,"version":"7742253","steam_id":85568392924469990,"keywords":["cp","nocrits","nodmgspread","uncletopia"],"game_id":440,"stv_port":27026,"stv_name":"Uncletopia | Frankfurt | 2 | All Maps | STV","players":null},{"server_id":308,"name":"Uncletopia | Frankfurt | 3 | All Maps","name_short":"frk-3","host":"frk-1.de.uncletopia.com","port":27035,"enabled":true,"region":"eu","cc":"de","latitude":50.110924,"longitude":8.682127,"reserved":0,"last_update":"0001-01-01T00:00:00Z","name_a2s":"Uncletopia | Frankfurt | 3 | All Maps","protocol":17,"map":"pl_frontier_final","folder":"tf","game":"Team Fortress","app_id":440,"player_count":24,"max_players":24,"Bots":0,"server_type":"Dedicated","server_os":"Linux","password":true,"vac":true,"version":"7742253","steam_id":85568392924504274,"keywords":["nocrits","nodmgspread","payload","uncletopia"],"game_id":440,"stv_port":27036,"stv_name":"Uncletopia | Frankfurt | 3 | All Maps | STV","players":[{"user_id":464,"name":"wide","steam_id":76561198875441652,"connected_time":139000000000,"state":"active","ping":73},{"user_id":444,"name":"BoomerTheZoomer","steam_id":76561199153724130,"connected_time":1113000000000,"state":"active","ping":61},{"user_id":465,"name":"wasd","steam_id":76561198171008550,"connected_time":120000000000,"state":"active","ping":93},{"user_id":454,"name":"crolee","steam_id":76561198865817316,"connected_time":627000000000,"state":"active","ping":46},{"user_id":472,"name":"Millero15","steam_id":76561198143105719,"connected_time":9000000000,"state":"spawning","ping":93},{"user_id":452,"name":"GOUD","steam_id":76561198071823072,"connected_time":804000000000,"state":"active","ping":74},{"user_id":432,"name":"TylowStar","steam_id":76561198357107806,"connected_time":1752000000000,"state":"active","ping":65},{"user_id":424,"name":"Martial Autist","steam_id":76561198392067162,"connected_time":2000000000000,"state":"active","ping":63},{"user_id":463,"name":"Rob Rotten","steam_id":76561198170543542,"connected_time":294000000000,"state":"active","ping":141},{"user_id":453,"name":"/*+KLLR_E+N+*\\","steam_id":76561198979130056,"connected_time":758000000000,"state":"active","ping":55},{"user_id":455,"name":"ViktorYoshi","steam_id":76561199157555246,"connected_time":579000000000,"state":"active","ping":59},{"user_id":431,"name":"freemantel30","steam_id":76561198065669800,"connected_time":1821000000000,"state":"active","ping":53},{"user_id":441,"name":"Guru","steam_id":76561198093853069,"connected_time":1209000000000,"state":"active","ping":64},{"user_id":468,"name":"2D","steam_id":76561199113659141,"connected_time":98000000000,"state":"connecting","ping":0},{"user_id":429,"name":"Flint","steam_id":76561197995920776,"connected_time":1894000000000,"state":"active","ping":46},{"user_id":461,"name":"jShroom","steam_id":76561198833885769,"connected_time":388000000000,"state":"active","ping":80},{"user_id":457,"name":"Gebagemid","steam_id":76561198003684717,"connected_time":506000000000,"state":"active","ping":66},{"user_id":448,"name":"+4900h kona main","steam_id":76561198035655270,"connected_time":965000000000,"state":"active","ping":76},{"user_id":449,"name":"john club","steam_id":76561198312058142,"connected_time":957000000000,"state":"active","ping":185},{"user_id":450,"name":"beanie_snail","steam_id":76561199111476299,"connected_time":935000000000,"state":"active","ping":73},{"user_id":458,"name":"matt.roser","steam_id":76561198200195855,"connected_time":497000000000,"state":"active","ping":64},{"user_id":469,"name":"antondi","steam_id":76561198123140065,"connected_time":96000000000,"state":"active","ping":56},{"user_id":460,"name":"Erikalus","steam_id":76561198343627716,"connected_time":444000000000,"state":"active","ping":53},{"user_id":471,"name":"unrik76","steam_id":76561198147134386,"connected_time":78000000000,"state":"active","ping":74}]},{"server_id":309,"name":"Uncletopia | Frankfurt | 4 | All Maps","name_short":"frk-4","host":"frk-1.de.uncletopia.com","port":27045,"enabled":true,"region":"eu","cc":"de","latitude":50.110924,"longitude":8.682127,"reserved":0,"last_update":"0001-01-01T00:00:00Z","name_a2s":"Uncletopia | Frankfurt | 4 | All Maps","protocol":17,"map":"pl_badwater","folder":"tf","game":"Team Fortress","app_id":440,"player_count":3,"max_players":24,"Bots":0,"server_type":"Dedicated","server_os":"Linux","password":true,"vac":true,"version":"7742253","steam_id":85568392924504275,"keywords":["nocrits","nodmgspread","payload","uncletopia"],"game_id":440,"stv_port":27046,"stv_name":"Uncletopia | Frankfurt | 4 | All Maps | STV","players":[{"user_id":477,"name":"BiasedAcorn","steam_id":76561198970772881,"connected_time":291000000000,"state":"active","ping":56},{"user_id":476,"name":"Nabler","steam_id":76561198312938996,"connected_time":524000000000,"state":"active","ping":59},{"user_id":479,"name":"Kompot","steam_id":76561198281613592,"connected_time":56000000000,"state":"active","ping":62}]},{"server_id":310,"name":"Uncletopia | Frankfurt | 5 | All Maps","name_short":"frk-5","host":"frk-1.de.uncletopia.com","port":27055,"enabled":true,"region":"eu","cc":"de","latitude":50.110924,"longitude":8.682127,"reserved":0,"last_update":"0001-01-01T00:00:00Z","name_a2s":"Uncletopia | Frankfurt | 5 | All Maps","protocol":17,"map":"pl_badwater","folder":"tf","game":"Team Fortress","app_id":440,"player_count":24,"max_players":24,"Bots":0,"server_type":"Dedicated","server_os":"Linux","password":true,"vac":true,"version":"7742253","steam_id":85568392924504277,"keywords":["nocrits","nodmgspread","payload","uncletopia"],"game_id":440,"stv_port":27056,"stv_name":"Uncletopia | Frankfurt | 5 | All Maps | STV","players":[{"user_id":58,"name":"BookKouy","steam_id":76561199446431633,"connected_time":3016000000000,"state":"active","ping":66},{"user_id":99,"name":"MrPOW","steam_id":76561197978597654,"connected_time":1329000000000,"state":"active","ping":56},{"user_id":110,"name":"fishska","steam_id":76561198051166015,"connected_time":257000000000,"state":"active","ping":62},{"user_id":40,"name":"Frog","steam_id":76561198043981067,"connected_time":5530000000000,"state":"active","ping":69},{"user_id":105,"name":"HanımSever23","steam_id":76561198142124751,"connected_time":961000000000,"state":"active","ping":98},{"user_id":112,"name":"NØmad","steam_id":76561198002851414,"connected_time":241000000000,"state":"active","ping":75},{"user_id":98,"name":"ok","steam_id":76561198044451693,"connected_time":1354000000000,"state":"active","ping":104},{"user_id":114,"name":"generic alias","steam_id":76561198271607226,"connected_time":213000000000,"state":"active","ping":85},{"user_id":102,"name":"simn","steam_id":76561198159182269,"connected_time":1062000000000,"state":"active","ping":47},{"user_id":86,"name":"Emxx52","steam_id":76561198059374194,"connected_time":1904000000000,"state":"active","ping":74},{"user_id":75,"name":"fundo","steam_id":76561198063910174,"connected_time":2298000000000,"state":"active","ping":70},{"user_id":100,"name":"ŽgræÐek113","steam_id":76561198306883632,"connected_time":1298000000000,"state":"active","ping":63},{"user_id":106,"name":"malebranch","steam_id":76561198171177823,"connected_time":878000000000,"state":"active","ping":87},{"user_id":103,"name":"Ascendary","steam_id":76561198036267241,"connected_time":1029000000000,"state":"active","ping":74},{"user_id":69,"name":"VK2124 :D","steam_id":76561198111130688,"connected_time":2650000000000,"state":"active","ping":48},{"user_id":70,"name":"Goliath","steam_id":76561198088583638,"connected_time":2608000000000,"state":"active","ping":49},{"user_id":101,"name":"Slooshie","steam_id":76561198008749909,"connected_time":1298000000000,"state":"active","ping":66},{"user_id":92,"name":"Alibi","steam_id":76561198061845595,"connected_time":1716000000000,"state":"active","ping":59},{"user_id":78,"name":"drip drip from the tap","steam_id":76561199064350902,"connected_time":2242000000000,"state":"active","ping":111},{"user_id":93,"name":"hbivnm","steam_id":76561197996468677,"connected_time":1648000000000,"state":"active","ping":57},{"user_id":80,"name":"mismatch","steam_id":76561198041993514,"connected_time":2235000000000,"state":"active","ping":76},{"user_id":81,"name":"online orca","steam_id":76561197990442043,"connected_time":2229000000000,"state":"active","ping":89},{"user_id":94,"name":"goodguy","steam_id":76561199048167724,"connected_time":1646000000000,"state":"active","ping":100},{"user_id":107,"name":"Pabs :D","steam_id":76561198000016962,"connected_time":727000000000,"state":"active","ping":60}]},{"server_id":311,"name":"Uncletopia | Frankfurt | 6 | All Maps","name_short":"frk-6","host":"frk-1.de.uncletopia.com","port":27065,"enabled":true,"region":"eu","cc":"de","latitude":50.110924,"longitude":8.682127,"reserved":0,"last_update":"0001-01-01T00:00:00Z","name_a2s":"Uncletopia | Frankfurt | 6 | All Maps","protocol":17,"map":"koth_viaduct","folder":"tf","game":"Team Fortress","app_id":440,"player_count":23,"max_players":24,"Bots":0,"server_type":"Dedicated","server_os":"Linux","password":true,"vac":true,"version":"7742253","steam_id":85568392924504278,"keywords":["cp","nocrits","nodmgspread","uncletopia"],"game_id":440,"stv_port":27066,"stv_name":"Uncletopia | Frankfurt | 6 | All Maps | STV","players":[{"user_id":392,"name":"Mr.Pink","steam_id":76561198434042064,"connected_time":2631000000000,"state":"active","ping":66},{"user_id":371,"name":"Uncle Owen","steam_id":76561198157999291,"connected_time":3971000000000,"state":"active","ping":83},{"user_id":398,"name":"razor73","steam_id":76561198448661685,"connected_time":2248000000000,"state":"active","ping":96},{"user_id":422,"name":"Ming the mundane","steam_id":76561199030100348,"connected_time":1147000000000,"state":"active","ping":80},{"user_id":445,"name":"(1)Doughy","steam_id":76561198044084210,"connected_time":9000000000,"state":"active","ping":81},{"user_id":386,"name":"Grunf","steam_id":76561199006140585,"connected_time":2824000000000,"state":"active","ping":84},{"user_id":443,"name":"ӋԼן.maS","steam_id":76561198114953928,"connected_time":19000000000,"state":"spawning","ping":67},{"user_id":435,"name":"Silverowl","steam_id":76561198045773877,"connected_time":871000000000,"state":"active","ping":48},{"user_id":425,"name":"Aydin Channel","steam_id":76561198138031624,"connected_time":1124000000000,"state":"active","ping":114},{"user_id":382,"name":"GAJtheSPY","steam_id":76561198256080023,"connected_time":2937000000000,"state":"active","ping":62},{"user_id":426,"name":"mumbler","steam_id":76561197970641239,"connected_time":1098000000000,"state":"active","ping":47},{"user_id":427,"name":"muza♥","steam_id":76561198220183377,"connected_time":1097000000000,"state":"active","ping":95},{"user_id":438,"name":"Nizzeus","steam_id":76561198243146480,"connected_time":644000000000,"state":"active","ping":114},{"user_id":393,"name":"Miss.Pink","steam_id":76561198344666389,"connected_time":2576000000000,"state":"active","ping":106},{"user_id":405,"name":"Raeews","steam_id":76561198254646517,"connected_time":2088000000000,"state":"active","ping":58},{"user_id":323,"name":"yuh","steam_id":76561199005555839,"connected_time":8297000000000,"state":"active","ping":62},{"user_id":429,"name":"PingouinPoilu","steam_id":76561198025089253,"connected_time":1037000000000,"state":"active","ping":48},{"user_id":300,"name":"NO end to POOTIS","steam_id":76561198144879361,"connected_time":9768000000000,"state":"active","ping":113},{"user_id":439,"name":"Minister of cocks","steam_id":76561198829740342,"connected_time":530000000000,"state":"active","ping":75},{"user_id":434,"name":"MAJAX","steam_id":76561198254828632,"connected_time":951000000000,"state":"active","ping":68},{"user_id":440,"name":"demomallet","steam_id":76561199382535912,"connected_time":529000000000,"state":"active","ping":64},{"user_id":419,"name":"varnu (enhanced)","steam_id":76561198104896547,"connected_time":1365000000000,"state":"active","ping":70},{"user_id":444,"name":"gorgie","steam_id":76561199032591040,"connected_time":18000000000,"state":"active","ping":65}]},{"server_id":23,"name":"Uncletopia | Frankfurt | 7 | Stopwatch Beta","name_short":"frk-7","host":"frk-1.de.uncletopia.com","port":27075,"enabled":true,"region":"eu","cc":"de","latitude":50.110924,"longitude":8.682127,"reserved":0,"last_update":"0001-01-01T00:00:00Z","name_a2s":"Uncletopia | Frankfurt | 7 | Stopwatch Beta","protocol":17,"map":"koth_lakeside_final","folder":"tf","game":"Team Fortress","app_id":440,"player_count":0,"max_players":24,"Bots":0,"server_type":"Dedicated","server_os":"Linux","password":true,"vac":true,"version":"7742253","steam_id":85568392924742827,"keywords":["cp","nocrits","nodmgspread","uncletopia"],"game_id":440,"stv_port":27076,"stv_name":"Uncletopia | Frankfurt | 7 | Stopwatch Beta | STV","players":null},{"server_id":24,"name":"Uncletopia | Frankfurt | 8 | Community","name_short":"frk-8","host":"frk-1.de.uncletopia.com","port":27085,"enabled":true,"region":"eu","cc":"de","latitude":50.110924,"longitude":8.682127,"reserved":0,"last_update":"0001-01-01T00:00:00Z","name_a2s":"Uncletopia | Frankfurt | 8 | Community","protocol":17,"map":"workshop/koth_ramjam_v2_b2.ugc2865676487","folder":"tf","game":"Team Fortress","app_id":440,"player_count":0,"max_players":24,"Bots":0,"server_type":"Dedicated","server_os":"Linux","password":true,"vac":true,"version":"7742253","steam_id":85568392924742828,"keywords":["cp","nocrits","nodmgspread","uncletopia"],"game_id":440,"stv_port":27086,"stv_name":"Uncletopia | Frankfurt | 8 | Community | STV","players":null},{"server_id":202,"name":"Uncletopia | Hong Kong | 1 | All Maps","name_short":"hgk-1","host":"hgk-1.hk.uncletopia.com","port":27015,"enabled":true,"region":"asia","cc":"hk","latitude":22.302711,"longitude":114.177216,"reserved":0,"last_update":"0001-01-01T00:00:00Z","name_a2s":"Uncletopia | Hong Kong | 1 | All Maps","protocol":17,"map":"pl_borneo","folder":"tf","game":"Team Fortress","app_id":440,"player_count":3,"max_players":24,"Bots":0,"server_type":"Dedicated","server_os":"Linux","password":true,"vac":true,"version":"7742253","steam_id":85568392924494504,"keywords":["nocrits","nodmgspread","payload","uncletopia"],"game_id":440,"stv_port":27016,"stv_name":"Uncletopia | Hong Kong | 1 | All Maps | STV","players":[{"user_id":881,"name":"TCR","steam_id":76561198114503340,"connected_time":124000000000,"state":"active","ping":37},{"user_id":879,"name":"Andry25001","steam_id":76561198153428451,"connected_time":672000000000,"state":"active","ping":30},{"user_id":643,"name":"Kurtie","steam_id":76561198144737876,"connected_time":27164000000000,"state":"active","ping":52}]},{"server_id":1,"name":"Uncletopia | Los Angeles | 1 | All Maps","name_short":"lax-1","host":"lax-1.us.uncletopia.com","port":27015,"enabled":true,"region":"us-west","cc":"us","latitude":33.94279,"longitude":-118.41004,"reserved":0,"last_update":"0001-01-01T00:00:00Z","name_a2s":"Uncletopia | Los Angeles | 1 | All Maps","protocol":17,"map":"cp_dustbowl","folder":"tf","game":"Team Fortress","app_id":440,"player_count":0,"max_players":24,"Bots":0,"server_type":"Dedicated","server_os":"Linux","password":true,"vac":true,"version":"7742253","steam_id":85568392924469991,"keywords":["cp","nocrits","nodmgspread","uncletopia"],"game_id":440,"stv_port":27016,"stv_name":"Uncletopia | Los Angeles | 1 | All Maps | STV","players":null},{"server_id":112,"name":"Uncletopia | Los Angeles | 2 | All Maps","name_short":"lax-2","host":"lax-1.us.uncletopia.com","port":27025,"enabled":true,"region":"us-west","cc":"us","latitude":33.94279,"longitude":-118.41004,"reserved":0,"last_update":"0001-01-01T00:00:00Z","name_a2s":"Uncletopia | Los Angeles | 2 | All Maps","protocol":17,"map":"pl_upward","folder":"tf","game":"Team Fortress","app_id":440,"player_count":0,"max_players":24,"Bots":0,"server_type":"Dedicated","server_os":"Linux","password":true,"vac":true,"version":"7742253","steam_id":85568392924469992,"keywords":["nocrits","nodmgspread","payload","uncletopia"],"game_id":440,"stv_port":27026,"stv_name":"Uncletopia | Los Angeles | 2 | All Maps | STV","players":null},{"server_id":324,"name":"Uncletopia | Los Angeles | 3 | All Maps","name_short":"lax-3","host":"lax-1.us.uncletopia.com","port":27035,"enabled":true,"region":"us-west","cc":"us","latitude":33.94279,"longitude":-118.41004,"reserved":0,"last_update":"0001-01-01T00:00:00Z","name_a2s":"Uncletopia | Los Angeles | 3 | All Maps","protocol":17,"map":"pl_borneo","folder":"tf","game":"Team Fortress","app_id":440,"player_count":0,"max_players":24,"Bots":0,"server_type":"Dedicated","server_os":"Linux","password":true,"vac":true,"version":"7742253","steam_id":85568392924510198,"keywords":["nocrits","nodmgspread","payload","uncletopia"],"game_id":440,"stv_port":27036,"stv_name":"Uncletopia | Los Angeles | 3 | All Maps | STV","players":null},{"server_id":25,"name":"Uncletopia | Los Angeles | 4 | Stopwatch Beta","name_short":"lax-4","host":"lax-1.us.uncletopia.com","port":27045,"enabled":true,"region":"us-west","cc":"us","latitude":33.94279,"longitude":-118.41004,"reserved":0,"last_update":"0001-01-01T00:00:00Z","name_a2s":"Uncletopia | Los Angeles | 4 | Stopwatch Beta","protocol":17,"map":"cp_process_final","folder":"tf","game":"Team Fortress","app_id":440,"player_count":0,"max_players":24,"Bots":0,"server_type":"Dedicated","server_os":"Linux","password":true,"vac":true,"version":"7742253","steam_id":85568392924510199,"keywords":["cp","nocrits","nodmgspread","uncletopia"],"game_id":440,"stv_port":27046,"stv_name":"Uncletopia | Los Angeles | 4 | Stopwatch Beta | STV","players":null},{"server_id":11,"name":"Uncletopia | London | 1 | All Maps","name_short":"lon-1","host":"lon-1.uk.uncletopia.com","port":27015,"enabled":true,"region":"eu","cc":"gb","latitude":51.509865,"longitude":-0.118092,"reserved":0,"last_update":"0001-01-01T00:00:00Z","name_a2s":"Uncletopia | London | 1 | All Maps","protocol":17,"map":"pl_swiftwater_final1","folder":"tf","game":"Team Fortress","app_id":440,"player_count":24,"max_players":24,"Bots":0,"server_type":"Dedicated","server_os":"Linux","password":true,"vac":true,"version":"7742253","steam_id":85568392924367362,"keywords":["nocrits","nodmgspread","payload","uncletopia"],"game_id":440,"stv_port":27016,"stv_name":"Uncletopia | London | 1 | All Maps | STV","players":[{"user_id":472,"name":"ciliorkun18","steam_id":76561198228942500,"connected_time":2942000000000,"state":"active","ping":92},{"user_id":493,"name":"Dr. Funkenstein","steam_id":76561197977816210,"connected_time":1616000000000,"state":"active","ping":49},{"user_id":496,"name":"Mr.Dies a lot","steam_id":76561199061602946,"connected_time":666000000000,"state":"active","ping":91},{"user_id":483,"name":"JimmySquid","steam_id":76561198254242530,"connected_time":1989000000000,"state":"active","ping":156},{"user_id":497,"name":"blue mean-eyes","steam_id":76561198060105180,"connected_time":369000000000,"state":"active","ping":75},{"user_id":492,"name":"Calmedy","steam_id":76561198295310457,"connected_time":1732000000000,"state":"active","ping":58},{"user_id":484,"name":"Open Mailbox","steam_id":76561198051933580,"connected_time":1975000000000,"state":"active","ping":133},{"user_id":485,"name":"AviSheepie","steam_id":76561198154361272,"connected_time":1924000000000,"state":"active","ping":105},{"user_id":502,"name":"Gordon Feetman","steam_id":76561198047577393,"connected_time":132000000000,"state":"active","ping":64},{"user_id":462,"name":"robbob","steam_id":76561198137375391,"connected_time":3479000000000,"state":"active","ping":82},{"user_id":500,"name":"gagalak","steam_id":76561198089979108,"connected_time":191000000000,"state":"active","ping":105},{"user_id":427,"name":"Borat","steam_id":76561198122226417,"connected_time":6321000000000,"state":"active","ping":46},{"user_id":498,"name":"Lightbulb Monkey","steam_id":76561198045033173,"connected_time":256000000000,"state":"active","ping":81},{"user_id":501,"name":"EastmoreRandoms.","steam_id":76561198048921203,"connected_time":189000000000,"state":"active","ping":61},{"user_id":425,"name":"dec","steam_id":76561198009660168,"connected_time":6339000000000,"state":"active","ping":55},{"user_id":435,"name":"Kahvi","steam_id":76561198723244199,"connected_time":5835000000000,"state":"active","ping":75},{"user_id":441,"name":"One armed fiddle enthusiast","steam_id":76561198045847051,"connected_time":5170000000000,"state":"active","ping":60},{"user_id":452,"name":"Twin Fantasy (Mirror To Mirror)","steam_id":76561198397024973,"connected_time":4596000000000,"state":"active","ping":42},{"user_id":468,"name":"profi248","steam_id":76561198144795505,"connected_time":3374000000000,"state":"active","ping":61},{"user_id":491,"name":"Solymr ibn Wali Barad","steam_id":76561198044008976,"connected_time":1802000000000,"state":"active","ping":68},{"user_id":489,"name":"gorrian","steam_id":76561198278199225,"connected_time":1842000000000,"state":"active","ping":69},{"user_id":448,"name":"gracfulldove","steam_id":76561199109120198,"connected_time":4831000000000,"state":"active","ping":156},{"user_id":499,"name":"Dictatorial Karelian","steam_id":76561198196736457,"connected_time":244000000000,"state":"active","ping":104},{"user_id":480,"name":"Bait","steam_id":76561198335188568,"connected_time":2684000000000,"state":"active","ping":42}]},{"server_id":114,"name":"Uncletopia | London | 2 | All Maps","name_short":"lon-2","host":"lon-1.uk.uncletopia.com","port":27025,"enabled":true,"region":"eu","cc":"gb","latitude":51.509865,"longitude":-0.118092,"reserved":0,"last_update":"0001-01-01T00:00:00Z","name_a2s":"Uncletopia | London | 2 | All Maps","protocol":17,"map":"pl_frontier_final","folder":"tf","game":"Team Fortress","app_id":440,"player_count":24,"max_players":24,"Bots":0,"server_type":"Dedicated","server_os":"Linux","password":true,"vac":true,"version":"7742253","steam_id":85568392924470941,"keywords":["nocrits","nodmgspread","payload","uncletopia"],"game_id":440,"stv_port":27026,"stv_name":"Uncletopia | London | 2 | All Maps | STV","players":[{"user_id":259,"name":"Mob","steam_id":76561198194678951,"connected_time":2340000000000,"state":"active","ping":76},{"user_id":313,"name":"cantsniff","steam_id":76561198259668029,"connected_time":248000000000,"state":"active","ping":48},{"user_id":310,"name":"Mean Green Peen","steam_id":76561198228455736,"connected_time":326000000000,"state":"active","ping":49},{"user_id":302,"name":"silicon based life form","steam_id":76561199127121346,"connected_time":518000000000,"state":"active","ping":50},{"user_id":274,"name":"bANji","steam_id":76561198108898161,"connected_time":1490000000000,"state":"active","ping":58},{"user_id":298,"name":"Lola bunny","steam_id":76561198214149431,"connected_time":711000000000,"state":"active","ping":55},{"user_id":281,"name":"the high amby spy","steam_id":76561198212488780,"connected_time":1356000000000,"state":"active","ping":61},{"user_id":311,"name":"blazeeight","steam_id":76561198159456502,"connected_time":311000000000,"state":"active","ping":46},{"user_id":278,"name":"Sweetcheesus","steam_id":76561198022299033,"connected_time":1405000000000,"state":"active","ping":50},{"user_id":301,"name":"average f2p","steam_id":76561199136308055,"connected_time":570000000000,"state":"active","ping":44},{"user_id":283,"name":"Bob Salami","steam_id":76561198150681340,"connected_time":1321000000000,"state":"active","ping":87},{"user_id":299,"name":"Umbro","steam_id":76561198087930438,"connected_time":626000000000,"state":"active","ping":82},{"user_id":303,"name":"System","steam_id":76561199442503973,"connected_time":505000000000,"state":"active","ping":58},{"user_id":304,"name":"Walter Griffin","steam_id":76561199415989636,"connected_time":493000000000,"state":"active","ping":98},{"user_id":292,"name":"sigma female","steam_id":76561198298576765,"connected_time":1015000000000,"state":"active","ping":62},{"user_id":284,"name":".quickfast.","steam_id":76561199438900919,"connected_time":1297000000000,"state":"active","ping":48},{"user_id":253,"name":"if u spam ur gay","steam_id":76561198869951554,"connected_time":3016000000000,"state":"active","ping":159},{"user_id":314,"name":"gion","steam_id":76561199065121816,"connected_time":166000000000,"state":"active","ping":88},{"user_id":315,"name":"cirrem","steam_id":76561198265192382,"connected_time":88000000000,"state":"active","ping":74},{"user_id":286,"name":"The Funny Cat-Heaby","steam_id":76561198439978112,"connected_time":1268000000000,"state":"active","ping":103},{"user_id":297,"name":"Fant0Zer0","steam_id":76561198097190925,"connected_time":740000000000,"state":"active","ping":90},{"user_id":312,"name":"Markus Ericsson","steam_id":76561198135441639,"connected_time":284000000000,"state":"active","ping":78},{"user_id":308,"name":"ok","steam_id":76561198052575567,"connected_time":402000000000,"state":"active","ping":84},{"user_id":264,"name":"beef estrogenoff","steam_id":76561198106455841,"connected_time":2255000000000,"state":"active","ping":67}]},{"server_id":320,"name":"Uncletopia | London | 3 | All Maps","name_short":"lon-3","host":"lon-1.uk.uncletopia.com","port":27035,"enabled":true,"region":"eu","cc":"gb","latitude":51.509865,"longitude":-0.118092,"reserved":0,"last_update":"0001-01-01T00:00:00Z","name_a2s":"Uncletopia | London | 3 | All Maps","protocol":17,"map":"pl_barnblitz","folder":"tf","game":"Team Fortress","app_id":440,"player_count":24,"max_players":24,"Bots":0,"server_type":"Dedicated","server_os":"Linux","password":true,"vac":true,"version":"7742253","steam_id":85568392924510192,"keywords":["nocrits","nodmgspread","payload","uncletopia"],"game_id":440,"stv_port":27036,"stv_name":"Uncletopia | London | 3 | All Maps | STV","players":[{"user_id":373,"name":"Insanitybomb","steam_id":76561198048707708,"connected_time":3673000000000,"state":"active","ping":52},{"user_id":407,"name":"Valoxi","steam_id":76561197995042938,"connected_time":640000000000,"state":"active","ping":64},{"user_id":404,"name":"the epic gamer","steam_id":76561199278852037,"connected_time":760000000000,"state":"active","ping":76},{"user_id":378,"name":"hushhx","steam_id":76561198216200092,"connected_time":3200000000000,"state":"active","ping":48},{"user_id":307,"name":"kbbq","steam_id":76561198346638308,"connected_time":8024000000000,"state":"active","ping":57},{"user_id":393,"name":"Españaa","steam_id":76561198879587832,"connected_time":1258000000000,"state":"active","ping":83},{"user_id":408,"name":"Tomfool","steam_id":76561197993256481,"connected_time":630000000000,"state":"active","ping":85},{"user_id":349,"name":"Tmpod","steam_id":76561198069210431,"connected_time":5061000000000,"state":"active","ping":70},{"user_id":387,"name":"YEEET","steam_id":76561198914938199,"connected_time":2114000000000,"state":"active","ping":95},{"user_id":384,"name":"bollocks","steam_id":76561197971010483,"connected_time":2252000000000,"state":"active","ping":45},{"user_id":392,"name":"grandpa engineer","steam_id":76561199218074926,"connected_time":1395000000000,"state":"active","ping":64},{"user_id":339,"name":"Lyra","steam_id":76561198043601838,"connected_time":5673000000000,"state":"active","ping":60},{"user_id":397,"name":"Lessoz","steam_id":76561199211572036,"connected_time":1051000000000,"state":"active","ping":93},{"user_id":343,"name":"the Black Hunter","steam_id":76561198106049954,"connected_time":5271000000000,"state":"active","ping":86},{"user_id":381,"name":"emacs kitty","steam_id":76561199057953617,"connected_time":2356000000000,"state":"active","ping":69},{"user_id":401,"name":"FackaYou","steam_id":76561198193036090,"connected_time":984000000000,"state":"active","ping":60},{"user_id":324,"name":"lugi","steam_id":76561199020785925,"connected_time":6984000000000,"state":"active","ping":69},{"user_id":377,"name":"mr teleports","steam_id":76561197980736364,"connected_time":3458000000000,"state":"active","ping":81},{"user_id":376,"name":"Andreus","steam_id":76561199403926001,"connected_time":3610000000000,"state":"active","ping":75},{"user_id":357,"name":"Lukas","steam_id":76561198009118452,"connected_time":4868000000000,"state":"active","ping":62},{"user_id":390,"name":"jwesa","steam_id":76561198018330092,"connected_time":1628000000000,"state":"active","ping":84},{"user_id":359,"name":"WinRAR™","steam_id":76561198056522270,"connected_time":4831000000000,"state":"active","ping":61},{"user_id":406,"name":"Enforcer02","steam_id":76561197966045944,"connected_time":733000000000,"state":"active","ping":68}]},{"server_id":321,"name":"Uncletopia | London | 4 | All Maps","name_short":"lon-4","host":"lon-1.uk.uncletopia.com","port":27045,"enabled":true,"region":"eu","cc":"gb","latitude":51.509865,"longitude":-0.118092,"reserved":0,"last_update":"0001-01-01T00:00:00Z","name_a2s":"Uncletopia | London | 4 | All Maps","protocol":17,"map":"cp_snakewater_final1","folder":"tf","game":"Team Fortress","app_id":440,"player_count":20,"max_players":24,"Bots":0,"server_type":"Dedicated","server_os":"Linux","password":true,"vac":true,"version":"7742253","steam_id":85568392924510193,"keywords":["cp","nocrits","nodmgspread","uncletopia"],"game_id":440,"stv_port":27046,"stv_name":"Uncletopia | London | 4 | All Maps | STV","players":[{"user_id":375,"name":"Penis Contortionist","steam_id":76561198073663784,"connected_time":1270000000000,"state":"active","ping":41},{"user_id":393,"name":"Shortyyy","steam_id":76561198059005030,"connected_time":508000000000,"state":"active","ping":48},{"user_id":367,"name":"ZOMBINΣ","steam_id":76561198151057964,"connected_time":1491000000000,"state":"active","ping":90},{"user_id":400,"name":"tugcan3021","steam_id":76561198236015392,"connected_time":84000000000,"state":"active","ping":123},{"user_id":401,"name":"chayanifaiez27","steam_id":76561199443487443,"connected_time":82000000000,"state":"active","ping":101},{"user_id":402,"name":"Duarte™","steam_id":76561198131456324,"connected_time":71000000000,"state":"active","ping":85},{"user_id":355,"name":"your dads bald spot","steam_id":76561199383437138,"connected_time":1927000000000,"state":"active","ping":122},{"user_id":311,"name":"goprit","steam_id":76561198072518761,"connected_time":4613000000000,"state":"active","ping":87},{"user_id":327,"name":"bad 2 za bona","steam_id":76561199065919134,"connected_time":3184000000000,"state":"active","ping":60},{"user_id":310,"name":"i am bread","steam_id":76561199180277321,"connected_time":4623000000000,"state":"active","ping":53},{"user_id":385,"name":"AforeKingDwarf","steam_id":76561198043562926,"connected_time":977000000000,"state":"active","ping":45},{"user_id":390,"name":"Standingo","steam_id":76561198035642311,"connected_time":645000000000,"state":"active","ping":93},{"user_id":377,"name":"Bargon","steam_id":76561198964641940,"connected_time":1228000000000,"state":"active","ping":81},{"user_id":403,"name":"livingtops","steam_id":76561198128765380,"connected_time":10000000000,"state":"active","ping":148},{"user_id":398,"name":"Like Ahayo LXIX","steam_id":76561198368508349,"connected_time":349000000000,"state":"active","ping":84},{"user_id":378,"name":"stop","steam_id":76561198268686419,"connected_time":1197000000000,"state":"active","ping":151},{"user_id":395,"name":"ampekk`","steam_id":76561198299893189,"connected_time":422000000000,"state":"active","ping":120},{"user_id":352,"name":"lvl. 50 honkler","steam_id":76561198061688660,"connected_time":2016000000000,"state":"active","ping":105},{"user_id":399,"name":"Wolvithe","steam_id":76561198142555612,"connected_time":238000000000,"state":"active","ping":50},{"user_id":371,"name":"ref","steam_id":76561198186865138,"connected_time":1461000000000,"state":"active","ping":66}]},{"server_id":21,"name":"Uncletopia | London | 5 | All Maps","name_short":"lon-5","host":"lon-1.uk.uncletopia.com","port":27055,"enabled":true,"region":"eu","cc":"gb","latitude":51.509865,"longitude":-0.118092,"reserved":0,"last_update":"0001-01-01T00:00:00Z","name_a2s":"Uncletopia | London | 5 | All Maps","protocol":17,"map":"cp_altitude","folder":"tf","game":"Team Fortress","app_id":440,"player_count":0,"max_players":24,"Bots":0,"server_type":"Dedicated","server_os":"Linux","password":true,"vac":true,"version":"7742253","steam_id":85568392924742829,"keywords":["cp","nocrits","nodmgspread","uncletopia"],"game_id":440,"stv_port":27056,"stv_name":"Uncletopia | London | 5 | All Maps | STV","players":null},{"server_id":22,"name":"Uncletopia | London | 6 | All Maps","name_short":"lon-6","host":"lon-1.uk.uncletopia.com","port":27065,"enabled":true,"region":"eu","cc":"gb","latitude":51.509865,"longitude":-0.118092,"reserved":0,"last_update":"0001-01-01T00:00:00Z","name_a2s":"Uncletopia | London | 6 | All Maps","protocol":17,"map":"koth_cascade","folder":"tf","game":"Team Fortress","app_id":440,"player_count":0,"max_players":24,"Bots":0,"server_type":"Dedicated","server_os":"Linux","password":true,"vac":true,"version":"7742253","steam_id":85568392924742830,"keywords":["cp","nocrits","nodmgspread","uncletopia"],"game_id":440,"stv_port":27066,"stv_name":"Uncletopia | London | 6 | All Maps | STV","players":null},{"server_id":40,"name":"Uncletopia | London | 7 | No Payload","name_short":"lon-7","host":"lon-1.uk.uncletopia.com","port":27075,"enabled":true,"region":"eu","cc":"gb","latitude":51.509865,"longitude":-0.118092,"reserved":0,"last_update":"0001-01-01T00:00:00Z","name_a2s":"Uncletopia | London | 7 | No Payload","protocol":17,"map":"koth_harvest_final","folder":"tf","game":"Team Fortress","app_id":440,"player_count":0,"max_players":24,"Bots":0,"server_type":"Dedicated","server_os":"Linux","password":true,"vac":true,"version":"7742253","steam_id":85568392924964314,"keywords":["cp","nocrits","nodmgspread","uncletopia"],"game_id":440,"stv_port":27076,"stv_name":"Uncletopia | London | 7 | No Payload | STV","players":null},{"server_id":41,"name":"Uncletopia | London | 8 | Community","name_short":"lon-8","host":"lon-1.uk.uncletopia.com","port":27085,"enabled":true,"region":"eu","cc":"gb","latitude":51.509865,"longitude":-0.118092,"reserved":0,"last_update":"0001-01-01T00:00:00Z","name_a2s":"Uncletopia | London | 8 | Community","protocol":17,"map":"workshop/cp_villa_b19.ugc2113052569","folder":"tf","game":"Team Fortress","app_id":440,"player_count":0,"max_players":24,"Bots":0,"server_type":"Dedicated","server_os":"Linux","password":true,"vac":true,"version":"7742253","steam_id":85568392924964315,"keywords":["cp","nocrits","nodmgspread","uncletopia"],"game_id":440,"stv_port":27086,"stv_name":"Uncletopia | London | 8 | Community | STV","players":null},{"server_id":300,"name":"Uncletopia | Montréal | 1 | All Maps","name_short":"mtl-1","host":"mtl-1.ca.uncletopia.com","port":27015,"enabled":true,"region":"us-east","cc":"ca","latitude":45.50889,"longitude":-73.56167,"reserved":0,"last_update":"0001-01-01T00:00:00Z","name_a2s":"Uncletopia | Montréal | 1 | All Maps","protocol":17,"map":"koth_lakeside_final","folder":"tf","game":"Team Fortress","app_id":440,"player_count":0,"max_players":24,"Bots":0,"server_type":"Dedicated","server_os":"Linux","password":true,"vac":true,"version":"7742253","steam_id":85568392924500087,"keywords":["cp","nocrits","nodmgspread","uncletopia"],"game_id":440,"stv_port":27016,"stv_name":"Uncletopia | Montréal | 1 | All Maps | STV","players":null},{"server_id":301,"name":"Uncletopia | Montréal | 2 | All Maps","name_short":"mtl-2","host":"mtl-1.ca.uncletopia.com","port":27025,"enabled":true,"region":"us-east","cc":"ca","latitude":45.50889,"longitude":-73.56167,"reserved":0,"last_update":"0001-01-01T00:00:00Z","name_a2s":"Uncletopia | Montréal | 2 | All Maps","protocol":17,"map":"koth_lakeside_final","folder":"tf","game":"Team Fortress","app_id":440,"player_count":0,"max_players":24,"Bots":0,"server_type":"Dedicated","server_os":"Linux","password":true,"vac":true,"version":"7742253","steam_id":85568392924500088,"keywords":["cp","nocrits","nodmgspread","uncletopia"],"game_id":440,"stv_port":27026,"stv_name":"Uncletopia | Montréal | 2 | All Maps | STV","players":null},{"server_id":302,"name":"Uncletopia | Montréal | 3 | All Maps","name_short":"mtl-3","host":"mtl-1.ca.uncletopia.com","port":27035,"enabled":true,"region":"us-east","cc":"ca","latitude":45.50889,"longitude":-73.56167,"reserved":0,"last_update":"0001-01-01T00:00:00Z","name_a2s":"Uncletopia | Montréal | 3 | All Maps","protocol":17,"map":"cp_altitude","folder":"tf","game":"Team Fortress","app_id":440,"player_count":0,"max_players":24,"Bots":0,"server_type":"Dedicated","server_os":"Linux","password":true,"vac":true,"version":"7742253","steam_id":85568392924500089,"keywords":["cp","nocrits","nodmgspread","uncletopia"],"game_id":440,"stv_port":27036,"stv_name":"Uncletopia | Montréal | 3 | All Maps | STV","players":null},{"server_id":303,"name":"Uncletopia | Montréal | 4 | No Payload","name_short":"mtl-4","host":"mtl-1.ca.uncletopia.com","port":27045,"enabled":true,"region":"us-east","cc":"ca","latitude":45.50889,"longitude":-73.56167,"reserved":0,"last_update":"0001-01-01T00:00:00Z","name_a2s":"Uncletopia | Montréal | 4 | No Payload","protocol":17,"map":"koth_highpass","folder":"tf","game":"Team Fortress","app_id":440,"player_count":0,"max_players":24,"Bots":0,"server_type":"Dedicated","server_os":"Linux","password":true,"vac":true,"version":"7742253","steam_id":85568392924500090,"keywords":["cp","nocrits","nodmgspread","uncletopia"],"game_id":440,"stv_port":27046,"stv_name":"Uncletopia | Montréal | 4 | No Payload | STV","players":null},{"server_id":13,"name":"Uncletopia | New York City | 1 | All Maps","name_short":"nyc-1","host":"nyc-1.us.uncletopia.com","port":27015,"enabled":true,"region":"us-east","cc":"us","latitude":40.73061,"longitude":-73.93524,"reserved":0,"last_update":"0001-01-01T00:00:00Z","name_a2s":"Uncletopia | New York City | 1 | All Maps","protocol":17,"map":"plr_pipeline","folder":"tf","game":"Team Fortress","app_id":440,"player_count":23,"max_players":24,"Bots":0,"server_type":"Dedicated","server_os":"Linux","password":true,"vac":true,"version":"7742253","steam_id":85568392924469993,"keywords":["nocrits","nodmgspread","payload","uncletopia"],"game_id":440,"stv_port":27016,"stv_name":"Uncletopia | New York City | 1 | All Maps | STV","players":[{"user_id":99,"name":"Raincool","steam_id":76561198042953645,"connected_time":1032000000000,"state":"active","ping":54},{"user_id":70,"name":"Spiral Mountain","steam_id":76561198058683715,"connected_time":2736000000000,"state":"active","ping":74},{"user_id":84,"name":"Cuttle's Fish","steam_id":76561198280483257,"connected_time":2092000000000,"state":"active","ping":165},{"user_id":98,"name":"Oh my PKCells...","steam_id":76561198008577961,"connected_time":1289000000000,"state":"active","ping":74},{"user_id":108,"name":"yay \\","steam_id":76561199231681251,"connected_time":20000000000,"state":"spawning","ping":58},{"user_id":95,"name":"lost in spaaaaace","steam_id":76561199085974120,"connected_time":1562000000000,"state":"active","ping":51},{"user_id":91,"name":"plastiquemonk","steam_id":76561198126035719,"connected_time":1737000000000,"state":"active","ping":117},{"user_id":27,"name":"average catgirl","steam_id":76561198124028045,"connected_time":5716000000000,"state":"active","ping":50},{"user_id":93,"name":"Equalizer Time","steam_id":76561199153253208,"connected_time":1647000000000,"state":"active","ping":85},{"user_id":101,"name":"floppy muppet","steam_id":76561198003076261,"connected_time":818000000000,"state":"active","ping":90},{"user_id":105,"name":"jade harley","steam_id":76561198044363630,"connected_time":577000000000,"state":"active","ping":45},{"user_id":30,"name":"chompsky honk","steam_id":76561198056742506,"connected_time":5602000000000,"state":"active","ping":44},{"user_id":102,"name":"Exalted Finalist","steam_id":76561198192021295,"connected_time":816000000000,"state":"active","ping":152},{"user_id":69,"name":"Wilhelmktx","steam_id":76561198158102295,"connected_time":2755000000000,"state":"active","ping":74},{"user_id":103,"name":"Bell_Boy","steam_id":76561198397512046,"connected_time":801000000000,"state":"active","ping":87},{"user_id":88,"name":"All 24 Pokémon movies at once","steam_id":76561198164738311,"connected_time":1786000000000,"state":"active","ping":74},{"user_id":86,"name":"HorseCooker","steam_id":76561198076588370,"connected_time":1855000000000,"state":"active","ping":60},{"user_id":100,"name":"basil","steam_id":76561198075758026,"connected_time":861000000000,"state":"active","ping":83},{"user_id":107,"name":"The Hoagie Hero","steam_id":76561198057569298,"connected_time":205000000000,"state":"active","ping":69},{"user_id":83,"name":"Big McThankies From McSpankies","steam_id":76561198020516880,"connected_time":2181000000000,"state":"active","ping":106},{"user_id":67,"name":"catgirl giantess in heat","steam_id":76561198439042583,"connected_time":3327000000000,"state":"active","ping":99},{"user_id":106,"name":"wack","steam_id":76561198095697330,"connected_time":260000000000,"state":"active","ping":78},{"user_id":43,"name":"nalezinik","steam_id":76561198030026119,"connected_time":5186000000000,"state":"active","ping":69}]},{"server_id":14,"name":"Uncletopia | New York City | 2 | All Maps","name_short":"nyc-2","host":"nyc-1.us.uncletopia.com","port":27025,"enabled":true,"region":"us-east","cc":"us","latitude":40.73061,"longitude":-73.93524,"reserved":0,"last_update":"0001-01-01T00:00:00Z","name_a2s":"Uncletopia | New York City | 2 | All Maps","protocol":17,"map":"pl_borneo","folder":"tf","game":"Team Fortress","app_id":440,"player_count":24,"max_players":24,"Bots":0,"server_type":"Dedicated","server_os":"Linux","password":true,"vac":true,"version":"7742253","steam_id":85568392924469994,"keywords":["nocrits","nodmgspread","payload","uncletopia"],"game_id":440,"stv_port":27026,"stv_name":"Uncletopia | New York City | 2 | All Maps | STV","players":[{"user_id":159,"name":"Rick Assley","steam_id":76561198365019199,"connected_time":737000000000,"state":"active","ping":72},{"user_id":151,"name":"tingle shitmouth","steam_id":76561198055109192,"connected_time":955000000000,"state":"active","ping":87},{"user_id":117,"name":"PunchGhost","steam_id":76561198041668043,"connected_time":4125000000000,"state":"active","ping":65},{"user_id":150,"name":"Nico","steam_id":76561198125701869,"connected_time":971000000000,"state":"active","ping":43},{"user_id":130,"name":"SuperJagops","steam_id":76561198034689716,"connected_time":2912000000000,"state":"active","ping":52},{"user_id":136,"name":"the secret sauce","steam_id":76561199144640325,"connected_time":2378000000000,"state":"active","ping":83},{"user_id":161,"name":"lfty","steam_id":76561198283841707,"connected_time":726000000000,"state":"active","ping":53},{"user_id":167,"name":"-W3E- grim10465","steam_id":76561198045698581,"connected_time":101000000000,"state":"active","ping":45},{"user_id":149,"name":"OrangeShoes","steam_id":76561197971249940,"connected_time":1210000000000,"state":"active","ping":74},{"user_id":147,"name":"M.L.JEW","steam_id":76561198997375055,"connected_time":1321000000000,"state":"active","ping":76},{"user_id":141,"name":"THRILLHO","steam_id":76561198371663047,"connected_time":2322000000000,"state":"active","ping":45},{"user_id":165,"name":"wool","steam_id":76561198869689933,"connected_time":222000000000,"state":"active","ping":52},{"user_id":143,"name":"Skadewsh","steam_id":76561198102772209,"connected_time":1976000000000,"state":"active","ping":63},{"user_id":137,"name":"JPSS","steam_id":76561199239530493,"connected_time":2374000000000,"state":"active","ping":63},{"user_id":156,"name":"super99coolman","steam_id":76561199249081889,"connected_time":875000000000,"state":"active","ping":77},{"user_id":153,"name":"Sprucelass","steam_id":76561197998391724,"connected_time":933000000000,"state":"active","ping":60},{"user_id":134,"name":"Bother","steam_id":76561198336750909,"connected_time":2557000000000,"state":"active","ping":48},{"user_id":138,"name":"Midas","steam_id":76561198045647141,"connected_time":2367000000000,"state":"active","ping":92},{"user_id":135,"name":"[PROFILE REDACTED]","steam_id":76561198817953928,"connected_time":2531000000000,"state":"active","ping":100},{"user_id":154,"name":"Blueraspberry","steam_id":76561198040876601,"connected_time":914000000000,"state":"active","ping":60},{"user_id":142,"name":"Psychosis","steam_id":76561198078659070,"connected_time":2181000000000,"state":"active","ping":67},{"user_id":70,"name":"Nic0","steam_id":76561198305690218,"connected_time":7920000000000,"state":"active","ping":75},{"user_id":162,"name":"Fantastibad","steam_id":76561199087329262,"connected_time":705000000000,"state":"active","ping":66},{"user_id":163,"name":"The Rizzler","steam_id":76561198142699958,"connected_time":678000000000,"state":"active","ping":95}]},{"server_id":15,"name":"Uncletopia | New York City | 3 | Stopwatch Beta","name_short":"nyc-3","host":"nyc-1.us.uncletopia.com","port":27035,"enabled":true,"region":"us-east","cc":"us","latitude":40.73061,"longitude":-73.93524,"reserved":0,"last_update":"0001-01-01T00:00:00Z","name_a2s":"Uncletopia | New York City | 3 | Stopwatch Beta","protocol":17,"map":"koth_lakeside_final","folder":"tf","game":"Team Fortress","app_id":440,"player_count":0,"max_players":24,"Bots":0,"server_type":"Dedicated","server_os":"Linux","password":true,"vac":true,"version":"7742253","steam_id":85568392924742820,"keywords":["cp","nocrits","nodmgspread","uncletopia"],"game_id":440,"stv_port":27036,"stv_name":"Uncletopia | New York City | 3 | Stopwatch Beta | STV","players":null},{"server_id":16,"name":"Uncletopia | New York City | 4 | Community","name_short":"nyc-4","host":"nyc-1.us.uncletopia.com","port":27045,"enabled":true,"region":"us-east","cc":"us","latitude":40.73061,"longitude":-73.93524,"reserved":0,"last_update":"0001-01-01T00:00:00Z","name_a2s":"Uncletopia | New York City | 4 | Community","protocol":17,"map":"pl_barnblitz","folder":"tf","game":"Team Fortress","app_id":440,"player_count":0,"max_players":24,"Bots":0,"server_type":"Dedicated","server_os":"Linux","password":true,"vac":true,"version":"7742253","steam_id":85568392924742821,"keywords":["nocrits","nodmgspread","payload","uncletopia"],"game_id":440,"stv_port":27046,"stv_name":"Uncletopia | New York City | 4 | Community | STV","players":null},{"server_id":142,"name":"Uncletopia | São Paulo | 1 | All Maps","name_short":"sao-1","host":"sao-1.br.uncletopia.com","port":27015,"enabled":true,"region":"sa","cc":"br","latitude":-23.533773,"longitude":-46.62529,"reserved":0,"last_update":"0001-01-01T00:00:00Z","name_a2s":"Uncletopia | São Paulo | 1 | All Maps","protocol":17,"map":"koth_viaduct","folder":"tf","game":"Team Fortress","app_id":440,"player_count":0,"max_players":24,"Bots":0,"server_type":"Dedicated","server_os":"Linux","password":true,"vac":true,"version":"7742253","steam_id":85568392924469996,"keywords":["cp","nocrits","nodmgspread","uncletopia"],"game_id":440,"stv_port":27016,"stv_name":"Uncletopia | São Paulo | 1 | All Maps | STV","players":null},{"server_id":143,"name":"Uncletopia | São Paulo | 2 | All Maps","name_short":"sao-2","host":"sao-2.br.uncletopia.com","port":27015,"enabled":true,"region":"sa","cc":"br","latitude":-23.533773,"longitude":-46.62529,"reserved":0,"last_update":"0001-01-01T00:00:00Z","name_a2s":"Uncletopia | São Paulo | 2 | All Maps","protocol":17,"map":"koth_lakeside_final","folder":"tf","game":"Team Fortress","app_id":440,"player_count":1,"max_players":24,"Bots":0,"server_type":"Dedicated","server_os":"Linux","password":true,"vac":true,"version":"7742253","steam_id":85568392924485349,"keywords":["cp","nocrits","nodmgspread","uncletopia"],"game_id":440,"stv_port":27016,"stv_name":"Uncletopia | São Paulo | 2 | All Maps | STV","players":[{"user_id":8,"name":"mancha eletrica","steam_id":76561198999280972,"connected_time":72000000000,"state":"active","ping":46}]},{"server_id":7,"name":"Uncletopia | Seattle | 1 | All Maps","name_short":"sea-1","host":"sea-1.us.uncletopia.com","port":27015,"enabled":true,"region":"us-west","cc":"us","latitude":47.608013,"longitude":-122.33517,"reserved":0,"last_update":"0001-01-01T00:00:00Z","name_a2s":"Uncletopia | Seattle | 1 | All Maps","protocol":17,"map":"cp_dustbowl","folder":"tf","game":"Team Fortress","app_id":440,"player_count":4,"max_players":24,"Bots":0,"server_type":"Dedicated","server_os":"Linux","password":true,"vac":true,"version":"7742253","steam_id":85568392924469997,"keywords":["cp","nocrits","nodmgspread","uncletopia"],"game_id":440,"stv_port":27016,"stv_name":"Uncletopia | Seattle | 1 | All Maps | STV","players":[{"user_id":11,"name":"FestiveAnarchist","steam_id":76561199116042550,"connected_time":628000000000,"state":"active","ping":109},{"user_id":12,"name":"dookie nukem","steam_id":76561199195655939,"connected_time":471000000000,"state":"active","ping":155},{"user_id":13,"name":"PachucoWaffle","steam_id":76561198051491032,"connected_time":291000000000,"state":"active","ping":61},{"user_id":14,"name":"forest ranger","steam_id":76561198203851303,"connected_time":24000000000,"state":"active","ping":72}]},{"server_id":119,"name":"Uncletopia | Seattle | 2 | All Maps","name_short":"sea-2","host":"sea-1.us.uncletopia.com","port":27025,"enabled":true,"region":"us-west","cc":"us","latitude":47.608013,"longitude":-122.33517,"reserved":0,"last_update":"0001-01-01T00:00:00Z","name_a2s":"Uncletopia | Seattle | 2 | All Maps","protocol":17,"map":"cp_sunshine","folder":"tf","game":"Team Fortress","app_id":440,"player_count":0,"max_players":24,"Bots":0,"server_type":"Dedicated","server_os":"Linux","password":true,"vac":true,"version":"7742253","steam_id":85568392924469998,"keywords":["cp","nocrits","nodmgspread","uncletopia"],"game_id":440,"stv_port":27026,"stv_name":"Uncletopia | Seattle | 2 | All Maps | STV","players":null},{"server_id":406,"name":"Uncletopia | Seattle | 3 | Stopwatch Beta","name_short":"sea-3","host":"sea-1.us.uncletopia.com","port":27035,"enabled":true,"region":"us-west","cc":"us","latitude":47.608013,"longitude":-122.33517,"reserved":0,"last_update":"0001-01-01T00:00:00Z","name_a2s":"Uncletopia | Seattle | 3 | Stopwatch Beta","protocol":17,"map":"pl_upward","folder":"tf","game":"Team Fortress","app_id":440,"player_count":0,"max_players":24,"Bots":0,"server_type":"Dedicated","server_os":"Linux","password":true,"vac":false,"version":"7742253","steam_id":0,"keywords":["nocrits","nodmgspread","payload","uncletopia"],"game_id":440,"stv_port":27036,"stv_name":"Uncletopia | Seattle | 3 | Stopwatch Beta | STV","players":null},{"server_id":17,"name":"Uncletopia | San Francisco | 1 | All Maps","name_short":"sfo-1","host":"sfo-1.us.uncletopia.com","port":27015,"enabled":true,"region":"us-west","cc":"us","latitude":37.77397,"longitude":-122.4313,"reserved":0,"last_update":"0001-01-01T00:00:00Z","name_a2s":"Uncletopia | San Francisco | 1 | All Maps","protocol":17,"map":"koth_cascade","folder":"tf","game":"Team Fortress","app_id":440,"player_count":0,"max_players":24,"Bots":0,"server_type":"Dedicated","server_os":"Linux","password":true,"vac":true,"version":"7742253","steam_id":85568392924469999,"keywords":["cp","nocrits","nodmgspread","uncletopia"],"game_id":440,"stv_port":27016,"stv_name":"Uncletopia | San Francisco | 1 | All Maps | STV","players":null},{"server_id":18,"name":"Uncletopia | San Francisco | 2 | All Maps","name_short":"sfo-2","host":"sfo-1.us.uncletopia.com","port":27025,"enabled":true,"region":"us-west","cc":"us","latitude":37.77397,"longitude":-122.4313,"reserved":0,"last_update":"0001-01-01T00:00:00Z","name_a2s":"Uncletopia | San Francisco | 2 | All Maps","protocol":17,"map":"pl_frontier_final","folder":"tf","game":"Team Fortress","app_id":440,"player_count":24,"max_players":24,"Bots":0,"server_type":"Dedicated","server_os":"Linux","password":true,"vac":true,"version":"7742253","steam_id":85568392924470000,"keywords":["nocrits","nodmgspread","payload","uncletopia"],"game_id":440,"stv_port":27026,"stv_name":"Uncletopia | San Francisco | 2 | All Maps | STV","players":[{"user_id":4,"name":"IF I WIN, YOU ARE STINKY!","steam_id":76561198093368703,"connected_time":2632000000000,"state":"active","ping":52},{"user_id":32,"name":"AmirKhaan","steam_id":76561198992403254,"connected_time":1578000000000,"state":"active","ping":109},{"user_id":48,"name":"KaiserArc","steam_id":76561198201702142,"connected_time":1033000000000,"state":"active","ping":49},{"user_id":56,"name":"The Goober tm","steam_id":76561198341214161,"connected_time":579000000000,"state":"active","ping":68},{"user_id":47,"name":"Gooster","steam_id":76561198255311543,"connected_time":1088000000000,"state":"active","ping":117},{"user_id":59,"name":"TheOtherBrush","steam_id":76561199048222977,"connected_time":465000000000,"state":"active","ping":66},{"user_id":43,"name":"hoOmIN","steam_id":76561198334947079,"connected_time":1188000000000,"state":"active","ping":47},{"user_id":12,"name":"For Whom The Taco Bell Tolls","steam_id":76561198418288939,"connected_time":2127000000000,"state":"active","ping":54},{"user_id":40,"name":"boxoh","steam_id":76561198153343031,"connected_time":1280000000000,"state":"active","ping":96},{"user_id":62,"name":"Bige Rone","steam_id":76561198066718191,"connected_time":77000000000,"state":"active","ping":67},{"user_id":29,"name":"Xeno","steam_id":76561198089138085,"connected_time":1707000000000,"state":"active","ping":53},{"user_id":16,"name":"Biosock Infiknit","steam_id":76561198072693794,"connected_time":2036000000000,"state":"active","ping":101},{"user_id":61,"name":"Dimple","steam_id":76561198980324190,"connected_time":246000000000,"state":"active","ping":70},{"user_id":53,"name":"Kgs","steam_id":76561198972639004,"connected_time":713000000000,"state":"active","ping":139},{"user_id":34,"name":"BobBallin","steam_id":76561198355299724,"connected_time":1509000000000,"state":"active","ping":46},{"user_id":46,"name":"corbenis","steam_id":76561199012442511,"connected_time":1124000000000,"state":"active","ping":62},{"user_id":51,"name":"squash","steam_id":76561198150281353,"connected_time":810000000000,"state":"active","ping":73},{"user_id":30,"name":"hack fraud","steam_id":76561198015036066,"connected_time":1705000000000,"state":"active","ping":65},{"user_id":54,"name":"Turtle","steam_id":76561198262110064,"connected_time":670000000000,"state":"active","ping":103},{"user_id":36,"name":"supcupman","steam_id":76561198051513866,"connected_time":1475000000000,"state":"active","ping":62},{"user_id":58,"name":"Nautilus","steam_id":76561198413431111,"connected_time":535000000000,"state":"active","ping":65},{"user_id":38,"name":"Tmiracle","steam_id":76561198052375275,"connected_time":1401000000000,"state":"active","ping":58},{"user_id":60,"name":"KingTinkerer","steam_id":76561198226856548,"connected_time":454000000000,"state":"active","ping":109},{"user_id":64,"name":"Sivinus","steam_id":76561198025589541,"connected_time":7000000000,"state":"spawning","ping":65}]},{"server_id":19,"name":"Uncletopia | San Francisco | 3 | Stopwatch Beta","name_short":"sfo-3","host":"sfo-1.us.uncletopia.com","port":27035,"enabled":true,"region":"us-west","cc":"us","latitude":37.77397,"longitude":-122.4313,"reserved":0,"last_update":"0001-01-01T00:00:00Z","name_a2s":"Uncletopia | San Francisco | 3 | Stopwatch Beta","protocol":17,"map":"cp_snakewater_final1","folder":"tf","game":"Team Fortress","app_id":440,"player_count":0,"max_players":24,"Bots":0,"server_type":"Dedicated","server_os":"Linux","password":true,"vac":true,"version":"7742253","steam_id":85568392924742824,"keywords":["cp","nocrits","nodmgspread","uncletopia"],"game_id":440,"stv_port":27036,"stv_name":"Uncletopia | San Francisco | 3 | Stopwatch Beta | STV","players":null},{"server_id":20,"name":"Uncletopia | San Francisco | 4 | Community","name_short":"sfo-4","host":"sfo-1.us.uncletopia.com","port":27045,"enabled":true,"region":"us-west","cc":"us","latitude":37.77397,"longitude":-122.4313,"reserved":0,"last_update":"0001-01-01T00:00:00Z","name_a2s":"Uncletopia | San Francisco | 4 | Community","protocol":17,"map":"cp_altitude","folder":"tf","game":"Team Fortress","app_id":440,"player_count":0,"max_players":24,"Bots":0,"server_type":"Dedicated","server_os":"Linux","password":true,"vac":true,"version":"7742253","steam_id":85568392924742826,"keywords":["cp","nocrits","nodmgspread","uncletopia"],"game_id":440,"stv_port":27046,"stv_name":"Uncletopia | San Francisco | 4 | Community | STV","players":null},{"server_id":141,"name":"Uncletopia | Sydney | 1 | All Maps","name_short":"syd-1","host":"syd-1.au.uncletopia.com","port":27015,"enabled":true,"region":"au","cc":"au","latitude":-33.865143,"longitude":151.2099,"reserved":0,"last_update":"0001-01-01T00:00:00Z","name_a2s":"Uncletopia | Sydney | 1 | All Maps","protocol":17,"map":"koth_viaduct","folder":"tf","game":"Team Fortress","app_id":440,"player_count":0,"max_players":24,"Bots":0,"server_type":"Dedicated","server_os":"Linux","password":true,"vac":true,"version":"7742253","steam_id":85568392924470001,"keywords":["cp","nocrits","nodmgspread","uncletopia"],"game_id":440,"stv_port":27016,"stv_name":"Uncletopia | Sydney | 1 | All Maps | STV","players":null},{"server_id":123,"name":"Uncletopia | Sydney | 2 | All Maps","name_short":"syd-2","host":"syd-1.au.uncletopia.com","port":27025,"enabled":true,"region":"au","cc":"au","latitude":-33.865143,"longitude":151.2099,"reserved":0,"last_update":"0001-01-01T00:00:00Z","name_a2s":"Uncletopia | Sydney | 2 | All Maps","protocol":17,"map":"pl_frontier_final","folder":"tf","game":"Team Fortress","app_id":440,"player_count":0,"max_players":24,"Bots":0,"server_type":"Dedicated","server_os":"Linux","password":true,"vac":true,"version":"7742253","steam_id":85568392924470002,"keywords":["nocrits","nodmgspread","payload","uncletopia"],"game_id":440,"stv_port":27026,"stv_name":"Uncletopia | Sydney | 2 | All Maps | STV","players":null},{"server_id":395,"name":"Uncletopia | Sydney | 3 | All Maps","name_short":"syd-3","host":"syd-1.au.uncletopia.com","port":27035,"enabled":true,"region":"au","cc":"au","latitude":-33.865143,"longitude":151.2099,"reserved":0,"last_update":"0001-01-01T00:00:00Z","name_a2s":"Uncletopia | Sydney | 3 | All Maps","protocol":17,"map":"pl_snowycoast","folder":"tf","game":"Team Fortress","app_id":440,"player_count":0,"max_players":24,"Bots":0,"server_type":"Dedicated","server_os":"Linux","password":true,"vac":true,"version":"7742253","steam_id":85568392925194467,"keywords":["nocrits","nodmgspread","payload","uncletopia"],"game_id":440,"stv_port":27036,"stv_name":"Uncletopia | Sydney | 3 | All Maps | STV","players":null},{"server_id":396,"name":"Uncletopia | Sydney | 4 | All Maps","name_short":"syd-4","host":"syd-1.au.uncletopia.com","port":27045,"enabled":true,"region":"au","cc":"au","latitude":-33.865143,"longitude":151.2099,"reserved":0,"last_update":"0001-01-01T00:00:00Z","name_a2s":"Uncletopia | Sydney | 4 | All Maps","protocol":17,"map":"koth_viaduct","folder":"tf","game":"Team Fortress","app_id":440,"player_count":0,"max_players":24,"Bots":0,"server_type":"Dedicated","server_os":"Linux","password":true,"vac":true,"version":"7742253","steam_id":85568392925397958,"keywords":["cp","nocrits","nodmgspread","uncletopia"],"game_id":440,"stv_port":27046,"stv_name":"Uncletopia | Sydney | 4 | All Maps | STV","players":null},{"server_id":58,"name":"Uncletopia | Sydney | 5 | Stopwatch Beta","name_short":"syd-5","host":"syd-1.au.uncletopia.com","port":27055,"enabled":true,"region":"au","cc":"au","latitude":-33.865143,"longitude":151.2099,"reserved":0,"last_update":"0001-01-01T00:00:00Z","name_a2s":"Uncletopia | Sydney | 5 | Stopwatch Beta","protocol":17,"map":"cp_snakewater_final1","folder":"tf","game":"Team Fortress","app_id":440,"player_count":0,"max_players":24,"Bots":0,"server_type":"Dedicated","server_os":"Linux","password":true,"vac":true,"version":"7742253","steam_id":85568392925397959,"keywords":["cp","nocrits","nodmgspread","uncletopia"],"game_id":440,"stv_port":27056,"stv_name":"Uncletopia | Sydney | 5 | Stopwatch Beta | STV","players":null},{"server_id":59,"name":"Uncletopia | Sydney | 6 | Community","name_short":"syd-6","host":"syd-1.au.uncletopia.com","port":27065,"enabled":true,"region":"au","cc":"au","latitude":-33.865143,"longitude":151.2099,"reserved":0,"last_update":"0001-01-01T00:00:00Z","name_a2s":"Uncletopia | Sydney | 6 | Community","protocol":17,"map":"workshop/koth_product_final.ugc454272353","folder":"tf","game":"Team Fortress","app_id":440,"player_count":0,"max_players":24,"Bots":0,"server_type":"Dedicated","server_os":"Linux","password":true,"vac":true,"version":"7742253","steam_id":85568392925397960,"keywords":["cp","nocrits","nodmgspread","uncletopia"],"game_id":440,"stv_port":27066,"stv_name":"Uncletopia | Sydney | 6 | Community | STV","players":null},{"server_id":49,"name":"Uncletopia | Warsaw | 1 | All Maps","name_short":"waw-1","host":"waw-1.pl.uncletopia.com","port":27015,"enabled":true,"region":"eu","cc":"pl","latitude":52.2297,"longitude":21.017532,"reserved":0,"last_update":"0001-01-01T00:00:00Z","name_a2s":"Uncletopia | Warsaw | 1 | All Maps","protocol":17,"map":"koth_lakeside_final","folder":"tf","game":"Team Fortress","app_id":440,"player_count":0,"max_players":24,"Bots":0,"server_type":"Dedicated","server_os":"Linux","password":true,"vac":true,"version":"7723704","steam_id":85568392925397850,"keywords":["cp","nocrits","nodmgspread","uncletopia"],"game_id":440,"stv_port":27016,"stv_name":"Uncletopia | Warsaw | 1 | All Maps | STV","players":null},{"server_id":50,"name":"Uncletopia | Warsaw | 2 | All Maps","name_short":"waw-2","host":"waw-1.pl.uncletopia.com","port":27025,"enabled":true,"region":"eu","cc":"pl","latitude":52.2297,"longitude":21.017532,"reserved":0,"last_update":"0001-01-01T00:00:00Z","name_a2s":"Uncletopia | Warsaw | 2 | All Maps","protocol":17,"map":"koth_highpass","folder":"tf","game":"Team Fortress","app_id":440,"player_count":0,"max_players":24,"Bots":0,"server_type":"Dedicated","server_os":"Linux","password":true,"vac":true,"version":"7742253","steam_id":85568392925397851,"keywords":["cp","nocrits","nodmgspread","uncletopia"],"game_id":440,"stv_port":27026,"stv_name":"Uncletopia | Warsaw | 2 | All Maps | STV","players":null},{"server_id":51,"name":"Uncletopia | Warsaw | 3 | All Maps","name_short":"waw-3","host":"waw-1.pl.uncletopia.com","port":27035,"enabled":true,"region":"eu","cc":"pl","latitude":52.2297,"longitude":21.017532,"reserved":0,"last_update":"0001-01-01T00:00:00Z","name_a2s":"Uncletopia | Warsaw | 3 | All Maps","protocol":17,"map":"pl_frontier_final","folder":"tf","game":"Team Fortress","app_id":440,"player_count":2,"max_players":24,"Bots":0,"server_type":"Dedicated","server_os":"Linux","password":true,"vac":true,"version":"7742253","steam_id":85568392925397852,"keywords":["nocrits","nodmgspread","payload","uncletopia"],"game_id":440,"stv_port":27036,"stv_name":"Uncletopia | Warsaw | 3 | All Maps | STV","players":[{"user_id":3,"name":"Maxmysz_2137","steam_id":76561199112588927,"connected_time":494000000000,"state":"active","ping":77},{"user_id":4,"name":"Cummer","steam_id":76561199170675751,"connected_time":446000000000,"state":"active","ping":73}]},{"server_id":52,"name":"Uncletopia | Warsaw | 4 | All Maps","name_short":"waw-4","host":"waw-1.pl.uncletopia.com","port":27045,"enabled":true,"region":"eu","cc":"pl","latitude":52.2297,"longitude":21.017532,"reserved":0,"last_update":"0001-01-01T00:00:00Z","name_a2s":"Uncletopia | Warsaw | 4 | All Maps","protocol":17,"map":"pl_swiftwater_final1","folder":"tf","game":"Team Fortress","app_id":440,"player_count":0,"max_players":24,"Bots":0,"server_type":"Dedicated","server_os":"Linux","password":true,"vac":true,"version":"7742253","steam_id":85568392925397853,"keywords":["nocrits","nodmgspread","payload","uncletopia"],"game_id":440,"stv_port":27046,"stv_name":"Uncletopia | Warsaw | 4 | All Maps | STV","players":null},{"server_id":53,"name":"Uncletopia | Warsaw | 5 | Stopwatch Beta","name_short":"waw-5","host":"waw-1.pl.uncletopia.com","port":27055,"enabled":true,"region":"eu","cc":"pl","latitude":52.2297,"longitude":21.017532,"reserved":0,"last_update":"0001-01-01T00:00:00Z","name_a2s":"Uncletopia | Warsaw | 5 | Stopwatch Beta","protocol":17,"map":"pl_pier","folder":"tf","game":"Team Fortress","app_id":440,"player_count":0,"max_players":24,"Bots":0,"server_type":"Dedicated","server_os":"Linux","password":true,"vac":true,"version":"7742253","steam_id":85568392925397854,"keywords":["nocrits","nodmgspread","payload","uncletopia"],"game_id":440,"stv_port":27056,"stv_name":"Uncletopia | Warsaw | 5 | Stopwatch Beta | STV","players":null},{"server_id":54,"name":"Uncletopia | Warsaw | 6 | Community","name_short":"waw-6","host":"waw-1.pl.uncletopia.com","port":27065,"enabled":true,"region":"eu","cc":"pl","latitude":52.2297,"longitude":21.017532,"reserved":0,"last_update":"0001-01-01T00:00:00Z","name_a2s":"Uncletopia | Warsaw | 6 | Community","protocol":17,"map":"workshop/pl_cactuscanyon_redux_rc4b.ugc2579644293","folder":"tf","game":"Team Fortress","app_id":440,"player_count":0,"max_players":24,"Bots":0,"server_type":"Dedicated","server_os":"Linux","password":true,"vac":true,"version":"7742253","steam_id":85568392925397856,"keywords":["nocrits","nodmgspread","payload","uncletopia"],"game_id":440,"stv_port":27066,"stv_name":"Uncletopia | Warsaw | 6 | Community | STV","players":null}]}