{"status":true,"message":"","result":[{"server_id":9,"name":"Uncletopia | Atlanta | 1 | All Maps","name_short":"atl-1","host":"atl-1.us.uncletopia.com","port":27015,"enabled":true,"region":"us-east","cc":"us","latitude":33.753746,"longitude":-84.38633,"reserved":0,"last_update":"0001-01-01T00:00:00Z","name_a2s":"Uncletopia | Atlanta | 1 | All Maps","protocol":17,"map":"pl_badwater","folder":"tf","game":"Team Fortress","app_id":440,"player_count":24,"max_players":24,"Bots":0,"server_type":"Dedicated","server_os":"Linux","password":true,"vac":true,"version":"7757534","steam_id":85568392924469982,"keywords":["nocrits","nodmgspread","payload","uncletopia"],"game_id":440,"stv_port":27016,"stv_name":"Uncletopia | Atlanta | 1 | All Maps | STV","players":[{"user_id":744,"name":"wire-guided","steam_id":76561198055407168,"connected_time":788000000000,"state":"active","ping":51},{"user_id":697,"name":"Sol","steam_id":76561199008085020,"connected_time":4378000000000,"state":"active","ping":51},{"user_id":737,"name":"jamalsmallzz","steam_id":76561199120206913,"connected_time":1292000000000,"state":"active","ping":74},{"user_id":630,"name":"schizophrenic with a gun","steam_id":76561198016121536,"connected_time":7905000000000,"state":"active","ping":74},{"user_id":723,"name":"[❤]RainbowGryphon","steam_id":76561198097007697,"connected_time":2481000000000,"state":"active","ping":93},{"user_id":732,"name":".exe","steam_id":76561198088679081,"connected_time":1671000000000,"state":"active","ping":98},{"user_id":743,"name":"MaurbaaTTV","steam_id":76561198396244334,"connected_time":1042000000000,"state":"active","ping":51},{"user_id":704,"name":"a team of ants doing their best","steam_id":76561198440145948,"connected_time":3751000000000,"state":"active","ping":62},{"user_id":730,"name":"DO NOT call me BART SIMPSON!!","steam_id":76561198069113375,"connected_time":1810000000000,"state":"active","ping":88},{"user_id":700,"name":"harry gooch","steam_id":76561198024817457,"connected_time":4065000000000,"state":"active","ping":63},{"user_id":739,"name":"lil hog","steam_id":76561199230929836,"connected_time":1184000000000,"state":"active","ping":85},{"user_id":738,"name":"John;Titor","steam_id":76561198266404287,"connected_time":1276000000000,"state":"active","ping":117},{"user_id":740,"name":"This is my new username :)","steam_id":76561198143634233,"connected_time":1181000000000,"state":"active","ping":83},{"user_id":747,"name":"OrangeCrab","steam_id":76561198982248872,"connected_time":193000000000,"state":"active","ping":63},{"user_id":734,"name":"BIG HOG","steam_id":76561198079923652,"connected_time":1557000000000,"state":"active","ping":63},{"user_id":746,"name":"Potato Person","steam_id":76561198010373482,"connected_time":284000000000,"state":"active","ping":70},{"user_id":741,"name":"3rdmann","steam_id":76561198071285213,"connected_time":1175000000000,"state":"active","ping":66},{"user_id":635,"name":"fitotutus","steam_id":76561197974993253,"connected_time":7800000000000,"state":"active","ping":80},{"user_id":736,"name":"pertygerd","steam_id":76561198074102768,"connected_time":1453000000000,"state":"active","ping":70},{"user_id":722,"name":"D3TRΩR3AP3R","steam_id":76561198189423917,"connected_time":2629000000000,"state":"active","ping":105},{"user_id":729,"name":"CAGUAMON DE INDIO 1.2 L","steam_id":76561198044978328,"connected_time":1977000000000,"state":"active","ping":94},{"user_id":659,"name":"Tay1Qr","steam_id":76561198082809935,"connected_time":7102000000000,"state":"active","ping":60},{"user_id":721,"name":"Flat Eric","steam_id":76561198114922735,"connected_time":2795000000000,"state":"active","ping":66},{"user_id":727,"name":"façade","steam_id":76561199157009256,"connected_time":2156000000000,"state":"active","ping":100}]},{"server_id":400,"name":"Uncletopia | Atlanta | 3 | Community","name_short":"atl-3","host":"atl-1.us.uncletopia.com","port":27035,"enabled":true,"region":"us-east","cc":"us","latitude":33.753746,"longitude":-84.38633,"reserved":0,"last_update":"0001-01-01T00:00:00Z","name_a2s":"Uncletopia | Atlanta | 3 | Community","protocol":17,"map":"workshop/pl_badwater_pro_v12.ugc2142942074","folder":"tf","game":"Team Fortress","app_id":440,"player_count":0,"max_players":32,"Bots":0,"server_type":"Dedicated","server_os":"Linux","password":true,"vac":true,"version":"7757534","steam_id":85568392924515187,"keywords":["increased_maxplayers","nocrits","nodmgspread","payload","uncletopia"],"game_id":440,"stv_port":27036,"stv_name":"Uncletopia | Atlanta | 3 | Community | STV","players":null},{"server_id":401,"name":"Uncletopia | Atlanta | 4 | No Payload","name_short":"atl-4","host":"atl-1.us.uncletopia.com","port":27045,"enabled":true,"region":"us-east","cc":"us","latitude":33.753746,"longitude":-84.38633,"reserved":0,"last_update":"0001-01-01T00:00:00Z","name_a2s":"","protocol":0,"map":"","folder":"","game":"","app_id":0,"player_count":0,"max_players":0,"Bots":0,"server_type":"","server_os":"","password":false,"vac":false,"version":"","steam_id":0,"keywords":null,"game_id":0,"stv_port":0,"stv_name":"","players":null},{"server_id":2,"name":"Uncletopia | Chicago | 1 | All Maps","name_short":"chi-1","host":"chi-1.us.uncletopia.com","port":27015,"enabled":true,"region":"us-central","cc":"us","latitude":41.881832,"longitude":-87.62318,"reserved":0,"last_update":"0001-01-01T00:00:00Z","name_a2s":"Uncletopia | Chicago | 1 | All Maps","protocol":17,"map":"pl_badwater","folder":"tf","game":"Team Fortress","app_id":440,"player_count":24,"max_players":24,"Bots":0,"server_type":"Dedicated","server_os":"Linux","password":true,"vac":true,"version":"7757534","steam_id":85568392924469984,"keywords":["nocrits","nodmgspread","payload","uncletopia"],"game_id":440,"stv_port":27016,"stv_name":"Uncletopia | Chicago | 1 | All Maps | STV","players":[{"user_id":836,"name":"Mush","steam_id":76561198393461065,"connected_time":299000000000,"state":"active","ping":76},{"user_id":817,"name":"Atomic Waffles","steam_id":76561197970935570,"connected_time":2874000000000,"state":"active","ping":71},{"user_id":828,"name":"Sir Iasis","steam_id":76561198035666760,"connected_time":1555000000000,"state":"active","ping":57},{"user_id":834,"name":"morbissey","steam_id":76561198072592880,"connected_time":809000000000,"state":"active","ping":41},{"user_id":815,"name":"Mitchu The Bidness Man","steam_id":76561198102494381,"connected_time":3305000000000,"state":"active","ping":61},{"user_id":812,"name":"Boo! Boo I Say!","steam_id":76561198272427405,"connected_time":3639000000000,"state":"active","ping":74},{"user_id":835,"name":"EliminateSingleFamilyZoning","steam_id":76561198276653985,"connected_time":465000000000,"state":"active","ping":62},{"user_id":837,"name":"Calamity","steam_id":76561198094879610,"connected_time":198000000000,"state":"active","ping":176},{"user_id":772,"name":"Mani","steam_id":76561198139428711,"connected_time":6373000000000,"state":"active","ping":56},{"user_id":827,"name":"19 ssnb","steam_id":76561198077902438,"connected_time":1637000000000,"state":"active","ping":74},{"user_id":773,"name":"Zeta","steam_id":76561198066702587,"connected_time":6352000000000,"state":"active","ping":84},{"user_id":838,"name":"Anderred","steam_id":76561198149983847,"connected_time":170000000000,"state":"active","ping":82},{"user_id":775,"name":"ccat","steam_id":76561198281773224,"connected_time":6296000000000,"state":"active","ping":86},{"user_id":839,"name":"tf2player","steam_id":76561199418572153,"connected_time":81000000000,"state":"active","ping":185},{"user_id":776,"name":"nathaniel b the ocky way","steam_id":76561198321627268,"connected_time":6290000000000,"state":"active","ping":121},{"user_id":840,"name":"rkp!","steam_id":76561199053070819,"connected_time":22000000000,"state":"active","ping":46},{"user_id":824,"name":"The Engie","steam_id":76561198049418537,"connected_time":2182000000000,"state":"active","ping":81},{"user_id":661,"name":"chloe","steam_id":76561198369849908,"connected_time":13462000000000,"state":"active","ping":74},{"user_id":841,"name":"Grandpa Baozhai","steam_id":76561198086667725,"connected_time":13000000000,"state":"spawning","ping":100},{"user_id":822,"name":"Erikk the Fart Smeller","steam_id":76561198142699958,"connected_time":2446000000000,"state":"active","ping":60},{"user_id":804,"name":"gaming time","steam_id":76561198036922641,"connected_time":4466000000000,"state":"active","ping":65},{"user_id":764,"name":"The Land Admiral","steam_id":76561198159356609,"connected_time":7498000000000,"state":"active","ping":72},{"user_id":787,"name":"GoldtoothFour","steam_id":76561198055529332,"connected_time":5432000000000,"state":"active","ping":54},{"user_id":832,"name":"DawnNannas","steam_id":76561198042915117,"connected_time":1113000000000,"state":"active","ping":116}]},{"server_id":106,"name":"Uncletopia | Chicago | 2 | All Maps","name_short":"chi-2","host":"chi-1.us.uncletopia.com","port":27025,"enabled":true,"region":"us-central","cc":"us","latitude":41.881832,"longitude":-87.62318,"reserved":0,"last_update":"0001-01-01T00:00:00Z","name_a2s":"Uncletopia | Chicago | 2 | All Maps","protocol":17,"map":"pl_borneo","folder":"tf","game":"Team Fortress","app_id":440,"player_count":0,"max_players":24,"Bots":0,"server_type":"Dedicated","server_os":"Linux","password":true,"vac":true,"version":"7757534","steam_id":85568392924469985,"keywords":["nocrits","nodmgspread","payload","uncletopia"],"game_id":440,"stv_port":27026,"stv_name":"Uncletopia | Chicago | 2 | All Maps | STV","players":null},{"server_id":402,"name":"Uncletopia | Chicago | 3 | All Maps","name_short":"chi-3","host":"chi-1.us.uncletopia.com","port":27035,"enabled":true,"region":"us-central","cc":"us","latitude":41.881832,"longitude":-87.62318,"reserved":0,"last_update":"0001-01-01T00:00:00Z","name_a2s":"Uncletopia | Chicago | 3 | All Maps","protocol":17,"map":"koth_viaduct","folder":"tf","game":"Team Fortress","app_id":440,"player_count":6,"max_players":24,"Bots":0,"server_type":"Dedicated","server_os":"Linux","password":true,"vac":true,"version":"7757534","steam_id":85568392924515191,"keywords":["nocrits","nodmgspread","payload","uncletopia"],"game_id":440,"stv_port":27036,"stv_name":"Uncletopia | Chicago | 3 | All Maps | STV","players":[{"user_id":750,"name":"Super Gangsta Mario","steam_id":76561198411623667,"connected_time":310000000000,"state":"connecting","ping":134},{"user_id":673,"name":"Yoloisnotded","steam_id":76561198995043589,"connected_time":6405000000000,"state":"connecting","ping":91},{"user_id":746,"name":"balding joseph","steam_id":76561199198577763,"connected_time":859000000000,"state":"connecting","ping":75},{"user_id":747,"name":"Breaded","steam_id":76561199006008898,"connected_time":854000000000,"state":"connecting","ping":75},{"user_id":748,"name":"Hamsteak","steam_id":76561199172433449,"connected_time":706000000000,"state":"connecting","ping":116},{"user_id":740,"name":"SMHTMFTTF","steam_id":76561199079614516,"connected_time":1428000000000,"state":"connecting","ping":49}]},{"server_id":403,"name":"Uncletopia | Chicago | 4 | All Maps","name_short":"chi-4","host":"chi-1.us.uncletopia.com","port":27045,"enabled":true,"region":"us-central","cc":"us","latitude":41.881832,"longitude":-87.62318,"reserved":0,"last_update":"0001-01-01T00:00:00Z","name_a2s":"Uncletopia | Chicago | 4 | All Maps","protocol":17,"map":"cp_altitude","folder":"tf","game":"Team Fortress","app_id":440,"player_count":16,"max_players":24,"Bots":0,"server_type":"Dedicated","server_os":"Linux","password":true,"vac":true,"version":"7757534","steam_id":85568392924515193,"keywords":["cp","nocrits","nodmgspread","uncletopia"],"game_id":440,"stv_port":27046,"stv_name":"Uncletopia | Chicago | 4 | All Maps | STV","players":[{"user_id":694,"name":"creepycrawler","steam_id":76561198352016831,"connected_time":575000000000,"state":"active","ping":65},{"user_id":695,"name":"Scorpie Doodle","steam_id":76561198021845763,"connected_time":512000000000,"state":"active","ping":52},{"user_id":673,"name":"Funky Buttlovin","steam_id":76561198002807702,"connected_time":2360000000000,"state":"active","ping":61},{"user_id":687,"name":"swag messiah #handsfree","steam_id":76561198056158882,"connected_time":1078000000000,"state":"active","ping":78},{"user_id":672,"name":"Cricket Girl!","steam_id":76561198838054669,"connected_time":2389000000000,"state":"active","ping":65},{"user_id":690,"name":"Margaret Thatcher, but moreso","steam_id":76561198121955432,"connected_time":934000000000,"state":"active","ping":53},{"user_id":693,"name":"Orange Joe","steam_id":76561198082208637,"connected_time":789000000000,"state":"active","ping":80},{"user_id":676,"name":"Shraxi","steam_id":76561198052173852,"connected_time":2243000000000,"state":"active","ping":72},{"user_id":677,"name":"Chamomile","steam_id":76561198063516307,"connected_time":2217000000000,"state":"active","ping":105},{"user_id":686,"name":"U________U","steam_id":76561198126358045,"connected_time":1471000000000,"state":"active","ping":74},{"user_id":633,"name":"C papi","steam_id":76561198027779564,"connected_time":5503000000000,"state":"active","ping":50},{"user_id":681,"name":"Yesterday's Grouse's Son","steam_id":76561198259873083,"connected_time":2158000000000,"state":"active","ping":110},{"user_id":685,"name":"skosgo -eg","steam_id":76561197996403345,"connected_time":1707000000000,"state":"active","ping":88},{"user_id":641,"name":"Bliztank | RGL.gg","steam_id":76561198019252798,"connected_time":5306000000000,"state":"active","ping":58},{"user_id":689,"name":"76561198328824242","steam_id":76561198328824242,"connected_time":1000000000000,"state":"active","ping":149},{"user_id":670,"name":"Creyon","steam_id":76561198812104058,"connected_time":2448000000000,"state":"active","ping":57}]},{"server_id":36,"name":"Uncletopia | Chicago | 5 | All Maps","name_short":"chi-5","host":"chi-2.us.uncletopia.com","port":27015,"enabled":true,"region":"us-central","cc":"us","latitude":41.881832,"longitude":-87.62318,"reserved":0,"last_update":"0001-01-01T00:00:00Z","name_a2s":"Uncletopia | Chicago | 5 | All Maps","protocol":17,"map":"pl_badwater","folder":"tf","game":"Team Fortress","app_id":440,"player_count":0,"max_players":24,"Bots":0,"server_type":"Dedicated","server_os":"Linux","password":true,"vac":true,"version":"7757534","steam_id":85568392924866362,"keywords":["nocrits","nodmgspread","payload","uncletopia"],"game_id":440,"stv_port":27016,"stv_name":"Uncletopia | Chicago | 5 | All Maps | STV","players":null},{"server_id":37,"name":"Uncletopia | Chicago | 6 | All Maps","name_short":"chi-6","host":"chi-2.us.uncletopia.com","port":27025,"enabled":true,"region":"us-central","cc":"us","latitude":41.881832,"longitude":-87.62318,"reserved":0,"last_update":"0001-01-01T00:00:00Z","name_a2s":"Uncletopia | Chicago | 6 | All Maps","protocol":17,"map":"cp_mountainlab","folder":"tf","game":"Team Fortress","app_id":440,"player_count":0,"max_players":24,"Bots":0,"server_type":"Dedicated","server_os":"Linux","password":true,"vac":true,"version":"7757534","steam_id":85568392924866363,"keywords":["cp","nocrits","nodmgspread","uncletopia"],"game_id":440,"stv_port":27026,"stv_name":"Uncletopia | Chicago | 6 | All Maps | STV","players":null},{"server_id":38,"name":"Uncletopia | Chicago | 7 | Stopwatch Beta","name_short":"chi-7","host":"chi-2.us.uncletopia.com","port":27035,"enabled":true,"region":"us-central","cc":"us","latitude":41.881832,"longitude":-87.62318,"reserved":0,"last_update":"0001-01-01T00:00:00Z","name_a2s":"Uncletopia | Chicago | 7 | Stopwatch Beta","protocol":17,"map":"pl_upward","folder":"tf","game":"Team Fortress","app_id":440,"player_count":0,"max_players":24,"Bots":0,"server_type":"Dedicated","server_os":"Linux","password":true,"vac":true,"version":"7757534","steam_id":85568392924866364,"keywords":["nocrits","nodmgspread","payload","uncletopia"],"game_id":440,"stv_port":27036,"stv_name":"Uncletopia | Chicago | 7 | Stopwatch Beta | STV","players":null},{"server_id":39,"name":"Uncletopia | Chicago | 8 | Community","name_short":"chi-8","host":"chi-2.us.uncletopia.com","port":27045,"enabled":true,"region":"us-central","cc":"us","latitude":41.881832,"longitude":-87.62318,"reserved":0,"last_update":"0001-01-01T00:00:00Z","name_a2s":"Uncletopia | Chicago | 8 | Community","protocol":17,"map":"workshop/rd_asteroid_redux_b1.ugc2154902912","folder":"tf","game":"Team Fortress","app_id":440,"player_count":0,"max_players":24,"Bots":0,"server_type":"Dedicated","server_os":"Linux","password":true,"vac":true,"version":"7757534","steam_id":85568392924866365,"keywords":["beta","nocrits","nodmgspread","rd","uncletopia"],"game_id":440,"stv_port":27046,"stv_name":"Uncletopia | Chicago | 8 | Community | STV","players":null},{"server_id":8,"name":"Uncletopia | Dallas | 1 | All Maps","name_short":"dal-1","host":"dal-1.us.uncletopia.com","port":27015,"enabled":true,"region":"us-central","cc":"us","latitude":32.779167,"longitude":-96.80889,"reserved":0,"last_update":"0001-01-01T00:00:00Z","name_a2s":"Uncletopia | Dallas | 1 | All Maps","protocol":17,"map":"pl_upward","folder":"tf","game":"Team Fortress","app_id":440,"player_count":24,"max_players":24,"Bots":0,"server_type":"Dedicated","server_os":"Linux","password":true,"vac":true,"version":"7757534","steam_id":85568392924469986,"keywords":["nocrits","nodmgspread","payload","uncletopia"],"game_id":440,"stv_port":27016,"stv_name":"Uncletopia | Dallas | 1 | All Maps | STV","players":[{"user_id":502,"name":"Hexalina","steam_id":76561198163665060,"connected_time":1484000000000,"state":"active","ping":149},{"user_id":434,"name":"Squid121","steam_id":76561198038832034,"connected_time":5051000000000,"state":"active","ping":103},{"user_id":471,"name":"Hazardous Material","steam_id":76561198085815757,"connected_time":3446000000000,"state":"active","ping":93},{"user_id":481,"name":"trans they gender she/her/they/","steam_id":76561198212470305,"connected_time":3220000000000,"state":"active","ping":91},{"user_id":505,"name":"The Great Karizma!","steam_id":76561198346191193,"connected_time":1072000000000,"state":"active","ping":81},{"user_id":470,"name":"Fantastic","steam_id":76561198079088978,"connected_time":3454000000000,"state":"active","ping":59},{"user_id":474,"name":"Vulpes","steam_id":76561198038929334,"connected_time":3419000000000,"state":"active","ping":73},{"user_id":485,"name":"Yeshie the Dragon Layer","steam_id":76561198080214214,"connected_time":2910000000000,"state":"active","ping":66},{"user_id":495,"name":"fuckinreece","steam_id":76561198365490421,"connected_time":1868000000000,"state":"active","ping":90},{"user_id":496,"name":"Suited","steam_id":76561198068797313,"connected_time":1833000000000,"state":"active","ping":53},{"user_id":509,"name":"Coolstuff","steam_id":76561198178350213,"connected_time":906000000000,"state":"active","ping":75},{"user_id":451,"name":"Doctor Crack","steam_id":76561198985058711,"connected_time":3942000000000,"state":"active","ping":78},{"user_id":499,"name":"FitzyBear","steam_id":76561198409189585,"connected_time":1741000000000,"state":"active","ping":82},{"user_id":512,"name":"JankyCranky","steam_id":76561198274957747,"connected_time":224000000000,"state":"active","ping":82},{"user_id":465,"name":"strange bottle","steam_id":76561198250215874,"connected_time":3578000000000,"state":"active","ping":99},{"user_id":506,"name":"Klip","steam_id":76561198316254429,"connected_time":1056000000000,"state":"active","ping":57},{"user_id":511,"name":"caius.2014","steam_id":76561198082011283,"connected_time":264000000000,"state":"active","ping":87},{"user_id":387,"name":"Fox","steam_id":76561198063507627,"connected_time":7349000000000,"state":"active","ping":35},{"user_id":441,"name":"zinnk","steam_id":76561198092081825,"connected_time":4607000000000,"state":"active","ping":89},{"user_id":513,"name":"Secret633","steam_id":76561199136015400,"connected_time":145000000000,"state":"active","ping":124},{"user_id":504,"name":"Knower","steam_id":76561198036213722,"connected_time":1409000000000,"state":"active","ping":75},{"user_id":479,"name":"Sydney","steam_id":76561198797603297,"connected_time":3335000000000,"state":"active","ping":45},{"user_id":510,"name":"Brain Tumor","steam_id":76561198805526881,"connected_time":867000000000,"state":"active","ping":103},{"user_id":501,"name":"Toxic Medic Main","steam_id":76561198009314845,"connected_time":1704000000000,"state":"active","ping":103}]},{"server_id":108,"name":"Uncletopia | Dallas | 2 | All Maps","name_short":"dal-2","host":"dal-1.us.uncletopia.com","port":27025,"enabled":true,"region":"us-central","cc":"us","latitude":32.779167,"longitude":-96.80889,"reserved":0,"last_update":"0001-01-01T00:00:00Z","name_a2s":"Uncletopia | Dallas | 2 | All Maps","protocol":17,"map":"cp_altitude","folder":"tf","game":"Team Fortress","app_id":440,"player_count":0,"max_players":24,"Bots":0,"server_type":"Dedicated","server_os":"Linux","password":true,"vac":true,"version":"7757534","steam_id":85568392924469988,"keywords":["cp","nocrits","nodmgspread","uncletopia"],"game_id":440,"stv_port":27026,"stv_name":"Uncletopia | Dallas | 2 | All Maps | STV","players":null},{"server_id":5,"name":"Uncletopia | Frankfurt | 1 | All Maps","name_short":"frk-1","host":"frk-1.de.uncletopia.com","port":27015,"enabled":true,"region":"eu","cc":"de","latitude":50.110924,"longitude":8.682127,"reserved":0,"last_update":"0001-01-01T00:00:00Z","name_a2s":"Uncletopia | Frankfurt | 1 | All Maps","protocol":17,"map":"pl_snowycoast","folder":"tf","game":"Team Fortress","app_id":440,"player_count":0,"max_players":24,"Bots":0,"server_type":"Dedicated","server_os":"Linux","password":true,"vac":true,"version":"7757534","steam_id":85568392924469989,"keywords":["nocrits","nodmgspread","payload","uncletopia"],"game_id":440,"stv_port":27016,"stv_name":"Uncletopia | Frankfurt | 1 | All Maps | STV","players":null},{"server_id":110,"name":"Uncletopia | Frankfurt | 2 | All Maps","name_short":"frk-2","host":"frk-1.de.uncletopia.com","port":27025,"enabled":true,"region":"eu","cc":"de","latitude":50.110924,"longitude":8.682127,"reserved":0,"last_update":"0001-01-01T00:00:00Z","name_a2s":"Uncletopia | Frankfurt | 2 | All Maps","protocol":17,"map":"pl_snowycoast","folder":"tf","game":"Team Fortress","app_id":440,"player_count":0,"max_players":24,"Bots":0,"server_type":"Dedicated","server_os":"Linux","password":true,"vac":true,"version":"7757534","steam_id":85568392924469990,"keywords":["nocrits","nodmgspread","payload","uncletopia"],"game_id":440,"stv_port":27026,"stv_name":"Uncletopia | Frankfurt | 2 | All Maps | STV","players":null},{"server_id":308,"name":"Uncletopia | Frankfurt | 3 | All Maps","name_short":"frk-3","host":"frk-1.de.uncletopia.com","port":27035,"enabled":true,"region":"eu","cc":"de","latitude":50.110924,"longitude":8.682127,"reserved":0,"last_update":"0001-01-01T00:00:00Z","name_a2s":"Uncletopia | Frankfurt | 3 | All Maps","protocol":17,"map":"cp_altitude","folder":"tf","game":"Team Fortress","app_id":440,"player_count":0,"max_players":24,"Bots":0,"server_type":"Dedicated","server_os":"Linux","password":true,"vac":true,"version":"7757534","steam_id":85568392924504274,"keywords":["cp","nocrits","nodmgspread","uncletopia"],"game_id":440,"stv_port":27036,"stv_name":"Uncletopia | Frankfurt | 3 | All Maps | STV","players":null},{"server_id":309,"name":"Uncletopia | Frankfurt | 4 | All Maps","name_short":"frk-4","host":"frk-1.de.uncletopia.com","port":27045,"enabled":true,"region":"eu","cc":"de","latitude":50.110924,"longitude":8.682127,"reserved":0,"last_update":"0001-01-01T00:00:00Z","name_a2s":"Uncletopia | Frankfurt | 4 | All Maps","protocol":17,"map":"cp_altitude","folder":"tf","game":"Team Fortress","app_id":440,"player_count":0,"max_players":24,"Bots":0,"server_type":"Dedicated","server_os":"Linux","password":true,"vac":true,"version":"7757534","steam_id":85568392924504275,"keywords":["cp","nocrits","nodmgspread","uncletopia"],"game_id":440,"stv_port":27046,"stv_name":"Uncletopia | Frankfurt | 4 | All Maps | STV","players":null},{"server_id":310,"name":"Uncletopia | Frankfurt | 5 | All Maps","name_short":"frk-5","host":"frk-1.de.uncletopia.com","port":27055,"enabled":true,"region":"eu","cc":"de","latitude":50.110924,"longitude":8.682127,"reserved":0,"last_update":"0001-01-01T00:00:00Z","name_a2s":"Uncletopia | Frankfurt | 5 | All Maps","protocol":17,"map":"cp_snakewater_final1","folder":"tf","game":"Team Fortress","app_id":440,"player_count":0,"max_players":24,"Bots":0,"server_type":"Dedicated","server_os":"Linux","password":true,"vac":true,"version":"7757534","steam_id":85568392924504277,"keywords":["cp","nocrits","nodmgspread","uncletopia"],"game_id":440,"stv_port":27056,"stv_name":"Uncletopia | Frankfurt | 5 | All Maps | STV","players":null},{"server_id":311,"name":"Uncletopia | Frankfurt | 6 | All Maps","name_short":"frk-6","host":"frk-1.de.uncletopia.com","port":27065,"enabled":true,"region":"eu","cc":"de","latitude":50.110924,"longitude":8.682127,"reserved":0,"last_update":"0001-01-01T00:00:00Z","name_a2s":"Uncletopia | Frankfurt | 6 | All Maps","protocol":17,"map":"koth_highpass","folder":"tf","game":"Team Fortress","app_id":440,"player_count":0,"max_players":24,"Bots":0,"server_type":"Dedicated","server_os":"Linux","password":true,"vac":true,"version":"7757534","steam_id":85568392924504278,"keywords":["cp","nocrits","nodmgspread","uncletopia"],"game_id":440,"stv_port":27066,"stv_name":"Uncletopia | Frankfurt | 6 | All Maps | STV","players":null},{"server_id":23,"name":"Uncletopia | Frankfurt | 7 | Stopwatch Beta","name_short":"frk-7","host":"frk-1.de.uncletopia.com","port":27075,"enabled":true,"region":"eu","cc":"de","latitude":50.110924,"longitude":8.682127,"reserved":0,"last_update":"0001-01-01T00:00:00Z","name_a2s":"Uncletopia | Frankfurt | 7 | Stopwatch Beta","protocol":17,"map":"pl_frontier_final","folder":"tf","game":"Team Fortress","app_id":440,"player_count":0,"max_players":24,"Bots":0,"server_type":"Dedicated","server_os":"Linux","password":true,"vac":true,"version":"7757534","steam_id":85568392924742827,"keywords":["nocrits","nodmgspread","payload","uncletopia"],"game_id":440,"stv_port":27076,"stv_name":"Uncletopia | Frankfurt | 7 | Stopwatch Beta | STV","players":null},{"server_id":24,"name":"Uncletopia | Frankfurt | 8 | Community","name_short":"frk-8","host":"frk-1.de.uncletopia.com","port":27085,"enabled":true,"region":"eu","cc":"de","latitude":50.110924,"longitude":8.682127,"reserved":0,"last_update":"0001-01-01T00:00:00Z","name_a2s":"Uncletopia | Frankfurt | 8 | Community","protocol":17,"map":"pl_badwater","folder":"tf","game":"Team Fortress","app_id":440,"player_count":0,"max_players":24,"Bots":0,"server_type":"Dedicated","server_os":"Linux","password":true,"vac":true,"version":"7757534","steam_id":85568392924742828,"keywords":["nocrits","nodmgspread","payload","uncletopia"],"game_id":440,"stv_port":27086,"stv_name":"Uncletopia | Frankfurt | 8 | Community | STV","players":null},{"server_id":202,"name":"Uncletopia | Hong Kong | 1 | All Maps","name_short":"hgk-1","host":"hgk-1.hk.uncletopia.com","port":27015,"enabled":true,"region":"asia","cc":"hk","latitude":22.302711,"longitude":114.177216,"reserved":0,"last_update":"0001-01-01T00:00:00Z","name_a2s":"Uncletopia | Hong Kong | 1 | All Maps","protocol":17,"map":"pl_swiftwater_final1","folder":"tf","game":"Team Fortress","app_id":440,"player_count":4,"max_players":24,"Bots":0,"server_type":"Dedicated","server_os":"Linux","password":true,"vac":true,"version":"7757534","steam_id":85568392924494504,"keywords":["nocrits","nodmgspread","payload","uncletopia"],"game_id":440,"stv_port":27016,"stv_name":"Uncletopia | Hong Kong | 1 | All Maps | STV","players":[{"user_id":32,"name":"irylfaith","steam_id":76561199071455481,"connected_time":614000000000,"state":"active","ping":85},{"user_id":33,"name":"tortiglioni","steam_id":76561199131857098,"connected_time":449000000000,"state":"active","ping":63},{"user_id":34,"name":"killman47","steam_id":76561198348487408,"connected_time":164000000000,"state":"active","ping":37},{"user_id":35,"name":"boska","steam_id":76561199085790568,"connected_time":85000000000,"state":"active","ping":117}]},{"server_id":1,"name":"Uncletopia | Los Angeles | 1 | All Maps","name_short":"lax-1","host":"lax-1.us.uncletopia.com","port":27015,"enabled":true,"region":"us-west","cc":"us","latitude":33.94279,"longitude":-118.41004,"reserved":0,"last_update":"0001-01-01T00:00:00Z","name_a2s":"Uncletopia | Los Angeles | 1 | All Maps","protocol":17,"map":"pl_swiftwater_final1","folder":"tf","game":"Team Fortress","app_id":440,"player_count":20,"max_players":24,"Bots":0,"server_type":"Dedicated","server_os":"Linux","password":true,"vac":true,"version":"7757534","steam_id":85568392924469991,"keywords":["nocrits","nodmgspread","payload","uncletopia"],"game_id":440,"stv_port":27016,"stv_name":"Uncletopia | Los Angeles | 1 | All Maps | STV","players":[{"user_id":566,"name":"FROYO b4nny","steam_id":76561197970669109,"connected_time":2234000000000,"state":"active","ping":45},{"user_id":567,"name":"znooder","steam_id":76561198065219378,"connected_time":2153000000000,"state":"active","ping":56},{"user_id":604,"name":"McChezzy","steam_id":76561199125249222,"connected_time":110000000000,"state":"active","ping":49},{"user_id":553,"name":"zzz","steam_id":76561199066425911,"connected_time":2750000000000,"state":"active","ping":45},{"user_id":554,"name":"Nickolish","steam_id":76561198287046224,"connected_time":2724000000000,"state":"active","ping":48},{"user_id":555,"name":"Schnitz","steam_id":76561198265484253,"connected_time":2698000000000,"state":"active","ping":52},{"user_id":602,"name":"Type Three Dabeetus","steam_id":76561198062710038,"connected_time":485000000000,"state":"active","ping":56},{"user_id":558,"name":"Thequirka","steam_id":76561198968058652,"connected_time":2505000000000,"state":"active","ping":102},{"user_id":582,"name":"Longus capitis and longus colli","steam_id":76561199187641532,"connected_time":1141000000000,"state":"active","ping":105},{"user_id":590,"name":"Bhopping BoyClitty :3","steam_id":76561198819545533,"connected_time":930000000000,"state":"active","ping":120},{"user_id":561,"name":"| tanuki","steam_id":76561198050934893,"connected_time":2419000000000,"state":"active","ping":100},{"user_id":562,"name":"[o(≧▽≦)o] Neopolitan","steam_id":76561198024560655,"connected_time":2407000000000,"state":"active","ping":58},{"user_id":603,"name":"THE APPROACHING STORM","steam_id":76561198075004708,"connected_time":352000000000,"state":"active","ping":47},{"user_id":591,"name":"hot couch guy","steam_id":76561197996095202,"connected_time":898000000000,"state":"active","ping":58},{"user_id":570,"name":"wcdddddddddddd","steam_id":76561199467227500,"connected_time":2010000000000,"state":"active","ping":52},{"user_id":599,"name":"Xerkz","steam_id":76561198063335500,"connected_time":595000000000,"state":"active","ping":45},{"user_id":600,"name":"big car","steam_id":76561198067082350,"connected_time":553000000000,"state":"active","ping":48},{"user_id":601,"name":"The Rat","steam_id":76561198019915822,"connected_time":523000000000,"state":"active","ping":113},{"user_id":596,"name":"K4le","steam_id":76561198747668363,"connected_time":764000000000,"state":"active","ping":63},{"user_id":597,"name":"ContinuedBear","steam_id":76561198265176919,"connected_time":763000000000,"state":"active","ping":103}]},{"server_id":112,"name":"Uncletopia | Los Angeles | 2 | All Maps","name_short":"lax-2","host":"lax-1.us.uncletopia.com","port":27025,"enabled":true,"region":"us-west","cc":"us","latitude":33.94279,"longitude":-118.41004,"reserved":0,"last_update":"0001-01-01T00:00:00Z","name_a2s":"Uncletopia | Los Angeles | 2 | All Maps","protocol":17,"map":"koth_viaduct","folder":"tf","game":"Team Fortress","app_id":440,"player_count":0,"max_players":24,"Bots":0,"server_type":"Dedicated","server_os":"Linux","password":true,"vac":true,"version":"7757534","steam_id":85568392924469992,"keywords":["cp","nocrits","nodmgspread","uncletopia"],"game_id":440,"stv_port":27026,"stv_name":"Uncletopia | Los Angeles | 2 | All Maps | STV","players":null},{"server_id":324,"name":"Uncletopia | Los Angeles | 3 | All Maps","name_short":"lax-3","host":"lax-1.us.uncletopia.com","port":27035,"enabled":true,"region":"us-west","cc":"us","latitude":33.94279,"longitude":-118.41004,"reserved":0,"last_update":"0001-01-01T00:00:00Z","name_a2s":"Uncletopia | Los Angeles | 3 | All Maps","protocol":17,"map":"koth_viaduct","folder":"tf","game":"Team Fortress","app_id":440,"player_count":0,"max_players":24,"Bots":0,"server_type":"Dedicated","server_os":"Linux","password":true,"vac":true,"version":"7757534","steam_id":85568392924510198,"keywords":["cp","nocrits","nodmgspread","uncletopia"],"game_id":440,"stv_port":27036,"stv_name":"Uncletopia | Los Angeles | 3 | All Maps | STV","players":null},{"server_id":25,"name":"Uncletopia | Los Angeles | 4 | Stopwatch Beta","name_short":"lax-4","host":"lax-1.us.uncletopia.com","port":27045,"enabled":true,"region":"us-west","cc":"us","latitude":33.94279,"longitude":-118.41004,"reserved":0,"last_update":"0001-01-01T00:00:00Z","name_a2s":"Uncletopia | Los Angeles | 4 | Stopwatch Beta","protocol":17,"map":"pl_frontier_final","folder":"tf","game":"Team Fortress","app_id":440,"player_count":0,"max_players":24,"Bots":0,"server_type":"Dedicated","server_os":"Linux","password":true,"vac":true,"version":"7757534","steam_id":85568392924510199,"keywords":["nocrits","nodmgspread","payload","uncletopia"],"game_id":440,"stv_port":27046,"stv_name":"Uncletopia | Los Angeles | 4 | Stopwatch Beta | STV","players":null},{"server_id":11,"name":"Uncletopia | London | 1 | All Maps","name_short":"lon-1","host":"lon-1.uk.uncletopia.com","port":27015,"enabled":true,"region":"eu","cc":"gb","latitude":51.509865,"longitude":-0.118092,"reserved":0,"last_update":"0001-01-01T00:00:00Z","name_a2s":"Uncletopia | London | 1 | All Maps","protocol":17,"map":"pl_swiftwater_final1","folder":"tf","game":"Team Fortress","app_id":440,"player_count":18,"max_players":24,"Bots":0,"server_type":"Dedicated","server_os":"Linux","password":true,"vac":true,"version":"7757534","steam_id":85568392924367362,"keywords":["nocrits","nodmgspread","payload","uncletopia"],"game_id":440,"stv_port":27016,"stv_name":"Uncletopia | London | 1 | All Maps | STV","players":[{"user_id":24,"name":"Kedy","steam_id":76561198308990457,"connected_time":1631000000000,"state":"active","ping":137},{"user_id":53,"name":"ArikMor","steam_id":76561199124472513,"connected_time":46000000000,"state":"active","ping":119},{"user_id":10,"name":"antlionguard","steam_id":76561198072747143,"connected_time":3637000000000,"state":"active","ping":106},{"user_id":11,"name":"Slow Mode","steam_id":76561199414716848,"connected_time":3568000000000,"state":"active","ping":72},{"user_id":12,"name":"zheep","steam_id":76561199435854673,"connected_time":3349000000000,"state":"active","ping":44},{"user_id":35,"name":"nie mam komputera","steam_id":76561198963841479,"connected_time":925000000000,"state":"active","ping":97},{"user_id":28,"name":"Carreidas","steam_id":76561198056957730,"connected_time":1294000000000,"state":"active","ping":55},{"user_id":16,"name":"fried","steam_id":76561198307522022,"connected_time":2840000000000,"state":"active","ping":46},{"user_id":17,"name":"en","steam_id":76561199129590802,"connected_time":2786000000000,"state":"active","ping":156},{"user_id":52,"name":"Marcus Lee.","steam_id":76561198964861535,"connected_time":59000000000,"state":"spawning","ping":225},{"user_id":19,"name":"zabloing","steam_id":76561198339480413,"connected_time":2504000000000,"state":"active","ping":65},{"user_id":47,"name":"Flex","steam_id":76561197970482191,"connected_time":212000000000,"state":"active","ping":50},{"user_id":23,"name":"\u003eSix in swedish + y","steam_id":76561198372971096,"connected_time":2097000000000,"state":"active","ping":81},{"user_id":41,"name":"pirjo.takki [FIN]","steam_id":76561198357894803,"connected_time":632000000000,"state":"active","ping":85},{"user_id":31,"name":"Tangra","steam_id":76561199216124328,"connected_time":962000000000,"state":"active","ping":96},{"user_id":43,"name":"insanitY","steam_id":76561198055666742,"connected_time":493000000000,"state":"active","ping":112},{"user_id":44,"name":"JZ","steam_id":76561198377029198,"connected_time":405000000000,"state":"active","ping":171},{"user_id":46,"name":"MrXtr","steam_id":76561198966247397,"connected_time":327000000000,"state":"active","ping":74}]},{"server_id":114,"name":"Uncletopia | London | 2 | All Maps","name_short":"lon-2","host":"lon-1.uk.uncletopia.com","port":27025,"enabled":true,"region":"eu","cc":"gb","latitude":51.509865,"longitude":-0.118092,"reserved":0,"last_update":"0001-01-01T00:00:00Z","name_a2s":"Uncletopia | London | 2 | All Maps","protocol":17,"map":"cp_dustbowl","folder":"tf","game":"Team Fortress","app_id":440,"player_count":0,"max_players":24,"Bots":0,"server_type":"Dedicated","server_os":"Linux","password":true,"vac":true,"version":"7757534","steam_id":85568392924470941,"keywords":["cp","nocrits","nodmgspread","uncletopia"],"game_id":440,"stv_port":27026,"stv_name":"Uncletopia | London | 2 | All Maps | STV","players":null},{"server_id":320,"name":"Uncletopia | London | 3 | All Maps","name_short":"lon-3","host":"lon-1.uk.uncletopia.com","port":27035,"enabled":true,"region":"eu","cc":"gb","latitude":51.509865,"longitude":-0.118092,"reserved":0,"last_update":"0001-01-01T00:00:00Z","name_a2s":"Uncletopia | London | 3 | All Maps","protocol":17,"map":"pl_badwater","folder":"tf","game":"Team Fortress","app_id":440,"player_count":0,"max_players":24,"Bots":0,"server_type":"Dedicated","server_os":"Linux","password":true,"vac":true,"version":"7757534","steam_id":85568392924510192,"keywords":["nocrits","nodmgspread","payload","uncletopia"],"game_id":440,"stv_port":27036,"stv_name":"Uncletopia | London | 3 | All Maps | STV","players":null},{"server_id":321,"name":"Uncletopia | London | 4 | All Maps","name_short":"lon-4","host":"lon-1.uk.uncletopia.com","port":27045,"enabled":true,"region":"eu","cc":"gb","latitude":51.509865,"longitude":-0.118092,"reserved":0,"last_update":"0001-01-01T00:00:00Z","name_a2s":"Uncletopia | London | 4 | All Maps","protocol":17,"map":"koth_viaduct","folder":"tf","game":"Team Fortress","app_id":440,"player_count":0,"max_players":24,"Bots":0,"server_type":"Dedicated","server_os":"Linux","password":true,"vac":true,"version":"7757534","steam_id":85568392924510193,"keywords":["cp","nocrits","nodmgspread","uncletopia"],"game_id":440,"stv_port":27046,"stv_name":"Uncletopia | London | 4 | All Maps | STV","players":null},{"server_id":21,"name":"Uncletopia | London | 5 | All Maps","name_short":"lon-5","host":"lon-1.uk.uncletopia.com","port":27055,"enabled":true,"region":"eu","cc":"gb","latitude":51.509865,"longitude":-0.118092,"reserved":0,"last_update":"0001-01-01T00:00:00Z","name_a2s":"Uncletopia | London | 5 | All Maps","protocol":17,"map":"cp_snakewater_final1","folder":"tf","game":"Team Fortress","app_id":440,"player_count":0,"max_players":24,"Bots":0,"server_type":"Dedicated","server_os":"Linux","password":true,"vac":true,"version":"7757534","steam_id":85568392924742829,"keywords":["cp","nocrits","nodmgspread","uncletopia"],"game_id":440,"stv_port":27056,"stv_name":"Uncletopia | London | 5 | All Maps | STV","players":null},{"server_id":22,"name":"Uncletopia | London | 6 | All Maps","name_short":"lon-6","host":"lon-1.uk.uncletopia.com","port":27065,"enabled":true,"region":"eu","cc":"gb","latitude":51.509865,"longitude":-0.118092,"reserved":0,"last_update":"0001-01-01T00:00:00Z","name_a2s":"Uncletopia | London | 6 | All Maps","protocol":17,"map":"koth_cascade","folder":"tf","game":"Team Fortress","app_id":440,"player_count":0,"max_players":24,"Bots":0,"server_type":"Dedicated","server_os":"Linux","password":true,"vac":true,"version":"7757534","steam_id":85568392924742830,"keywords":["cp","nocrits","nodmgspread","uncletopia"],"game_id":440,"stv_port":27066,"stv_name":"Uncletopia | London | 6 | All Maps | STV","players":null},{"server_id":40,"name":"Uncletopia | London | 7 | No Payload","name_short":"lon-7","host":"lon-1.uk.uncletopia.com","port":27075,"enabled":true,"region":"eu","cc":"gb","latitude":51.509865,"longitude":-0.118092,"reserved":0,"last_update":"0001-01-01T00:00:00Z","name_a2s":"Uncletopia | London | 7 | No Payload","protocol":17,"map":"cp_process_final","folder":"tf","game":"Team Fortress","app_id":440,"player_count":0,"max_players":24,"Bots":0,"server_type":"Dedicated","server_os":"Linux","password":true,"vac":true,"version":"7757534","steam_id":85568392924964314,"keywords":["cp","nocrits","nodmgspread","uncletopia"],"game_id":440,"stv_port":27076,"stv_name":"Uncletopia | London | 7 | No Payload | STV","players":null},{"server_id":41,"name":"Uncletopia | London | 8 | Community","name_short":"lon-8","host":"lon-1.uk.uncletopia.com","port":27085,"enabled":true,"region":"eu","cc":"gb","latitude":51.509865,"longitude":-0.118092,"reserved":0,"last_update":"0001-01-01T00:00:00Z","name_a2s":"Uncletopia | London | 8 | Community","protocol":17,"map":"pl_upward","folder":"tf","game":"Team Fortress","app_id":440,"player_count":0,"max_players":24,"Bots":0,"server_type":"Dedicated","server_os":"Linux","password":true,"vac":true,"version":"7757534","steam_id":85568392924964315,"keywords":["nocrits","nodmgspread","payload","uncletopia"],"game_id":440,"stv_port":27086,"stv_name":"Uncletopia | London | 8 | Community | STV","players":null},{"server_id":300,"name":"Uncletopia | Montréal | 1 | All Maps","name_short":"mtl-1","host":"mtl-1.ca.uncletopia.com","port":27015,"enabled":true,"region":"us-east","cc":"ca","latitude":45.50889,"longitude":-73.56167,"reserved":0,"last_update":"0001-01-01T00:00:00Z","name_a2s":"Uncletopia | Montréal | 1 | All Maps","protocol":17,"map":"pl_badwater","folder":"tf","game":"Team Fortress","app_id":440,"player_count":0,"max_players":24,"Bots":0,"server_type":"Dedicated","server_os":"Linux","password":true,"vac":true,"version":"7757534","steam_id":85568392924500087,"keywords":["nocrits","nodmgspread","payload","uncletopia"],"game_id":440,"stv_port":27016,"stv_name":"Uncletopia | Montréal | 1 | All Maps | STV","players":null},{"server_id":301,"name":"Uncletopia | Montréal | 2 | All Maps","name_short":"mtl-2","host":"mtl-1.ca.uncletopia.com","port":27025,"enabled":true,"region":"us-east","cc":"ca","latitude":45.50889,"longitude":-73.56167,"reserved":0,"last_update":"0001-01-01T00:00:00Z","name_a2s":"Uncletopia | Montréal | 2 | All Maps","protocol":17,"map":"koth_highpass","folder":"tf","game":"Team Fortress","app_id":440,"player_count":0,"max_players":24,"Bots":0,"server_type":"Dedicated","server_os":"Linux","password":true,"vac":true,"version":"7757534","steam_id":85568392924500088,"keywords":["cp","nocrits","nodmgspread","uncletopia"],"game_id":440,"stv_port":27026,"stv_name":"Uncletopia | Montréal | 2 | All Maps | STV","players":null},{"server_id":302,"name":"Uncletopia | Montréal | 3 | All Maps","name_short":"mtl-3","host":"mtl-1.ca.uncletopia.com","port":27035,"enabled":true,"region":"us-east","cc":"ca","latitude":45.50889,"longitude":-73.56167,"reserved":0,"last_update":"0001-01-01T00:00:00Z","name_a2s":"Uncletopia | Montréal | 3 | All Maps","protocol":17,"map":"cp_dustbowl","folder":"tf","game":"Team Fortress","app_id":440,"player_count":0,"max_players":24,"Bots":0,"server_type":"Dedicated","server_os":"Linux","password":true,"vac":true,"version":"7757534","steam_id":85568392924500089,"keywords":["cp","nocrits","nodmgspread","uncletopia"],"game_id":440,"stv_port":27036,"stv_name":"Uncletopia | Montréal | 3 | All Maps | STV","players":null},{"server_id":303,"name":"Uncletopia | Montréal | 4 | No Payload","name_short":"mtl-4","host":"mtl-1.ca.uncletopia.com","port":27045,"enabled":true,"region":"us-east","cc":"ca","latitude":45.50889,"longitude":-73.56167,"reserved":0,"last_update":"0001-01-01T00:00:00Z","name_a2s":"Uncletopia | Montréal | 4 | No Payload","protocol":17,"map":"plr_bananabay","folder":"tf","game":"Team Fortress","app_id":440,"player_count":0,"max_players":24,"Bots":0,"server_type":"Dedicated","server_os":"Linux","password":true,"vac":true,"version":"7757534","steam_id":85568392924500090,"keywords":["nocrits","nodmgspread","payload","uncletopia"],"game_id":440,"stv_port":27046,"stv_name":"Uncletopia | Montréal | 4 | No Payload | STV","players":null},{"server_id":13,"name":"Uncletopia | New York City | 1 | All Maps","name_short":"nyc-1","host":"nyc-1.us.uncletopia.com","port":27015,"enabled":true,"region":"us-east","cc":"us","latitude":40.73061,"longitude":-73.93524,"reserved":0,"last_update":"0001-01-01T00:00:00Z","name_a2s":"Uncletopia | New York City | 1 | All Maps","protocol":17,"map":"koth_lakeside_final","folder":"tf","game":"Team Fortress","app_id":440,"player_count":0,"max_players":24,"Bots":0,"server_type":"Dedicated","server_os":"Linux","password":true,"vac":true,"version":"7757534","steam_id":85568392924469993,"keywords":["cp","nocrits","nodmgspread","uncletopia"],"game_id":440,"stv_port":27016,"stv_name":"Uncletopia | New York City | 1 | All Maps | STV","players":null},{"server_id":14,"name":"Uncletopia | New York City | 2 | All Maps","name_short":"nyc-2","host":"nyc-1.us.uncletopia.com","port":27025,"enabled":true,"region":"us-east","cc":"us","latitude":40.73061,"longitude":-73.93524,"reserved":0,"last_update":"0001-01-01T00:00:00Z","name_a2s":"Uncletopia | New York City | 2 | All Maps","protocol":17,"map":"pl_borneo","folder":"tf","game":"Team Fortress","app_id":440,"player_count":0,"max_players":24,"Bots":0,"server_type":"Dedicated","server_os":"Linux","password":true,"vac":true,"version":"7757534","steam_id":85568392924469994,"keywords":["nocrits","nodmgspread","payload","uncletopia"],"game_id":440,"stv_port":27026,"stv_name":"Uncletopia | New York City | 2 | All Maps | STV","players":null},{"server_id":15,"name":"Uncletopia | New York City | 3 | Stopwatch Beta","name_short":"nyc-3","host":"nyc-1.us.uncletopia.com","port":27035,"enabled":true,"region":"us-east","cc":"us","latitude":40.73061,"longitude":-73.93524,"reserved":0,"last_update":"0001-01-01T00:00:00Z","name_a2s":"Uncletopia | New York City | 3 | Stopwatch Beta","protocol":17,"map":"pl_borneo","folder":"tf","game":"Team Fortress","app_id":440,"player_count":0,"max_players":24,"Bots":0,"server_type":"Dedicated","server_os":"Linux","password":true,"vac":true,"version":"7757534","steam_id":85568392924742820,"keywords":["nocrits","nodmgspread","payload","uncletopia"],"game_id":440,"stv_port":27036,"stv_name":"Uncletopia | New York City | 3 | Stopwatch Beta | STV","players":null},{"server_id":16,"name":"Uncletopia | New York City | 4 | Community","name_short":"nyc-4","host":"nyc-1.us.uncletopia.com","port":27045,"enabled":true,"region":"us-east","cc":"us","latitude":40.73061,"longitude":-73.93524,"reserved":0,"last_update":"0001-01-01T00:00:00Z","name_a2s":"Uncletopia | New York City | 4 | Community","protocol":17,"map":"workshop/koth_ramjam_rc1.ugc459778887","folder":"tf","game":"Team Fortress","app_id":440,"player_count":0,"max_players":24,"Bots":0,"server_type":"Dedicated","server_os":"Linux","password":true,"vac":true,"version":"7757534","steam_id":85568392924742821,"keywords":["cp","nocrits","nodmgspread","uncletopia"],"game_id":440,"stv_port":27046,"stv_name":"Uncletopia | New York City | 4 | Community | STV","players":null},{"server_id":142,"name":"Uncletopia | São Paulo | 1 | All Maps","name_short":"sao-1","host":"sao-1.br.uncletopia.com","port":27015,"enabled":true,"region":"sa","cc":"br","latitude":-23.533773,"longitude":-46.62529,"reserved":0,"last_update":"0001-01-01T00:00:00Z","name_a2s":"Uncletopia | São Paulo | 1 | All Maps","protocol":17,"map":"koth_viaduct","folder":"tf","game":"Team Fortress","app_id":440,"player_count":0,"max_players":24,"Bots":0,"server_type":"Dedicated","server_os":"Linux","password":true,"vac":true,"version":"7757534","steam_id":85568392924469996,"keywords":["cp","nocrits","nodmgspread","uncletopia"],"game_id":440,"stv_port":27016,"stv_name":"Uncletopia | São Paulo | 1 | All Maps | STV","players":null},{"server_id":143,"name":"Uncletopia | São Paulo | 2 | All Maps","name_short":"sao-2","host":"sao-2.br.uncletopia.com","port":27015,"enabled":true,"region":"sa","cc":"br","latitude":-23.533773,"longitude":-46.62529,"reserved":0,"last_update":"0001-01-01T00:00:00Z","name_a2s":"Uncletopia | São Paulo | 2 | All Maps","protocol":17,"map":"koth_highpass","folder":"tf","game":"Team Fortress","app_id":440,"player_count":0,"max_players":24,"Bots":0,"server_type":"Dedicated","server_os":"Linux","password":true,"vac":true,"version":"7757534","steam_id":85568392924485349,"keywords":["cp","nocrits","nodmgspread","uncletopia"],"game_id":440,"stv_port":27016,"stv_name":"Uncletopia | São Paulo | 2 | All Maps | STV","players":null},{"server_id":7,"name":"Uncletopia | Seattle | 1 | All Maps","name_short":"sea-1","host":"sea-1.us.uncletopia.com","port":27015,"enabled":true,"region":"us-west","cc":"us","latitude":47.608013,"longitude":-122.33517,"reserved":0,"last_update":"0001-01-01T00:00:00Z","name_a2s":"Uncletopia | Seattle | 1 | All Maps","protocol":17,"map":"pl_badwater","folder":"tf","game":"Team Fortress","app_id":440,"player_count":24,"max_players":24,"Bots":0,"server_type":"Dedicated","server_os":"Linux","password":true,"vac":true,"version":"7757534","steam_id":85568392924469997,"keywords":["nocrits","nodmgspread","payload","uncletopia"],"game_id":440,"stv_port":27016,"stv_name":"Uncletopia | Seattle | 1 | All Maps | STV","players":[{"user_id":714,"name":"IzzyHoP","steam_id":76561197995927883,"connected_time":15443000000000,"state":"active","ping":59},{"user_id":847,"name":"John Calibur","steam_id":76561197999986606,"connected_time":4174000000000,"state":"active","ping":74},{"user_id":849,"name":"rorywashere /ᐠ - ˕ -マ Ⳋ","steam_id":76561198065825165,"connected_time":3666000000000,"state":"active","ping":108},{"user_id":858,"name":"Arsonist Goose","steam_id":76561198147441830,"connected_time":1886000000000,"state":"active","ping":75},{"user_id":829,"name":"SomeGuyWhoLikesPotatoes","steam_id":76561198110276797,"connected_time":6046000000000,"state":"active","ping":54},{"user_id":855,"name":"strbry","steam_id":76561198155133601,"connected_time":1991000000000,"state":"active","ping":57},{"user_id":844,"name":"mega","steam_id":76561198089520959,"connected_time":4662000000000,"state":"active","ping":89},{"user_id":827,"name":"thunderous prophet","steam_id":76561198131166135,"connected_time":6435000000000,"state":"active","ping":42},{"user_id":852,"name":"Bubbamanme","steam_id":76561198119778504,"connected_time":3422000000000,"state":"active","ping":63},{"user_id":819,"name":"NEBULA","steam_id":76561198086878595,"connected_time":6489000000000,"state":"active","ping":77},{"user_id":850,"name":"Clagger","steam_id":76561198066701092,"connected_time":3652000000000,"state":"active","ping":45},{"user_id":862,"name":"Akira","steam_id":76561198294601519,"connected_time":760000000000,"state":"active","ping":45},{"user_id":841,"name":"amoeba","steam_id":76561198970261784,"connected_time":5171000000000,"state":"active","ping":48},{"user_id":863,"name":"drink my *** u nasty ****","steam_id":76561199100813140,"connected_time":750000000000,"state":"active","ping":85},{"user_id":851,"name":"exephur","steam_id":76561198135763234,"connected_time":3651000000000,"state":"active","ping":74},{"user_id":807,"name":"jacix3 [gay wolfgirl]{she/it}","steam_id":76561198205004165,"connected_time":8769000000000,"state":"active","ping":57},{"user_id":859,"name":"HoaroBatty","steam_id":76561198120361221,"connected_time":1493000000000,"state":"active","ping":104},{"user_id":828,"name":"p9 jorts (trying new hud)","steam_id":76561199041179985,"connected_time":6349000000000,"state":"active","ping":67},{"user_id":857,"name":"mewtek","steam_id":76561198138599995,"connected_time":1933000000000,"state":"active","ping":105},{"user_id":839,"name":"144hz ed","steam_id":76561198080475712,"connected_time":5182000000000,"state":"active","ping":89},{"user_id":813,"name":"Ducks","steam_id":76561198130038345,"connected_time":7854000000000,"state":"active","ping":72},{"user_id":864,"name":"I_Want_A_Soft_Taco","steam_id":76561198225561352,"connected_time":736000000000,"state":"active","ping":96},{"user_id":854,"name":"eye see you","steam_id":76561198115242460,"connected_time":2688000000000,"state":"active","ping":51},{"user_id":861,"name":"Willy Wonker","steam_id":76561198082944789,"connected_time":1030000000000,"state":"active","ping":84}]},{"server_id":119,"name":"Uncletopia | Seattle | 2 | All Maps","name_short":"sea-2","host":"sea-1.us.uncletopia.com","port":27025,"enabled":true,"region":"us-west","cc":"us","latitude":47.608013,"longitude":-122.33517,"reserved":0,"last_update":"0001-01-01T00:00:00Z","name_a2s":"Uncletopia | Seattle | 2 | All Maps","protocol":17,"map":"cp_mountainlab","folder":"tf","game":"Team Fortress","app_id":440,"player_count":24,"max_players":24,"Bots":0,"server_type":"Dedicated","server_os":"Linux","password":true,"vac":true,"version":"7757534","steam_id":85568392924469998,"keywords":["cp","nocrits","nodmgspread","uncletopia"],"game_id":440,"stv_port":27026,"stv_name":"Uncletopia | Seattle | 2 | All Maps | STV","players":[{"user_id":811,"name":"disco","steam_id":76561198060756881,"connected_time":4294000000000,"state":"active","ping":123},{"user_id":869,"name":"serial humiliator","steam_id":76561198059772722,"connected_time":326000000000,"state":"active","ping":46},{"user_id":873,"name":"MyBreadislost","steam_id":76561199036723184,"connected_time":164000000000,"state":"active","ping":72},{"user_id":835,"name":"Dunkle","steam_id":76561198041903573,"connected_time":2166000000000,"state":"active","ping":44},{"user_id":861,"name":"Vivi","steam_id":76561198402450455,"connected_time":589000000000,"state":"active","ping":85},{"user_id":817,"name":"antlers","steam_id":76561198072515851,"connected_time":3991000000000,"state":"active","ping":84},{"user_id":834,"name":"cracky","steam_id":76561197971365444,"connected_time":2361000000000,"state":"active","ping":45},{"user_id":864,"name":"Professional MILF Enjoyer","steam_id":76561198066619792,"connected_time":521000000000,"state":"active","ping":75},{"user_id":839,"name":"Substitute Teacher Mr. Garvey","steam_id":76561198866629645,"connected_time":2051000000000,"state":"active","ping":57},{"user_id":865,"name":"hart lft","steam_id":76561198046073848,"connected_time":482000000000,"state":"active","ping":50},{"user_id":868,"name":"Florentine","steam_id":76561198107230148,"connected_time":337000000000,"state":"active","ping":127},{"user_id":867,"name":"everythingrhymeswithorange","steam_id":76561198010306193,"connected_time":424000000000,"state":"active","ping":67},{"user_id":852,"name":"Femboi Fox","steam_id":76561198915758702,"connected_time":1271000000000,"state":"active","ping":54},{"user_id":870,"name":"Arrythmia","steam_id":76561198093748123,"connected_time":313000000000,"state":"active","ping":50},{"user_id":849,"name":"Killer Slime","steam_id":76561198075583362,"connected_time":1564000000000,"state":"active","ping":76},{"user_id":876,"name":"⤣RASCAL","steam_id":76561198269038647,"connected_time":99000000000,"state":"active","ping":87},{"user_id":845,"name":"BambinoBlambert","steam_id":76561198061001234,"connected_time":1628000000000,"state":"active","ping":58},{"user_id":875,"name":"Luke","steam_id":76561198072441047,"connected_time":106000000000,"state":"active","ping":55},{"user_id":848,"name":"Rakk","steam_id":76561198855176174,"connected_time":1597000000000,"state":"active","ping":81},{"user_id":877,"name":"Kirbothebrony","steam_id":76561198971911330,"connected_time":24000000000,"state":"spawning","ping":108},{"user_id":857,"name":"Dr. Karl, the AUS Science Guy","steam_id":76561198031278747,"connected_time":738000000000,"state":"active","ping":42},{"user_id":819,"name":"Nahvee","steam_id":76561198119759695,"connected_time":3947000000000,"state":"active","ping":75},{"user_id":872,"name":"resh","steam_id":76561198239598834,"connected_time":301000000000,"state":"active","ping":139},{"user_id":775,"name":"Cabbage","steam_id":76561198057999536,"connected_time":7845000000000,"state":"active","ping":31}]},{"server_id":406,"name":"Uncletopia | Seattle | 3 | Stopwatch Beta","name_short":"sea-3","host":"sea-1.us.uncletopia.com","port":27035,"enabled":true,"region":"us-west","cc":"us","latitude":47.608013,"longitude":-122.33517,"reserved":0,"last_update":"0001-01-01T00:00:00Z","name_a2s":"Uncletopia | Seattle | 3 | Stopwatch Beta","protocol":17,"map":"workshop/koth_ramjam_rc1.ugc459778887","folder":"tf","game":"Team Fortress","app_id":440,"player_count":0,"max_players":24,"Bots":0,"server_type":"Dedicated","server_os":"Linux","password":true,"vac":true,"version":"7757534","steam_id":85568392924515217,"keywords":["cp","nocrits","nodmgspread","uncletopia"],"game_id":440,"stv_port":27036,"stv_name":"Uncletopia | Seattle | 3 | Stopwatch Beta | STV","players":null},{"server_id":17,"name":"Uncletopia | San Francisco | 1 | All Maps","name_short":"sfo-1","host":"sfo-1.us.uncletopia.com","port":27015,"enabled":true,"region":"us-west","cc":"us","latitude":37.77397,"longitude":-122.4313,"reserved":0,"last_update":"0001-01-01T00:00:00Z","name_a2s":"Uncletopia | San Francisco | 1 | All Maps","protocol":17,"map":"pl_upward","folder":"tf","game":"Team Fortress","app_id":440,"player_count":21,"max_players":24,"Bots":0,"server_type":"Dedicated","server_os":"Linux","password":true,"vac":true,"version":"7757534","steam_id":85568392924469999,"keywords":["nocrits","nodmgspread","payload","uncletopia"],"game_id":440,"stv_port":27016,"stv_name":"Uncletopia | San Francisco | 1 | All Maps | STV","players":[{"user_id":406,"name":"Bo Stunkulus","steam_id":76561198829326796,"connected_time":1591000000000,"state":"active","ping":69},{"user_id":415,"name":"Whimsical Sorcerer","steam_id":76561199072087645,"connected_time":1234000000000,"state":"active","ping":34},{"user_id":402,"name":"ScoutBox","steam_id":76561198111539895,"connected_time":1898000000000,"state":"active","ping":59},{"user_id":407,"name":"dzcreeper","steam_id":76561198072250723,"connected_time":1558000000000,"state":"active","ping":75},{"user_id":432,"name":"marvxpensiv3","steam_id":76561199020502894,"connected_time":510000000000,"state":"active","ping":99},{"user_id":433,"name":"goldhed","steam_id":76561198051751133,"connected_time":251000000000,"state":"active","ping":75},{"user_id":387,"name":"Rusty","steam_id":76561198055585129,"connected_time":3028000000000,"state":"active","ping":72},{"user_id":422,"name":"Jarvendis","steam_id":76561198056583581,"connected_time":866000000000,"state":"active","ping":70},{"user_id":400,"name":"Sunny","steam_id":76561198261667312,"connected_time":2304000000000,"state":"active","ping":64},{"user_id":403,"name":"FriskyDemon","steam_id":76561198043684646,"connected_time":1870000000000,"state":"active","ping":79},{"user_id":423,"name":"small little tiny guy","steam_id":76561198116726318,"connected_time":851000000000,"state":"active","ping":131},{"user_id":404,"name":"A lost cow.","steam_id":76561198047673765,"connected_time":1635000000000,"state":"active","ping":79},{"user_id":410,"name":"Ted Kaczynski Gaming (classic)","steam_id":76561198121468734,"connected_time":1483000000000,"state":"active","ping":70},{"user_id":424,"name":"FlamingManiac","steam_id":76561198361996837,"connected_time":787000000000,"state":"active","ping":130},{"user_id":434,"name":"served","steam_id":76561199438267625,"connected_time":5000000000,"state":"spawning","ping":65},{"user_id":301,"name":"Buswolley","steam_id":76561197995205571,"connected_time":9118000000000,"state":"active","ping":57},{"user_id":425,"name":"Sebster","steam_id":76561198356140395,"connected_time":734000000000,"state":"active","ping":45},{"user_id":417,"name":"Malmart_Employee","steam_id":76561198320388704,"connected_time":1158000000000,"state":"active","ping":72},{"user_id":429,"name":"Omega-Kiba","steam_id":76561198154594523,"connected_time":621000000000,"state":"active","ping":56},{"user_id":430,"name":"Cheff cook","steam_id":76561198451203268,"connected_time":602000000000,"state":"active","ping":51},{"user_id":431,"name":"billysexyhobo","steam_id":76561198354137633,"connected_time":577000000000,"state":"active","ping":94}]},{"server_id":18,"name":"Uncletopia | San Francisco | 2 | All Maps","name_short":"sfo-2","host":"sfo-1.us.uncletopia.com","port":27025,"enabled":true,"region":"us-west","cc":"us","latitude":37.77397,"longitude":-122.4313,"reserved":0,"last_update":"0001-01-01T00:00:00Z","name_a2s":"Uncletopia | San Francisco | 2 | All Maps","protocol":17,"map":"cp_mountainlab","folder":"tf","game":"Team Fortress","app_id":440,"player_count":0,"max_players":24,"Bots":0,"server_type":"Dedicated","server_os":"Linux","password":true,"vac":true,"version":"7757534","steam_id":85568392924470000,"keywords":["cp","nocrits","nodmgspread","uncletopia"],"game_id":440,"stv_port":27026,"stv_name":"Uncletopia | San Francisco | 2 | All Maps | STV","players":null},{"server_id":19,"name":"Uncletopia | San Francisco | 3 | Stopwatch Beta","name_short":"sfo-3","host":"sfo-1.us.uncletopia.com","port":27035,"enabled":true,"region":"us-west","cc":"us","latitude":37.77397,"longitude":-122.4313,"reserved":0,"last_update":"0001-01-01T00:00:00Z","name_a2s":"Uncletopia | San Francisco | 3 | Stopwatch Beta","protocol":17,"map":"pl_borneo","folder":"tf","game":"Team Fortress","app_id":440,"player_count":0,"max_players":24,"Bots":0,"server_type":"Dedicated","server_os":"Linux","password":true,"vac":true,"version":"7757534","steam_id":85568392924742824,"keywords":["nocrits","nodmgspread","payload","uncletopia"],"game_id":440,"stv_port":27036,"stv_name":"Uncletopia | San Francisco | 3 | Stopwatch Beta | STV","players":null},{"server_id":20,"name":"Uncletopia | San Francisco | 4 | Community","name_short":"sfo-4","host":"sfo-1.us.uncletopia.com","port":27045,"enabled":true,"region":"us-west","cc":"us","latitude":37.77397,"longitude":-122.4313,"reserved":0,"last_update":"0001-01-01T00:00:00Z","name_a2s":"Uncletopia | San Francisco | 4 | Community","protocol":17,"map":"workshop/cp_fulgur_rc2a.ugc2068252300","folder":"tf","game":"Team Fortress","app_id":440,"player_count":0,"max_players":24,"Bots":0,"server_type":"Dedicated","server_os":"Linux","password":true,"vac":true,"version":"7757534","steam_id":85568392924742826,"keywords":["cp","nocrits","nodmgspread","uncletopia"],"game_id":440,"stv_port":27046,"stv_name":"Uncletopia | San Francisco | 4 | Community | STV","players":null},{"server_id":141,"name":"Uncletopia | Sydney | 1 | All Maps","name_short":"syd-1","host":"syd-1.au.uncletopia.com","port":27015,"enabled":true,"region":"au","cc":"au","latitude":-33.865143,"longitude":151.2099,"reserved":0,"last_update":"0001-01-01T00:00:00Z","name_a2s":"Uncletopia | Sydney | 1 | All Maps","protocol":17,"map":"cp_dustbowl","folder":"tf","game":"Team Fortress","app_id":440,"player_count":23,"max_players":24,"Bots":0,"server_type":"Dedicated","server_os":"Linux","password":true,"vac":true,"version":"7757534","steam_id":85568392924470001,"keywords":["cp","nocrits","nodmgspread","uncletopia"],"game_id":440,"stv_port":27016,"stv_name":"Uncletopia | Sydney | 1 | All Maps | STV","players":[{"user_id":377,"name":"FrontlineNinja","steam_id":76561198046731954,"connected_time":6348000000000,"state":"active","ping":47},{"user_id":413,"name":"The Fesh Pince Of Blair","steam_id":76561198124442611,"connected_time":3145000000000,"state":"active","ping":84},{"user_id":459,"name":"DIY Miracle","steam_id":76561198046228152,"connected_time":83000000000,"state":"active","ping":60},{"user_id":446,"name":"giant skeleton","steam_id":76561198951165749,"connected_time":987000000000,"state":"active","ping":53},{"user_id":394,"name":"Maestro[FmJ]","steam_id":76561197996842734,"connected_time":4537000000000,"state":"active","ping":70},{"user_id":396,"name":"Pompadouraus","steam_id":76561198327530525,"connected_time":4463000000000,"state":"active","ping":75},{"user_id":444,"name":"Hawk","steam_id":76561198135164277,"connected_time":1088000000000,"state":"active","ping":55},{"user_id":370,"name":"old chunk of coal","steam_id":76561197990537324,"connected_time":6862000000000,"state":"active","ping":102},{"user_id":415,"name":"ToadFungus","steam_id":76561199219667039,"connected_time":3092000000000,"state":"active","ping":102},{"user_id":450,"name":"dinxie","steam_id":76561199448765541,"connected_time":835000000000,"state":"active","ping":83},{"user_id":443,"name":"♥ Sharpy \u003e v \u003c","steam_id":76561198091613743,"connected_time":1193000000000,"state":"active","ping":97},{"user_id":447,"name":"Twink-182","steam_id":76561198090088613,"connected_time":982000000000,"state":"active","ping":102},{"user_id":449,"name":"lofty","steam_id":76561198380588357,"connected_time":918000000000,"state":"active","ping":67},{"user_id":364,"name":"DragRiper","steam_id":76561198050917553,"connected_time":7224000000000,"state":"active","ping":57},{"user_id":453,"name":"Doctor Zarlo","steam_id":76561198040635388,"connected_time":556000000000,"state":"active","ping":40},{"user_id":433,"name":"₱elica₦","steam_id":76561198123827973,"connected_time":1914000000000,"state":"active","ping":94},{"user_id":385,"name":"oldbie","steam_id":76561198053297711,"connected_time":5801000000000,"state":"active","ping":79},{"user_id":427,"name":"Gamma","steam_id":76561198281131757,"connected_time":2342000000000,"state":"active","ping":61},{"user_id":457,"name":"Flightrisk","steam_id":76561199021529415,"connected_time":292000000000,"state":"active","ping":66},{"user_id":455,"name":"rambo","steam_id":76561199044403405,"connected_time":419000000000,"state":"active","ping":59},{"user_id":441,"name":"las","steam_id":76561198039162155,"connected_time":1507000000000,"state":"active","ping":61},{"user_id":426,"name":"Ponderosa","steam_id":76561199436707447,"connected_time":2350000000000,"state":"active","ping":52},{"user_id":436,"name":"4-Star Yelp Review","steam_id":76561197995258180,"connected_time":1770000000000,"state":"active","ping":54}]},{"server_id":123,"name":"Uncletopia | Sydney | 2 | All Maps","name_short":"syd-2","host":"syd-1.au.uncletopia.com","port":27025,"enabled":true,"region":"au","cc":"au","latitude":-33.865143,"longitude":151.2099,"reserved":0,"last_update":"0001-01-01T00:00:00Z","name_a2s":"Uncletopia | Sydney | 2 | All Maps","protocol":17,"map":"cp_mountainlab","folder":"tf","game":"Team Fortress","app_id":440,"player_count":20,"max_players":24,"Bots":0,"server_type":"Dedicated","server_os":"Linux","password":true,"vac":true,"version":"7757534","steam_id":85568392924470002,"keywords":["cp","nocrits","nodmgspread","uncletopia"],"game_id":440,"stv_port":27026,"stv_name":"Uncletopia | Sydney | 2 | All Maps | STV","players":[{"user_id":166,"name":"CouldBeKarlos","steam_id":76561198956180767,"connected_time":1336000000000,"state":"active","ping":50},{"user_id":93,"name":"Jaffy","steam_id":76561198050461756,"connected_time":5824000000000,"state":"active","ping":61},{"user_id":94,"name":"Docile","steam_id":76561198113688515,"connected_time":5811000000000,"state":"active","ping":61},{"user_id":168,"name":"the rot doesn't consume","steam_id":76561198866538028,"connected_time":949000000000,"state":"active","ping":85},{"user_id":184,"name":"bocky2","steam_id":76561198053972551,"connected_time":32000000000,"state":"active","ping":63},{"user_id":143,"name":"Robbie","steam_id":76561198150894900,"connected_time":3584000000000,"state":"active","ping":48},{"user_id":169,"name":"OiYaDog","steam_id":76561198131076075,"connected_time":897000000000,"state":"active","ping":66},{"user_id":170,"name":"MC pp man","steam_id":76561199121938819,"connected_time":824000000000,"state":"active","ping":75},{"user_id":185,"name":"child protective services","steam_id":76561199428970964,"connected_time":10000000000,"state":"active","ping":83},{"user_id":172,"name":"Wungus","steam_id":76561199193856542,"connected_time":808000000000,"state":"active","ping":91},{"user_id":178,"name":"Bingus","steam_id":76561198377766386,"connected_time":520000000000,"state":"active","ping":73},{"user_id":179,"name":"Skitario","steam_id":76561198387454901,"connected_time":519000000000,"state":"active","ping":57},{"user_id":163,"name":"Red Robot","steam_id":76561198192333355,"connected_time":1763000000000,"state":"active","ping":77},{"user_id":175,"name":"sadgasm","steam_id":76561198008230563,"connected_time":613000000000,"state":"active","ping":47},{"user_id":145,"name":"Kipster23","steam_id":76561198075807526,"connected_time":3556000000000,"state":"active","ping":72},{"user_id":176,"name":"MikkyD","steam_id":76561198043452962,"connected_time":598000000000,"state":"active","ping":61},{"user_id":177,"name":"Cup","steam_id":76561198038485845,"connected_time":578000000000,"state":"active","ping":19},{"user_id":182,"name":"Crimson Aurora","steam_id":76561198157492747,"connected_time":269000000000,"state":"active","ping":101},{"user_id":181,"name":"peanut","steam_id":76561198194693063,"connected_time":409000000000,"state":"active","ping":48},{"user_id":183,"name":"Glorious Boreas","steam_id":76561198047295349,"connected_time":264000000000,"state":"active","ping":34}]},{"server_id":395,"name":"Uncletopia | Sydney | 3 | All Maps","name_short":"syd-3","host":"syd-1.au.uncletopia.com","port":27035,"enabled":true,"region":"au","cc":"au","latitude":-33.865143,"longitude":151.2099,"reserved":0,"last_update":"0001-01-01T00:00:00Z","name_a2s":"Uncletopia | Sydney | 3 | All Maps","protocol":17,"map":"koth_viaduct","folder":"tf","game":"Team Fortress","app_id":440,"player_count":1,"max_players":24,"Bots":0,"server_type":"Dedicated","server_os":"Linux","password":true,"vac":true,"version":"7757534","steam_id":85568392925194467,"keywords":["cp","nocrits","nodmgspread","uncletopia"],"game_id":440,"stv_port":27036,"stv_name":"Uncletopia | Sydney | 3 | All Maps | STV","players":[{"user_id":14,"name":"PigRuler","steam_id":76561198054130501,"connected_time":50000000000,"state":"active","ping":46}]},{"server_id":396,"name":"Uncletopia | Sydney | 4 | All Maps","name_short":"syd-4","host":"syd-1.au.uncletopia.com","port":27045,"enabled":true,"region":"au","cc":"au","latitude":-33.865143,"longitude":151.2099,"reserved":0,"last_update":"0001-01-01T00:00:00Z","name_a2s":"Uncletopia | Sydney | 4 | All Maps","protocol":17,"map":"koth_lakeside_final","folder":"tf","game":"Team Fortress","app_id":440,"player_count":0,"max_players":24,"Bots":0,"server_type":"Dedicated","server_os":"Linux","password":true,"vac":true,"version":"7757534","steam_id":85568392925397958,"keywords":["cp","nocrits","nodmgspread","uncletopia"],"game_id":440,"stv_port":27046,"stv_name":"Uncletopia | Sydney | 4 | All Maps | STV","players":null},{"server_id":58,"name":"Uncletopia | Sydney | 5 | Stopwatch Beta","name_short":"syd-5","host":"syd-1.au.uncletopia.com","port":27055,"enabled":true,"region":"au","cc":"au","latitude":-33.865143,"longitude":151.2099,"reserved":0,"last_update":"0001-01-01T00:00:00Z","name_a2s":"Uncletopia | Sydney | 5 | Stopwatch Beta","protocol":17,"map":"koth_highpass","folder":"tf","game":"Team Fortress","app_id":440,"player_count":0,"max_players":24,"Bots":0,"server_type":"Dedicated","server_os":"Linux","password":true,"vac":true,"version":"7757534","steam_id":85568392925397959,"keywords":["cp","nocrits","nodmgspread","uncletopia"],"game_id":440,"stv_port":27056,"stv_name":"Uncletopia | Sydney | 5 | Stopwatch Beta | STV","players":null},{"server_id":59,"name":"Uncletopia | Sydney | 6 | Community","name_short":"syd-6","host":"syd-1.au.uncletopia.com","port":27065,"enabled":true,"region":"au","cc":"au","latitude":-33.865143,"longitude":151.2099,"reserved":0,"last_update":"0001-01-01T00:00:00Z","name_a2s":"Uncletopia | Sydney | 6 | Community","protocol":17,"map":"workshop/koth_trenchfoot_b1a.ugc731436616","folder":"tf","game":"Team Fortress","app_id":440,"player_count":0,"max_players":24,"Bots":0,"server_type":"Dedicated","server_os":"Linux","password":true,"vac":true,"version":"7757534","steam_id":85568392925397960,"keywords":["cp","nocrits","nodmgspread","uncletopia"],"game_id":440,"stv_port":27066,"stv_name":"Uncletopia | Sydney | 6 | Community | STV","players":null},{"server_id":49,"name":"Uncletopia | Warsaw | 1 | All Maps","name_short":"waw-1","host":"waw-1.pl.uncletopia.com","port":27015,"enabled":true,"region":"eu","cc":"pl","latitude":52.2297,"longitude":21.017532,"reserved":0,"last_update":"0001-01-01T00:00:00Z","name_a2s":"","protocol":0,"map":"","folder":"","game":"","app_id":0,"player_count":0,"max_players":0,"Bots":0,"server_type":"","server_os":"","password":false,"vac":false,"version":"","steam_id":0,"keywords":null,"game_id":0,"stv_port":0,"stv_name":"","players":null},{"server_id":50,"name":"Uncletopia | Warsaw | 2 | All Maps","name_short":"waw-2","host":"waw-1.pl.uncletopia.com","port":27025,"enabled":true,"region":"eu","cc":"pl","latitude":52.2297,"longitude":21.017532,"reserved":0,"last_update":"0001-01-01T00:00:00Z","name_a2s":"Uncletopia | Warsaw | 2 | All Maps","protocol":17,"map":"koth_highpass","folder":"tf","game":"Team Fortress","app_id":440,"player_count":0,"max_players":24,"Bots":0,"server_type":"Dedicated","server_os":"Linux","password":true,"vac":true,"version":"7757534","steam_id":85568392925397851,"keywords":["cp","nocrits","nodmgspread","uncletopia"],"game_id":440,"stv_port":27026,"stv_name":"Uncletopia | Warsaw | 2 | All Maps | STV","players":null},{"server_id":51,"name":"Uncletopia | Warsaw | 3 | All Maps","name_short":"waw-3","host":"waw-1.pl.uncletopia.com","port":27035,"enabled":true,"region":"eu","cc":"pl","latitude":52.2297,"longitude":21.017532,"reserved":0,"last_update":"0001-01-01T00:00:00Z","name_a2s":"Uncletopia | Warsaw | 3 | All Maps","protocol":17,"map":"pl_barnblitz","folder":"tf","game":"Team Fortress","app_id":440,"player_count":0,"max_players":24,"Bots":0,"server_type":"Dedicated","server_os":"Linux","password":true,"vac":true,"version":"7757534","steam_id":85568392925397852,"keywords":["nocrits","nodmgspread","payload","uncletopia"],"game_id":440,"stv_port":27036,"stv_name":"Uncletopia | Warsaw | 3 | All Maps | STV","players":null},{"server_id":52,"name":"Uncletopia | Warsaw | 4 | All Maps","name_short":"waw-4","host":"waw-1.pl.uncletopia.com","port":27045,"enabled":true,"region":"eu","cc":"pl","latitude":52.2297,"longitude":21.017532,"reserved":0,"last_update":"0001-01-01T00:00:00Z","name_a2s":"Uncletopia | Warsaw | 4 | All Maps","protocol":17,"map":"pl_snowycoast","folder":"tf","game":"Team Fortress","app_id":440,"player_count":0,"max_players":24,"Bots":0,"server_type":"Dedicated","server_os":"Linux","password":true,"vac":true,"version":"7757534","steam_id":85568392925397853,"keywords":["nocrits","nodmgspread","payload","uncletopia"],"game_id":440,"stv_port":27046,"stv_name":"Uncletopia | Warsaw | 4 | All Maps | STV","players":null},{"server_id":53,"name":"Uncletopia | Warsaw | 5 | Stopwatch Beta","name_short":"waw-5","host":"waw-1.pl.uncletopia.com","port":27055,"enabled":true,"region":"eu","cc":"pl","latitude":52.2297,"longitude":21.017532,"reserved":0,"last_update":"0001-01-01T00:00:00Z","name_a2s":"Uncletopia | Warsaw | 5 | Stopwatch Beta","protocol":17,"map":"pl_barnblitz","folder":"tf","game":"Team Fortress","app_id":440,"player_count":0,"max_players":24,"Bots":0,"server_type":"Dedicated","server_os":"Linux","password":true,"vac":true,"version":"7757534","steam_id":85568392925397854,"keywords":["nocrits","nodmgspread","payload","uncletopia"],"game_id":440,"stv_port":27056,"stv_name":"Uncletopia | Warsaw | 5 | Stopwatch Beta | STV","players":null},{"server_id":54,"name":"Uncletopia | Warsaw | 6 | Community","name_short":"waw-6","host":"waw-1.pl.uncletopia.com","port":27065,"enabled":true,"region":"eu","cc":"pl","latitude":52.2297,"longitude":21.017532,"reserved":0,"last_update":"0001-01-01T00:00:00Z","name_a2s":"Uncletopia | Warsaw | 6 | Community","protocol":17,"map":"pl_swiftwater_final1","folder":"tf","game":"Team Fortress","app_id":440,"player_count":0,"max_players":24,"Bots":0,"server_type":"Dedicated","server_os":"Linux","password":true,"vac":true,"version":"7757534","steam_id":85568392925397856,"keywords":["nocrits","nodmgspread","payload","uncletopia"],"game_id":440,"stv_port":27066,"stv_name":"Uncletopia | Warsaw | 6 | Community | STV","players":null}]}