{"status":true,"message":"","result":[{"server_id":9,"name":"Uncletopia | Atlanta | 1 | All Maps","name_short":"atl-1","host":"atl-1.us.uncletopia.com","port":27015,"enabled":true,"region":"us-east","cc":"us","latitude":33.753746,"longitude":-84.38633,"reserved":0,"last_update":"0001-01-01T00:00:00Z","name_a2s":"Uncletopia | Atlanta | 1 | All Maps","protocol":17,"map":"pl_pier","folder":"tf","game":"Team Fortress","app_id":440,"player_count":22,"max_players":24,"Bots":0,"server_type":"Dedicated","server_os":"Linux","password":true,"vac":true,"version":"7961495","steam_id":85568392924469982,"keywords":["nocrits","nodmgspread","payload","uncletopia"],"game_id":440,"stv_port":27016,"stv_name":"Uncletopia | Atlanta | 1 | All Maps | STV","players":null},{"server_id":104,"name":"Uncletopia | Atlanta | 2 | All Maps","name_short":"atl-2","host":"atl-1.us.uncletopia.com","port":27025,"enabled":true,"region":"us-east","cc":"us","latitude":33.753746,"longitude":-84.38633,"reserved":0,"last_update":"0001-01-01T00:00:00Z","name_a2s":"Uncletopia | Atlanta | 2 | All Maps","protocol":17,"map":"cp_altitude","folder":"tf","game":"Team Fortress","app_id":440,"player_count":21,"max_players":24,"Bots":0,"server_type":"Dedicated","server_os":"Linux","password":true,"vac":true,"version":"7961495","steam_id":85568392924469983,"keywords":["cp","nocrits","nodmgspread","uncletopia"],"game_id":440,"stv_port":27026,"stv_name":"Uncletopia | Atlanta | 2 | All Maps | STV","players":null},{"server_id":400,"name":"Uncletopia | Atlanta | 3 | Stopwatch","name_short":"atl-3","host":"atl-1.us.uncletopia.com","port":27035,"enabled":true,"region":"us-east","cc":"us","latitude":33.753746,"longitude":-84.38633,"reserved":0,"last_update":"0001-01-01T00:00:00Z","name_a2s":"Uncletopia | Atlanta | 3 | Stopwatch","protocol":17,"map":"cp_reckoner_rc6","folder":"tf","game":"Team Fortress","app_id":440,"player_count":0,"max_players":24,"Bots":0,"server_type":"Dedicated","server_os":"Linux","password":true,"vac":true,"version":"7961495","steam_id":85568392924515187,"keywords":["cp","nocrits","nodmgspread","uncletopia"],"game_id":440,"stv_port":27036,"stv_name":"Uncletopia | Atlanta | 3 | Stopwatch | STV","players":null},{"server_id":401,"name":"Uncletopia | Atlanta | 4 | Community","name_short":"atl-4","host":"atl-1.us.uncletopia.com","port":27045,"enabled":true,"region":"us-east","cc":"us","latitude":33.753746,"longitude":-84.38633,"reserved":0,"last_update":"0001-01-01T00:00:00Z","name_a2s":"Uncletopia | Atlanta | 4 | Community","protocol":17,"map":"koth_ashville_final","folder":"tf","game":"Team Fortress","app_id":440,"player_count":0,"max_players":24,"Bots":0,"server_type":"Dedicated","server_os":"Linux","password":true,"vac":true,"version":"7961495","steam_id":85568392924515188,"keywords":["cp","nocrits","nodmgspread","uncletopia"],"game_id":440,"stv_port":27046,"stv_name":"Uncletopia | Atlanta | 4 | Community | STV","players":null},{"server_id":2,"name":"Uncletopia | Chicago | 1 | All Maps","name_short":"chi-1","host":"chi-1.us.uncletopia.com","port":27015,"enabled":true,"region":"us-central","cc":"us","latitude":41.881832,"longitude":-87.62318,"reserved":0,"last_update":"0001-01-01T00:00:00Z","name_a2s":"Uncletopia | Chicago | 1 | All Maps","protocol":17,"map":"pl_snowycoast","folder":"tf","game":"Team Fortress","app_id":440,"player_count":24,"max_players":24,"Bots":0,"server_type":"Dedicated","server_os":"Linux","password":true,"vac":true,"version":"7961495","steam_id":85568392924469984,"keywords":["nocrits","nodmgspread","payload","uncletopia"],"game_id":440,"stv_port":27016,"stv_name":"Uncletopia | Chicago | 1 | All Maps | STV","players":[{"user_id":505,"name":"Space","steam_id":76561198350489754,"connected_time":387000000000,"state":"active","ping":38},{"user_id":474,"name":"Papa Smoke","steam_id":76561198181348206,"connected_time":1866000000000,"state":"active","ping":57},{"user_id":506,"name":"wait, huh?","steam_id":76561198139257660,"connected_time":343000000000,"state":"active","ping":99},{"user_id":498,"name":"HOMIE","steam_id":76561198057325155,"connected_time":570000000000,"state":"active","ping":59},{"user_id":414,"name":"fakeness","steam_id":76561198018811206,"connected_time":5889000000000,"state":"active","ping":74},{"user_id":503,"name":"fresco","steam_id":76561199101199477,"connected_time":408000000000,"state":"active","ping":67},{"user_id":454,"name":"cube","steam_id":76561197991759721,"connected_time":3383000000000,"state":"active","ping":60},{"user_id":495,"name":"H.","steam_id":76561198074951179,"connected_time":737000000000,"state":"active","ping":90},{"user_id":501,"name":"Karrot","steam_id":76561198058970903,"connected_time":467000000000,"state":"active","ping":68},{"user_id":477,"name":"Ice dispenser(real)","steam_id":76561198298310744,"connected_time":1809000000000,"state":"active","ping":68},{"user_id":508,"name":"Slightly Used Mango","steam_id":76561198293800794,"connected_time":74000000000,"state":"active","ping":60},{"user_id":491,"name":"articmonkeyass","steam_id":76561199148420326,"connected_time":818000000000,"state":"active","ping":80},{"user_id":489,"name":"Chicken Burger","steam_id":76561198358529311,"connected_time":905000000000,"state":"active","ping":109},{"user_id":504,"name":"jugo","steam_id":76561197995428542,"connected_time":406000000000,"state":"active","ping":101},{"user_id":507,"name":"deez ratz","steam_id":76561198864572366,"connected_time":340000000000,"state":"active","ping":99},{"user_id":452,"name":"aya","steam_id":76561198028563538,"connected_time":3687000000000,"state":"active","ping":77},{"user_id":500,"name":"GoldtoothFour","steam_id":76561198055529332,"connected_time":493000000000,"state":"active","ping":56},{"user_id":466,"name":"Yam Jazzy Jim","steam_id":76561198000788950,"connected_time":2868000000000,"state":"active","ping":72},{"user_id":492,"name":"BoysWhoCry(MEGAFAN)","steam_id":76561198106967143,"connected_time":816000000000,"state":"active","ping":72},{"user_id":487,"name":"Macko","steam_id":76561198452005461,"connected_time":1571000000000,"state":"active","ping":92},{"user_id":455,"name":"Your Local Queer Librarian","steam_id":76561198013077080,"connected_time":3368000000000,"state":"active","ping":59},{"user_id":509,"name":"Henry Ota-Clay","steam_id":76561198053232470,"connected_time":52000000000,"state":"active","ping":62},{"user_id":497,"name":"Lord Cockswain","steam_id":76561198116008410,"connected_time":709000000000,"state":"active","ping":105},{"user_id":483,"name":"/RANCID/Xanadu","steam_id":76561198025658602,"connected_time":1751000000000,"state":"active","ping":60}]},{"server_id":106,"name":"Uncletopia | Chicago | 2 | All Maps","name_short":"chi-2","host":"chi-1.us.uncletopia.com","port":27025,"enabled":true,"region":"us-central","cc":"us","latitude":41.881832,"longitude":-87.62318,"reserved":0,"last_update":"0001-01-01T00:00:00Z","name_a2s":"Uncletopia | Chicago | 2 | All Maps","protocol":17,"map":"koth_harvest_final","folder":"tf","game":"Team Fortress","app_id":440,"player_count":24,"max_players":24,"Bots":0,"server_type":"Dedicated","server_os":"Linux","password":true,"vac":true,"version":"7961495","steam_id":85568392924469985,"keywords":["cp","nocrits","nodmgspread","uncletopia"],"game_id":440,"stv_port":27026,"stv_name":"Uncletopia | Chicago | 2 | All Maps | STV","players":[{"user_id":340,"name":"Migute","steam_id":76561198332012726,"connected_time":2987000000000,"state":"active","ping":73},{"user_id":382,"name":"Le","steam_id":76561198817754233,"connected_time":394000000000,"state":"active","ping":61},{"user_id":354,"name":"Slip","steam_id":76561199057232579,"connected_time":2373000000000,"state":"active","ping":57},{"user_id":383,"name":"Vocalwerx","steam_id":76561198069526089,"connected_time":392000000000,"state":"active","ping":69},{"user_id":364,"name":"babywhoa","steam_id":76561198070854627,"connected_time":1340000000000,"state":"active","ping":103},{"user_id":344,"name":"Ceiling Man","steam_id":76561198003959902,"connected_time":2822000000000,"state":"active","ping":59},{"user_id":375,"name":"Fletcher","steam_id":76561198317846538,"connected_time":876000000000,"state":"active","ping":75},{"user_id":385,"name":"joe1993","steam_id":76561198992250013,"connected_time":366000000000,"state":"active","ping":64},{"user_id":334,"name":"the monkery","steam_id":76561198889699622,"connected_time":3496000000000,"state":"active","ping":136},{"user_id":360,"name":"MeKaso TropStar","steam_id":76561199109895840,"connected_time":1562000000000,"state":"active","ping":68},{"user_id":387,"name":"Grimace D. Drippings","steam_id":76561198050849790,"connected_time":333000000000,"state":"active","ping":105},{"user_id":250,"name":"SilverLife25","steam_id":76561198392015722,"connected_time":7732000000000,"state":"active","ping":82},{"user_id":346,"name":"Poop Deck Joe","steam_id":76561198271397568,"connected_time":2799000000000,"state":"active","ping":80},{"user_id":368,"name":"Harrier \"Harry\" du Bois","steam_id":76561198435876131,"connected_time":1166000000000,"state":"active","ping":64},{"user_id":391,"name":"peachy","steam_id":76561199148597957,"connected_time":90000000000,"state":"active","ping":85},{"user_id":386,"name":"randomperson88","steam_id":76561199228822173,"connected_time":363000000000,"state":"active","ping":47},{"user_id":377,"name":"skaska4","steam_id":76561198080606141,"connected_time":764000000000,"state":"active","ping":72},{"user_id":381,"name":"vv","steam_id":76561198134813102,"connected_time":654000000000,"state":"active","ping":53},{"user_id":374,"name":"Blue⛧Melon","steam_id":76561197970926435,"connected_time":893000000000,"state":"active","ping":76},{"user_id":378,"name":"Chris P. Bacon","steam_id":76561198000851038,"connected_time":736000000000,"state":"active","ping":79},{"user_id":379,"name":"BlackLynx","steam_id":76561198290299822,"connected_time":685000000000,"state":"active","ping":59},{"user_id":332,"name":"Eiss","steam_id":76561198343183806,"connected_time":3611000000000,"state":"active","ping":73},{"user_id":286,"name":"og biden pack cart","steam_id":76561198253731826,"connected_time":6361000000000,"state":"active","ping":61},{"user_id":390,"name":"Nightmarefoxy33","steam_id":76561199024470890,"connected_time":149000000000,"state":"active","ping":82}]},{"server_id":402,"name":"Uncletopia | Chicago | 3 | All Maps","name_short":"chi-3","host":"chi-1.us.uncletopia.com","port":27035,"enabled":true,"region":"us-central","cc":"us","latitude":41.881832,"longitude":-87.62318,"reserved":0,"last_update":"0001-01-01T00:00:00Z","name_a2s":"Uncletopia | Chicago | 3 | All Maps","protocol":17,"map":"pl_badwater","folder":"tf","game":"Team Fortress","app_id":440,"player_count":24,"max_players":24,"Bots":0,"server_type":"Dedicated","server_os":"Linux","password":true,"vac":true,"version":"7961495","steam_id":85568392924515191,"keywords":["nocrits","nodmgspread","payload","uncletopia"],"game_id":440,"stv_port":27036,"stv_name":"Uncletopia | Chicago | 3 | All Maps | STV","players":[{"user_id":254,"name":"Crustacean Daddy","steam_id":76561198993807061,"connected_time":2376000000000,"state":"active","ping":99},{"user_id":285,"name":"UNIT 220","steam_id":76561198042243497,"connected_time":352000000000,"state":"active","ping":64},{"user_id":240,"name":"rickyrickyricky","steam_id":76561198041765918,"connected_time":3067000000000,"state":"active","ping":80},{"user_id":268,"name":"Thumbs","steam_id":76561199065890132,"connected_time":1356000000000,"state":"active","ping":54},{"user_id":236,"name":"B.","steam_id":76561198040445907,"connected_time":3484000000000,"state":"active","ping":83},{"user_id":279,"name":"Epifiny","steam_id":76561198027958086,"connected_time":782000000000,"state":"active","ping":71},{"user_id":245,"name":"Soy King","steam_id":76561198263025614,"connected_time":2675000000000,"state":"active","ping":110},{"user_id":241,"name":"BU   O","steam_id":76561198871738546,"connected_time":2948000000000,"state":"active","ping":70},{"user_id":280,"name":"Degree","steam_id":76561198059812393,"connected_time":763000000000,"state":"active","ping":76},{"user_id":261,"name":"seinfeld dog","steam_id":76561199013337543,"connected_time":1977000000000,"state":"active","ping":74},{"user_id":275,"name":"PISS MAN","steam_id":76561199121903803,"connected_time":965000000000,"state":"active","ping":95},{"user_id":266,"name":"delusional schizophrenic","steam_id":76561198323435040,"connected_time":1557000000000,"state":"active","ping":60},{"user_id":286,"name":"gIBBY","steam_id":76561198080099598,"connected_time":29000000000,"state":"active","ping":60},{"user_id":281,"name":"Admiral Catradora","steam_id":76561198017271944,"connected_time":760000000000,"state":"active","ping":72},{"user_id":282,"name":"TrashBoat","steam_id":76561199089671432,"connected_time":718000000000,"state":"active","ping":86},{"user_id":287,"name":"Kyoya","steam_id":76561199214167494,"connected_time":21000000000,"state":"active","ping":70},{"user_id":276,"name":"Olitude","steam_id":76561199238964574,"connected_time":914000000000,"state":"active","ping":67},{"user_id":283,"name":"delegalize gaming NOW","steam_id":76561198004847013,"connected_time":676000000000,"state":"active","ping":93},{"user_id":264,"name":"(1)U SUX","steam_id":76561198167031395,"connected_time":1755000000000,"state":"active","ping":83},{"user_id":222,"name":"Bagbort","steam_id":76561198159339442,"connected_time":4386000000000,"state":"active","ping":74},{"user_id":278,"name":"jarrettconsult","steam_id":76561198249998262,"connected_time":878000000000,"state":"active","ping":80},{"user_id":203,"name":"u sux","steam_id":76561198112297509,"connected_time":5278000000000,"state":"active","ping":72},{"user_id":242,"name":"Rusty","steam_id":76561198055585129,"connected_time":2899000000000,"state":"active","ping":97},{"user_id":262,"name":"Vibe Check","steam_id":76561198087326826,"connected_time":1843000000000,"state":"active","ping":71}]},{"server_id":403,"name":"Uncletopia | Chicago | 4 | All Maps","name_short":"chi-4","host":"chi-1.us.uncletopia.com","port":27045,"enabled":true,"region":"us-central","cc":"us","latitude":41.881832,"longitude":-87.62318,"reserved":0,"last_update":"0001-01-01T00:00:00Z","name_a2s":"Uncletopia | Chicago | 4 | All Maps","protocol":17,"map":"cp_badlands","folder":"tf","game":"Team Fortress","app_id":440,"player_count":24,"max_players":24,"Bots":0,"server_type":"Dedicated","server_os":"Linux","password":true,"vac":true,"version":"7961495","steam_id":85568392924515193,"keywords":["cp","nocrits","nodmgspread","uncletopia"],"game_id":440,"stv_port":27046,"stv_name":"Uncletopia | Chicago | 4 | All Maps | STV","players":[{"user_id":131,"name":"Indigolake","steam_id":76561198202215807,"connected_time":1937000000000,"state":"active","ping":83},{"user_id":158,"name":"forg","steam_id":76561199160422863,"connected_time":247000000000,"state":"active","ping":123},{"user_id":125,"name":"TinyTator","steam_id":76561198799282234,"connected_time":2029000000000,"state":"active","ping":76},{"user_id":152,"name":"xveb","steam_id":76561198286179200,"connected_time":515000000000,"state":"active","ping":73},{"user_id":129,"name":"Iced Mustard","steam_id":76561198025407368,"connected_time":1968000000000,"state":"active","ping":90},{"user_id":143,"name":"dansal","steam_id":76561197997042510,"connected_time":1155000000000,"state":"active","ping":86},{"user_id":159,"name":"Pickle","steam_id":76561198399974317,"connected_time":230000000000,"state":"active","ping":70},{"user_id":151,"name":"Carlos Palma2","steam_id":76561198798258462,"connected_time":531000000000,"state":"active","ping":175},{"user_id":160,"name":"Acuzik","steam_id":76561198045453400,"connected_time":195000000000,"state":"active","ping":36},{"user_id":161,"name":"Level 1 Crook","steam_id":76561198441098132,"connected_time":171000000000,"state":"active","ping":42},{"user_id":84,"name":"hamilton","steam_id":76561198034096096,"connected_time":5932000000000,"state":"active","ping":85},{"user_id":150,"name":"MrKokonut","steam_id":76561198879575825,"connected_time":570000000000,"state":"active","ping":53},{"user_id":162,"name":"Jennifer Aniston's Nipples","steam_id":76561198086107548,"connected_time":169000000000,"state":"active","ping":77},{"user_id":147,"name":"BlaringDragon","steam_id":76561198988990835,"connected_time":892000000000,"state":"active","ping":84},{"user_id":163,"name":"veryscaryreaper","steam_id":76561198380018244,"connected_time":166000000000,"state":"active","ping":78},{"user_id":164,"name":"VORTEX!!!!!!!@","steam_id":76561199037197794,"connected_time":133000000000,"state":"active","ping":68},{"user_id":165,"name":"thistletown","steam_id":76561198404858264,"connected_time":113000000000,"state":"active","ping":71},{"user_id":104,"name":"WARIO CHEESE","steam_id":76561198083276946,"connected_time":4407000000000,"state":"active","ping":67},{"user_id":166,"name":"t3h PeNgU1N oF d00m","steam_id":76561198049258493,"connected_time":109000000000,"state":"active","ping":136},{"user_id":169,"name":"Nicolas Cage Kisses Mace Windu","steam_id":76561198046127710,"connected_time":30000000000,"state":"spawning","ping":44},{"user_id":126,"name":"Shooter of Walls","steam_id":76561197988105207,"connected_time":1984000000000,"state":"active","ping":68},{"user_id":155,"name":"Rock Kickass","steam_id":76561198450510841,"connected_time":393000000000,"state":"active","ping":121},{"user_id":157,"name":"Keymaster","steam_id":76561198881514228,"connected_time":350000000000,"state":"active","ping":78},{"user_id":142,"name":"grant","steam_id":76561198083266065,"connected_time":1390000000000,"state":"active","ping":56}]},{"server_id":36,"name":"Uncletopia | Chicago | 5 | All Maps","name_short":"chi-5","host":"chi-2.us.uncletopia.com","port":27015,"enabled":true,"region":"us-central","cc":"us","latitude":41.881832,"longitude":-87.62318,"reserved":0,"last_update":"0001-01-01T00:00:00Z","name_a2s":"Uncletopia | Chicago | 5 | All Maps","protocol":17,"map":"koth_viaduct","folder":"tf","game":"Team Fortress","app_id":440,"player_count":0,"max_players":24,"Bots":0,"server_type":"Dedicated","server_os":"Linux","password":true,"vac":true,"version":"7961495","steam_id":85568392924866362,"keywords":["cp","nocrits","nodmgspread","uncletopia"],"game_id":440,"stv_port":27016,"stv_name":"Uncletopia | Chicago | 5 | All Maps | STV","players":null},{"server_id":37,"name":"Uncletopia | Chicago | 6 | All Maps","name_short":"chi-6","host":"chi-2.us.uncletopia.com","port":27025,"enabled":true,"region":"us-central","cc":"us","latitude":41.881832,"longitude":-87.62318,"reserved":0,"last_update":"0001-01-01T00:00:00Z","name_a2s":"Uncletopia | Chicago | 6 | All Maps","protocol":17,"map":"pl_badwater","folder":"tf","game":"Team Fortress","app_id":440,"player_count":24,"max_players":24,"Bots":0,"server_type":"Dedicated","server_os":"Linux","password":true,"vac":true,"version":"7961495","steam_id":85568392924866363,"keywords":["nocrits","nodmgspread","payload","uncletopia"],"game_id":440,"stv_port":27026,"stv_name":"Uncletopia | Chicago | 6 | All Maps | STV","players":[{"user_id":421,"name":"doro","steam_id":76561198099041747,"connected_time":1735000000000,"state":"active","ping":90},{"user_id":437,"name":"Pop","steam_id":76561199012562851,"connected_time":953000000000,"state":"active","ping":84},{"user_id":367,"name":"chen","steam_id":76561198064872330,"connected_time":5106000000000,"state":"active","ping":64},{"user_id":450,"name":"starshow","steam_id":76561199499828758,"connected_time":306000000000,"state":"active","ping":72},{"user_id":390,"name":"Castroy","steam_id":76561198108160099,"connected_time":3917000000000,"state":"active","ping":61},{"user_id":407,"name":"NoobCesar","steam_id":76561198095250755,"connected_time":2629000000000,"state":"active","ping":66},{"user_id":442,"name":"Mr.Bones","steam_id":76561198205170595,"connected_time":808000000000,"state":"active","ping":90},{"user_id":431,"name":"Mog","steam_id":76561198025575870,"connected_time":1177000000000,"state":"active","ping":52},{"user_id":422,"name":"cixcin","steam_id":76561199215821942,"connected_time":1570000000000,"state":"active","ping":68},{"user_id":423,"name":"MrMind","steam_id":76561199321657653,"connected_time":1567000000000,"state":"active","ping":98},{"user_id":451,"name":"Prsm","steam_id":76561198053344995,"connected_time":282000000000,"state":"active","ping":59},{"user_id":439,"name":"rudy","steam_id":76561198088712799,"connected_time":843000000000,"state":"active","ping":77},{"user_id":410,"name":"Trash Eater","steam_id":76561199368799793,"connected_time":2530000000000,"state":"active","ping":54},{"user_id":440,"name":"Chhaam","steam_id":76561198058508132,"connected_time":812000000000,"state":"active","ping":60},{"user_id":432,"name":"Hindmost","steam_id":76561199081837220,"connected_time":1161000000000,"state":"active","ping":80},{"user_id":412,"name":"Zod","steam_id":76561197970504146,"connected_time":2442000000000,"state":"active","ping":66},{"user_id":413,"name":"Bob-Billy-Tim","steam_id":76561198354721271,"connected_time":2434000000000,"state":"active","ping":52},{"user_id":374,"name":"Ikalpo","steam_id":76561198044686915,"connected_time":4957000000000,"state":"active","ping":101},{"user_id":449,"name":"poopybutt420","steam_id":76561199000805315,"connected_time":452000000000,"state":"active","ping":104},{"user_id":435,"name":"DetectiveHorse","steam_id":76561198278726152,"connected_time":1024000000000,"state":"active","ping":77},{"user_id":427,"name":"crispylego_","steam_id":76561199453679719,"connected_time":1431000000000,"state":"active","ping":130},{"user_id":415,"name":"ⒸⓆⒷ","steam_id":76561199068623664,"connected_time":2374000000000,"state":"active","ping":124},{"user_id":419,"name":"consumer of bonk","steam_id":76561199041402389,"connected_time":2069000000000,"state":"active","ping":71},{"user_id":447,"name":"sabre","steam_id":76561198108685037,"connected_time":632000000000,"state":"active","ping":67}]},{"server_id":38,"name":"Uncletopia | Chicago | 7 | Stopwatch","name_short":"chi-7","host":"chi-2.us.uncletopia.com","port":27035,"enabled":true,"region":"us-central","cc":"us","latitude":41.881832,"longitude":-87.62318,"reserved":0,"last_update":"0001-01-01T00:00:00Z","name_a2s":"Uncletopia | Chicago | 7 | Stopwatch","protocol":17,"map":"workshop/koth_ashville_final.ugc2130459942","folder":"tf","game":"Team Fortress","app_id":440,"player_count":0,"max_players":24,"Bots":0,"server_type":"Dedicated","server_os":"Linux","password":true,"vac":true,"version":"7961495","steam_id":85568392924866364,"keywords":["cp","nocrits","nodmgspread","uncletopia"],"game_id":440,"stv_port":27036,"stv_name":"Uncletopia | Chicago | 7 | Stopwatch | STV","players":null},{"server_id":39,"name":"Uncletopia | Chicago | 8 | Community","name_short":"chi-8","host":"chi-2.us.uncletopia.com","port":27045,"enabled":true,"region":"us-central","cc":"us","latitude":41.881832,"longitude":-87.62318,"reserved":0,"last_update":"0001-01-01T00:00:00Z","name_a2s":"Uncletopia | Chicago | 8 | Community","protocol":17,"map":"pl_pier","folder":"tf","game":"Team Fortress","app_id":440,"player_count":0,"max_players":24,"Bots":0,"server_type":"Dedicated","server_os":"Linux","password":true,"vac":true,"version":"7961495","steam_id":85568392924866365,"keywords":["nocrits","nodmgspread","payload","uncletopia"],"game_id":440,"stv_port":27046,"stv_name":"Uncletopia | Chicago | 8 | Community | STV","players":null},{"server_id":8,"name":"Uncletopia | Dallas | 1 | All Maps","name_short":"dal-1","host":"dal-1.us.uncletopia.com","port":27015,"enabled":true,"region":"us-central","cc":"us","latitude":32.779167,"longitude":-96.80889,"reserved":0,"last_update":"0001-01-01T00:00:00Z","name_a2s":"Uncletopia | Dallas | 1 | All Maps","protocol":17,"map":"pl_snowycoast","folder":"tf","game":"Team Fortress","app_id":440,"player_count":24,"max_players":24,"Bots":0,"server_type":"Dedicated","server_os":"Linux","password":true,"vac":true,"version":"7961495","steam_id":85568392924469986,"keywords":["nocrits","nodmgspread","payload","uncletopia"],"game_id":440,"stv_port":27016,"stv_name":"Uncletopia | Dallas | 1 | All Maps | STV","players":[{"user_id":297,"name":"President Saget :)","steam_id":76561198071709455,"connected_time":277000000000,"state":"active","ping":78},{"user_id":296,"name":"whitepharaohbustdown29","steam_id":76561198165899125,"connected_time":307000000000,"state":"active","ping":93},{"user_id":274,"name":"Pixler544","steam_id":76561198240575132,"connected_time":1069000000000,"state":"active","ping":77},{"user_id":300,"name":"Tax","steam_id":76561198335683534,"connected_time":114000000000,"state":"active","ping":86},{"user_id":267,"name":"Bazingus","steam_id":76561199052834350,"connected_time":1522000000000,"state":"active","ping":74},{"user_id":271,"name":"ryfith","steam_id":76561198878986398,"connected_time":1320000000000,"state":"active","ping":48},{"user_id":283,"name":"Suenu","steam_id":76561198079437501,"connected_time":614000000000,"state":"active","ping":90},{"user_id":289,"name":"PizzaFratello","steam_id":76561199059951970,"connected_time":427000000000,"state":"active","ping":68},{"user_id":279,"name":"mmmmmmmmmmmmmmmmmm","steam_id":76561199267742979,"connected_time":806000000000,"state":"active","ping":93},{"user_id":280,"name":"moe","steam_id":76561198929586245,"connected_time":790000000000,"state":"active","ping":71},{"user_id":290,"name":"(◕‿◕✿)","steam_id":76561198228395556,"connected_time":423000000000,"state":"active","ping":75},{"user_id":282,"name":"Reznika","steam_id":76561198116144377,"connected_time":670000000000,"state":"active","ping":91},{"user_id":298,"name":"Dabbledornk","steam_id":76561198065241300,"connected_time":195000000000,"state":"active","ping":75},{"user_id":292,"name":"flaccid","steam_id":76561198299241777,"connected_time":397000000000,"state":"active","ping":95},{"user_id":270,"name":"uberslak","steam_id":76561198064715241,"connected_time":1440000000000,"state":"active","ping":122},{"user_id":285,"name":"Al'","steam_id":76561198105420574,"connected_time":581000000000,"state":"active","ping":70},{"user_id":249,"name":"master_minion","steam_id":76561198170693990,"connected_time":2125000000000,"state":"active","ping":81},{"user_id":256,"name":"Omega.J2","steam_id":76561198065028876,"connected_time":1906000000000,"state":"active","ping":101},{"user_id":257,"name":"the scrunkly","steam_id":76561198314640601,"connected_time":1902000000000,"state":"active","ping":80},{"user_id":272,"name":"avantime","steam_id":76561199203175541,"connected_time":1320000000000,"state":"active","ping":116},{"user_id":293,"name":"Lucas","steam_id":76561198399704604,"connected_time":386000000000,"state":"active","ping":101},{"user_id":255,"name":"brains","steam_id":76561198197388678,"connected_time":2016000000000,"state":"active","ping":60},{"user_id":294,"name":"w a o w","steam_id":76561198060769385,"connected_time":346000000000,"state":"active","ping":95},{"user_id":299,"name":"HornedAccomplice","steam_id":76561198171126347,"connected_time":183000000000,"state":"active","ping":77}]},{"server_id":108,"name":"Uncletopia | Dallas | 2 | All Maps","name_short":"dal-2","host":"dal-1.us.uncletopia.com","port":27025,"enabled":true,"region":"us-central","cc":"us","latitude":32.779167,"longitude":-96.80889,"reserved":0,"last_update":"0001-01-01T00:00:00Z","name_a2s":"Uncletopia | Dallas | 2 | All Maps","protocol":17,"map":"koth_lakeside_final","folder":"tf","game":"Team Fortress","app_id":440,"player_count":23,"max_players":24,"Bots":0,"server_type":"Dedicated","server_os":"Linux","password":true,"vac":true,"version":"7961495","steam_id":85568392924469988,"keywords":["cp","nocrits","nodmgspread","uncletopia"],"game_id":440,"stv_port":27026,"stv_name":"Uncletopia | Dallas | 2 | All Maps | STV","players":[{"user_id":213,"name":"The Boi Beej","steam_id":76561198058611758,"connected_time":2664000000000,"state":"active","ping":53},{"user_id":266,"name":"FREAKS","steam_id":76561198285819311,"connected_time":459000000000,"state":"active","ping":82},{"user_id":267,"name":"d4ngerd4n","steam_id":76561198043758735,"connected_time":427000000000,"state":"active","ping":88},{"user_id":251,"name":"ufo","steam_id":76561198018514993,"connected_time":1118000000000,"state":"active","ping":40},{"user_id":256,"name":"PsychoGhoul","steam_id":76561198105201552,"connected_time":910000000000,"state":"active","ping":84},{"user_id":261,"name":"Aerobro","steam_id":76561198033530996,"connected_time":679000000000,"state":"active","ping":68},{"user_id":247,"name":"robot legs","steam_id":76561198057681894,"connected_time":1219000000000,"state":"active","ping":91},{"user_id":259,"name":"Luky","steam_id":76561198970778850,"connected_time":713000000000,"state":"active","ping":75},{"user_id":265,"name":"Starlotte","steam_id":76561198204734477,"connected_time":601000000000,"state":"active","ping":100},{"user_id":268,"name":"Digit","steam_id":76561198156589157,"connected_time":243000000000,"state":"active","ping":91},{"user_id":216,"name":"Dirtbike rider","steam_id":76561198030457066,"connected_time":2649000000000,"state":"active","ping":62},{"user_id":260,"name":"Gragerus","steam_id":76561199434059545,"connected_time":705000000000,"state":"active","ping":84},{"user_id":270,"name":"poiuytrewqwqwqwqwqwqwqwqwqwqwqw","steam_id":76561199105253001,"connected_time":151000000000,"state":"active","ping":93},{"user_id":271,"name":"little man is chuffed","steam_id":76561198057054984,"connected_time":119000000000,"state":"active","ping":75},{"user_id":250,"name":"e##","steam_id":76561198126670166,"connected_time":1186000000000,"state":"active","ping":88},{"user_id":191,"name":"HUESO","steam_id":76561198276383681,"connected_time":4933000000000,"state":"active","ping":85},{"user_id":257,"name":"Zorlovo","steam_id":76561198006443283,"connected_time":890000000000,"state":"active","ping":73},{"user_id":113,"name":"Oopsie Daisy ❋","steam_id":76561198042144492,"connected_time":9828000000000,"state":"active","ping":74},{"user_id":253,"name":"WindWaker","steam_id":76561198245941534,"connected_time":1065000000000,"state":"active","ping":83},{"user_id":262,"name":"MrMacMundy","steam_id":76561198835230572,"connected_time":664000000000,"state":"active","ping":77},{"user_id":263,"name":"blunder","steam_id":76561198838223023,"connected_time":661000000000,"state":"active","ping":74},{"user_id":264,"name":"Chimpish","steam_id":76561199263493270,"connected_time":641000000000,"state":"active","ping":101},{"user_id":244,"name":"Pilot_Lite","steam_id":76561198149739820,"connected_time":1520000000000,"state":"active","ping":83}]},{"server_id":404,"name":"Uncletopia | Dallas | 3 | All Maps","name_short":"dal-3","host":"dal-1.us.uncletopia.com","port":27035,"enabled":true,"region":"us-central","cc":"us","latitude":32.779167,"longitude":-96.80889,"reserved":0,"last_update":"0001-01-01T00:00:00Z","name_a2s":"Uncletopia | Dallas | 3 | All Maps","protocol":17,"map":"koth_viaduct","folder":"tf","game":"Team Fortress","app_id":440,"player_count":6,"max_players":24,"Bots":0,"server_type":"Dedicated","server_os":"Linux","password":true,"vac":true,"version":"7961495","steam_id":85568392924515219,"keywords":["cp","nocrits","nodmgspread","uncletopia"],"game_id":440,"stv_port":27036,"stv_name":"Uncletopia | Dallas | 3 | All Maps | STV","players":[{"user_id":31,"name":"rin","steam_id":76561198155841915,"connected_time":420000000000,"state":"active","ping":90},{"user_id":29,"name":"jack_airshots","steam_id":76561198252328518,"connected_time":1345000000000,"state":"active","ping":75},{"user_id":30,"name":"Sebarko(Idk how to TF2)","steam_id":76561198853473934,"connected_time":532000000000,"state":"active","ping":84},{"user_id":27,"name":"Sup m8","steam_id":76561198081659121,"connected_time":1859000000000,"state":"active","ping":44},{"user_id":32,"name":"TrenchcoatCraig","steam_id":76561198295599533,"connected_time":263000000000,"state":"active","ping":70},{"user_id":33,"name":"Flaffy","steam_id":76561198420419892,"connected_time":35000000000,"state":"active","ping":79}]},{"server_id":405,"name":"Uncletopia | Dallas | 4 | Community","name_short":"dal-4","host":"dal-1.us.uncletopia.com","port":27045,"enabled":true,"region":"us-central","cc":"us","latitude":32.779167,"longitude":-96.80889,"reserved":0,"last_update":"0001-01-01T00:00:00Z","name_a2s":"Uncletopia | Dallas | 4 | Community","protocol":17,"map":"workshop/pl_barnblitz_pro7.ugc582280235","folder":"tf","game":"Team Fortress","app_id":440,"player_count":0,"max_players":24,"Bots":0,"server_type":"Dedicated","server_os":"Linux","password":true,"vac":true,"version":"7961495","steam_id":85568392924515220,"keywords":["nocrits","nodmgspread","payload","uncletopia"],"game_id":440,"stv_port":27046,"stv_name":"Uncletopia | Dallas | 4 | Community | STV","players":null},{"server_id":5,"name":"Uncletopia | Frankfurt | 1 | All Maps","name_short":"frk-1","host":"frk-1.de.uncletopia.com","port":27015,"enabled":true,"region":"eu","cc":"de","latitude":50.110924,"longitude":8.682127,"reserved":0,"last_update":"0001-01-01T00:00:00Z","name_a2s":"Uncletopia | Frankfurt | 1 | All Maps","protocol":17,"map":"pl_snowycoast","folder":"tf","game":"Team Fortress","app_id":440,"player_count":23,"max_players":24,"Bots":0,"server_type":"Dedicated","server_os":"Linux","password":true,"vac":true,"version":"7961495","steam_id":85568392924469989,"keywords":["nocrits","nodmgspread","payload","uncletopia"],"game_id":440,"stv_port":27016,"stv_name":"Uncletopia | Frankfurt | 1 | All Maps | STV","players":[{"user_id":611,"name":"Baskin","steam_id":76561198275982976,"connected_time":108000000000,"state":"active","ping":110},{"user_id":506,"name":"H-say","steam_id":76561198177400362,"connected_time":6015000000000,"state":"active","ping":82},{"user_id":612,"name":"McCheezy","steam_id":76561198834780242,"connected_time":50000000000,"state":"spawning","ping":90},{"user_id":590,"name":"PrivateHoria","steam_id":76561198334091691,"connected_time":1060000000000,"state":"active","ping":81},{"user_id":589,"name":"Pats","steam_id":76561198418538887,"connected_time":1533000000000,"state":"active","ping":96},{"user_id":604,"name":"wG auto","steam_id":76561198062247888,"connected_time":585000000000,"state":"active","ping":67},{"user_id":596,"name":"RadLad","steam_id":76561198364718461,"connected_time":766000000000,"state":"active","ping":122},{"user_id":602,"name":"Przemomalin","steam_id":76561197987528170,"connected_time":617000000000,"state":"active","ping":56},{"user_id":588,"name":"The man from the window","steam_id":76561198055949151,"connected_time":1592000000000,"state":"active","ping":58},{"user_id":597,"name":"Krstevski","steam_id":76561198319792428,"connected_time":734000000000,"state":"active","ping":69},{"user_id":606,"name":"♥ Cirno ♥","steam_id":76561198834982738,"connected_time":511000000000,"state":"active","ping":71},{"user_id":599,"name":"gaming (official)","steam_id":76561198106012909,"connected_time":698000000000,"state":"active","ping":65},{"user_id":610,"name":"gkisser","steam_id":76561198315371425,"connected_time":186000000000,"state":"active","ping":36},{"user_id":601,"name":"Dark Souls Reference","steam_id":76561198094102747,"connected_time":628000000000,"state":"active","ping":63},{"user_id":603,"name":"Fifibat","steam_id":76561198132981027,"connected_time":615000000000,"state":"active","ping":90},{"user_id":613,"name":"cuddles","steam_id":76561198805181599,"connected_time":11000000000,"state":"active","ping":97},{"user_id":587,"name":"MC DONALDS CHOOCHIE","steam_id":76561199012155377,"connected_time":1629000000000,"state":"active","ping":44},{"user_id":614,"name":"Yelowchy","steam_id":76561198199416121,"connected_time":5000000000,"state":"spawning","ping":60},{"user_id":615,"name":"Carl Gustav Jung","steam_id":76561198284558039,"connected_time":1000000000,"state":"spawning","ping":83},{"user_id":591,"name":"Axxion","steam_id":76561198083142916,"connected_time":937000000000,"state":"active","ping":65},{"user_id":580,"name":"Tazar","steam_id":76561198011291414,"connected_time":2080000000000,"state":"active","ping":63},{"user_id":607,"name":"Naatti","steam_id":76561198017729621,"connected_time":480000000000,"state":"active","ping":66},{"user_id":524,"name":"syms","steam_id":76561198066679812,"connected_time":5620000000000,"state":"active","ping":62}]},{"server_id":110,"name":"Uncletopia | Frankfurt | 2 | All Maps","name_short":"frk-2","host":"frk-1.de.uncletopia.com","port":27025,"enabled":true,"region":"eu","cc":"de","latitude":50.110924,"longitude":8.682127,"reserved":0,"last_update":"0001-01-01T00:00:00Z","name_a2s":"Uncletopia | Frankfurt | 2 | All Maps","protocol":17,"map":"cp_dustbowl","folder":"tf","game":"Team Fortress","app_id":440,"player_count":0,"max_players":24,"Bots":0,"server_type":"Dedicated","server_os":"Linux","password":true,"vac":true,"version":"7961495","steam_id":85568392924469990,"keywords":["cp","nocrits","nodmgspread","uncletopia"],"game_id":440,"stv_port":27026,"stv_name":"Uncletopia | Frankfurt | 2 | All Maps | STV","players":null},{"server_id":308,"name":"Uncletopia | Frankfurt | 3 | All Maps","name_short":"frk-3","host":"frk-1.de.uncletopia.com","port":27035,"enabled":true,"region":"eu","cc":"de","latitude":50.110924,"longitude":8.682127,"reserved":0,"last_update":"0001-01-01T00:00:00Z","name_a2s":"Uncletopia | Frankfurt | 3 | All Maps","protocol":17,"map":"pl_snowycoast","folder":"tf","game":"Team Fortress","app_id":440,"player_count":21,"max_players":24,"Bots":0,"server_type":"Dedicated","server_os":"Linux","password":true,"vac":true,"version":"7961495","steam_id":85568392924504274,"keywords":["nocrits","nodmgspread","payload","uncletopia"],"game_id":440,"stv_port":27036,"stv_name":"Uncletopia | Frankfurt | 3 | All Maps | STV","players":[{"user_id":198,"name":"LiterallyRyanGosling","steam_id":76561199017856691,"connected_time":6138000000000,"state":"active","ping":68},{"user_id":251,"name":"Prox","steam_id":76561198351490981,"connected_time":1137000000000,"state":"active","ping":54},{"user_id":252,"name":"¯\\_(ツ)_/¯","steam_id":76561198042372905,"connected_time":1106000000000,"state":"active","ping":46},{"user_id":195,"name":"Mischail","steam_id":76561198016127010,"connected_time":6180000000000,"state":"active","ping":75},{"user_id":230,"name":"Cabbch","steam_id":76561198045955679,"connected_time":3072000000000,"state":"active","ping":59},{"user_id":211,"name":"SoapDictator","steam_id":76561198010540358,"connected_time":3974000000000,"state":"active","ping":103},{"user_id":257,"name":"ouchie wouchies","steam_id":76561198105443986,"connected_time":829000000000,"state":"active","ping":74},{"user_id":248,"name":"KittyKate ❤","steam_id":76561198116340817,"connected_time":1981000000000,"state":"active","ping":61},{"user_id":254,"name":"Malkuth","steam_id":76561198058567662,"connected_time":1070000000000,"state":"active","ping":84},{"user_id":155,"name":"fish","steam_id":76561198092096689,"connected_time":8028000000000,"state":"active","ping":47},{"user_id":247,"name":"SuperSkrull","steam_id":76561198035695823,"connected_time":2038000000000,"state":"active","ping":87},{"user_id":239,"name":"knyazF","steam_id":76561198163278585,"connected_time":2228000000000,"state":"active","ping":68},{"user_id":233,"name":"Marquis de Hoto","steam_id":76561198080687708,"connected_time":2541000000000,"state":"active","ping":57},{"user_id":258,"name":"aGryphoN","steam_id":76561198245175308,"connected_time":507000000000,"state":"active","ping":61},{"user_id":231,"name":"Khrinde","steam_id":76561198036744526,"connected_time":3072000000000,"state":"active","ping":99},{"user_id":255,"name":"UpsetPuppy11","steam_id":76561199060288033,"connected_time":1044000000000,"state":"active","ping":87},{"user_id":221,"name":"bitkomet","steam_id":76561198058232147,"connected_time":3726000000000,"state":"active","ping":64},{"user_id":173,"name":"confusion","steam_id":76561199199499453,"connected_time":7351000000000,"state":"active","ping":67},{"user_id":249,"name":"BuzzBees ❤","steam_id":76561198101502273,"connected_time":1889000000000,"state":"active","ping":65},{"user_id":243,"name":"o_o","steam_id":76561198113045011,"connected_time":2089000000000,"state":"active","ping":90},{"user_id":256,"name":"volkiano","steam_id":76561198319802031,"connected_time":1028000000000,"state":"active","ping":62}]},{"server_id":309,"name":"Uncletopia | Frankfurt | 4 | All Maps","name_short":"frk-4","host":"frk-1.de.uncletopia.com","port":27045,"enabled":true,"region":"eu","cc":"de","latitude":50.110924,"longitude":8.682127,"reserved":0,"last_update":"0001-01-01T00:00:00Z","name_a2s":"Uncletopia | Frankfurt | 4 | All Maps","protocol":17,"map":"pl_swiftwater_final1","folder":"tf","game":"Team Fortress","app_id":440,"player_count":0,"max_players":24,"Bots":0,"server_type":"Dedicated","server_os":"Linux","password":true,"vac":true,"version":"7961495","steam_id":85568392924504275,"keywords":["nocrits","nodmgspread","payload","uncletopia"],"game_id":440,"stv_port":27046,"stv_name":"Uncletopia | Frankfurt | 4 | All Maps | STV","players":null},{"server_id":310,"name":"Uncletopia | Frankfurt | 5 | All Maps","name_short":"frk-5","host":"frk-1.de.uncletopia.com","port":27055,"enabled":true,"region":"eu","cc":"de","latitude":50.110924,"longitude":8.682127,"reserved":0,"last_update":"0001-01-01T00:00:00Z","name_a2s":"Uncletopia | Frankfurt | 5 | All Maps","protocol":17,"map":"pl_frontier_final","folder":"tf","game":"Team Fortress","app_id":440,"player_count":23,"max_players":24,"Bots":0,"server_type":"Dedicated","server_os":"Linux","password":true,"vac":true,"version":"7961495","steam_id":85568392924504277,"keywords":["nocrits","nodmgspread","payload","uncletopia"],"game_id":440,"stv_port":27056,"stv_name":"Uncletopia | Frankfurt | 5 | All Maps | STV","players":[{"user_id":410,"name":"frbuz","steam_id":76561198327135462,"connected_time":443000000000,"state":"active","ping":171},{"user_id":327,"name":"Q U E E N A L E X","steam_id":76561198186341157,"connected_time":7160000000000,"state":"active","ping":61},{"user_id":392,"name":"mq","steam_id":76561198091888948,"connected_time":2321000000000,"state":"active","ping":52},{"user_id":371,"name":"frog on the floor","steam_id":76561198334042273,"connected_time":3367000000000,"state":"active","ping":66},{"user_id":394,"name":"Towercat","steam_id":76561198013141793,"connected_time":2062000000000,"state":"active","ping":68},{"user_id":372,"name":"simon","steam_id":76561198880361394,"connected_time":3362000000000,"state":"active","ping":44},{"user_id":408,"name":"akciq ⁧⁧respect","steam_id":76561198390963456,"connected_time":475000000000,"state":"active","ping":64},{"user_id":412,"name":"Buru","steam_id":76561198024146649,"connected_time":379000000000,"state":"active","ping":45},{"user_id":409,"name":"bowchika wowa #SlavaUkraine","steam_id":76561198159564550,"connected_time":450000000000,"state":"active","ping":73},{"user_id":375,"name":"speedy-heavy","steam_id":76561198124991468,"connected_time":3247000000000,"state":"active","ping":61},{"user_id":376,"name":"Furno","steam_id":76561197999723047,"connected_time":3233000000000,"state":"active","ping":61},{"user_id":377,"name":"OpticalBlack","steam_id":76561198038624807,"connected_time":3174000000000,"state":"active","ping":101},{"user_id":388,"name":"rower123","steam_id":76561198265062481,"connected_time":2623000000000,"state":"active","ping":88},{"user_id":417,"name":"tone","steam_id":76561197975301462,"connected_time":174000000000,"state":"active","ping":75},{"user_id":418,"name":"DeepFox","steam_id":76561198368843471,"connected_time":68000000000,"state":"active","ping":71},{"user_id":406,"name":"CiVillain","steam_id":76561198059617732,"connected_time":924000000000,"state":"active","ping":56},{"user_id":411,"name":"RICE","steam_id":76561198846690080,"connected_time":441000000000,"state":"active","ping":128},{"user_id":381,"name":"howabe","steam_id":76561197996486818,"connected_time":2972000000000,"state":"active","ping":50},{"user_id":414,"name":"Ryan Gosling (Literally me)","steam_id":76561198438150893,"connected_time":298000000000,"state":"active","ping":104},{"user_id":415,"name":"WALL","steam_id":76561198258487465,"connected_time":286000000000,"state":"active","ping":89},{"user_id":416,"name":"Chev Chelios","steam_id":76561198408709505,"connected_time":264000000000,"state":"active","ping":126},{"user_id":384,"name":"gagalak","steam_id":76561198089979108,"connected_time":2830000000000,"state":"active","ping":90},{"user_id":393,"name":"HelwiiHill","steam_id":76561198066730552,"connected_time":2285000000000,"state":"active","ping":77}]},{"server_id":311,"name":"Uncletopia | Frankfurt | 6 | All Maps","name_short":"frk-6","host":"frk-1.de.uncletopia.com","port":27065,"enabled":true,"region":"eu","cc":"de","latitude":50.110924,"longitude":8.682127,"reserved":0,"last_update":"0001-01-01T00:00:00Z","name_a2s":"Uncletopia | Frankfurt | 6 | All Maps","protocol":17,"map":"plr_pipeline","folder":"tf","game":"Team Fortress","app_id":440,"player_count":0,"max_players":24,"Bots":0,"server_type":"Dedicated","server_os":"Linux","password":true,"vac":true,"version":"7961495","steam_id":85568392924504278,"keywords":["nocrits","nodmgspread","payload","uncletopia"],"game_id":440,"stv_port":27066,"stv_name":"Uncletopia | Frankfurt | 6 | All Maps | STV","players":null},{"server_id":23,"name":"Uncletopia | Frankfurt | 7 | Stopwatch","name_short":"frk-7","host":"frk-1.de.uncletopia.com","port":27075,"enabled":true,"region":"eu","cc":"de","latitude":50.110924,"longitude":8.682127,"reserved":0,"last_update":"0001-01-01T00:00:00Z","name_a2s":"Uncletopia | Frankfurt | 7 | Stopwatch","protocol":17,"map":"workshop/koth_bagel_rc6.ugc2514036946","folder":"tf","game":"Team Fortress","app_id":440,"player_count":0,"max_players":24,"Bots":0,"server_type":"Dedicated","server_os":"Linux","password":true,"vac":true,"version":"7961495","steam_id":85568392924742827,"keywords":["cp","nocrits","nodmgspread","uncletopia"],"game_id":440,"stv_port":27076,"stv_name":"Uncletopia | Frankfurt | 7 | Stopwatch | STV","players":null},{"server_id":24,"name":"Uncletopia | Frankfurt | 8 | Community","name_short":"frk-8","host":"frk-1.de.uncletopia.com","port":27085,"enabled":true,"region":"eu","cc":"de","latitude":50.110924,"longitude":8.682127,"reserved":0,"last_update":"0001-01-01T00:00:00Z","name_a2s":"Uncletopia | Frankfurt | 8 | Community","protocol":17,"map":"workshop/koth_kemptown_rc1.ugc767410655","folder":"tf","game":"Team Fortress","app_id":440,"player_count":0,"max_players":24,"Bots":0,"server_type":"Dedicated","server_os":"Linux","password":true,"vac":true,"version":"7961495","steam_id":85568392924742828,"keywords":["cp","nocrits","nodmgspread","uncletopia"],"game_id":440,"stv_port":27086,"stv_name":"Uncletopia | Frankfurt | 8 | Community | STV","players":null},{"server_id":202,"name":"Uncletopia | Hong Kong | 1 | All Maps","name_short":"hgk-1","host":"hgk-1.hk.uncletopia.com","port":27015,"enabled":true,"region":"asia","cc":"hk","latitude":22.302711,"longitude":114.177216,"reserved":0,"last_update":"0001-01-01T00:00:00Z","name_a2s":"Uncletopia | Hong Kong | 1 | All Maps","protocol":17,"map":"pl_frontier_final","folder":"tf","game":"Team Fortress","app_id":440,"player_count":0,"max_players":24,"Bots":0,"server_type":"Dedicated","server_os":"Linux","password":true,"vac":true,"version":"7961495","steam_id":85568392924494504,"keywords":["nocrits","nodmgspread","payload","uncletopia"],"game_id":440,"stv_port":27016,"stv_name":"Uncletopia | Hong Kong | 1 | All Maps | STV","players":null},{"server_id":1,"name":"Uncletopia | Los Angeles | 1 | All Maps","name_short":"lax-1","host":"lax-1.us.uncletopia.com","port":27015,"enabled":true,"region":"us-west","cc":"us","latitude":33.94279,"longitude":-118.41004,"reserved":0,"last_update":"0001-01-01T00:00:00Z","name_a2s":"Uncletopia | Los Angeles | 1 | All Maps","protocol":17,"map":"pl_badwater","folder":"tf","game":"Team Fortress","app_id":440,"player_count":4,"max_players":24,"Bots":0,"server_type":"Dedicated","server_os":"Linux","password":true,"vac":true,"version":"7961495","steam_id":85568392924469991,"keywords":["nocrits","nodmgspread","payload","uncletopia"],"game_id":440,"stv_port":27016,"stv_name":"Uncletopia | Los Angeles | 1 | All Maps | STV","players":[{"user_id":10,"name":"TheDoctorIsIn","steam_id":76561198322058639,"connected_time":2451000000000,"state":"active","ping":95},{"user_id":12,"name":"sillyelijah","steam_id":76561199142699662,"connected_time":645000000000,"state":"active","ping":45},{"user_id":16,"name":"Cybertruck","steam_id":76561197993623674,"connected_time":39000000000,"state":"active","ping":73},{"user_id":15,"name":"ishfulness","steam_id":76561197999655436,"connected_time":172000000000,"state":"active","ping":83}]},{"server_id":112,"name":"Uncletopia | Los Angeles | 2 | All Maps","name_short":"lax-2","host":"lax-1.us.uncletopia.com","port":27025,"enabled":true,"region":"us-west","cc":"us","latitude":33.94279,"longitude":-118.41004,"reserved":0,"last_update":"0001-01-01T00:00:00Z","name_a2s":"Uncletopia | Los Angeles | 2 | All Maps","protocol":17,"map":"cp_mossrock","folder":"tf","game":"Team Fortress","app_id":440,"player_count":15,"max_players":24,"Bots":0,"server_type":"Dedicated","server_os":"Linux","password":true,"vac":true,"version":"7961495","steam_id":85568392924469992,"keywords":["cp","nocrits","nodmgspread","uncletopia"],"game_id":440,"stv_port":27026,"stv_name":"Uncletopia | Los Angeles | 2 | All Maps | STV","players":[{"user_id":134,"name":"Krustytoepaste","steam_id":76561198320265524,"connected_time":604000000000,"state":"active","ping":56},{"user_id":140,"name":"BroBoss64","steam_id":76561198995865904,"connected_time":124000000000,"state":"active","ping":92},{"user_id":107,"name":"Hektur Salmondchonka","steam_id":76561198136982572,"connected_time":2098000000000,"state":"active","ping":79},{"user_id":135,"name":"Shinyeet","steam_id":76561198397300743,"connected_time":586000000000,"state":"active","ping":77},{"user_id":141,"name":"JohnnyGitGud","steam_id":76561198401455467,"connected_time":91000000000,"state":"active","ping":52},{"user_id":137,"name":"FI LO","steam_id":76561198976530881,"connected_time":428000000000,"state":"active","ping":30},{"user_id":142,"name":"greenwolf1344","steam_id":76561199473881733,"connected_time":78000000000,"state":"active","ping":114},{"user_id":104,"name":"Jimmy","steam_id":76561198857959855,"connected_time":2585000000000,"state":"active","ping":38},{"user_id":143,"name":"adapt","steam_id":76561198156181017,"connected_time":72000000000,"state":"active","ping":56},{"user_id":120,"name":"Tmiracle","steam_id":76561198052375275,"connected_time":1790000000000,"state":"active","ping":45},{"user_id":106,"name":"KlassicLoL","steam_id":76561198081815303,"connected_time":2131000000000,"state":"active","ping":43},{"user_id":131,"name":"Waterhorse928","steam_id":76561198268204050,"connected_time":1081000000000,"state":"active","ping":57},{"user_id":114,"name":"Laxoloni","steam_id":76561199197045700,"connected_time":1913000000000,"state":"active","ping":72},{"user_id":116,"name":"fish (2:3)","steam_id":76561198134331073,"connected_time":1864000000000,"state":"active","ping":81},{"user_id":121,"name":"nella","steam_id":76561198079349621,"connected_time":1740000000000,"state":"active","ping":53}]},{"server_id":324,"name":"Uncletopia | Los Angeles | 3 | All Maps","name_short":"lax-3","host":"lax-1.us.uncletopia.com","port":27035,"enabled":true,"region":"us-west","cc":"us","latitude":33.94279,"longitude":-118.41004,"reserved":0,"last_update":"0001-01-01T00:00:00Z","name_a2s":"Uncletopia | Los Angeles | 3 | All Maps","protocol":17,"map":"pl_snowycoast","folder":"tf","game":"Team Fortress","app_id":440,"player_count":0,"max_players":24,"Bots":0,"server_type":"Dedicated","server_os":"Linux","password":true,"vac":true,"version":"7961495","steam_id":85568392924510198,"keywords":["nocrits","nodmgspread","payload","uncletopia"],"game_id":440,"stv_port":27036,"stv_name":"Uncletopia | Los Angeles | 3 | All Maps | STV","players":null},{"server_id":25,"name":"Uncletopia | Los Angeles | 4 | Stopwatch","name_short":"lax-4","host":"lax-1.us.uncletopia.com","port":27045,"enabled":true,"region":"us-west","cc":"us","latitude":33.94279,"longitude":-118.41004,"reserved":0,"last_update":"0001-01-01T00:00:00Z","name_a2s":"Uncletopia | Los Angeles | 4 | Stopwatch","protocol":17,"map":"workshop/koth_ramjam_rc1.ugc459778887","folder":"tf","game":"Team Fortress","app_id":440,"player_count":1,"max_players":24,"Bots":0,"server_type":"Dedicated","server_os":"Linux","password":true,"vac":true,"version":"7961495","steam_id":85568392924510199,"keywords":["cp","nocrits","nodmgspread","uncletopia"],"game_id":440,"stv_port":27046,"stv_name":"Uncletopia | Los Angeles | 4 | Stopwatch | STV","players":[{"user_id":7,"name":"dgamefather™","steam_id":76561197993881955,"connected_time":985000000000,"state":"active","ping":78}]},{"server_id":11,"name":"Uncletopia | London | 1 | All Maps","name_short":"lon-1","host":"lon-1.uk.uncletopia.com","port":27015,"enabled":true,"region":"eu","cc":"gb","latitude":51.509865,"longitude":-0.118092,"reserved":0,"last_update":"0001-01-01T00:00:00Z","name_a2s":"Uncletopia | London | 1 | All Maps","protocol":17,"map":"cp_mercenarypark","folder":"tf","game":"Team Fortress","app_id":440,"player_count":24,"max_players":24,"Bots":0,"server_type":"Dedicated","server_os":"Linux","password":true,"vac":true,"version":"7961495","steam_id":85568392924367362,"keywords":["cp","nocrits","nodmgspread","uncletopia"],"game_id":440,"stv_port":27016,"stv_name":"Uncletopia | London | 1 | All Maps | STV","players":[{"user_id":576,"name":"BEDA","steam_id":76561198277943630,"connected_time":6510000000000,"state":"active","ping":79},{"user_id":589,"name":"Minimi","steam_id":76561198873850443,"connected_time":5562000000000,"state":"active","ping":44},{"user_id":620,"name":"⸸aura⸸","steam_id":76561198066258544,"connected_time":1349000000000,"state":"active","ping":63},{"user_id":546,"name":"KnugenIV","steam_id":76561198127091993,"connected_time":11020000000000,"state":"active","ping":65},{"user_id":611,"name":"horrors within my comprehension","steam_id":76561198363841749,"connected_time":2341000000000,"state":"active","ping":86},{"user_id":614,"name":"snus","steam_id":76561198046716430,"connected_time":2131000000000,"state":"active","ping":54},{"user_id":619,"name":"SpacePig","steam_id":76561198044662873,"connected_time":1708000000000,"state":"active","ping":95},{"user_id":616,"name":"Dan Dan the Furious","steam_id":76561198091032527,"connected_time":1941000000000,"state":"active","ping":50},{"user_id":588,"name":"Bun","steam_id":76561197989239999,"connected_time":5616000000000,"state":"active","ping":60},{"user_id":605,"name":"Purps","steam_id":76561198053886680,"connected_time":2614000000000,"state":"active","ping":44},{"user_id":566,"name":"Sinnamonsters","steam_id":76561198423422354,"connected_time":8209000000000,"state":"active","ping":137},{"user_id":609,"name":"Lubrsi","steam_id":76561198040208195,"connected_time":2499000000000,"state":"active","ping":50},{"user_id":554,"name":"shooer!","steam_id":76561198110531281,"connected_time":10582000000000,"state":"active","ping":71},{"user_id":621,"name":"TuniaaAAH","steam_id":76561198141592642,"connected_time":1278000000000,"state":"active","ping":47},{"user_id":577,"name":"dec","steam_id":76561198009660168,"connected_time":6510000000000,"state":"active","ping":51},{"user_id":552,"name":"Sherlock Bond","steam_id":76561198042045955,"connected_time":10612000000000,"state":"active","ping":52},{"user_id":615,"name":"_420_StopItDudeCmon","steam_id":76561197997146481,"connected_time":2100000000000,"state":"active","ping":47},{"user_id":606,"name":"Mega","steam_id":76561197970389664,"connected_time":2612000000000,"state":"active","ping":46},{"user_id":565,"name":"Judicator Slifer","steam_id":76561198062255803,"connected_time":8217000000000,"state":"active","ping":68},{"user_id":587,"name":"TheBatInBlack","steam_id":76561198116808459,"connected_time":5794000000000,"state":"active","ping":48},{"user_id":617,"name":"Kernel Panic","steam_id":76561198215811047,"connected_time":1934000000000,"state":"active","ping":39},{"user_id":585,"name":"Kahvi","steam_id":76561198723244199,"connected_time":5930000000000,"state":"active","ping":74},{"user_id":622,"name":"breakfast burrito","steam_id":76561198148606969,"connected_time":1007000000000,"state":"active","ping":77},{"user_id":623,"name":"testing","steam_id":76561199383437138,"connected_time":272000000000,"state":"active","ping":118}]},{"server_id":114,"name":"Uncletopia | London | 2 | All Maps","name_short":"lon-2","host":"lon-1.uk.uncletopia.com","port":27025,"enabled":true,"region":"eu","cc":"gb","latitude":51.509865,"longitude":-0.118092,"reserved":0,"last_update":"0001-01-01T00:00:00Z","name_a2s":"Uncletopia | London | 2 | All Maps","protocol":17,"map":"cp_steel","folder":"tf","game":"Team Fortress","app_id":440,"player_count":23,"max_players":24,"Bots":0,"server_type":"Dedicated","server_os":"Linux","password":true,"vac":true,"version":"7961495","steam_id":85568392924470941,"keywords":["cp","nocrits","nodmgspread","uncletopia"],"game_id":440,"stv_port":27026,"stv_name":"Uncletopia | London | 2 | All Maps | STV","players":[{"user_id":829,"name":"Pfuck","steam_id":76561198146081601,"connected_time":2302000000000,"state":"active","ping":49},{"user_id":842,"name":"stomach bug (new jump mechanic)","steam_id":76561198963378933,"connected_time":1775000000000,"state":"active","ping":42},{"user_id":837,"name":"Lilliputt (escaped convict)","steam_id":76561198090146457,"connected_time":1826000000000,"state":"active","ping":38},{"user_id":830,"name":"Duke Skywalker","steam_id":76561199231296521,"connected_time":2264000000000,"state":"active","ping":132},{"user_id":834,"name":"HazelForest","steam_id":76561198171827033,"connected_time":2028000000000,"state":"active","ping":55},{"user_id":838,"name":"ywyw","steam_id":76561198088624259,"connected_time":1818000000000,"state":"active","ping":61},{"user_id":859,"name":"E² FTH","steam_id":76561198066287815,"connected_time":746000000000,"state":"active","ping":106},{"user_id":853,"name":"Jonno","steam_id":76561198023443744,"connected_time":1611000000000,"state":"active","ping":50},{"user_id":863,"name":"Level 1 Noob","steam_id":76561198088586340,"connected_time":322000000000,"state":"active","ping":56},{"user_id":865,"name":"Sparky","steam_id":76561198036754195,"connected_time":170000000000,"state":"active","ping":54},{"user_id":803,"name":"Vloeibaarzeep","steam_id":76561198018361028,"connected_time":4248000000000,"state":"active","ping":45},{"user_id":839,"name":"African \"AfricanCommie\" Commie","steam_id":76561198798803845,"connected_time":1816000000000,"state":"active","ping":46},{"user_id":858,"name":"Summer ♥","steam_id":76561198047723907,"connected_time":942000000000,"state":"active","ping":38},{"user_id":841,"name":"AkioTohru","steam_id":76561198197606282,"connected_time":1781000000000,"state":"active","ping":41},{"user_id":843,"name":"nebuden","steam_id":76561198307037169,"connected_time":1769000000000,"state":"active","ping":60},{"user_id":856,"name":"stun","steam_id":76561198276681691,"connected_time":1200000000000,"state":"active","ping":51},{"user_id":845,"name":"AftiksPL","steam_id":76561198875182686,"connected_time":1763000000000,"state":"active","ping":98},{"user_id":862,"name":"Smuger516","steam_id":76561198045335622,"connected_time":377000000000,"state":"active","ping":53},{"user_id":847,"name":"koreanbbq","steam_id":76561198346638308,"connected_time":1718000000000,"state":"active","ping":60},{"user_id":860,"name":"Brian","steam_id":76561198077756206,"connected_time":594000000000,"state":"active","ping":39},{"user_id":861,"name":"Deformed Gollum","steam_id":76561198155563589,"connected_time":429000000000,"state":"active","ping":46},{"user_id":866,"name":"Sammi The Hylir","steam_id":76561198129848053,"connected_time":75000000000,"state":"active","ping":86},{"user_id":851,"name":"Nazar Co.","steam_id":76561198804931016,"connected_time":1674000000000,"state":"active","ping":74}]},{"server_id":320,"name":"Uncletopia | London | 3 | All Maps","name_short":"lon-3","host":"lon-1.uk.uncletopia.com","port":27035,"enabled":true,"region":"eu","cc":"gb","latitude":51.509865,"longitude":-0.118092,"reserved":0,"last_update":"0001-01-01T00:00:00Z","name_a2s":"Uncletopia | London | 3 | All Maps","protocol":17,"map":"koth_viaduct","folder":"tf","game":"Team Fortress","app_id":440,"player_count":16,"max_players":24,"Bots":0,"server_type":"Dedicated","server_os":"Linux","password":true,"vac":true,"version":"7961495","steam_id":85568392924510192,"keywords":["cp","nocrits","nodmgspread","uncletopia"],"game_id":440,"stv_port":27036,"stv_name":"Uncletopia | London | 3 | All Maps | STV","players":[{"user_id":623,"name":"M.C.Mcmuffins","steam_id":76561198068225535,"connected_time":720000000000,"state":"active","ping":51},{"user_id":618,"name":"Michał","steam_id":76561198320346362,"connected_time":1382000000000,"state":"active","ping":74},{"user_id":624,"name":"xva","steam_id":76561198969286813,"connected_time":709000000000,"state":"active","ping":70},{"user_id":612,"name":"Sogger3K","steam_id":76561198011822992,"connected_time":2033000000000,"state":"active","ping":77},{"user_id":626,"name":"ONI","steam_id":76561199038860035,"connected_time":652000000000,"state":"active","ping":57},{"user_id":632,"name":"Burak","steam_id":76561198441622971,"connected_time":508000000000,"state":"active","ping":96},{"user_id":627,"name":"Worms","steam_id":76561198040442214,"connected_time":617000000000,"state":"active","ping":38},{"user_id":620,"name":"Zerwee","steam_id":76561198181368101,"connected_time":1204000000000,"state":"active","ping":58},{"user_id":622,"name":"yoingle spoingle","steam_id":76561198336684715,"connected_time":1078000000000,"state":"active","ping":157},{"user_id":628,"name":"Mabert","steam_id":76561198436058407,"connected_time":609000000000,"state":"active","ping":77},{"user_id":637,"name":"The Pissquisitor","steam_id":76561199177598615,"connected_time":159000000000,"state":"active","ping":114},{"user_id":635,"name":"_Context_","steam_id":76561199163359312,"connected_time":353000000000,"state":"active","ping":59},{"user_id":636,"name":"A Succulent Chinese Meal","steam_id":76561198069472440,"connected_time":332000000000,"state":"active","ping":66},{"user_id":631,"name":"mat_phong 0","steam_id":76561198155671067,"connected_time":583000000000,"state":"active","ping":56},{"user_id":639,"name":"Hazo","steam_id":76561198137686270,"connected_time":99000000000,"state":"active","ping":61},{"user_id":640,"name":"noquieronitengo","steam_id":76561198108020034,"connected_time":23000000000,"state":"spawning","ping":74}]},{"server_id":321,"name":"Uncletopia | London | 4 | All Maps","name_short":"lon-4","host":"lon-1.uk.uncletopia.com","port":27045,"enabled":true,"region":"eu","cc":"gb","latitude":51.509865,"longitude":-0.118092,"reserved":0,"last_update":"0001-01-01T00:00:00Z","name_a2s":"Uncletopia | London | 4 | All Maps","protocol":17,"map":"cp_sunshine","folder":"tf","game":"Team Fortress","app_id":440,"player_count":24,"max_players":24,"Bots":0,"server_type":"Dedicated","server_os":"Linux","password":true,"vac":true,"version":"7961495","steam_id":85568392924510193,"keywords":["cp","nocrits","nodmgspread","uncletopia"],"game_id":440,"stv_port":27046,"stv_name":"Uncletopia | London | 4 | All Maps | STV","players":[{"user_id":558,"name":"a chimp with a keyboard","steam_id":76561198060270322,"connected_time":283000000000,"state":"active","ping":84},{"user_id":541,"name":"bsnaxfiblo2","steam_id":76561198051053852,"connected_time":2185000000000,"state":"active","ping":49},{"user_id":553,"name":"King Goomba","steam_id":76561198146467813,"connected_time":970000000000,"state":"active","ping":80},{"user_id":552,"name":"Brutausky :3","steam_id":76561198100767533,"connected_time":1007000000000,"state":"active","ping":81},{"user_id":546,"name":"High-Key Cat","steam_id":76561198012929012,"connected_time":1515000000000,"state":"active","ping":67},{"user_id":454,"name":"Bobirulez","steam_id":76561198009125458,"connected_time":9189000000000,"state":"active","ping":75},{"user_id":559,"name":"Suetolog","steam_id":76561199053090212,"connected_time":232000000000,"state":"active","ping":64},{"user_id":525,"name":"Cataleptic","steam_id":76561197997966949,"connected_time":3340000000000,"state":"active","ping":52},{"user_id":544,"name":"rob","steam_id":76561198122211848,"connected_time":1793000000000,"state":"active","ping":89},{"user_id":545,"name":"Lukullu","steam_id":76561198269414258,"connected_time":1675000000000,"state":"active","ping":77},{"user_id":518,"name":"pandeux","steam_id":76561198343527617,"connected_time":3952000000000,"state":"active","ping":71},{"user_id":560,"name":"Stefman","steam_id":76561199025104038,"connected_time":211000000000,"state":"active","ping":41},{"user_id":542,"name":"The Rock","steam_id":76561198433328517,"connected_time":2107000000000,"state":"active","ping":155},{"user_id":452,"name":"agent youppii","steam_id":76561198055264447,"connected_time":9466000000000,"state":"active","ping":54},{"user_id":533,"name":"I am on the TF2 Scoreboard...","steam_id":76561198043850884,"connected_time":2729000000000,"state":"active","ping":55},{"user_id":501,"name":"Just Navlis (on the scoreboard)","steam_id":76561198090479609,"connected_time":5387000000000,"state":"active","ping":54},{"user_id":540,"name":"Nike No Air","steam_id":76561198965967986,"connected_time":2188000000000,"state":"active","ping":65},{"user_id":556,"name":"BenteBent","steam_id":76561198297920637,"connected_time":405000000000,"state":"active","ping":42},{"user_id":557,"name":"[SpA]Scatterbrain","steam_id":76561197998639769,"connected_time":310000000000,"state":"active","ping":53},{"user_id":436,"name":"ASSEMBLE FROYO BROS","steam_id":76561198116223995,"connected_time":10442000000000,"state":"active","ping":56},{"user_id":561,"name":"non_ai","steam_id":76561198270951938,"connected_time":171000000000,"state":"active","ping":114},{"user_id":529,"name":"Xiqui","steam_id":76561198818386611,"connected_time":3225000000000,"state":"active","ping":74},{"user_id":538,"name":"Damn D. Aniel","steam_id":76561198106597458,"connected_time":2260000000000,"state":"active","ping":63},{"user_id":510,"name":"Mega Man Legends 3","steam_id":76561198014110199,"connected_time":4479000000000,"state":"active","ping":45}]},{"server_id":21,"name":"Uncletopia | London | 5 | All Maps","name_short":"lon-5","host":"lon-1.uk.uncletopia.com","port":27055,"enabled":true,"region":"eu","cc":"gb","latitude":51.509865,"longitude":-0.118092,"reserved":0,"last_update":"0001-01-01T00:00:00Z","name_a2s":"Uncletopia | London | 5 | All Maps","protocol":17,"map":"koth_lakeside_final","folder":"tf","game":"Team Fortress","app_id":440,"player_count":0,"max_players":24,"Bots":0,"server_type":"Dedicated","server_os":"Linux","password":true,"vac":true,"version":"7961495","steam_id":85568392924742829,"keywords":["cp","nocrits","nodmgspread","uncletopia"],"game_id":440,"stv_port":27056,"stv_name":"Uncletopia | London | 5 | All Maps | STV","players":null},{"server_id":22,"name":"Uncletopia | London | 6 | All Maps","name_short":"lon-6","host":"lon-1.uk.uncletopia.com","port":27065,"enabled":true,"region":"eu","cc":"gb","latitude":51.509865,"longitude":-0.118092,"reserved":0,"last_update":"0001-01-01T00:00:00Z","name_a2s":"Uncletopia | London | 6 | All Maps","protocol":17,"map":"pl_frontier_final","folder":"tf","game":"Team Fortress","app_id":440,"player_count":24,"max_players":24,"Bots":0,"server_type":"Dedicated","server_os":"Linux","password":true,"vac":true,"version":"7961495","steam_id":85568392924742830,"keywords":["nocrits","nodmgspread","payload","uncletopia"],"game_id":440,"stv_port":27066,"stv_name":"Uncletopia | London | 6 | All Maps | STV","players":[{"user_id":339,"name":"guru{Hari}","steam_id":76561197997001681,"connected_time":2845000000000,"state":"active","ping":69},{"user_id":343,"name":"Majestic","steam_id":76561198039384692,"connected_time":2731000000000,"state":"active","ping":49},{"user_id":367,"name":"frenchie","steam_id":76561198178298931,"connected_time":1262000000000,"state":"active","ping":38},{"user_id":378,"name":"Coca162","steam_id":76561198230656540,"connected_time":241000000000,"state":"active","ping":44},{"user_id":370,"name":"no kizzy","steam_id":76561198252234864,"connected_time":1076000000000,"state":"active","ping":84},{"user_id":309,"name":"cisgender clown","steam_id":76561199469909295,"connected_time":5489000000000,"state":"active","ping":65},{"user_id":376,"name":"anal_slasher","steam_id":76561198010433741,"connected_time":592000000000,"state":"active","ping":59},{"user_id":334,"name":"RIBS GROW BACK","steam_id":76561198123659806,"connected_time":3233000000000,"state":"active","ping":92},{"user_id":359,"name":"lillunya ♡","steam_id":76561198330418866,"connected_time":1549000000000,"state":"active","ping":70},{"user_id":363,"name":"D_Ink","steam_id":76561198267716662,"connected_time":1344000000000,"state":"active","ping":36},{"user_id":372,"name":"Imperial City Guard","steam_id":76561198083355845,"connected_time":904000000000,"state":"active","ping":51},{"user_id":379,"name":"jerkwaterberg","steam_id":76561198134165667,"connected_time":200000000000,"state":"active","ping":58},{"user_id":374,"name":"j","steam_id":76561198299474630,"connected_time":671000000000,"state":"active","ping":51},{"user_id":366,"name":"JackDegle","steam_id":76561198427027677,"connected_time":1317000000000,"state":"active","ping":80},{"user_id":380,"name":"Dozer","steam_id":76561197998742338,"connected_time":165000000000,"state":"active","ping":75},{"user_id":353,"name":"w+m1","steam_id":76561198010428082,"connected_time":2321000000000,"state":"active","ping":76},{"user_id":329,"name":"grimbus","steam_id":76561198140431949,"connected_time":3666000000000,"state":"active","ping":54},{"user_id":365,"name":"Biggest birrrd","steam_id":76561198069066522,"connected_time":1337000000000,"state":"active","ping":67},{"user_id":322,"name":"CreepyYellowDuck","steam_id":76561198000479387,"connected_time":4724000000000,"state":"active","ping":37},{"user_id":377,"name":"TreatFly","steam_id":76561198069707362,"connected_time":399000000000,"state":"active","ping":57},{"user_id":348,"name":"Roboolet","steam_id":76561198107353953,"connected_time":2527000000000,"state":"active","ping":51},{"user_id":358,"name":"Finem Belli","steam_id":76561198227177976,"connected_time":1816000000000,"state":"active","ping":46},{"user_id":354,"name":"Sonnakai","steam_id":76561198051688749,"connected_time":2317000000000,"state":"active","ping":37},{"user_id":375,"name":"Glad","steam_id":76561198093397695,"connected_time":669000000000,"state":"active","ping":90}]},{"server_id":40,"name":"Uncletopia | London | 7 | Stopwatch","name_short":"lon-7","host":"lon-1.uk.uncletopia.com","port":27075,"enabled":true,"region":"eu","cc":"gb","latitude":51.509865,"longitude":-0.118092,"reserved":0,"last_update":"0001-01-01T00:00:00Z","name_a2s":"Uncletopia | London | 7 | Stopwatch","protocol":17,"map":"workshop/koth_product_final.ugc454272353","folder":"tf","game":"Team Fortress","app_id":440,"player_count":0,"max_players":24,"Bots":0,"server_type":"Dedicated","server_os":"Linux","password":true,"vac":true,"version":"7961495","steam_id":85568392924964314,"keywords":["cp","nocrits","nodmgspread","uncletopia"],"game_id":440,"stv_port":27076,"stv_name":"Uncletopia | London | 7 | Stopwatch | STV","players":null},{"server_id":41,"name":"Uncletopia | London | 8 | Community","name_short":"lon-8","host":"lon-1.uk.uncletopia.com","port":27085,"enabled":true,"region":"eu","cc":"gb","latitude":51.509865,"longitude":-0.118092,"reserved":0,"last_update":"0001-01-01T00:00:00Z","name_a2s":"Uncletopia | London | 8 | Community","protocol":17,"map":"workshop/koth_trenchfoot_b1a.ugc731436616","folder":"tf","game":"Team Fortress","app_id":440,"player_count":0,"max_players":24,"Bots":0,"server_type":"Dedicated","server_os":"Linux","password":true,"vac":true,"version":"7961495","steam_id":85568392924964315,"keywords":["cp","nocrits","nodmgspread","uncletopia"],"game_id":440,"stv_port":27086,"stv_name":"Uncletopia | London | 8 | Community | STV","players":null},{"server_id":300,"name":"Uncletopia | Montréal | 1 | One Thousand Uncles","name_short":"mtl-1","host":"mtl-1.ca.uncletopia.com","port":27015,"enabled":true,"region":"us-east","cc":"ca","latitude":45.50889,"longitude":-73.56167,"reserved":0,"last_update":"0001-01-01T00:00:00Z","name_a2s":"","protocol":0,"map":"","folder":"","game":"","app_id":0,"player_count":7,"max_players":0,"Bots":0,"server_type":"","server_os":"","password":false,"vac":false,"version":"","steam_id":0,"keywords":null,"game_id":0,"stv_port":0,"stv_name":"","players":[{"user_id":165,"name":"Uncle Majic the Hip Hop Magicia","steam_id":76561198107924303,"connected_time":1370000000000,"state":"active","ping":43},{"user_id":168,"name":"stephkitnjas","steam_id":76561198796181961,"connected_time":209000000000,"state":"active","ping":62},{"user_id":169,"name":"@TF2CutContent on Twitter","steam_id":76561198016621705,"connected_time":103000000000,"state":"active","ping":58},{"user_id":170,"name":"xxDeadRose93","steam_id":76561198112341457,"connected_time":87000000000,"state":"active","ping":79},{"user_id":171,"name":"concrete_car","steam_id":76561198388207363,"connected_time":42000000000,"state":"active","ping":56},{"user_id":146,"name":"sheep","steam_id":76561198172943006,"connected_time":2868000000000,"state":"active","ping":60},{"user_id":172,"name":"Zlati","steam_id":76561198285458495,"connected_time":13000000000,"state":"spawning","ping":52}]},{"server_id":301,"name":"Uncletopia | Montréal | 2 | One Thousand Uncles","name_short":"mtl-2","host":"mtl-1.ca.uncletopia.com","port":27025,"enabled":true,"region":"us-east","cc":"ca","latitude":45.50889,"longitude":-73.56167,"reserved":0,"last_update":"0001-01-01T00:00:00Z","name_a2s":"","protocol":0,"map":"","folder":"","game":"","app_id":0,"player_count":0,"max_players":0,"Bots":0,"server_type":"","server_os":"","password":false,"vac":false,"version":"","steam_id":0,"keywords":null,"game_id":0,"stv_port":0,"stv_name":"","players":null},{"server_id":302,"name":"Uncletopia | Montréal | 3 | One Thousand Uncles","name_short":"mtl-3","host":"mtl-1.ca.uncletopia.com","port":27035,"enabled":true,"region":"us-east","cc":"ca","latitude":45.50889,"longitude":-73.56167,"reserved":0,"last_update":"0001-01-01T00:00:00Z","name_a2s":"","protocol":0,"map":"","folder":"","game":"","app_id":0,"player_count":0,"max_players":0,"Bots":0,"server_type":"","server_os":"","password":false,"vac":false,"version":"","steam_id":0,"keywords":null,"game_id":0,"stv_port":0,"stv_name":"","players":null},{"server_id":13,"name":"Uncletopia | New York City | 1 | All Maps","name_short":"nyc-1","host":"nyc-1.us.uncletopia.com","port":27015,"enabled":true,"region":"us-east","cc":"us","latitude":40.73061,"longitude":-73.93524,"reserved":0,"last_update":"0001-01-01T00:00:00Z","name_a2s":"Uncletopia | New York City | 1 | All Maps","protocol":17,"map":"pl_frontier_final","folder":"tf","game":"Team Fortress","app_id":440,"player_count":24,"max_players":24,"Bots":0,"server_type":"Dedicated","server_os":"Linux","password":true,"vac":true,"version":"7961495","steam_id":85568392924469993,"keywords":["nocrits","nodmgspread","payload","uncletopia"],"game_id":440,"stv_port":27016,"stv_name":"Uncletopia | New York City | 1 | All Maps | STV","players":[{"user_id":182,"name":"Orange Triangle","steam_id":76561198320498182,"connected_time":1680000000000,"state":"active","ping":82},{"user_id":129,"name":"ADRIEN BRODY","steam_id":76561198009299473,"connected_time":4551000000000,"state":"active","ping":55},{"user_id":154,"name":"penis atomizer 9000 🏳️?","steam_id":76561198864841966,"connected_time":3458000000000,"state":"active","ping":92},{"user_id":178,"name":"Wizops","steam_id":76561198907030448,"connected_time":2080000000000,"state":"active","ping":72},{"user_id":185,"name":"R0KKSTAR","steam_id":76561198206177593,"connected_time":1114000000000,"state":"active","ping":115},{"user_id":195,"name":"saturn eating his own ass","steam_id":76561198016826181,"connected_time":252000000000,"state":"active","ping":57},{"user_id":156,"name":"ThatGamingKiwi","steam_id":76561199170522237,"connected_time":3328000000000,"state":"active","ping":79},{"user_id":172,"name":"mario","steam_id":76561198148282278,"connected_time":2238000000000,"state":"active","ping":83},{"user_id":173,"name":"gayest MF DOOM fan","steam_id":76561198065801979,"connected_time":2235000000000,"state":"active","ping":61},{"user_id":189,"name":"tommy","steam_id":76561198111753974,"connected_time":605000000000,"state":"active","ping":43},{"user_id":149,"name":"チェンソーマンが好き!","steam_id":76561199123152847,"connected_time":3655000000000,"state":"active","ping":123},{"user_id":179,"name":"Jpxfred","steam_id":76561199414783749,"connected_time":2026000000000,"state":"active","ping":129},{"user_id":115,"name":"Lin","steam_id":76561198143746480,"connected_time":5539000000000,"state":"active","ping":115},{"user_id":184,"name":"Steel Tombstone","steam_id":76561199160542103,"connected_time":1253000000000,"state":"active","ping":40},{"user_id":36,"name":"MrEdman4","steam_id":76561198062233923,"connected_time":11315000000000,"state":"active","ping":44},{"user_id":192,"name":"kaccer","steam_id":76561198331683379,"connected_time":422000000000,"state":"active","ping":48},{"user_id":193,"name":"monke ina gocart (og)","steam_id":76561199164765221,"connected_time":403000000000,"state":"active","ping":84},{"user_id":181,"name":"Grilled Jizo","steam_id":76561199250875340,"connected_time":1713000000000,"state":"active","ping":92},{"user_id":169,"name":"Featherstone","steam_id":76561198035807016,"connected_time":2504000000000,"state":"active","ping":100},{"user_id":186,"name":"bobbymcbobington","steam_id":76561199089411172,"connected_time":1024000000000,"state":"active","ping":120},{"user_id":194,"name":"wack","steam_id":76561198095697330,"connected_time":383000000000,"state":"active","ping":77},{"user_id":188,"name":"EpitapH","steam_id":76561198211642559,"connected_time":883000000000,"state":"active","ping":67},{"user_id":183,"name":"Lovedaddy","steam_id":76561198006569710,"connected_time":1584000000000,"state":"active","ping":75},{"user_id":100,"name":"The Guy","steam_id":76561198799183693,"connected_time":6592000000000,"state":"active","ping":91}]},{"server_id":14,"name":"Uncletopia | New York City | 2 | All Maps","name_short":"nyc-2","host":"nyc-1.us.uncletopia.com","port":27025,"enabled":true,"region":"us-east","cc":"us","latitude":40.73061,"longitude":-73.93524,"reserved":0,"last_update":"0001-01-01T00:00:00Z","name_a2s":"Uncletopia | New York City | 2 | All Maps","protocol":17,"map":"pl_barnblitz","folder":"tf","game":"Team Fortress","app_id":440,"player_count":23,"max_players":24,"Bots":0,"server_type":"Dedicated","server_os":"Linux","password":true,"vac":true,"version":"7961495","steam_id":85568392924469994,"keywords":["nocrits","nodmgspread","payload","uncletopia"],"game_id":440,"stv_port":27026,"stv_name":"Uncletopia | New York City | 2 | All Maps | STV","players":[{"user_id":67,"name":"Edmont Dantes","steam_id":76561198090271815,"connected_time":1600000000000,"state":"active","ping":132},{"user_id":65,"name":"Gen-E","steam_id":76561199497800989,"connected_time":1714000000000,"state":"active","ping":76},{"user_id":69,"name":"Canadian","steam_id":76561199104281653,"connected_time":1519000000000,"state":"active","ping":55},{"user_id":63,"name":"Ursus Ludius","steam_id":76561198025470722,"connected_time":1765000000000,"state":"active","ping":67},{"user_id":60,"name":"Mint Jelly","steam_id":76561197991286751,"connected_time":2105000000000,"state":"active","ping":52},{"user_id":75,"name":"Kelpy","steam_id":76561198294906383,"connected_time":496000000000,"state":"active","ping":54},{"user_id":76,"name":"Hezxp","steam_id":76561198312931111,"connected_time":492000000000,"state":"active","ping":99},{"user_id":78,"name":"Ooger","steam_id":76561198079479371,"connected_time":335000000000,"state":"active","ping":55},{"user_id":56,"name":"MintHaggis","steam_id":76561198006674825,"connected_time":2442000000000,"state":"active","ping":77},{"user_id":71,"name":"Fish","steam_id":76561199258053772,"connected_time":1439000000000,"state":"active","ping":73},{"user_id":77,"name":"Walmart Employee","steam_id":76561198840373909,"connected_time":459000000000,"state":"active","ping":97},{"user_id":41,"name":"Octomal800","steam_id":76561199453595616,"connected_time":2838000000000,"state":"active","ping":60},{"user_id":68,"name":"Haveltherock27","steam_id":76561199219844391,"connected_time":1582000000000,"state":"active","ping":75},{"user_id":73,"name":"Just a baby","steam_id":76561198018660838,"connected_time":1049000000000,"state":"active","ping":83},{"user_id":52,"name":"oppenheimer style","steam_id":76561198026664629,"connected_time":2614000000000,"state":"active","ping":54},{"user_id":46,"name":"really hot pocket","steam_id":76561198239297686,"connected_time":2698000000000,"state":"active","ping":86},{"user_id":74,"name":"Arcelite","steam_id":76561198007089716,"connected_time":726000000000,"state":"active","ping":66},{"user_id":48,"name":"Great","steam_id":76561198895516433,"connected_time":2666000000000,"state":"active","ping":65},{"user_id":79,"name":"BNTF","steam_id":76561198062740087,"connected_time":65000000000,"state":"active","ping":83},{"user_id":70,"name":".jpg","steam_id":76561198137237377,"connected_time":1469000000000,"state":"active","ping":68},{"user_id":51,"name":"ZariaGalaxy","steam_id":76561198089441300,"connected_time":2630000000000,"state":"active","ping":55},{"user_id":53,"name":"Noid","steam_id":76561198227804500,"connected_time":2612000000000,"state":"active","ping":79},{"user_id":72,"name":"Hobomunculus","steam_id":76561198210739144,"connected_time":1179000000000,"state":"active","ping":104}]},{"server_id":15,"name":"Uncletopia | New York City | 3 | Stopwatch","name_short":"nyc-3","host":"nyc-1.us.uncletopia.com","port":27035,"enabled":true,"region":"us-east","cc":"us","latitude":40.73061,"longitude":-73.93524,"reserved":0,"last_update":"0001-01-01T00:00:00Z","name_a2s":"Uncletopia | New York City | 3 | Stopwatch","protocol":17,"map":"pl_snowycoast","folder":"tf","game":"Team Fortress","app_id":440,"player_count":0,"max_players":24,"Bots":0,"server_type":"Dedicated","server_os":"Linux","password":true,"vac":true,"version":"7961495","steam_id":85568392924742820,"keywords":["nocrits","nodmgspread","payload","uncletopia"],"game_id":440,"stv_port":27036,"stv_name":"Uncletopia | New York City | 3 | Stopwatch | STV","players":null},{"server_id":16,"name":"Uncletopia | New York City | 4 | Community","name_short":"nyc-4","host":"nyc-1.us.uncletopia.com","port":27045,"enabled":true,"region":"us-east","cc":"us","latitude":40.73061,"longitude":-73.93524,"reserved":0,"last_update":"0001-01-01T00:00:00Z","name_a2s":"Uncletopia | New York City | 4 | Community","protocol":17,"map":"workshop/pl_eruption_b9a.ugc2807898013","folder":"tf","game":"Team Fortress","app_id":440,"player_count":0,"max_players":24,"Bots":0,"server_type":"Dedicated","server_os":"Linux","password":true,"vac":true,"version":"7961495","steam_id":85568392924742821,"keywords":["nocrits","nodmgspread","payload","uncletopia"],"game_id":440,"stv_port":27046,"stv_name":"Uncletopia | New York City | 4 | Community | STV","players":null},{"server_id":142,"name":"Uncletopia | São Paulo | 1 | All Maps","name_short":"sao-1","host":"sao-1.br.uncletopia.com","port":27015,"enabled":true,"region":"sa","cc":"br","latitude":-23.533773,"longitude":-46.62529,"reserved":0,"last_update":"0001-01-01T00:00:00Z","name_a2s":"Uncletopia | São Paulo | 1 | All Maps","protocol":17,"map":"pl_upward","folder":"tf","game":"Team Fortress","app_id":440,"player_count":0,"max_players":24,"Bots":0,"server_type":"Dedicated","server_os":"Linux","password":true,"vac":true,"version":"7961495","steam_id":85568392924469996,"keywords":["nocrits","nodmgspread","payload","uncletopia"],"game_id":440,"stv_port":27016,"stv_name":"Uncletopia | São Paulo | 1 | All Maps | STV","players":null},{"server_id":143,"name":"Uncletopia | São Paulo | 2 | Community","name_short":"sao-2","host":"sao-2.br.uncletopia.com","port":27015,"enabled":true,"region":"sa","cc":"br","latitude":-23.533773,"longitude":-46.62529,"reserved":0,"last_update":"0001-01-01T00:00:00Z","name_a2s":"Uncletopia | São Paulo | 2 | Community","protocol":17,"map":"pl_badwater","folder":"tf","game":"Team Fortress","app_id":440,"player_count":0,"max_players":24,"Bots":0,"server_type":"Dedicated","server_os":"Linux","password":true,"vac":true,"version":"7961495","steam_id":85568392924485349,"keywords":["nocrits","nodmgspread","payload","uncletopia"],"game_id":440,"stv_port":27016,"stv_name":"Uncletopia | São Paulo | 2 | Community | STV","players":null},{"server_id":7,"name":"Uncletopia | Seattle | 1 | All Maps","name_short":"sea-1","host":"sea-1.us.uncletopia.com","port":27015,"enabled":true,"region":"us-west","cc":"us","latitude":47.608013,"longitude":-122.33517,"reserved":0,"last_update":"0001-01-01T00:00:00Z","name_a2s":"Uncletopia | Seattle | 1 | All Maps","protocol":17,"map":"pl_borneo","folder":"tf","game":"Team Fortress","app_id":440,"player_count":24,"max_players":24,"Bots":0,"server_type":"Dedicated","server_os":"Linux","password":true,"vac":true,"version":"7961495","steam_id":85568392924469997,"keywords":["nocrits","nodmgspread","payload","uncletopia"],"game_id":440,"stv_port":27016,"stv_name":"Uncletopia | Seattle | 1 | All Maps | STV","players":[{"user_id":337,"name":"CubDub","steam_id":76561198304548526,"connected_time":842000000000,"state":"active","ping":64},{"user_id":339,"name":"Touka Katanouka","steam_id":76561198171521806,"connected_time":771000000000,"state":"active","ping":78},{"user_id":340,"name":"Infentdegree211","steam_id":76561198385234127,"connected_time":771000000000,"state":"active","ping":73},{"user_id":349,"name":"KeZ","steam_id":76561198275364564,"connected_time":16000000000,"state":"active","ping":48},{"user_id":327,"name":"Shazzy","steam_id":76561198145460523,"connected_time":1554000000000,"state":"active","ping":49},{"user_id":336,"name":"my monitor is off","steam_id":76561198074499537,"connected_time":982000000000,"state":"active","ping":73},{"user_id":346,"name":"BlazedBunny","steam_id":76561198243610560,"connected_time":528000000000,"state":"active","ping":80},{"user_id":334,"name":"Klone","steam_id":76561198854485605,"connected_time":1267000000000,"state":"active","ping":109},{"user_id":338,"name":"Mr8bittripper","steam_id":76561198133894229,"connected_time":838000000000,"state":"active","ping":52},{"user_id":345,"name":"Rennsellaer","steam_id":76561198096207580,"connected_time":530000000000,"state":"active","ping":84},{"user_id":295,"name":"mega","steam_id":76561198089520959,"connected_time":3743000000000,"state":"active","ping":94},{"user_id":300,"name":"Orthros | voice_enable 0","steam_id":76561198164819613,"connected_time":3442000000000,"state":"active","ping":78},{"user_id":301,"name":"monke12344","steam_id":76561199274757725,"connected_time":3411000000000,"state":"active","ping":94},{"user_id":348,"name":"Nightshade","steam_id":76561199011017814,"connected_time":203000000000,"state":"active","ping":71},{"user_id":341,"name":"Odd Life","steam_id":76561198244979998,"connected_time":763000000000,"state":"active","ping":87},{"user_id":255,"name":"smeasly","steam_id":76561198028718812,"connected_time":6801000000000,"state":"active","ping":42},{"user_id":293,"name":"Blue Banana","steam_id":76561198100077411,"connected_time":3815000000000,"state":"active","ping":78},{"user_id":321,"name":"you just got dyked on","steam_id":76561198018977723,"connected_time":2185000000000,"state":"active","ping":45},{"user_id":335,"name":"Karg","steam_id":76561198091387866,"connected_time":1156000000000,"state":"active","ping":65},{"user_id":288,"name":"steve","steam_id":76561198075510786,"connected_time":4096000000000,"state":"active","ping":75},{"user_id":320,"name":"HAHAHAHA!!!","steam_id":76561199208835578,"connected_time":2190000000000,"state":"active","ping":43},{"user_id":347,"name":"Havi","steam_id":76561198197832829,"connected_time":512000000000,"state":"active","ping":46},{"user_id":343,"name":"triph","steam_id":76561198067196509,"connected_time":701000000000,"state":"active","ping":68},{"user_id":315,"name":"Pneumo.","steam_id":76561197987911883,"connected_time":2693000000000,"state":"active","ping":59}]},{"server_id":119,"name":"Uncletopia | Seattle | 2 | All Maps","name_short":"sea-2","host":"sea-1.us.uncletopia.com","port":27025,"enabled":true,"region":"us-west","cc":"us","latitude":47.608013,"longitude":-122.33517,"reserved":0,"last_update":"0001-01-01T00:00:00Z","name_a2s":"Uncletopia | Seattle | 2 | All Maps","protocol":17,"map":"cp_altitude","folder":"tf","game":"Team Fortress","app_id":440,"player_count":0,"max_players":24,"Bots":0,"server_type":"Dedicated","server_os":"Linux","password":true,"vac":true,"version":"7961495","steam_id":85568392924469998,"keywords":["cp","nocrits","nodmgspread","uncletopia"],"game_id":440,"stv_port":27026,"stv_name":"Uncletopia | Seattle | 2 | All Maps | STV","players":null},{"server_id":406,"name":"Uncletopia | Seattle | 3 | Stopwatch","name_short":"sea-3","host":"sea-1.us.uncletopia.com","port":27035,"enabled":true,"region":"us-west","cc":"us","latitude":47.608013,"longitude":-122.33517,"reserved":0,"last_update":"0001-01-01T00:00:00Z","name_a2s":"Uncletopia | Seattle | 3 | Stopwatch","protocol":17,"map":"cp_snakewater_final1","folder":"tf","game":"Team Fortress","app_id":440,"player_count":0,"max_players":24,"Bots":0,"server_type":"Dedicated","server_os":"Linux","password":true,"vac":true,"version":"7961495","steam_id":85568392924515217,"keywords":["cp","nocrits","nodmgspread","uncletopia"],"game_id":440,"stv_port":27036,"stv_name":"Uncletopia | Seattle | 3 | Stopwatch | STV","players":null},{"server_id":17,"name":"Uncletopia | San Francisco | 1 | All Maps","name_short":"sfo-1","host":"sfo-1.us.uncletopia.com","port":27015,"enabled":true,"region":"us-west","cc":"us","latitude":37.77397,"longitude":-122.4313,"reserved":0,"last_update":"0001-01-01T00:00:00Z","name_a2s":"Uncletopia | San Francisco | 1 | All Maps","protocol":17,"map":"cp_mountainlab","folder":"tf","game":"Team Fortress","app_id":440,"player_count":6,"max_players":24,"Bots":0,"server_type":"Dedicated","server_os":"Linux","password":true,"vac":true,"version":"7961495","steam_id":85568392924469999,"keywords":["cp","nocrits","nodmgspread","uncletopia"],"game_id":440,"stv_port":27016,"stv_name":"Uncletopia | San Francisco | 1 | All Maps | STV","players":[{"user_id":11,"name":"mr man guy","steam_id":76561199124255383,"connected_time":1921000000000,"state":"active","ping":89},{"user_id":12,"name":"oh shoot its another guy","steam_id":76561199376593582,"connected_time":1902000000000,"state":"active","ping":101},{"user_id":13,"name":"ballon","steam_id":76561199223272601,"connected_time":1838000000000,"state":"active","ping":132},{"user_id":14,"name":"shesmydisease","steam_id":76561197991036127,"connected_time":1809000000000,"state":"active","ping":110},{"user_id":15,"name":"Mondia BETCH!!!","steam_id":76561199040984404,"connected_time":849000000000,"state":"active","ping":57},{"user_id":16,"name":"Merc Mangler","steam_id":76561198993139342,"connected_time":590000000000,"state":"active","ping":63}]},{"server_id":18,"name":"Uncletopia | San Francisco | 2 | All Maps","name_short":"sfo-2","host":"sfo-1.us.uncletopia.com","port":27025,"enabled":true,"region":"us-west","cc":"us","latitude":37.77397,"longitude":-122.4313,"reserved":0,"last_update":"0001-01-01T00:00:00Z","name_a2s":"Uncletopia | San Francisco | 2 | All Maps","protocol":17,"map":"pl_barnblitz","folder":"tf","game":"Team Fortress","app_id":440,"player_count":0,"max_players":24,"Bots":0,"server_type":"Dedicated","server_os":"Linux","password":true,"vac":true,"version":"7961495","steam_id":85568392924470000,"keywords":["nocrits","nodmgspread","payload","uncletopia"],"game_id":440,"stv_port":27026,"stv_name":"Uncletopia | San Francisco | 2 | All Maps | STV","players":null},{"server_id":19,"name":"Uncletopia | San Francisco | 3 | Stopwatch","name_short":"sfo-3","host":"sfo-1.us.uncletopia.com","port":27035,"enabled":true,"region":"us-west","cc":"us","latitude":37.77397,"longitude":-122.4313,"reserved":0,"last_update":"0001-01-01T00:00:00Z","name_a2s":"Uncletopia | San Francisco | 3 | Stopwatch","protocol":17,"map":"pl_pier","folder":"tf","game":"Team Fortress","app_id":440,"player_count":0,"max_players":24,"Bots":0,"server_type":"Dedicated","server_os":"Linux","password":true,"vac":true,"version":"7961495","steam_id":85568392924742824,"keywords":["nocrits","nodmgspread","payload","uncletopia"],"game_id":440,"stv_port":27036,"stv_name":"Uncletopia | San Francisco | 3 | Stopwatch | STV","players":null},{"server_id":20,"name":"Uncletopia | San Francisco | 4 | Community","name_short":"sfo-4","host":"sfo-1.us.uncletopia.com","port":27045,"enabled":true,"region":"us-west","cc":"us","latitude":37.77397,"longitude":-122.4313,"reserved":0,"last_update":"0001-01-01T00:00:00Z","name_a2s":"Uncletopia | San Francisco | 4 | Community","protocol":17,"map":"pl_pier","folder":"tf","game":"Team Fortress","app_id":440,"player_count":0,"max_players":24,"Bots":0,"server_type":"Dedicated","server_os":"Linux","password":true,"vac":true,"version":"7961495","steam_id":85568392924742826,"keywords":["nocrits","nodmgspread","payload","uncletopia"],"game_id":440,"stv_port":27046,"stv_name":"Uncletopia | San Francisco | 4 | Community | STV","players":null},{"server_id":141,"name":"Uncletopia | Sydney | 1 | All Maps","name_short":"syd-1","host":"syd-1.au.uncletopia.com","port":27015,"enabled":true,"region":"au","cc":"au","latitude":-33.865143,"longitude":151.2099,"reserved":0,"last_update":"0001-01-01T00:00:00Z","name_a2s":"Uncletopia | Sydney | 1 | All Maps","protocol":17,"map":"koth_viaduct","folder":"tf","game":"Team Fortress","app_id":440,"player_count":0,"max_players":24,"Bots":0,"server_type":"Dedicated","server_os":"Linux","password":true,"vac":true,"version":"7961495","steam_id":85568392924470001,"keywords":["cp","nocrits","nodmgspread","uncletopia"],"game_id":440,"stv_port":27016,"stv_name":"Uncletopia | Sydney | 1 | All Maps | STV","players":null},{"server_id":123,"name":"Uncletopia | Sydney | 2 | All Maps","name_short":"syd-2","host":"syd-1.au.uncletopia.com","port":27025,"enabled":true,"region":"au","cc":"au","latitude":-33.865143,"longitude":151.2099,"reserved":0,"last_update":"0001-01-01T00:00:00Z","name_a2s":"Uncletopia | Sydney | 2 | All Maps","protocol":17,"map":"koth_lakeside_final","folder":"tf","game":"Team Fortress","app_id":440,"player_count":0,"max_players":24,"Bots":0,"server_type":"Dedicated","server_os":"Linux","password":true,"vac":true,"version":"7961495","steam_id":85568392924470002,"keywords":["cp","nocrits","nodmgspread","uncletopia"],"game_id":440,"stv_port":27026,"stv_name":"Uncletopia | Sydney | 2 | All Maps | STV","players":null},{"server_id":395,"name":"Uncletopia | Sydney | 3 | All Maps","name_short":"syd-3","host":"syd-1.au.uncletopia.com","port":27035,"enabled":true,"region":"au","cc":"au","latitude":-33.865143,"longitude":151.2099,"reserved":0,"last_update":"0001-01-01T00:00:00Z","name_a2s":"Uncletopia | Sydney | 3 | All Maps","protocol":17,"map":"pl_frontier_final","folder":"tf","game":"Team Fortress","app_id":440,"player_count":0,"max_players":24,"Bots":0,"server_type":"Dedicated","server_os":"Linux","password":true,"vac":true,"version":"7961495","steam_id":85568392925194467,"keywords":["nocrits","nodmgspread","payload","uncletopia"],"game_id":440,"stv_port":27036,"stv_name":"Uncletopia | Sydney | 3 | All Maps | STV","players":null},{"server_id":396,"name":"Uncletopia | Sydney | 4 | All Maps","name_short":"syd-4","host":"syd-1.au.uncletopia.com","port":27045,"enabled":true,"region":"au","cc":"au","latitude":-33.865143,"longitude":151.2099,"reserved":0,"last_update":"0001-01-01T00:00:00Z","name_a2s":"Uncletopia | Sydney | 4 | All Maps","protocol":17,"map":"cp_process_final","folder":"tf","game":"Team Fortress","app_id":440,"player_count":0,"max_players":24,"Bots":0,"server_type":"Dedicated","server_os":"Linux","password":true,"vac":true,"version":"7961495","steam_id":85568392925397958,"keywords":["cp","nocrits","nodmgspread","uncletopia"],"game_id":440,"stv_port":27046,"stv_name":"Uncletopia | Sydney | 4 | All Maps | STV","players":null},{"server_id":58,"name":"Uncletopia | Sydney | 5 | Stopwatch","name_short":"syd-5","host":"syd-1.au.uncletopia.com","port":27055,"enabled":true,"region":"au","cc":"au","latitude":-33.865143,"longitude":151.2099,"reserved":0,"last_update":"0001-01-01T00:00:00Z","name_a2s":"Uncletopia | Sydney | 5 | Stopwatch","protocol":17,"map":"pl_frontier_final","folder":"tf","game":"Team Fortress","app_id":440,"player_count":0,"max_players":24,"Bots":0,"server_type":"Dedicated","server_os":"Linux","password":true,"vac":true,"version":"7961495","steam_id":85568392925397959,"keywords":["nocrits","nodmgspread","payload","uncletopia"],"game_id":440,"stv_port":27056,"stv_name":"Uncletopia | Sydney | 5 | Stopwatch | STV","players":null},{"server_id":59,"name":"Uncletopia | Sydney | 6 | Community","name_short":"syd-6","host":"syd-1.au.uncletopia.com","port":27065,"enabled":true,"region":"au","cc":"au","latitude":-33.865143,"longitude":151.2099,"reserved":0,"last_update":"0001-01-01T00:00:00Z","name_a2s":"Uncletopia | Sydney | 6 | Community","protocol":17,"map":"workshop/cp_coilblaze_rc7.ugc1272700588","folder":"tf","game":"Team Fortress","app_id":440,"player_count":2,"max_players":24,"Bots":0,"server_type":"Dedicated","server_os":"Linux","password":true,"vac":true,"version":"7961495","steam_id":85568392925397960,"keywords":["cp","nocrits","nodmgspread","uncletopia"],"game_id":440,"stv_port":27066,"stv_name":"Uncletopia | Sydney | 6 | Community | STV","players":[{"user_id":3,"name":"BIB","steam_id":76561199335056191,"connected_time":1678000000000,"state":"active","ping":87},{"user_id":4,"name":"THE MANN OF HAM","steam_id":76561199189558145,"connected_time":1575000000000,"state":"active","ping":73}]},{"server_id":49,"name":"Uncletopia | Warsaw | 1 | One Thousand Uncles","name_short":"waw-1","host":"waw-1.pl.uncletopia.com","port":27015,"enabled":true,"region":"eu","cc":"pl","latitude":52.2297,"longitude":21.017532,"reserved":0,"last_update":"0001-01-01T00:00:00Z","name_a2s":"Uncletopia | Warsaw | 1 | One Thousand Uncles","protocol":17,"map":"koth_highpass","folder":"tf","game":"Team Fortress","app_id":440,"player_count":24,"max_players":32,"Bots":16,"server_type":"Dedicated","server_os":"Linux","password":true,"vac":true,"version":"7961495","steam_id":85568392925397850,"keywords":["alltalk","bots","cp","danepve","increased_maxplayers","nocrits","norespawntime","uncletopia"],"game_id":440,"stv_port":0,"stv_name":"","players":[{"user_id":338,"name":"CheapMeds","steam_id":76561197990309210,"connected_time":4033000000000,"state":"active","ping":45},{"user_id":319,"name":"blackman.vbhop.2004","steam_id":76561198268384872,"connected_time":5781000000000,"state":"active","ping":85},{"user_id":320,"name":"Scout","steam_id":76561198992898803,"connected_time":5349000000000,"state":"active","ping":68},{"user_id":360,"name":"maly's dog","steam_id":76561198261505536,"connected_time":732000000000,"state":"active","ping":43},{"user_id":341,"name":"Riky95","steam_id":76561198095289436,"connected_time":3532000000000,"state":"active","ping":63},{"user_id":364,"name":"Treeboy","steam_id":76561198336076461,"connected_time":25000000000,"state":"active","ping":93},{"user_id":362,"name":"pana_soonic","steam_id":76561198118979073,"connected_time":637000000000,"state":"active","ping":35},{"user_id":363,"name":"topros","steam_id":76561199376602476,"connected_time":281000000000,"state":"active","ping":90}]},{"server_id":50,"name":"Uncletopia | Warsaw | 2 | One Thousand Uncles","name_short":"waw-2","host":"waw-1.pl.uncletopia.com","port":27025,"enabled":true,"region":"eu","cc":"pl","latitude":52.2297,"longitude":21.017532,"reserved":0,"last_update":"0001-01-01T00:00:00Z","name_a2s":"Uncletopia | Warsaw | 2 | One Thousand Uncles","protocol":17,"map":"pl_barnblitz","folder":"tf","game":"Team Fortress","app_id":440,"player_count":20,"max_players":32,"Bots":16,"server_type":"Dedicated","server_os":"Linux","password":true,"vac":true,"version":"7961495","steam_id":85568392925397851,"keywords":["alltalk","bots","danepve","increased_maxplayers","nocrits","norespawntime","payload","uncletopia"],"game_id":440,"stv_port":0,"stv_name":"","players":[{"user_id":119,"name":"Mane","steam_id":76561198351821610,"connected_time":2023000000000,"state":"active","ping":66},{"user_id":135,"name":"meriones","steam_id":76561198034234373,"connected_time":303000000000,"state":"active","ping":74},{"user_id":128,"name":"OhBother","steam_id":76561198147350219,"connected_time":872000000000,"state":"active","ping":75},{"user_id":131,"name":"Yoshiko Tsushima","steam_id":76561198133653876,"connected_time":761000000000,"state":"active","ping":74}]},{"server_id":51,"name":"Uncletopia | Warsaw | 3 | All Maps","name_short":"waw-3","host":"waw-1.pl.uncletopia.com","port":27035,"enabled":true,"region":"eu","cc":"pl","latitude":52.2297,"longitude":21.017532,"reserved":0,"last_update":"0001-01-01T00:00:00Z","name_a2s":"Uncletopia | Warsaw | 3 | All Maps","protocol":17,"map":"koth_cascade","folder":"tf","game":"Team Fortress","app_id":440,"player_count":0,"max_players":24,"Bots":0,"server_type":"Dedicated","server_os":"Linux","password":true,"vac":true,"version":"7961495","steam_id":85568392925397852,"keywords":["cp","nocrits","nodmgspread","uncletopia"],"game_id":440,"stv_port":27036,"stv_name":"Uncletopia | Warsaw | 3 | All Maps | STV","players":null},{"server_id":52,"name":"Uncletopia | Warsaw | 4 | All Maps","name_short":"waw-4","host":"waw-1.pl.uncletopia.com","port":27045,"enabled":true,"region":"eu","cc":"pl","latitude":52.2297,"longitude":21.017532,"reserved":0,"last_update":"0001-01-01T00:00:00Z","name_a2s":"Uncletopia | Warsaw | 4 | All Maps","protocol":17,"map":"koth_highpass","folder":"tf","game":"Team Fortress","app_id":440,"player_count":0,"max_players":24,"Bots":0,"server_type":"Dedicated","server_os":"Linux","password":true,"vac":true,"version":"7961495","steam_id":85568392925397853,"keywords":["cp","nocrits","nodmgspread","uncletopia"],"game_id":440,"stv_port":27046,"stv_name":"Uncletopia | Warsaw | 4 | All Maps | STV","players":null},{"server_id":53,"name":"Uncletopia | Warsaw | 5 | Stopwatch","name_short":"waw-5","host":"waw-1.pl.uncletopia.com","port":27055,"enabled":true,"region":"eu","cc":"pl","latitude":52.2297,"longitude":21.017532,"reserved":0,"last_update":"0001-01-01T00:00:00Z","name_a2s":"Uncletopia | Warsaw | 5 | Stopwatch","protocol":17,"map":"workshop/pl_vigil_rc10.ugc1266210012","folder":"tf","game":"Team Fortress","app_id":440,"player_count":0,"max_players":24,"Bots":0,"server_type":"Dedicated","server_os":"Linux","password":true,"vac":true,"version":"7961495","steam_id":85568392925397854,"keywords":["nocrits","nodmgspread","payload","uncletopia"],"game_id":440,"stv_port":27056,"stv_name":"Uncletopia | Warsaw | 5 | Stopwatch | STV","players":null},{"server_id":54,"name":"Uncletopia | Warsaw | 6 | Community","name_short":"waw-6","host":"waw-1.pl.uncletopia.com","port":27065,"enabled":true,"region":"eu","cc":"pl","latitude":52.2297,"longitude":21.017532,"reserved":0,"last_update":"0001-01-01T00:00:00Z","name_a2s":"Uncletopia | Warsaw | 6 | Community","protocol":17,"map":"workshop/koth_slaughter_rc1.ugc1712845210","folder":"tf","game":"Team Fortress","app_id":440,"player_count":0,"max_players":24,"Bots":0,"server_type":"Dedicated","server_os":"Linux","password":true,"vac":true,"version":"7961495","steam_id":85568392925397856,"keywords":["cp","nocrits","nodmgspread","uncletopia"],"game_id":440,"stv_port":27066,"stv_name":"Uncletopia | Warsaw | 6 | Community | STV","players":null}]}