{"status":true,"message":"","result":[{"server_id":9,"name":"Uncletopia | Atlanta | 1 | All Maps","name_short":"atl-1","host":"atl-1.us.uncletopia.com","port":27015,"enabled":true,"region":"us-east","cc":"us","latitude":33.753746,"longitude":-84.38633,"reserved":0,"last_update":"0001-01-01T00:00:00Z","name_a2s":"Uncletopia | Atlanta | 1 | All Maps","protocol":17,"map":"pl_swiftwater_final1","folder":"tf","game":"Team Fortress","app_id":440,"player_count":24,"max_players":24,"Bots":0,"server_type":"Dedicated","server_os":"Linux","password":true,"vac":true,"version":"7961495","steam_id":85568392924469982,"keywords":["nocrits","nodmgspread","payload","uncletopia"],"game_id":440,"stv_port":27016,"stv_name":"Uncletopia | Atlanta | 1 | All Maps | STV","players":null},{"server_id":104,"name":"Uncletopia | Atlanta | 2 | All Maps","name_short":"atl-2","host":"atl-1.us.uncletopia.com","port":27025,"enabled":true,"region":"us-east","cc":"us","latitude":33.753746,"longitude":-84.38633,"reserved":0,"last_update":"0001-01-01T00:00:00Z","name_a2s":"Uncletopia | Atlanta | 2 | All Maps","protocol":17,"map":"koth_viaduct","folder":"tf","game":"Team Fortress","app_id":440,"player_count":0,"max_players":24,"Bots":0,"server_type":"Dedicated","server_os":"Linux","password":true,"vac":true,"version":"7961495","steam_id":85568392924469983,"keywords":["cp","nocrits","nodmgspread","uncletopia"],"game_id":440,"stv_port":27026,"stv_name":"Uncletopia | Atlanta | 2 | All Maps | STV","players":null},{"server_id":400,"name":"Uncletopia | Atlanta | 3 | Stopwatch","name_short":"atl-3","host":"atl-1.us.uncletopia.com","port":27035,"enabled":true,"region":"us-east","cc":"us","latitude":33.753746,"longitude":-84.38633,"reserved":0,"last_update":"0001-01-01T00:00:00Z","name_a2s":"Uncletopia | Atlanta | 3 | Stopwatch","protocol":17,"map":"koth_clearcut_b15","folder":"tf","game":"Team Fortress","app_id":440,"player_count":0,"max_players":24,"Bots":0,"server_type":"Dedicated","server_os":"Linux","password":true,"vac":true,"version":"7961495","steam_id":85568392924515187,"keywords":["cp","nocrits","nodmgspread","uncletopia"],"game_id":440,"stv_port":27036,"stv_name":"Uncletopia | Atlanta | 3 | Stopwatch | STV","players":null},{"server_id":401,"name":"Uncletopia | Atlanta | 4 | Community","name_short":"atl-4","host":"atl-1.us.uncletopia.com","port":27045,"enabled":true,"region":"us-east","cc":"us","latitude":33.753746,"longitude":-84.38633,"reserved":0,"last_update":"0001-01-01T00:00:00Z","name_a2s":"Uncletopia | Atlanta | 4 | Community","protocol":17,"map":"koth_kemptown_rc1","folder":"tf","game":"Team Fortress","app_id":440,"player_count":0,"max_players":24,"Bots":0,"server_type":"Dedicated","server_os":"Linux","password":true,"vac":true,"version":"7961495","steam_id":85568392924515188,"keywords":["cp","nocrits","nodmgspread","uncletopia"],"game_id":440,"stv_port":27046,"stv_name":"Uncletopia | Atlanta | 4 | Community | STV","players":null},{"server_id":2,"name":"Uncletopia | Chicago | 1 | All Maps","name_short":"chi-1","host":"chi-1.us.uncletopia.com","port":27015,"enabled":true,"region":"us-central","cc":"us","latitude":41.881832,"longitude":-87.62318,"reserved":0,"last_update":"0001-01-01T00:00:00Z","name_a2s":"Uncletopia | Chicago | 1 | All Maps","protocol":17,"map":"cp_altitude","folder":"tf","game":"Team Fortress","app_id":440,"player_count":23,"max_players":24,"Bots":0,"server_type":"Dedicated","server_os":"Linux","password":true,"vac":true,"version":"7961495","steam_id":85568392924469984,"keywords":["cp","nocrits","nodmgspread","uncletopia"],"game_id":440,"stv_port":27016,"stv_name":"Uncletopia | Chicago | 1 | All Maps | STV","players":[{"user_id":395,"name":"guy","steam_id":76561198079925551,"connected_time":1692000000000,"state":"active","ping":71},{"user_id":373,"name":"Your Local Queer Librarian","steam_id":76561198013077080,"connected_time":3378000000000,"state":"active","ping":52},{"user_id":430,"name":"t.tv/FamilyGuyFunnyMoments277","steam_id":76561198416047580,"connected_time":37000000000,"state":"active","ping":64},{"user_id":426,"name":"SnowMan114","steam_id":76561198849397590,"connected_time":114000000000,"state":"active","ping":124},{"user_id":387,"name":"GlingGlop95","steam_id":76561198386865528,"connected_time":1896000000000,"state":"active","ping":79},{"user_id":382,"name":"Space","steam_id":76561198350489754,"connected_time":2095000000000,"state":"active","ping":44},{"user_id":431,"name":"chunk","steam_id":76561198134775401,"connected_time":31000000000,"state":"active","ping":55},{"user_id":423,"name":"Lilac System","steam_id":76561198130771971,"connected_time":138000000000,"state":"spawning","ping":96},{"user_id":425,"name":"EmeraldCola","steam_id":76561198066663687,"connected_time":129000000000,"state":"active","ping":63},{"user_id":421,"name":"TotallyHumann","steam_id":76561198328829278,"connected_time":143000000000,"state":"active","ping":56},{"user_id":413,"name":"Gaiduk","steam_id":76561198112323877,"connected_time":911000000000,"state":"active","ping":70},{"user_id":383,"name":"♥Bunny♥Slut♥","steam_id":76561198206376851,"connected_time":2092000000000,"state":"active","ping":86},{"user_id":432,"name":"KrustyJared2","steam_id":76561199233015498,"connected_time":22000000000,"state":"active","ping":79},{"user_id":428,"name":"EatSomeBEES","steam_id":76561198047334307,"connected_time":93000000000,"state":"active","ping":113},{"user_id":384,"name":"HOTA","steam_id":76561199002778841,"connected_time":2061000000000,"state":"active","ping":71},{"user_id":399,"name":"Ejaculation Zach","steam_id":76561198203765200,"connected_time":1602000000000,"state":"active","ping":56},{"user_id":397,"name":"Andrestor","steam_id":76561198005934930,"connected_time":1666000000000,"state":"active","ping":120},{"user_id":429,"name":"Tick","steam_id":76561198184161214,"connected_time":79000000000,"state":"active","ping":41},{"user_id":420,"name":"Lad","steam_id":76561197990645296,"connected_time":466000000000,"state":"active","ping":88},{"user_id":433,"name":"Rock Kickass","steam_id":76561198450510841,"connected_time":4000000000,"state":"spawning","ping":229},{"user_id":424,"name":"ThePatheticMedic","steam_id":76561198873083105,"connected_time":137000000000,"state":"active","ping":53},{"user_id":415,"name":"flare","steam_id":76561198048623485,"connected_time":886000000000,"state":"active","ping":60},{"user_id":416,"name":"Mix","steam_id":76561198835593895,"connected_time":879000000000,"state":"active","ping":60}]},{"server_id":106,"name":"Uncletopia | Chicago | 2 | All Maps","name_short":"chi-2","host":"chi-1.us.uncletopia.com","port":27025,"enabled":true,"region":"us-central","cc":"us","latitude":41.881832,"longitude":-87.62318,"reserved":0,"last_update":"0001-01-01T00:00:00Z","name_a2s":"Uncletopia | Chicago | 2 | All Maps","protocol":17,"map":"pl_badwater","folder":"tf","game":"Team Fortress","app_id":440,"player_count":24,"max_players":24,"Bots":0,"server_type":"Dedicated","server_os":"Linux","password":true,"vac":true,"version":"7961495","steam_id":85568392924469985,"keywords":["nocrits","nodmgspread","payload","uncletopia"],"game_id":440,"stv_port":27026,"stv_name":"Uncletopia | Chicago | 2 | All Maps | STV","players":[{"user_id":295,"name":"Sud","steam_id":76561199102300588,"connected_time":5423000000000,"state":"active","ping":92},{"user_id":374,"name":"Rodgedan","steam_id":76561198226236524,"connected_time":88000000000,"state":"active","ping":73},{"user_id":371,"name":"Kzjytsugn","steam_id":76561198130241974,"connected_time":521000000000,"state":"active","ping":90},{"user_id":352,"name":"Darkmaen","steam_id":76561198060543390,"connected_time":2282000000000,"state":"active","ping":134},{"user_id":329,"name":"Andrew","steam_id":76561198070615190,"connected_time":3658000000000,"state":"active","ping":60},{"user_id":357,"name":"Rustyorion","steam_id":76561198439186347,"connected_time":2174000000000,"state":"active","ping":99},{"user_id":358,"name":"key ingredient","steam_id":76561198046055673,"connected_time":2084000000000,"state":"active","ping":82},{"user_id":359,"name":"Alabit","steam_id":76561198065578560,"connected_time":2071000000000,"state":"active","ping":84},{"user_id":337,"name":"Pyuku","steam_id":76561198811554257,"connected_time":3475000000000,"state":"active","ping":59},{"user_id":341,"name":"King's Disease","steam_id":76561198076639682,"connected_time":2879000000000,"state":"active","ping":75},{"user_id":354,"name":"Dalburgh","steam_id":76561198044331017,"connected_time":2238000000000,"state":"active","ping":74},{"user_id":373,"name":"A Pizza Already","steam_id":76561198064918401,"connected_time":283000000000,"state":"active","ping":110},{"user_id":335,"name":"DoomSpiral","steam_id":76561199099015519,"connected_time":3486000000000,"state":"active","ping":73},{"user_id":345,"name":"Post-It Paige","steam_id":76561198294059159,"connected_time":2737000000000,"state":"active","ping":87},{"user_id":287,"name":"Menace to Sobriety","steam_id":76561198245103000,"connected_time":6059000000000,"state":"active","ping":71},{"user_id":293,"name":"A Puppy","steam_id":76561198828184456,"connected_time":5531000000000,"state":"active","ping":59},{"user_id":372,"name":"keffers","steam_id":76561198202338796,"connected_time":508000000000,"state":"active","ping":79},{"user_id":342,"name":"Tito","steam_id":76561198041702529,"connected_time":2878000000000,"state":"active","ping":87},{"user_id":360,"name":"lexi","steam_id":76561198176299759,"connected_time":2065000000000,"state":"active","ping":87},{"user_id":364,"name":"K4$P3Я","steam_id":76561198263271697,"connected_time":1655000000000,"state":"active","ping":45},{"user_id":363,"name":"YummerBummer","steam_id":76561198094773987,"connected_time":2017000000000,"state":"active","ping":71},{"user_id":367,"name":"Joshlink100","steam_id":76561198061919477,"connected_time":812000000000,"state":"active","ping":51},{"user_id":339,"name":"BarrowBaron","steam_id":76561198013633236,"connected_time":3424000000000,"state":"active","ping":60},{"user_id":340,"name":"Lia_Rein TTV","steam_id":76561198151569597,"connected_time":3351000000000,"state":"active","ping":149}]},{"server_id":402,"name":"Uncletopia | Chicago | 3 | All Maps","name_short":"chi-3","host":"chi-1.us.uncletopia.com","port":27035,"enabled":true,"region":"us-central","cc":"us","latitude":41.881832,"longitude":-87.62318,"reserved":0,"last_update":"0001-01-01T00:00:00Z","name_a2s":"Uncletopia | Chicago | 3 | All Maps","protocol":17,"map":"cp_process_final","folder":"tf","game":"Team Fortress","app_id":440,"player_count":24,"max_players":24,"Bots":0,"server_type":"Dedicated","server_os":"Linux","password":true,"vac":true,"version":"7961495","steam_id":85568392924515191,"keywords":["cp","nocrits","nodmgspread","uncletopia"],"game_id":440,"stv_port":27036,"stv_name":"Uncletopia | Chicago | 3 | All Maps | STV","players":[{"user_id":120,"name":"Vessel","steam_id":76561198296186000,"connected_time":809000000000,"state":"active","ping":55},{"user_id":97,"name":"ultralisk52","steam_id":76561198051666604,"connected_time":2833000000000,"state":"active","ping":61},{"user_id":108,"name":"super cheese","steam_id":76561198128444122,"connected_time":1598000000000,"state":"active","ping":94},{"user_id":131,"name":"gideon nav my beloved","steam_id":76561198259092181,"connected_time":543000000000,"state":"active","ping":69},{"user_id":139,"name":"Kimba","steam_id":76561199092078325,"connected_time":303000000000,"state":"active","ping":86},{"user_id":119,"name":"poiuytrewqwqwqwqwqwqwqwqwqwqwqw","steam_id":76561199105253001,"connected_time":829000000000,"state":"active","ping":71},{"user_id":126,"name":"minecraft","steam_id":76561198104345201,"connected_time":714000000000,"state":"active","ping":65},{"user_id":136,"name":"Heathcliff","steam_id":76561198044288534,"connected_time":480000000000,"state":"active","ping":91},{"user_id":106,"name":"rickyrickyricky","steam_id":76561198041765918,"connected_time":2190000000000,"state":"active","ping":80},{"user_id":138,"name":"R{FITH}™ Z4LTte","steam_id":76561198283258068,"connected_time":364000000000,"state":"active","ping":62},{"user_id":127,"name":"menonamed","steam_id":76561198199564382,"connected_time":714000000000,"state":"active","ping":71},{"user_id":21,"name":"Mindset","steam_id":76561198107074449,"connected_time":6536000000000,"state":"active","ping":52},{"user_id":128,"name":"dog","steam_id":76561199497627611,"connected_time":693000000000,"state":"active","ping":68},{"user_id":133,"name":"Lucille_Bluth","steam_id":76561198206133916,"connected_time":532000000000,"state":"active","ping":72},{"user_id":117,"name":"Rec","steam_id":76561198022813906,"connected_time":848000000000,"state":"active","ping":50},{"user_id":105,"name":"Letters","steam_id":76561198035508148,"connected_time":2515000000000,"state":"active","ping":128},{"user_id":29,"name":"Allah-lover","steam_id":76561198076768673,"connected_time":6341000000000,"state":"active","ping":62},{"user_id":103,"name":"Lunacy","steam_id":76561198400892015,"connected_time":2776000000000,"state":"active","ping":84},{"user_id":55,"name":"TransSammie","steam_id":76561198046331930,"connected_time":5306000000000,"state":"active","ping":89},{"user_id":134,"name":"Luucyf3r","steam_id":76561198141820085,"connected_time":530000000000,"state":"active","ping":77},{"user_id":113,"name":"dullahan","steam_id":76561198278736434,"connected_time":1247000000000,"state":"active","ping":71},{"user_id":130,"name":"Bob The Insult Comic Skeleton","steam_id":76561198049945735,"connected_time":582000000000,"state":"active","ping":75},{"user_id":137,"name":"Gerald Jay Sussman","steam_id":76561198114515026,"connected_time":480000000000,"state":"active","ping":54},{"user_id":101,"name":"card carrying member","steam_id":76561198043558709,"connected_time":2792000000000,"state":"active","ping":91}]},{"server_id":403,"name":"Uncletopia | Chicago | 4 | All Maps","name_short":"chi-4","host":"chi-1.us.uncletopia.com","port":27045,"enabled":true,"region":"us-central","cc":"us","latitude":41.881832,"longitude":-87.62318,"reserved":0,"last_update":"0001-01-01T00:00:00Z","name_a2s":"Uncletopia | Chicago | 4 | All Maps","protocol":17,"map":"pl_frontier_final","folder":"tf","game":"Team Fortress","app_id":440,"player_count":24,"max_players":24,"Bots":0,"server_type":"Dedicated","server_os":"Linux","password":true,"vac":true,"version":"7961495","steam_id":85568392924515193,"keywords":["nocrits","nodmgspread","payload","uncletopia"],"game_id":440,"stv_port":27046,"stv_name":"Uncletopia | Chicago | 4 | All Maps | STV","players":[{"user_id":255,"name":"eaglesfan609","steam_id":76561198151032242,"connected_time":637000000000,"state":"active","ping":60},{"user_id":199,"name":"ElephantHydrogen4277882","steam_id":76561198175741741,"connected_time":3258000000000,"state":"active","ping":71},{"user_id":282,"name":"Varie","steam_id":76561199454930210,"connected_time":100000000000,"state":"active","ping":79},{"user_id":226,"name":"miNu","steam_id":76561198047799762,"connected_time":1908000000000,"state":"active","ping":53},{"user_id":283,"name":"momo","steam_id":76561198099061153,"connected_time":72000000000,"state":"active","ping":91},{"user_id":218,"name":"cart","steam_id":76561198253731826,"connected_time":2164000000000,"state":"active","ping":53},{"user_id":284,"name":"Dad","steam_id":76561198083941413,"connected_time":60000000000,"state":"spawning","ping":125},{"user_id":281,"name":"wepry","steam_id":76561198114091417,"connected_time":107000000000,"state":"active","ping":51},{"user_id":204,"name":"Goober","steam_id":76561198988863807,"connected_time":3006000000000,"state":"active","ping":69},{"user_id":248,"name":"Gigacheat","steam_id":76561198862843572,"connected_time":790000000000,"state":"active","ping":75},{"user_id":219,"name":"paypur -rng","steam_id":76561198214370515,"connected_time":2158000000000,"state":"active","ping":65},{"user_id":275,"name":"Okpar","steam_id":76561199221067945,"connected_time":259000000000,"state":"active","ping":89},{"user_id":285,"name":"2 bit catgirl","steam_id":76561198399936004,"connected_time":44000000000,"state":"active","ping":56},{"user_id":224,"name":"Bin","steam_id":76561198042557767,"connected_time":2035000000000,"state":"active","ping":58},{"user_id":286,"name":"Kidzbopsicle","steam_id":76561198047660691,"connected_time":39000000000,"state":"active","ping":46},{"user_id":287,"name":"Guns Blazing","steam_id":76561198379461118,"connected_time":23000000000,"state":"spawning","ping":107},{"user_id":243,"name":"RandomRainbow","steam_id":76561199107573588,"connected_time":947000000000,"state":"active","ping":45},{"user_id":249,"name":"sandman","steam_id":76561198144772540,"connected_time":753000000000,"state":"active","ping":100},{"user_id":252,"name":"wack","steam_id":76561198095697330,"connected_time":682000000000,"state":"active","ping":73},{"user_id":253,"name":"Dan","steam_id":76561199236719411,"connected_time":675000000000,"state":"active","ping":75},{"user_id":254,"name":"Crunchy","steam_id":76561198060342804,"connected_time":666000000000,"state":"active","ping":71},{"user_id":237,"name":"frid","steam_id":76561198005806915,"connected_time":1691000000000,"state":"active","ping":60},{"user_id":241,"name":"cactus god","steam_id":76561198292463064,"connected_time":1442000000000,"state":"active","ping":101},{"user_id":262,"name":"b4rry","steam_id":76561198365887154,"connected_time":473000000000,"state":"active","ping":74}]},{"server_id":36,"name":"Uncletopia | Chicago | 5 | All Maps","name_short":"chi-5","host":"chi-2.us.uncletopia.com","port":27015,"enabled":true,"region":"us-central","cc":"us","latitude":41.881832,"longitude":-87.62318,"reserved":0,"last_update":"0001-01-01T00:00:00Z","name_a2s":"Uncletopia | Chicago | 5 | All Maps","protocol":17,"map":"cp_dustbowl","folder":"tf","game":"Team Fortress","app_id":440,"player_count":24,"max_players":24,"Bots":0,"server_type":"Dedicated","server_os":"Linux","password":true,"vac":true,"version":"7961495","steam_id":85568392924866362,"keywords":["cp","nocrits","nodmgspread","uncletopia"],"game_id":440,"stv_port":27016,"stv_name":"Uncletopia | Chicago | 5 | All Maps | STV","players":[{"user_id":150,"name":"corned beef","steam_id":76561199366782761,"connected_time":1830000000000,"state":"active","ping":155},{"user_id":176,"name":"tsbro40","steam_id":76561199455605580,"connected_time":910000000000,"state":"active","ping":113},{"user_id":180,"name":"zackdarkstar","steam_id":76561198039986133,"connected_time":780000000000,"state":"active","ping":87},{"user_id":142,"name":"Degnut","steam_id":76561198087833182,"connected_time":2385000000000,"state":"active","ping":60},{"user_id":184,"name":"Sparse","steam_id":76561198865084441,"connected_time":490000000000,"state":"active","ping":69},{"user_id":187,"name":"IAmAProfesonal","steam_id":76561199171858953,"connected_time":281000000000,"state":"active","ping":101},{"user_id":162,"name":"White_Wizard_Named_Corona","steam_id":76561198055652735,"connected_time":1421000000000,"state":"active","ping":93},{"user_id":174,"name":"Beast_727","steam_id":76561198390289197,"connected_time":931000000000,"state":"active","ping":51},{"user_id":129,"name":"Tater Thot","steam_id":76561198156437343,"connected_time":3077000000000,"state":"active","ping":74},{"user_id":175,"name":"Cashew Jones","steam_id":76561198077082215,"connected_time":928000000000,"state":"active","ping":80},{"user_id":182,"name":"MrOyfum","steam_id":76561198413419081,"connected_time":686000000000,"state":"active","ping":61},{"user_id":139,"name":"Bork Bork","steam_id":76561198145554472,"connected_time":2609000000000,"state":"active","ping":64},{"user_id":140,"name":"kopatta","steam_id":76561198064773037,"connected_time":2464000000000,"state":"active","ping":80},{"user_id":153,"name":"Buckeye Crusader","steam_id":76561198126115279,"connected_time":1806000000000,"state":"active","ping":68},{"user_id":179,"name":"the archmage","steam_id":76561198380018244,"connected_time":898000000000,"state":"active","ping":72},{"user_id":188,"name":"styraxic","steam_id":76561198987579589,"connected_time":26000000000,"state":"spawning","ping":59},{"user_id":154,"name":"hannah1","steam_id":76561198094801861,"connected_time":1739000000000,"state":"active","ping":70},{"user_id":183,"name":"Angry Ginger","steam_id":76561198256929349,"connected_time":591000000000,"state":"active","ping":48},{"user_id":134,"name":"Discourse","steam_id":76561198984286678,"connected_time":3020000000000,"state":"active","ping":59},{"user_id":160,"name":"PublixWater","steam_id":76561199013291510,"connected_time":1504000000000,"state":"active","ping":75},{"user_id":181,"name":"Hurb","steam_id":76561198746677086,"connected_time":758000000000,"state":"active","ping":72},{"user_id":185,"name":"Marzbee115","steam_id":76561198095821025,"connected_time":483000000000,"state":"active","ping":77},{"user_id":186,"name":"joethefool","steam_id":76561199015436319,"connected_time":483000000000,"state":"active","ping":73},{"user_id":135,"name":"rock raiders enjoyer","steam_id":76561198139718219,"connected_time":3020000000000,"state":"active","ping":80}]},{"server_id":37,"name":"Uncletopia | Chicago | 6 | All Maps","name_short":"chi-6","host":"chi-2.us.uncletopia.com","port":27025,"enabled":true,"region":"us-central","cc":"us","latitude":41.881832,"longitude":-87.62318,"reserved":0,"last_update":"0001-01-01T00:00:00Z","name_a2s":"Uncletopia | Chicago | 6 | All Maps","protocol":17,"map":"koth_highpass","folder":"tf","game":"Team Fortress","app_id":440,"player_count":0,"max_players":24,"Bots":0,"server_type":"Dedicated","server_os":"Linux","password":true,"vac":true,"version":"7961495","steam_id":85568392924866363,"keywords":["cp","nocrits","nodmgspread","uncletopia"],"game_id":440,"stv_port":27026,"stv_name":"Uncletopia | Chicago | 6 | All Maps | STV","players":null},{"server_id":38,"name":"Uncletopia | Chicago | 7 | Stopwatch","name_short":"chi-7","host":"chi-2.us.uncletopia.com","port":27035,"enabled":true,"region":"us-central","cc":"us","latitude":41.881832,"longitude":-87.62318,"reserved":0,"last_update":"0001-01-01T00:00:00Z","name_a2s":"Uncletopia | Chicago | 7 | Stopwatch","protocol":17,"map":"pl_borneo","folder":"tf","game":"Team Fortress","app_id":440,"player_count":24,"max_players":24,"Bots":0,"server_type":"Dedicated","server_os":"Linux","password":true,"vac":true,"version":"7961495","steam_id":85568392924866364,"keywords":["nocrits","nodmgspread","payload","uncletopia"],"game_id":440,"stv_port":27036,"stv_name":"Uncletopia | Chicago | 7 | Stopwatch | STV","players":[{"user_id":396,"name":"A Can of AriZona Green Tea","steam_id":76561198062481133,"connected_time":822000000000,"state":"active","ping":75},{"user_id":400,"name":"Murdock","steam_id":76561198147089788,"connected_time":486000000000,"state":"active","ping":82},{"user_id":386,"name":"nilftb","steam_id":76561198161952186,"connected_time":1368000000000,"state":"active","ping":62},{"user_id":384,"name":"Mana_Kaktus","steam_id":76561198110468307,"connected_time":1399000000000,"state":"active","ping":79},{"user_id":404,"name":"Pawn Cushman","steam_id":76561198221635676,"connected_time":438000000000,"state":"active","ping":72},{"user_id":361,"name":"xFactr","steam_id":76561198129007422,"connected_time":2358000000000,"state":"active","ping":55},{"user_id":406,"name":"moom","steam_id":76561198411813230,"connected_time":404000000000,"state":"active","ping":58},{"user_id":403,"name":"hboflexin","steam_id":76561198323411839,"connected_time":458000000000,"state":"active","ping":92},{"user_id":372,"name":"rwrangler05","steam_id":76561198922899122,"connected_time":1948000000000,"state":"active","ping":99},{"user_id":416,"name":"cool #1 weezer fan","steam_id":76561199172518546,"connected_time":136000000000,"state":"active","ping":45},{"user_id":409,"name":"chrissweep","steam_id":76561198072826791,"connected_time":371000000000,"state":"active","ping":73},{"user_id":375,"name":"1-800-GHOST-DANCE","steam_id":76561198835430429,"connected_time":1874000000000,"state":"active","ping":89},{"user_id":376,"name":"solar controller","steam_id":76561198838282369,"connected_time":1868000000000,"state":"active","ping":74},{"user_id":414,"name":"Missing Minus","steam_id":76561198120822928,"connected_time":223000000000,"state":"active","ping":60},{"user_id":377,"name":"k3ramb1t","steam_id":76561198097880352,"connected_time":1826000000000,"state":"active","ping":72},{"user_id":389,"name":"emanthephantom","steam_id":76561198077592279,"connected_time":1302000000000,"state":"active","ping":95},{"user_id":415,"name":"Indigolake","steam_id":76561198202215807,"connected_time":197000000000,"state":"active","ping":92},{"user_id":378,"name":"Joshy","steam_id":76561198061405421,"connected_time":1754000000000,"state":"active","ping":89},{"user_id":412,"name":"LerN","steam_id":76561198083463877,"connected_time":303000000000,"state":"active","ping":60},{"user_id":379,"name":"cheesebro","steam_id":76561198002072852,"connected_time":1738000000000,"state":"active","ping":102},{"user_id":411,"name":"Venk","steam_id":76561198251131422,"connected_time":341000000000,"state":"active","ping":77},{"user_id":390,"name":"sheep gf (real)","steam_id":76561198068189558,"connected_time":1288000000000,"state":"active","ping":91},{"user_id":391,"name":"algebruh","steam_id":76561199379415267,"connected_time":1284000000000,"state":"active","ping":103},{"user_id":355,"name":"muck","steam_id":76561198120437909,"connected_time":2614000000000,"state":"active","ping":69}]},{"server_id":39,"name":"Uncletopia | Chicago | 8 | Community","name_short":"chi-8","host":"chi-2.us.uncletopia.com","port":27045,"enabled":true,"region":"us-central","cc":"us","latitude":41.881832,"longitude":-87.62318,"reserved":0,"last_update":"0001-01-01T00:00:00Z","name_a2s":"Uncletopia | Chicago | 8 | Community","protocol":17,"map":"workshop/cp_hazyfort_rc6.ugc1365963729","folder":"tf","game":"Team Fortress","app_id":440,"player_count":0,"max_players":24,"Bots":0,"server_type":"Dedicated","server_os":"Linux","password":true,"vac":true,"version":"7961495","steam_id":85568392924866365,"keywords":["cp","nocrits","nodmgspread","uncletopia"],"game_id":440,"stv_port":27046,"stv_name":"Uncletopia | Chicago | 8 | Community | STV","players":null},{"server_id":8,"name":"Uncletopia | Dallas | 1 | All Maps","name_short":"dal-1","host":"dal-1.us.uncletopia.com","port":27015,"enabled":true,"region":"us-central","cc":"us","latitude":32.779167,"longitude":-96.80889,"reserved":0,"last_update":"0001-01-01T00:00:00Z","name_a2s":"Uncletopia | Dallas | 1 | All Maps","protocol":17,"map":"pl_swiftwater_final1","folder":"tf","game":"Team Fortress","app_id":440,"player_count":24,"max_players":24,"Bots":0,"server_type":"Dedicated","server_os":"Linux","password":true,"vac":true,"version":"7961495","steam_id":85568392924469986,"keywords":["nocrits","nodmgspread","payload","uncletopia"],"game_id":440,"stv_port":27016,"stv_name":"Uncletopia | Dallas | 1 | All Maps | STV","players":[{"user_id":588,"name":"Glaceon","steam_id":76561198177715869,"connected_time":2785000000000,"state":"active","ping":68},{"user_id":611,"name":"ATOMIC SPEED","steam_id":76561199407580843,"connected_time":1388000000000,"state":"active","ping":94},{"user_id":633,"name":"JustaDude","steam_id":76561199151914748,"connected_time":23000000000,"state":"spawning","ping":63},{"user_id":556,"name":"deimos","steam_id":76561198148357768,"connected_time":4315000000000,"state":"active","ping":80},{"user_id":623,"name":"Alchemist","steam_id":76561198094238189,"connected_time":757000000000,"state":"active","ping":69},{"user_id":604,"name":"Mocha Josie","steam_id":76561198066452726,"connected_time":1460000000000,"state":"active","ping":80},{"user_id":525,"name":"ducc","steam_id":76561198284178076,"connected_time":6332000000000,"state":"active","ping":89},{"user_id":627,"name":"K2f","steam_id":76561198049600563,"connected_time":524000000000,"state":"active","ping":77},{"user_id":458,"name":"sloppy blowjob devil","steam_id":76561198089852954,"connected_time":10250000000000,"state":"active","ping":76},{"user_id":557,"name":"small meth pouch","steam_id":76561198130412963,"connected_time":4292000000000,"state":"active","ping":70},{"user_id":615,"name":"pinglefingle","steam_id":76561198216580197,"connected_time":1074000000000,"state":"active","ping":64},{"user_id":558,"name":"Gelliterate","steam_id":76561198107233070,"connected_time":4014000000000,"state":"active","ping":59},{"user_id":625,"name":"Darling","steam_id":76561198127525888,"connected_time":592000000000,"state":"active","ping":47},{"user_id":575,"name":"Alkimia","steam_id":76561198385763137,"connected_time":3413000000000,"state":"active","ping":121},{"user_id":565,"name":"dunker","steam_id":76561198066114874,"connected_time":3860000000000,"state":"active","ping":111},{"user_id":630,"name":"TechnoBear2099","steam_id":76561198238863596,"connected_time":281000000000,"state":"active","ping":46},{"user_id":629,"name":"frozenwasanokmovie","steam_id":76561198157407952,"connected_time":450000000000,"state":"active","ping":85},{"user_id":591,"name":"D.E.O","steam_id":76561198096992957,"connected_time":2401000000000,"state":"active","ping":127},{"user_id":532,"name":"Truck-kun","steam_id":76561198113083770,"connected_time":6219000000000,"state":"active","ping":85},{"user_id":571,"name":"sobaka","steam_id":76561198116008934,"connected_time":3648000000000,"state":"active","ping":99},{"user_id":619,"name":"Salem","steam_id":76561199099518959,"connected_time":994000000000,"state":"active","ping":59},{"user_id":605,"name":"Dimension Reduction","steam_id":76561198067369336,"connected_time":1460000000000,"state":"active","ping":54},{"user_id":622,"name":"CeLeb144","steam_id":76561199089907740,"connected_time":849000000000,"state":"active","ping":71},{"user_id":632,"name":"Stillkill","steam_id":76561198065069057,"connected_time":55000000000,"state":"active","ping":42}]},{"server_id":108,"name":"Uncletopia | Dallas | 2 | All Maps","name_short":"dal-2","host":"dal-1.us.uncletopia.com","port":27025,"enabled":true,"region":"us-central","cc":"us","latitude":32.779167,"longitude":-96.80889,"reserved":0,"last_update":"0001-01-01T00:00:00Z","name_a2s":"Uncletopia | Dallas | 2 | All Maps","protocol":17,"map":"cp_dustbowl","folder":"tf","game":"Team Fortress","app_id":440,"player_count":24,"max_players":24,"Bots":0,"server_type":"Dedicated","server_os":"Linux","password":true,"vac":true,"version":"7961495","steam_id":85568392924469988,"keywords":["cp","nocrits","nodmgspread","uncletopia"],"game_id":440,"stv_port":27026,"stv_name":"Uncletopia | Dallas | 2 | All Maps | STV","players":[{"user_id":127,"name":"Crobey","steam_id":76561198340911792,"connected_time":1058000000000,"state":"active","ping":67},{"user_id":95,"name":"TrashPanda (she/her)","steam_id":76561198447864095,"connected_time":3708000000000,"state":"active","ping":61},{"user_id":125,"name":"Orange Triangle","steam_id":76561198320498182,"connected_time":1126000000000,"state":"active","ping":73},{"user_id":137,"name":"Chhaam","steam_id":76561198058508132,"connected_time":445000000000,"state":"active","ping":74},{"user_id":135,"name":"RUF","steam_id":76561198062315805,"connected_time":471000000000,"state":"active","ping":89},{"user_id":97,"name":"judesro","steam_id":76561198352244888,"connected_time":3674000000000,"state":"active","ping":99},{"user_id":62,"name":"[NAME-REDACTED]","steam_id":76561198035682975,"connected_time":5800000000000,"state":"active","ping":85},{"user_id":98,"name":"Rally","steam_id":76561198004485218,"connected_time":3661000000000,"state":"active","ping":89},{"user_id":126,"name":"Kiradias777","steam_id":76561198067176309,"connected_time":1079000000000,"state":"active","ping":86},{"user_id":139,"name":"spacetoven","steam_id":76561198115821131,"connected_time":83000000000,"state":"active","ping":84},{"user_id":140,"name":"BrightOrangeMango","steam_id":76561198023144607,"connected_time":68000000000,"state":"active","ping":79},{"user_id":108,"name":"Pegway","steam_id":76561198044303814,"connected_time":2675000000000,"state":"active","ping":87},{"user_id":133,"name":"Kristen","steam_id":76561198025479618,"connected_time":644000000000,"state":"active","ping":98},{"user_id":76,"name":"The Foolish Samurai","steam_id":76561198094494945,"connected_time":5018000000000,"state":"active","ping":86},{"user_id":138,"name":"Pom","steam_id":76561199193191746,"connected_time":154000000000,"state":"active","ping":98},{"user_id":132,"name":"Tako","steam_id":76561199264073138,"connected_time":684000000000,"state":"active","ping":63},{"user_id":119,"name":"Boingo","steam_id":76561199086931535,"connected_time":2210000000000,"state":"active","ping":57},{"user_id":91,"name":"I. C. Wiener","steam_id":76561198062777610,"connected_time":3944000000000,"state":"active","ping":70},{"user_id":136,"name":"choi","steam_id":76561198053669887,"connected_time":466000000000,"state":"active","ping":91},{"user_id":89,"name":"Abra","steam_id":76561198086309918,"connected_time":4065000000000,"state":"active","ping":71},{"user_id":131,"name":"jubanya","steam_id":76561198830921046,"connected_time":1015000000000,"state":"active","ping":85},{"user_id":134,"name":"momb","steam_id":76561198142234038,"connected_time":639000000000,"state":"active","ping":87},{"user_id":116,"name":"That Pyro Main","steam_id":76561198010204805,"connected_time":2339000000000,"state":"active","ping":70},{"user_id":104,"name":"Withered Bonnie (Real)","steam_id":76561198423310113,"connected_time":2921000000000,"state":"active","ping":55}]},{"server_id":404,"name":"Uncletopia | Dallas | 3 | All Maps","name_short":"dal-3","host":"dal-1.us.uncletopia.com","port":27035,"enabled":true,"region":"us-central","cc":"us","latitude":32.779167,"longitude":-96.80889,"reserved":0,"last_update":"0001-01-01T00:00:00Z","name_a2s":"Uncletopia | Dallas | 3 | All Maps","protocol":17,"map":"koth_cascade","folder":"tf","game":"Team Fortress","app_id":440,"player_count":22,"max_players":24,"Bots":0,"server_type":"Dedicated","server_os":"Linux","password":true,"vac":true,"version":"7961495","steam_id":85568392924515219,"keywords":["cp","nocrits","nodmgspread","uncletopia"],"game_id":440,"stv_port":27036,"stv_name":"Uncletopia | Dallas | 3 | All Maps | STV","players":[{"user_id":279,"name":"C4K3","steam_id":76561197996963285,"connected_time":743000000000,"state":"active","ping":63},{"user_id":260,"name":"firefly","steam_id":76561198151308698,"connected_time":1327000000000,"state":"active","ping":45},{"user_id":235,"name":"twitch.tv/kegaman_","steam_id":76561198043632775,"connected_time":3330000000000,"state":"active","ping":78},{"user_id":263,"name":"Bruce Applesburg","steam_id":76561198869159718,"connected_time":1147000000000,"state":"active","ping":59},{"user_id":290,"name":"AzuriousAlex","steam_id":76561198158026405,"connected_time":172000000000,"state":"active","ping":71},{"user_id":266,"name":"hoOmIN","steam_id":76561198334947079,"connected_time":1108000000000,"state":"active","ping":75},{"user_id":284,"name":"mel0n","steam_id":76561198034817244,"connected_time":378000000000,"state":"active","ping":77},{"user_id":287,"name":"Cornelius","steam_id":76561198123447388,"connected_time":196000000000,"state":"active","ping":63},{"user_id":252,"name":"Gazelle","steam_id":76561198336397088,"connected_time":2922000000000,"state":"active","ping":71},{"user_id":237,"name":"Infernatious","steam_id":76561199483610732,"connected_time":3231000000000,"state":"active","ping":99},{"user_id":288,"name":"PBS Kids","steam_id":76561198178049845,"connected_time":194000000000,"state":"active","ping":80},{"user_id":293,"name":"Chicago Cinematic Universe","steam_id":76561198111259720,"connected_time":119000000000,"state":"active","ping":81},{"user_id":256,"name":"sniperstyx","steam_id":76561198357786932,"connected_time":2086000000000,"state":"active","ping":180},{"user_id":298,"name":"Call me the sleeps","steam_id":76561198121245586,"connected_time":5000000000,"state":"spawning","ping":113},{"user_id":259,"name":"FaZe hyazzZzzzZzzzZ","steam_id":76561199100342013,"connected_time":2003000000000,"state":"active","ping":78},{"user_id":269,"name":"Aerobro","steam_id":76561198033530996,"connected_time":1097000000000,"state":"active","ping":71},{"user_id":277,"name":"Baxtabbr","steam_id":76561199205187488,"connected_time":1021000000000,"state":"active","ping":58},{"user_id":297,"name":"psychicweaver","steam_id":76561198089255752,"connected_time":69000000000,"state":"active","ping":77},{"user_id":251,"name":"Gobl1n","steam_id":76561198808610991,"connected_time":2979000000000,"state":"active","ping":83},{"user_id":245,"name":"zz.","steam_id":76561198077970399,"connected_time":3184000000000,"state":"active","ping":69},{"user_id":276,"name":"hubida","steam_id":76561198084582998,"connected_time":1059000000000,"state":"active","ping":49},{"user_id":291,"name":"munch","steam_id":76561198820480684,"connected_time":157000000000,"state":"active","ping":66}]},{"server_id":405,"name":"Uncletopia | Dallas | 4 | Community","name_short":"dal-4","host":"dal-1.us.uncletopia.com","port":27045,"enabled":true,"region":"us-central","cc":"us","latitude":32.779167,"longitude":-96.80889,"reserved":0,"last_update":"0001-01-01T00:00:00Z","name_a2s":"Uncletopia | Dallas | 4 | Community","protocol":17,"map":"workshop/pl_corrode_rc2.ugc546577989","folder":"tf","game":"Team Fortress","app_id":440,"player_count":0,"max_players":24,"Bots":0,"server_type":"Dedicated","server_os":"Linux","password":true,"vac":true,"version":"7961495","steam_id":85568392924515220,"keywords":["nocrits","nodmgspread","payload","uncletopia"],"game_id":440,"stv_port":27046,"stv_name":"Uncletopia | Dallas | 4 | Community | STV","players":null},{"server_id":5,"name":"Uncletopia | Frankfurt | 1 | All Maps","name_short":"frk-1","host":"frk-1.de.uncletopia.com","port":27015,"enabled":true,"region":"eu","cc":"de","latitude":50.110924,"longitude":8.682127,"reserved":0,"last_update":"0001-01-01T00:00:00Z","name_a2s":"Uncletopia | Frankfurt | 1 | All Maps","protocol":17,"map":"pl_frontier_final","folder":"tf","game":"Team Fortress","app_id":440,"player_count":10,"max_players":24,"Bots":0,"server_type":"Dedicated","server_os":"Linux","password":true,"vac":true,"version":"7961495","steam_id":85568392924469989,"keywords":["nocrits","nodmgspread","payload","uncletopia"],"game_id":440,"stv_port":27016,"stv_name":"Uncletopia | Frankfurt | 1 | All Maps | STV","players":[{"user_id":481,"name":"Cherry","steam_id":76561198150841824,"connected_time":24000000000,"state":"spawning","ping":70},{"user_id":449,"name":"Nobody","steam_id":76561198151116796,"connected_time":2448000000000,"state":"spawning","ping":110},{"user_id":479,"name":"not so beda","steam_id":76561198277943630,"connected_time":141000000000,"state":"spawning","ping":171},{"user_id":473,"name":"outlaw","steam_id":76561198323805289,"connected_time":1025000000000,"state":"spawning","ping":111},{"user_id":480,"name":"xD","steam_id":76561198103633797,"connected_time":37000000000,"state":"spawning","ping":147},{"user_id":467,"name":"\u003e\u003c\u003e","steam_id":76561198152392309,"connected_time":1517000000000,"state":"spawning","ping":104},{"user_id":442,"name":"IgorVitoriev","steam_id":76561198075723591,"connected_time":3022000000000,"state":"spawning","ping":81},{"user_id":443,"name":"rixtrick","steam_id":76561197962149241,"connected_time":3000000000000,"state":"spawning","ping":81},{"user_id":468,"name":"Just1s","steam_id":76561198026597437,"connected_time":1493000000000,"state":"spawning","ping":157},{"user_id":475,"name":"NotChloe","steam_id":76561198080658092,"connected_time":853000000000,"state":"spawning","ping":155}]},{"server_id":110,"name":"Uncletopia | Frankfurt | 2 | All Maps","name_short":"frk-2","host":"frk-1.de.uncletopia.com","port":27025,"enabled":true,"region":"eu","cc":"de","latitude":50.110924,"longitude":8.682127,"reserved":0,"last_update":"0001-01-01T00:00:00Z","name_a2s":"Uncletopia | Frankfurt | 2 | All Maps","protocol":17,"map":"cp_freight_final1","folder":"tf","game":"Team Fortress","app_id":440,"player_count":9,"max_players":24,"Bots":0,"server_type":"Dedicated","server_os":"Linux","password":true,"vac":true,"version":"7961495","steam_id":85568392924469990,"keywords":["cp","nocrits","nodmgspread","uncletopia"],"game_id":440,"stv_port":27026,"stv_name":"Uncletopia | Frankfurt | 2 | All Maps | STV","players":[{"user_id":339,"name":"rodeybodey","steam_id":76561198165351355,"connected_time":5165000000000,"state":"active","ping":94},{"user_id":341,"name":"Von","steam_id":76561198166177348,"connected_time":2593000000000,"state":"active","ping":45},{"user_id":356,"name":"End_Captain","steam_id":76561198984965056,"connected_time":158000000000,"state":"active","ping":75},{"user_id":345,"name":"Geoff the Oracle","steam_id":76561198053759965,"connected_time":1620000000000,"state":"active","ping":68},{"user_id":346,"name":"inteli-keeper","steam_id":76561199011763306,"connected_time":1484000000000,"state":"active","ping":80},{"user_id":357,"name":"Mammut","steam_id":76561198056773933,"connected_time":10000000000,"state":"spawning","ping":35},{"user_id":353,"name":"Aleknat","steam_id":76561198055379857,"connected_time":500000000000,"state":"active","ping":63},{"user_id":334,"name":"Sheen (Khang)","steam_id":76561198371062974,"connected_time":5401000000000,"state":"active","ping":80},{"user_id":335,"name":"crashkit2","steam_id":76561198042735356,"connected_time":5399000000000,"state":"active","ping":71}]},{"server_id":308,"name":"Uncletopia | Frankfurt | 3 | All Maps","name_short":"frk-3","host":"frk-1.de.uncletopia.com","port":27035,"enabled":true,"region":"eu","cc":"de","latitude":50.110924,"longitude":8.682127,"reserved":0,"last_update":"0001-01-01T00:00:00Z","name_a2s":"Uncletopia | Frankfurt | 3 | All Maps","protocol":17,"map":"pl_swiftwater_final1","folder":"tf","game":"Team Fortress","app_id":440,"player_count":24,"max_players":24,"Bots":0,"server_type":"Dedicated","server_os":"Linux","password":true,"vac":true,"version":"7961495","steam_id":85568392924504274,"keywords":["nocrits","nodmgspread","payload","uncletopia"],"game_id":440,"stv_port":27036,"stv_name":"Uncletopia | Frankfurt | 3 | All Maps | STV","players":[{"user_id":707,"name":"Psychicpie","steam_id":76561198126065206,"connected_time":6900000000000,"state":"active","ping":52},{"user_id":782,"name":"race car driver jerry","steam_id":76561198054047446,"connected_time":2307000000000,"state":"active","ping":61},{"user_id":638,"name":"sticks","steam_id":76561198127099299,"connected_time":11100000000000,"state":"active","ping":52},{"user_id":786,"name":"doctor sex","steam_id":76561198029044617,"connected_time":821000000000,"state":"active","ping":59},{"user_id":785,"name":"valdissobol","steam_id":76561199491743037,"connected_time":858000000000,"state":"active","ping":89},{"user_id":796,"name":"Snek","steam_id":76561198026689255,"connected_time":71000000000,"state":"active","ping":71},{"user_id":762,"name":"ibon","steam_id":76561199267376143,"connected_time":3045000000000,"state":"active","ping":101},{"user_id":764,"name":"Çodar","steam_id":76561198235518444,"connected_time":2972000000000,"state":"active","ping":45},{"user_id":735,"name":"xTheDarkLight","steam_id":76561198239128298,"connected_time":5347000000000,"state":"active","ping":46},{"user_id":772,"name":"thekoolest88","steam_id":76561199022415672,"connected_time":2613000000000,"state":"active","ping":153},{"user_id":783,"name":"Monke Hartmann","steam_id":76561198281389701,"connected_time":1728000000000,"state":"active","ping":96},{"user_id":787,"name":"SupremeGarbo","steam_id":76561198018260268,"connected_time":772000000000,"state":"active","ping":156},{"user_id":710,"name":"Finn","steam_id":76561198179960193,"connected_time":6858000000000,"state":"active","ping":55},{"user_id":745,"name":"Hussain_144","steam_id":76561198346029208,"connected_time":4071000000000,"state":"active","ping":177},{"user_id":721,"name":"Zamorocian","steam_id":76561198076604017,"connected_time":6001000000000,"state":"active","ping":47},{"user_id":784,"name":"N5LH","steam_id":76561199112528775,"connected_time":881000000000,"state":"active","ping":116},{"user_id":715,"name":"sarii ☆","steam_id":76561199155102111,"connected_time":6775000000000,"state":"active","ping":79},{"user_id":781,"name":"Engie Gaming","steam_id":76561198060988694,"connected_time":2370000000000,"state":"active","ping":103},{"user_id":795,"name":"belal tiger","steam_id":76561198977309417,"connected_time":379000000000,"state":"active","ping":191},{"user_id":738,"name":"Mr. Watch","steam_id":76561198276103501,"connected_time":5303000000000,"state":"active","ping":88},{"user_id":788,"name":"󠀡󠀡","steam_id":76561198199523126,"connected_time":749000000000,"state":"active","ping":69},{"user_id":789,"name":"VERSU117","steam_id":76561198093658698,"connected_time":696000000000,"state":"active","ping":79},{"user_id":790,"name":"Arentrir","steam_id":76561198334126785,"connected_time":694000000000,"state":"active","ping":75},{"user_id":793,"name":"Kabachok Aeronavt","steam_id":76561198123659806,"connected_time":512000000000,"state":"active","ping":96}]},{"server_id":309,"name":"Uncletopia | Frankfurt | 4 | All Maps","name_short":"frk-4","host":"frk-1.de.uncletopia.com","port":27045,"enabled":true,"region":"eu","cc":"de","latitude":50.110924,"longitude":8.682127,"reserved":0,"last_update":"0001-01-01T00:00:00Z","name_a2s":"Uncletopia | Frankfurt | 4 | All Maps","protocol":17,"map":"koth_highpass","folder":"tf","game":"Team Fortress","app_id":440,"player_count":0,"max_players":24,"Bots":0,"server_type":"Dedicated","server_os":"Linux","password":true,"vac":true,"version":"7961495","steam_id":85568392924504275,"keywords":["cp","nocrits","nodmgspread","uncletopia"],"game_id":440,"stv_port":27046,"stv_name":"Uncletopia | Frankfurt | 4 | All Maps | STV","players":null},{"server_id":310,"name":"Uncletopia | Frankfurt | 5 | All Maps","name_short":"frk-5","host":"frk-1.de.uncletopia.com","port":27055,"enabled":true,"region":"eu","cc":"de","latitude":50.110924,"longitude":8.682127,"reserved":0,"last_update":"0001-01-01T00:00:00Z","name_a2s":"Uncletopia | Frankfurt | 5 | All Maps","protocol":17,"map":"cp_metalworks","folder":"tf","game":"Team Fortress","app_id":440,"player_count":0,"max_players":24,"Bots":0,"server_type":"Dedicated","server_os":"Linux","password":true,"vac":true,"version":"7961495","steam_id":85568392924504277,"keywords":["cp","nocrits","nodmgspread","uncletopia"],"game_id":440,"stv_port":27056,"stv_name":"Uncletopia | Frankfurt | 5 | All Maps | STV","players":null},{"server_id":311,"name":"Uncletopia | Frankfurt | 6 | All Maps","name_short":"frk-6","host":"frk-1.de.uncletopia.com","port":27065,"enabled":true,"region":"eu","cc":"de","latitude":50.110924,"longitude":8.682127,"reserved":0,"last_update":"0001-01-01T00:00:00Z","name_a2s":"Uncletopia | Frankfurt | 6 | All Maps","protocol":17,"map":"koth_viaduct","folder":"tf","game":"Team Fortress","app_id":440,"player_count":0,"max_players":24,"Bots":0,"server_type":"Dedicated","server_os":"Linux","password":true,"vac":true,"version":"7961495","steam_id":85568392924504278,"keywords":["cp","nocrits","nodmgspread","uncletopia"],"game_id":440,"stv_port":27066,"stv_name":"Uncletopia | Frankfurt | 6 | All Maps | STV","players":null},{"server_id":23,"name":"Uncletopia | Frankfurt | 7 | Stopwatch","name_short":"frk-7","host":"frk-1.de.uncletopia.com","port":27075,"enabled":true,"region":"eu","cc":"de","latitude":50.110924,"longitude":8.682127,"reserved":0,"last_update":"0001-01-01T00:00:00Z","name_a2s":"Uncletopia | Frankfurt | 7 | Stopwatch","protocol":17,"map":"pl_frontier_final","folder":"tf","game":"Team Fortress","app_id":440,"player_count":0,"max_players":24,"Bots":0,"server_type":"Dedicated","server_os":"Linux","password":true,"vac":true,"version":"7961495","steam_id":85568392924742827,"keywords":["nocrits","nodmgspread","payload","uncletopia"],"game_id":440,"stv_port":27076,"stv_name":"Uncletopia | Frankfurt | 7 | Stopwatch | STV","players":null},{"server_id":24,"name":"Uncletopia | Frankfurt | 8 | Community","name_short":"frk-8","host":"frk-1.de.uncletopia.com","port":27085,"enabled":true,"region":"eu","cc":"de","latitude":50.110924,"longitude":8.682127,"reserved":0,"last_update":"0001-01-01T00:00:00Z","name_a2s":"Uncletopia | Frankfurt | 8 | Community","protocol":17,"map":"workshop/koth_bagel_rc6.ugc2514036946","folder":"tf","game":"Team Fortress","app_id":440,"player_count":0,"max_players":24,"Bots":0,"server_type":"Dedicated","server_os":"Linux","password":true,"vac":true,"version":"7961495","steam_id":85568392924742828,"keywords":["cp","nocrits","nodmgspread","uncletopia"],"game_id":440,"stv_port":27086,"stv_name":"Uncletopia | Frankfurt | 8 | Community | STV","players":null},{"server_id":202,"name":"Uncletopia | Hong Kong | 1 | All Maps","name_short":"hgk-1","host":"hgk-1.hk.uncletopia.com","port":27015,"enabled":true,"region":"asia","cc":"hk","latitude":22.302711,"longitude":114.177216,"reserved":0,"last_update":"0001-01-01T00:00:00Z","name_a2s":"Uncletopia | Hong Kong | 1 | All Maps","protocol":17,"map":"pl_frontier_final","folder":"tf","game":"Team Fortress","app_id":440,"player_count":0,"max_players":24,"Bots":0,"server_type":"Dedicated","server_os":"Linux","password":true,"vac":true,"version":"7961495","steam_id":85568392924494504,"keywords":["nocrits","nodmgspread","payload","uncletopia"],"game_id":440,"stv_port":27016,"stv_name":"Uncletopia | Hong Kong | 1 | All Maps | STV","players":null},{"server_id":1,"name":"Uncletopia | Los Angeles | 1 | All Maps","name_short":"lax-1","host":"lax-1.us.uncletopia.com","port":27015,"enabled":true,"region":"us-west","cc":"us","latitude":33.94279,"longitude":-118.41004,"reserved":0,"last_update":"0001-01-01T00:00:00Z","name_a2s":"Uncletopia | Los Angeles | 1 | All Maps","protocol":17,"map":"cp_mountainlab","folder":"tf","game":"Team Fortress","app_id":440,"player_count":0,"max_players":24,"Bots":0,"server_type":"Dedicated","server_os":"Linux","password":true,"vac":true,"version":"7961495","steam_id":85568392924469991,"keywords":["cp","nocrits","nodmgspread","uncletopia"],"game_id":440,"stv_port":27016,"stv_name":"Uncletopia | Los Angeles | 1 | All Maps | STV","players":null},{"server_id":112,"name":"Uncletopia | Los Angeles | 2 | All Maps","name_short":"lax-2","host":"lax-1.us.uncletopia.com","port":27025,"enabled":true,"region":"us-west","cc":"us","latitude":33.94279,"longitude":-118.41004,"reserved":0,"last_update":"0001-01-01T00:00:00Z","name_a2s":"Uncletopia | Los Angeles | 2 | All Maps","protocol":17,"map":"koth_viaduct","folder":"tf","game":"Team Fortress","app_id":440,"player_count":0,"max_players":24,"Bots":0,"server_type":"Dedicated","server_os":"Linux","password":true,"vac":true,"version":"7961495","steam_id":85568392924469992,"keywords":["cp","nocrits","nodmgspread","uncletopia"],"game_id":440,"stv_port":27026,"stv_name":"Uncletopia | Los Angeles | 2 | All Maps | STV","players":null},{"server_id":324,"name":"Uncletopia | Los Angeles | 3 | All Maps","name_short":"lax-3","host":"lax-1.us.uncletopia.com","port":27035,"enabled":true,"region":"us-west","cc":"us","latitude":33.94279,"longitude":-118.41004,"reserved":0,"last_update":"0001-01-01T00:00:00Z","name_a2s":"Uncletopia | Los Angeles | 3 | All Maps","protocol":17,"map":"pl_frontier_final","folder":"tf","game":"Team Fortress","app_id":440,"player_count":0,"max_players":24,"Bots":0,"server_type":"Dedicated","server_os":"Linux","password":true,"vac":true,"version":"7961495","steam_id":85568392924510198,"keywords":["nocrits","nodmgspread","payload","uncletopia"],"game_id":440,"stv_port":27036,"stv_name":"Uncletopia | Los Angeles | 3 | All Maps | STV","players":null},{"server_id":25,"name":"Uncletopia | Los Angeles | 4 | Stopwatch","name_short":"lax-4","host":"lax-1.us.uncletopia.com","port":27045,"enabled":true,"region":"us-west","cc":"us","latitude":33.94279,"longitude":-118.41004,"reserved":0,"last_update":"0001-01-01T00:00:00Z","name_a2s":"Uncletopia | Los Angeles | 4 | Stopwatch","protocol":17,"map":"workshop/pl_summercoast_rc8e.ugc1761528829","folder":"tf","game":"Team Fortress","app_id":440,"player_count":0,"max_players":24,"Bots":0,"server_type":"Dedicated","server_os":"Linux","password":true,"vac":true,"version":"7961495","steam_id":85568392924510199,"keywords":["nocrits","nodmgspread","payload","uncletopia"],"game_id":440,"stv_port":27046,"stv_name":"Uncletopia | Los Angeles | 4 | Stopwatch | STV","players":null},{"server_id":11,"name":"Uncletopia | London | 1 | All Maps","name_short":"lon-1","host":"lon-1.uk.uncletopia.com","port":27015,"enabled":true,"region":"eu","cc":"gb","latitude":51.509865,"longitude":-0.118092,"reserved":0,"last_update":"0001-01-01T00:00:00Z","name_a2s":"Uncletopia | London | 1 | All Maps","protocol":17,"map":"koth_highpass","folder":"tf","game":"Team Fortress","app_id":440,"player_count":24,"max_players":24,"Bots":0,"server_type":"Dedicated","server_os":"Linux","password":true,"vac":true,"version":"7961495","steam_id":85568392924367362,"keywords":["cp","nocrits","nodmgspread","uncletopia"],"game_id":440,"stv_port":27016,"stv_name":"Uncletopia | London | 1 | All Maps | STV","players":[{"user_id":808,"name":"remi, she wrote.","steam_id":76561198044045655,"connected_time":602000000000,"state":"active","ping":72},{"user_id":787,"name":"krayy (blåhaj enjoyer)","steam_id":76561198035037830,"connected_time":2131000000000,"state":"active","ping":55},{"user_id":809,"name":"Marquis de Hoto","steam_id":76561198080687708,"connected_time":577000000000,"state":"active","ping":70},{"user_id":799,"name":"Massive GigaRandom","steam_id":76561197970114051,"connected_time":1879000000000,"state":"active","ping":44},{"user_id":817,"name":"Aeonspassed","steam_id":76561198014016451,"connected_time":256000000000,"state":"active","ping":147},{"user_id":790,"name":"Lozo","steam_id":76561198091866601,"connected_time":2035000000000,"state":"active","ping":59},{"user_id":818,"name":"The Gaper","steam_id":76561198053389698,"connected_time":250000000000,"state":"active","ping":57},{"user_id":791,"name":"tanyathsus","steam_id":76561198089522447,"connected_time":2032000000000,"state":"active","ping":62},{"user_id":816,"name":"Wiverny","steam_id":76561198061954999,"connected_time":486000000000,"state":"active","ping":52},{"user_id":821,"name":"MagicCraftMaster","steam_id":76561198179156615,"connected_time":161000000000,"state":"active","ping":160},{"user_id":779,"name":"cansado","steam_id":76561198003898089,"connected_time":2935000000000,"state":"active","ping":71},{"user_id":812,"name":"Zombie_Damage","steam_id":76561197963901630,"connected_time":556000000000,"state":"active","ping":147},{"user_id":793,"name":"Cabbch","steam_id":76561198045955679,"connected_time":1996000000000,"state":"active","ping":48},{"user_id":814,"name":"hananamanna","steam_id":76561198006570285,"connected_time":526000000000,"state":"active","ping":116},{"user_id":819,"name":"Deformed Gollum","steam_id":76561198155563589,"connected_time":235000000000,"state":"active","ping":50},{"user_id":795,"name":"Charon","steam_id":76561198061714753,"connected_time":1940000000000,"state":"active","ping":86},{"user_id":757,"name":"gerg","steam_id":76561198041663219,"connected_time":4261000000000,"state":"active","ping":60},{"user_id":796,"name":"Donac Dum","steam_id":76561198064089294,"connected_time":1932000000000,"state":"active","ping":51},{"user_id":722,"name":"jermany","steam_id":76561198126599355,"connected_time":6162000000000,"state":"active","ping":56},{"user_id":815,"name":"Vv","steam_id":76561199052196750,"connected_time":520000000000,"state":"active","ping":177},{"user_id":824,"name":"Elon Musk's Last Braincell","steam_id":76561198846784757,"connected_time":85000000000,"state":"active","ping":55},{"user_id":765,"name":"Piteras","steam_id":76561198858532207,"connected_time":3913000000000,"state":"active","ping":82},{"user_id":766,"name":"Ullr","steam_id":76561198140547483,"connected_time":3872000000000,"state":"active","ping":44},{"user_id":823,"name":"Time to die","steam_id":76561198081642249,"connected_time":146000000000,"state":"active","ping":60}]},{"server_id":114,"name":"Uncletopia | London | 2 | All Maps","name_short":"lon-2","host":"lon-1.uk.uncletopia.com","port":27025,"enabled":true,"region":"eu","cc":"gb","latitude":51.509865,"longitude":-0.118092,"reserved":0,"last_update":"0001-01-01T00:00:00Z","name_a2s":"Uncletopia | London | 2 | All Maps","protocol":17,"map":"pl_pier","folder":"tf","game":"Team Fortress","app_id":440,"player_count":24,"max_players":24,"Bots":0,"server_type":"Dedicated","server_os":"Linux","password":true,"vac":true,"version":"7961495","steam_id":85568392924470941,"keywords":["nocrits","nodmgspread","payload","uncletopia"],"game_id":440,"stv_port":27026,"stv_name":"Uncletopia | London | 2 | All Maps | STV","players":[{"user_id":265,"name":"♡a femboy♡","steam_id":76561199212971864,"connected_time":743000000000,"state":"active","ping":135},{"user_id":267,"name":"Speedy","steam_id":76561198056090807,"connected_time":715000000000,"state":"active","ping":66},{"user_id":231,"name":"randompixel","steam_id":76561198003941207,"connected_time":3763000000000,"state":"active","ping":58},{"user_id":270,"name":"Purps","steam_id":76561198053886680,"connected_time":337000000000,"state":"active","ping":42},{"user_id":246,"name":"Vexu","steam_id":76561198113145846,"connected_time":2375000000000,"state":"active","ping":92},{"user_id":236,"name":"[UwU] Blackblood909","steam_id":76561198079427660,"connected_time":3025000000000,"state":"active","ping":73},{"user_id":256,"name":"Haha?","steam_id":76561198056882245,"connected_time":1945000000000,"state":"active","ping":36},{"user_id":190,"name":"Zm4j","steam_id":76561198259465946,"connected_time":6543000000000,"state":"active","ping":82},{"user_id":272,"name":"Jon ･ᴗ･","steam_id":76561199380849468,"connected_time":37000000000,"state":"active","ping":71},{"user_id":255,"name":"Cooki","steam_id":76561198051705314,"connected_time":2197000000000,"state":"active","ping":157},{"user_id":263,"name":"LSKi","steam_id":76561198215470228,"connected_time":1313000000000,"state":"active","ping":56},{"user_id":254,"name":"Caramel","steam_id":76561198021214844,"connected_time":2225000000000,"state":"active","ping":45},{"user_id":146,"name":"Houlles","steam_id":76561198095277383,"connected_time":10263000000000,"state":"active","ping":45},{"user_id":239,"name":"Patatata","steam_id":76561198152188319,"connected_time":2821000000000,"state":"active","ping":72},{"user_id":268,"name":"AsuX","steam_id":76561197990333289,"connected_time":561000000000,"state":"active","ping":60},{"user_id":213,"name":"Toa LightMakuta","steam_id":76561198212178104,"connected_time":4965000000000,"state":"active","ping":61},{"user_id":269,"name":"squidpunk1312","steam_id":76561198202274248,"connected_time":422000000000,"state":"active","ping":161},{"user_id":266,"name":"haraldＨＡＲＡＬＤ","steam_id":76561198116998970,"connected_time":741000000000,"state":"active","ping":91},{"user_id":226,"name":"frosty","steam_id":76561198094560834,"connected_time":3919000000000,"state":"active","ping":45},{"user_id":260,"name":"VampWolfDoll (She/Her)","steam_id":76561198102301491,"connected_time":1411000000000,"state":"active","ping":115},{"user_id":271,"name":"Tattletails","steam_id":76561198055690341,"connected_time":76000000000,"state":"active","ping":57},{"user_id":242,"name":"irritable vowel syndrome","steam_id":76561198117033273,"connected_time":2798000000000,"state":"active","ping":53},{"user_id":262,"name":"bowchika wowa #SlavaUkraine","steam_id":76561198159564550,"connected_time":1375000000000,"state":"active","ping":73},{"user_id":253,"name":"Sabour","steam_id":76561197963965445,"connected_time":2270000000000,"state":"active","ping":70}]},{"server_id":320,"name":"Uncletopia | London | 3 | All Maps","name_short":"lon-3","host":"lon-1.uk.uncletopia.com","port":27035,"enabled":true,"region":"eu","cc":"gb","latitude":51.509865,"longitude":-0.118092,"reserved":0,"last_update":"0001-01-01T00:00:00Z","name_a2s":"Uncletopia | London | 3 | All Maps","protocol":17,"map":"koth_lakeside_final","folder":"tf","game":"Team Fortress","app_id":440,"player_count":0,"max_players":24,"Bots":0,"server_type":"Dedicated","server_os":"Linux","password":true,"vac":true,"version":"7961495","steam_id":85568392924510192,"keywords":["cp","nocrits","nodmgspread","uncletopia"],"game_id":440,"stv_port":27036,"stv_name":"Uncletopia | London | 3 | All Maps | STV","players":null},{"server_id":321,"name":"Uncletopia | London | 4 | All Maps","name_short":"lon-4","host":"lon-1.uk.uncletopia.com","port":27045,"enabled":true,"region":"eu","cc":"gb","latitude":51.509865,"longitude":-0.118092,"reserved":0,"last_update":"0001-01-01T00:00:00Z","name_a2s":"Uncletopia | London | 4 | All Maps","protocol":17,"map":"cp_altitude","folder":"tf","game":"Team Fortress","app_id":440,"player_count":24,"max_players":24,"Bots":0,"server_type":"Dedicated","server_os":"Linux","password":true,"vac":true,"version":"7961495","steam_id":85568392924510193,"keywords":["cp","nocrits","nodmgspread","uncletopia"],"game_id":440,"stv_port":27046,"stv_name":"Uncletopia | London | 4 | All Maps | STV","players":[{"user_id":386,"name":"THE OG- ﻞﻴﺻﻻﺍ","steam_id":76561198157357959,"connected_time":311000000000,"state":"active","ping":170},{"user_id":382,"name":"Victoria NyaNya","steam_id":76561198386462300,"connected_time":745000000000,"state":"active","ping":95},{"user_id":357,"name":"Kaupsýslumaðurinn","steam_id":76561198070358944,"connected_time":1647000000000,"state":"active","ping":46},{"user_id":387,"name":"BenteBent","steam_id":76561198297920637,"connected_time":282000000000,"state":"active","ping":33},{"user_id":338,"name":"Dreamy Snoozer","steam_id":76561198268184742,"connected_time":2301000000000,"state":"active","ping":57},{"user_id":388,"name":"-RAMBO-","steam_id":76561198151971823,"connected_time":242000000000,"state":"active","ping":104},{"user_id":363,"name":"Jeryx","steam_id":76561197995602803,"connected_time":1305000000000,"state":"active","ping":100},{"user_id":350,"name":"joachym","steam_id":76561198428579761,"connected_time":1920000000000,"state":"active","ping":69},{"user_id":352,"name":"godmodule","steam_id":76561198165995444,"connected_time":1894000000000,"state":"active","ping":74},{"user_id":353,"name":"Imverycringey","steam_id":76561198171020019,"connected_time":1878000000000,"state":"active","ping":44},{"user_id":343,"name":"BELADIT","steam_id":76561198011911501,"connected_time":2203000000000,"state":"active","ping":86},{"user_id":380,"name":"Princess Peach","steam_id":76561198260272240,"connected_time":762000000000,"state":"active","ping":45},{"user_id":389,"name":"zherny","steam_id":76561198027033926,"connected_time":168000000000,"state":"active","ping":46},{"user_id":384,"name":"csg.haunts","steam_id":76561198044766573,"connected_time":551000000000,"state":"active","ping":60},{"user_id":267,"name":"That Bussy Can Squirt","steam_id":76561199185615752,"connected_time":8091000000000,"state":"active","ping":56},{"user_id":385,"name":"General G","steam_id":76561198062075870,"connected_time":401000000000,"state":"active","ping":70},{"user_id":348,"name":"shr1mple","steam_id":76561198173537027,"connected_time":2020000000000,"state":"active","ping":59},{"user_id":391,"name":"Likeia #Savetf2","steam_id":76561198005214207,"connected_time":88000000000,"state":"active","ping":124},{"user_id":362,"name":"Ley #savetf2","steam_id":76561198989206104,"connected_time":1397000000000,"state":"active","ping":114},{"user_id":373,"name":"Borat","steam_id":76561198122226417,"connected_time":909000000000,"state":"active","ping":39},{"user_id":327,"name":"Tombobx","steam_id":76561198862443949,"connected_time":3643000000000,"state":"active","ping":56},{"user_id":377,"name":"Trolling Man","steam_id":76561198044084210,"connected_time":843000000000,"state":"active","ping":69},{"user_id":376,"name":"SpeakUpICantHearU","steam_id":76561198049312442,"connected_time":861000000000,"state":"active","ping":57},{"user_id":378,"name":"danny","steam_id":76561198056930504,"connected_time":812000000000,"state":"active","ping":55}]},{"server_id":21,"name":"Uncletopia | London | 5 | All Maps","name_short":"lon-5","host":"lon-1.uk.uncletopia.com","port":27055,"enabled":true,"region":"eu","cc":"gb","latitude":51.509865,"longitude":-0.118092,"reserved":0,"last_update":"0001-01-01T00:00:00Z","name_a2s":"Uncletopia | London | 5 | All Maps","protocol":17,"map":"pl_snowycoast","folder":"tf","game":"Team Fortress","app_id":440,"player_count":21,"max_players":24,"Bots":0,"server_type":"Dedicated","server_os":"Linux","password":true,"vac":true,"version":"7961495","steam_id":85568392924742829,"keywords":["nocrits","nodmgspread","payload","uncletopia"],"game_id":440,"stv_port":27056,"stv_name":"Uncletopia | London | 5 | All Maps | STV","players":[{"user_id":369,"name":"proph","steam_id":76561197998803950,"connected_time":632000000000,"state":"active","ping":59},{"user_id":357,"name":"Chiddcrew","steam_id":76561198322590784,"connected_time":1544000000000,"state":"active","ping":55},{"user_id":370,"name":"SEETHROUGHFATE","steam_id":76561199441196540,"connected_time":526000000000,"state":"active","ping":75},{"user_id":348,"name":"Cadillac","steam_id":76561198091017416,"connected_time":1668000000000,"state":"active","ping":76},{"user_id":328,"name":"Lola bunny","steam_id":76561198214149431,"connected_time":3561000000000,"state":"active","ping":50},{"user_id":374,"name":"high on kakao","steam_id":76561198215538312,"connected_time":154000000000,"state":"active","ping":64},{"user_id":372,"name":"Ludwig","steam_id":76561198438861026,"connected_time":205000000000,"state":"active","ping":56},{"user_id":373,"name":"Artificial.Ignorance","steam_id":76561198453090180,"connected_time":172000000000,"state":"active","ping":161},{"user_id":375,"name":"Mongoose88","steam_id":76561197961442445,"connected_time":147000000000,"state":"active","ping":157},{"user_id":368,"name":"Dizzy","steam_id":76561198010192462,"connected_time":647000000000,"state":"active","ping":62},{"user_id":351,"name":"Sacetter","steam_id":76561198186614218,"connected_time":1640000000000,"state":"active","ping":46},{"user_id":329,"name":"Bob D","steam_id":76561198026375630,"connected_time":3537000000000,"state":"active","ping":49},{"user_id":365,"name":"LionKing","steam_id":76561198023399545,"connected_time":1271000000000,"state":"active","ping":61},{"user_id":340,"name":"NitPig","steam_id":76561198212991935,"connected_time":2471000000000,"state":"active","ping":98},{"user_id":318,"name":"PxE","steam_id":76561198038034899,"connected_time":3958000000000,"state":"active","ping":52},{"user_id":359,"name":"MaTke","steam_id":76561198378170301,"connected_time":1529000000000,"state":"active","ping":87},{"user_id":319,"name":"Endi","steam_id":76561198914938199,"connected_time":3884000000000,"state":"active","ping":100},{"user_id":354,"name":"Astrya","steam_id":76561198091242337,"connected_time":1620000000000,"state":"active","ping":42},{"user_id":355,"name":"Hamedius","steam_id":76561199152512027,"connected_time":1595000000000,"state":"active","ping":71},{"user_id":274,"name":"RUNΣ","steam_id":76561198130597407,"connected_time":6681000000000,"state":"active","ping":43},{"user_id":376,"name":"etc","steam_id":76561197998394797,"connected_time":13000000000,"state":"active","ping":53}]},{"server_id":22,"name":"Uncletopia | London | 6 | All Maps","name_short":"lon-6","host":"lon-1.uk.uncletopia.com","port":27065,"enabled":true,"region":"eu","cc":"gb","latitude":51.509865,"longitude":-0.118092,"reserved":0,"last_update":"0001-01-01T00:00:00Z","name_a2s":"Uncletopia | London | 6 | All Maps","protocol":17,"map":"pl_snowycoast","folder":"tf","game":"Team Fortress","app_id":440,"player_count":22,"max_players":24,"Bots":0,"server_type":"Dedicated","server_os":"Linux","password":true,"vac":true,"version":"7961495","steam_id":85568392924742830,"keywords":["nocrits","nodmgspread","payload","uncletopia"],"game_id":440,"stv_port":27066,"stv_name":"Uncletopia | London | 6 | All Maps | STV","players":[{"user_id":602,"name":"buldozeris","steam_id":76561198845943861,"connected_time":1494000000000,"state":"active","ping":77},{"user_id":618,"name":"tone","steam_id":76561197975301462,"connected_time":331000000000,"state":"active","ping":74},{"user_id":605,"name":"Deemaské","steam_id":76561199225833593,"connected_time":1198000000000,"state":"active","ping":48},{"user_id":622,"name":"Hank J Wimbleton","steam_id":76561198408623293,"connected_time":198000000000,"state":"active","ping":61},{"user_id":595,"name":"pabbott123110","steam_id":76561199231739796,"connected_time":2130000000000,"state":"active","ping":140},{"user_id":604,"name":"Toasted Toby","steam_id":76561198002139581,"connected_time":1410000000000,"state":"active","ping":66},{"user_id":606,"name":"Taste The Pain","steam_id":76561198082334165,"connected_time":911000000000,"state":"active","ping":60},{"user_id":625,"name":"Coke","steam_id":76561199083035892,"connected_time":78000000000,"state":"active","ping":171},{"user_id":628,"name":"car with air conditioning","steam_id":76561198368514674,"connected_time":26000000000,"state":"spawning","ping":63},{"user_id":624,"name":"Yody Morris","steam_id":76561199217126057,"connected_time":170000000000,"state":"active","ping":56},{"user_id":609,"name":"ACG_Dubsy","steam_id":76561198797308565,"connected_time":648000000000,"state":"active","ping":53},{"user_id":613,"name":"Ostara","steam_id":76561198200054489,"connected_time":528000000000,"state":"active","ping":55},{"user_id":611,"name":"TosunPasha","steam_id":76561199039584984,"connected_time":547000000000,"state":"active","ping":100},{"user_id":612,"name":"Shromide","steam_id":76561198140382935,"connected_time":541000000000,"state":"active","ping":56},{"user_id":614,"name":"bollocks","steam_id":76561197971010483,"connected_time":460000000000,"state":"active","ping":56},{"user_id":615,"name":"Domo","steam_id":76561199440809546,"connected_time":445000000000,"state":"active","ping":140},{"user_id":616,"name":"caco taco","steam_id":76561198056077883,"connected_time":438000000000,"state":"active","ping":96},{"user_id":620,"name":"Grimbo","steam_id":76561198826767537,"connected_time":317000000000,"state":"active","ping":133},{"user_id":626,"name":"cow go mow","steam_id":76561199186954483,"connected_time":59000000000,"state":"active","ping":149},{"user_id":627,"name":"Pultow","steam_id":76561198023438448,"connected_time":46000000000,"state":"active","ping":83},{"user_id":629,"name":"mohemmedmokhter2005","steam_id":76561199197650506,"connected_time":13000000000,"state":"spawning","ping":118},{"user_id":587,"name":"Dario","steam_id":76561198138558896,"connected_time":3037000000000,"state":"active","ping":60}]},{"server_id":40,"name":"Uncletopia | London | 7 | Stopwatch","name_short":"lon-7","host":"lon-1.uk.uncletopia.com","port":27075,"enabled":true,"region":"eu","cc":"gb","latitude":51.509865,"longitude":-0.118092,"reserved":0,"last_update":"0001-01-01T00:00:00Z","name_a2s":"Uncletopia | London | 7 | Stopwatch","protocol":17,"map":"workshop/pl_badwater_pro_v12.ugc2142942074","folder":"tf","game":"Team Fortress","app_id":440,"player_count":5,"max_players":24,"Bots":0,"server_type":"Dedicated","server_os":"Linux","password":true,"vac":true,"version":"7961495","steam_id":85568392924964314,"keywords":["nocrits","nodmgspread","payload","uncletopia"],"game_id":440,"stv_port":27076,"stv_name":"Uncletopia | London | 7 | Stopwatch | STV","players":[{"user_id":34,"name":"DraGoN","steam_id":76561198006224312,"connected_time":1711000000000,"state":"active","ping":199},{"user_id":35,"name":"SNaKe","steam_id":76561198249832738,"connected_time":1667000000000,"state":"active","ping":206},{"user_id":36,"name":"ran is running","steam_id":76561199443185667,"connected_time":1404000000000,"state":"active","ping":128},{"user_id":37,"name":"IndigoJones","steam_id":76561198050284262,"connected_time":593000000000,"state":"active","ping":43},{"user_id":15,"name":"89384HDHSJDHU\u0026/","steam_id":76561198057833760,"connected_time":7679000000000,"state":"active","ping":71}]},{"server_id":41,"name":"Uncletopia | London | 8 | Community","name_short":"lon-8","host":"lon-1.uk.uncletopia.com","port":27085,"enabled":true,"region":"eu","cc":"gb","latitude":51.509865,"longitude":-0.118092,"reserved":0,"last_update":"0001-01-01T00:00:00Z","name_a2s":"Uncletopia | London | 8 | Community","protocol":17,"map":"workshop/koth_bagel_rc6.ugc2514036946","folder":"tf","game":"Team Fortress","app_id":440,"player_count":0,"max_players":24,"Bots":0,"server_type":"Dedicated","server_os":"Linux","password":true,"vac":true,"version":"7961495","steam_id":85568392924964315,"keywords":["cp","nocrits","nodmgspread","uncletopia"],"game_id":440,"stv_port":27086,"stv_name":"Uncletopia | London | 8 | Community | STV","players":null},{"server_id":300,"name":"Uncletopia | Montréal | 1 | All Maps","name_short":"mtl-1","host":"mtl-1.ca.uncletopia.com","port":27015,"enabled":true,"region":"us-east","cc":"ca","latitude":45.50889,"longitude":-73.56167,"reserved":0,"last_update":"0001-01-01T00:00:00Z","name_a2s":"","protocol":0,"map":"","folder":"","game":"","app_id":0,"player_count":0,"max_players":0,"Bots":0,"server_type":"","server_os":"","password":false,"vac":false,"version":"","steam_id":0,"keywords":null,"game_id":0,"stv_port":0,"stv_name":"","players":null},{"server_id":301,"name":"Uncletopia | Montréal | 2 | ???","name_short":"mtl-2","host":"mtl-1.ca.uncletopia.com","port":27025,"enabled":true,"region":"us-east","cc":"ca","latitude":45.50889,"longitude":-73.56167,"reserved":0,"last_update":"0001-01-01T00:00:00Z","name_a2s":"","protocol":0,"map":"","folder":"","game":"","app_id":0,"player_count":0,"max_players":0,"Bots":0,"server_type":"","server_os":"","password":false,"vac":false,"version":"","steam_id":0,"keywords":null,"game_id":0,"stv_port":0,"stv_name":"","players":null},{"server_id":13,"name":"Uncletopia | New York City | 1 | All Maps","name_short":"nyc-1","host":"nyc-1.us.uncletopia.com","port":27015,"enabled":true,"region":"us-east","cc":"us","latitude":40.73061,"longitude":-73.93524,"reserved":0,"last_update":"0001-01-01T00:00:00Z","name_a2s":"Uncletopia | New York City | 1 | All Maps","protocol":17,"map":"cp_steel","folder":"tf","game":"Team Fortress","app_id":440,"player_count":24,"max_players":24,"Bots":0,"server_type":"Dedicated","server_os":"Linux","password":true,"vac":true,"version":"7961495","steam_id":85568392924469993,"keywords":["cp","nocrits","nodmgspread","uncletopia"],"game_id":440,"stv_port":27016,"stv_name":"Uncletopia | New York City | 1 | All Maps | STV","players":[{"user_id":492,"name":"Defragmented","steam_id":76561198854210081,"connected_time":926000000000,"state":"active","ping":68},{"user_id":495,"name":"snart","steam_id":76561198096730752,"connected_time":799000000000,"state":"active","ping":120},{"user_id":450,"name":"Team Fortress","steam_id":76561198058722801,"connected_time":2763000000000,"state":"active","ping":120},{"user_id":493,"name":"Rigby","steam_id":76561198258121396,"connected_time":917000000000,"state":"active","ping":80},{"user_id":509,"name":"Roberto Del Fuego","steam_id":76561198043458554,"connected_time":267000000000,"state":"active","ping":63},{"user_id":454,"name":"CCPodz","steam_id":76561199143506502,"connected_time":2620000000000,"state":"active","ping":70},{"user_id":490,"name":"DevWasHere","steam_id":76561199445306527,"connected_time":1101000000000,"state":"active","ping":54},{"user_id":456,"name":"reko","steam_id":76561198278020887,"connected_time":2586000000000,"state":"active","ping":106},{"user_id":511,"name":"bonk man 2010","steam_id":76561199454219077,"connected_time":180000000000,"state":"active","ping":73},{"user_id":504,"name":"TheNoFaceGuy","steam_id":76561198086398392,"connected_time":666000000000,"state":"active","ping":100},{"user_id":459,"name":"mollusk_obliteration","steam_id":76561198085388962,"connected_time":2534000000000,"state":"active","ping":82},{"user_id":463,"name":"defcon","steam_id":76561198100656328,"connected_time":2227000000000,"state":"active","ping":85},{"user_id":464,"name":"JustADuck","steam_id":76561198311260943,"connected_time":2226000000000,"state":"active","ping":73},{"user_id":507,"name":"Cherry Timbit","steam_id":76561199231009336,"connected_time":299000000000,"state":"active","ping":81},{"user_id":494,"name":"i remember you was cumflated","steam_id":76561198097330521,"connected_time":878000000000,"state":"active","ping":165},{"user_id":512,"name":"xSloshua","steam_id":76561198268409369,"connected_time":175000000000,"state":"active","ping":103},{"user_id":505,"name":"John Darksoul","steam_id":76561198999712284,"connected_time":539000000000,"state":"active","ping":84},{"user_id":470,"name":"jeff","steam_id":76561198059450566,"connected_time":2137000000000,"state":"active","ping":60},{"user_id":471,"name":"Pan Wizard","steam_id":76561198031939694,"connected_time":2133000000000,"state":"active","ping":70},{"user_id":488,"name":"BenderBros","steam_id":76561198362310421,"connected_time":1275000000000,"state":"active","ping":49},{"user_id":491,"name":"Zeebop","steam_id":76561198148332988,"connected_time":954000000000,"state":"active","ping":73},{"user_id":489,"name":"Knifeagent","steam_id":76561198080002386,"connected_time":1213000000000,"state":"active","ping":60},{"user_id":506,"name":"MeKaso TropStar","steam_id":76561199109895840,"connected_time":499000000000,"state":"active","ping":53},{"user_id":480,"name":"FltySlnshWshpr","steam_id":76561198058427331,"connected_time":1855000000000,"state":"active","ping":45}]},{"server_id":14,"name":"Uncletopia | New York City | 2 | All Maps","name_short":"nyc-2","host":"nyc-1.us.uncletopia.com","port":27025,"enabled":true,"region":"us-east","cc":"us","latitude":40.73061,"longitude":-73.93524,"reserved":0,"last_update":"0001-01-01T00:00:00Z","name_a2s":"Uncletopia | New York City | 2 | All Maps","protocol":17,"map":"cp_snakewater_final1","folder":"tf","game":"Team Fortress","app_id":440,"player_count":24,"max_players":24,"Bots":0,"server_type":"Dedicated","server_os":"Linux","password":true,"vac":true,"version":"7961495","steam_id":85568392924469994,"keywords":["cp","nocrits","nodmgspread","uncletopia"],"game_id":440,"stv_port":27026,"stv_name":"Uncletopia | New York City | 2 | All Maps | STV","players":[{"user_id":209,"name":"Rabbi Shlomo Berkowitz","steam_id":76561199166380439,"connected_time":226000000000,"state":"active","ping":44},{"user_id":186,"name":"21 salvage","steam_id":76561198413930183,"connected_time":1338000000000,"state":"active","ping":42},{"user_id":157,"name":"3/4'' x 18'' industrial pipe","steam_id":76561198094042613,"connected_time":3469000000000,"state":"active","ping":82},{"user_id":158,"name":"Brad Bones","steam_id":76561198068129320,"connected_time":3407000000000,"state":"active","ping":51},{"user_id":185,"name":"ansmew","steam_id":76561198075200670,"connected_time":1357000000000,"state":"active","ping":59},{"user_id":205,"name":"vastrobotmax","steam_id":76561198417110724,"connected_time":633000000000,"state":"active","ping":69},{"user_id":208,"name":"Erchius","steam_id":76561198256892300,"connected_time":553000000000,"state":"active","ping":78},{"user_id":203,"name":"GOD of SEX","steam_id":76561198209689295,"connected_time":735000000000,"state":"active","ping":67},{"user_id":171,"name":"Urbanzpinapple","steam_id":76561198115426938,"connected_time":2387000000000,"state":"active","ping":103},{"user_id":210,"name":"Sehr Chunky","steam_id":76561198114098718,"connected_time":74000000000,"state":"spawning","ping":70},{"user_id":211,"name":"g8rade","steam_id":76561198070593964,"connected_time":50000000000,"state":"active","ping":81},{"user_id":199,"name":"Kmaids","steam_id":76561198100291036,"connected_time":846000000000,"state":"active","ping":66},{"user_id":176,"name":"Hoopla","steam_id":76561198327775508,"connected_time":1913000000000,"state":"active","ping":44},{"user_id":154,"name":"Broadway Rose","steam_id":76561198046083342,"connected_time":3879000000000,"state":"active","ping":42},{"user_id":112,"name":"flappyflap2","steam_id":76561198285048973,"connected_time":5951000000000,"state":"active","ping":44},{"user_id":207,"name":"CashMoney","steam_id":76561198108389190,"connected_time":608000000000,"state":"active","ping":127},{"user_id":173,"name":"Portal2Player","steam_id":76561198062870114,"connected_time":2318000000000,"state":"active","ping":64},{"user_id":204,"name":"Still Grillby","steam_id":76561198161275243,"connected_time":733000000000,"state":"active","ping":59},{"user_id":175,"name":"dismissy","steam_id":76561198073904781,"connected_time":2004000000000,"state":"active","ping":135},{"user_id":191,"name":"Gremlin","steam_id":76561198435061144,"connected_time":1070000000000,"state":"active","ping":48},{"user_id":192,"name":"Tony","steam_id":76561198097802325,"connected_time":1068000000000,"state":"active","ping":69},{"user_id":201,"name":"MLWeegee","steam_id":76561198096399823,"connected_time":788000000000,"state":"active","ping":44},{"user_id":202,"name":"BugsAreMyWorstEnemy","steam_id":76561199440395505,"connected_time":771000000000,"state":"active","ping":59},{"user_id":197,"name":"Atomic Waffles","steam_id":76561197970935570,"connected_time":980000000000,"state":"active","ping":89}]},{"server_id":15,"name":"Uncletopia | New York City | 3 | Stopwatch","name_short":"nyc-3","host":"nyc-1.us.uncletopia.com","port":27035,"enabled":true,"region":"us-east","cc":"us","latitude":40.73061,"longitude":-73.93524,"reserved":0,"last_update":"0001-01-01T00:00:00Z","name_a2s":"Uncletopia | New York City | 3 | Stopwatch","protocol":17,"map":"workshop/koth_clearcut_b15.ugc2107050255","folder":"tf","game":"Team Fortress","app_id":440,"player_count":0,"max_players":24,"Bots":0,"server_type":"Dedicated","server_os":"Linux","password":true,"vac":true,"version":"7961495","steam_id":85568392924742820,"keywords":["cp","nocrits","nodmgspread","uncletopia"],"game_id":440,"stv_port":27036,"stv_name":"Uncletopia | New York City | 3 | Stopwatch | STV","players":null},{"server_id":16,"name":"Uncletopia | New York City | 4 | Community","name_short":"nyc-4","host":"nyc-1.us.uncletopia.com","port":27045,"enabled":true,"region":"us-east","cc":"us","latitude":40.73061,"longitude":-73.93524,"reserved":0,"last_update":"0001-01-01T00:00:00Z","name_a2s":"Uncletopia | New York City | 4 | Community","protocol":17,"map":"workshop/cp_sulfur_rc2.ugc619869471","folder":"tf","game":"Team Fortress","app_id":440,"player_count":0,"max_players":24,"Bots":0,"server_type":"Dedicated","server_os":"Linux","password":true,"vac":true,"version":"7961495","steam_id":85568392924742821,"keywords":["cp","nocrits","nodmgspread","uncletopia"],"game_id":440,"stv_port":27046,"stv_name":"Uncletopia | New York City | 4 | Community | STV","players":null},{"server_id":142,"name":"Uncletopia | São Paulo | 1 | All Maps","name_short":"sao-1","host":"sao-1.br.uncletopia.com","port":27015,"enabled":true,"region":"sa","cc":"br","latitude":-23.533773,"longitude":-46.62529,"reserved":0,"last_update":"0001-01-01T00:00:00Z","name_a2s":"Uncletopia | São Paulo | 1 | All Maps","protocol":17,"map":"koth_viaduct","folder":"tf","game":"Team Fortress","app_id":440,"player_count":0,"max_players":24,"Bots":0,"server_type":"Dedicated","server_os":"Linux","password":true,"vac":true,"version":"7961495","steam_id":85568392924469996,"keywords":["cp","nocrits","nodmgspread","uncletopia"],"game_id":440,"stv_port":27016,"stv_name":"Uncletopia | São Paulo | 1 | All Maps | STV","players":null},{"server_id":143,"name":"Uncletopia | São Paulo | 2 | Community","name_short":"sao-2","host":"sao-2.br.uncletopia.com","port":27015,"enabled":true,"region":"sa","cc":"br","latitude":-23.533773,"longitude":-46.62529,"reserved":0,"last_update":"0001-01-01T00:00:00Z","name_a2s":"Uncletopia | São Paulo | 2 | Community","protocol":17,"map":"workshop/cp_villa_b19.ugc2113052569","folder":"tf","game":"Team Fortress","app_id":440,"player_count":0,"max_players":24,"Bots":0,"server_type":"Dedicated","server_os":"Linux","password":true,"vac":true,"version":"7961495","steam_id":85568392924485349,"keywords":["cp","nocrits","nodmgspread","uncletopia"],"game_id":440,"stv_port":27016,"stv_name":"Uncletopia | São Paulo | 2 | Community | STV","players":null},{"server_id":7,"name":"Uncletopia | Seattle | 1 | All Maps","name_short":"sea-1","host":"sea-1.us.uncletopia.com","port":27015,"enabled":true,"region":"us-west","cc":"us","latitude":47.608013,"longitude":-122.33517,"reserved":0,"last_update":"0001-01-01T00:00:00Z","name_a2s":"Uncletopia | Seattle | 1 | All Maps","protocol":17,"map":"pl_frontier_final","folder":"tf","game":"Team Fortress","app_id":440,"player_count":24,"max_players":24,"Bots":0,"server_type":"Dedicated","server_os":"Linux","password":true,"vac":true,"version":"7961495","steam_id":85568392924469997,"keywords":["nocrits","nodmgspread","payload","uncletopia"],"game_id":440,"stv_port":27016,"stv_name":"Uncletopia | Seattle | 1 | All Maps | STV","players":[{"user_id":431,"name":"Karg","steam_id":76561198091387866,"connected_time":1513000000000,"state":"active","ping":70},{"user_id":419,"name":"BlazedBunny","steam_id":76561198243610560,"connected_time":3020000000000,"state":"active","ping":64},{"user_id":433,"name":"Main Opp","steam_id":76561198124910662,"connected_time":1456000000000,"state":"active","ping":60},{"user_id":450,"name":"Vincent Van Bro","steam_id":76561197966919802,"connected_time":207000000000,"state":"active","ping":46},{"user_id":444,"name":"james may","steam_id":76561198043857339,"connected_time":561000000000,"state":"active","ping":84},{"user_id":448,"name":"Asshole","steam_id":76561198012157352,"connected_time":470000000000,"state":"active","ping":62},{"user_id":432,"name":"canna van gogh","steam_id":76561198056331193,"connected_time":1498000000000,"state":"active","ping":52},{"user_id":445,"name":"Copy","steam_id":76561198025031590,"connected_time":558000000000,"state":"active","ping":51},{"user_id":427,"name":"Chef Clatsboris","steam_id":76561198162117215,"connected_time":2526000000000,"state":"active","ping":60},{"user_id":421,"name":"smeasly","steam_id":76561198028718812,"connected_time":2978000000000,"state":"active","ping":43},{"user_id":446,"name":"jayeskae","steam_id":76561198144220801,"connected_time":558000000000,"state":"active","ping":51},{"user_id":362,"name":"dust | it/she","steam_id":76561198045218909,"connected_time":8470000000000,"state":"active","ping":44},{"user_id":423,"name":"Ishy the Lagger","steam_id":76561198835943890,"connected_time":2946000000000,"state":"active","ping":135},{"user_id":402,"name":"bear1boss fan","steam_id":76561198047850813,"connected_time":5057000000000,"state":"active","ping":45},{"user_id":441,"name":"ZEKKER","steam_id":76561197967968980,"connected_time":870000000000,"state":"active","ping":40},{"user_id":447,"name":"Cave Dweller","steam_id":76561198374825685,"connected_time":558000000000,"state":"active","ping":77},{"user_id":417,"name":"jovial","steam_id":76561198297130941,"connected_time":3334000000000,"state":"active","ping":75},{"user_id":449,"name":"death snail","steam_id":76561198093053238,"connected_time":392000000000,"state":"active","ping":38},{"user_id":436,"name":"A Meatball Obsessed Demoman","steam_id":76561198253325844,"connected_time":1021000000000,"state":"active","ping":58},{"user_id":413,"name":"greens beans","steam_id":76561198153611491,"connected_time":3967000000000,"state":"active","ping":42},{"user_id":430,"name":"Strikerbolt","steam_id":76561199095622897,"connected_time":2219000000000,"state":"active","ping":77},{"user_id":398,"name":"mega","steam_id":76561198089520959,"connected_time":5360000000000,"state":"active","ping":98},{"user_id":354,"name":"COOL master_9","steam_id":76561198073041151,"connected_time":8814000000000,"state":"active","ping":86},{"user_id":437,"name":"Themasterman75","steam_id":76561199385573293,"connected_time":1021000000000,"state":"active","ping":60}]},{"server_id":119,"name":"Uncletopia | Seattle | 2 | All Maps","name_short":"sea-2","host":"sea-1.us.uncletopia.com","port":27025,"enabled":true,"region":"us-west","cc":"us","latitude":47.608013,"longitude":-122.33517,"reserved":0,"last_update":"0001-01-01T00:00:00Z","name_a2s":"Uncletopia | Seattle | 2 | All Maps","protocol":17,"map":"koth_highpass","folder":"tf","game":"Team Fortress","app_id":440,"player_count":0,"max_players":24,"Bots":0,"server_type":"Dedicated","server_os":"Linux","password":true,"vac":true,"version":"7961495","steam_id":85568392924469998,"keywords":["cp","nocrits","nodmgspread","uncletopia"],"game_id":440,"stv_port":27026,"stv_name":"Uncletopia | Seattle | 2 | All Maps | STV","players":null},{"server_id":406,"name":"Uncletopia | Seattle | 3 | Stopwatch","name_short":"sea-3","host":"sea-1.us.uncletopia.com","port":27035,"enabled":true,"region":"us-west","cc":"us","latitude":47.608013,"longitude":-122.33517,"reserved":0,"last_update":"0001-01-01T00:00:00Z","name_a2s":"Uncletopia | Seattle | 3 | Stopwatch","protocol":17,"map":"cp_gullywash_final1","folder":"tf","game":"Team Fortress","app_id":440,"player_count":0,"max_players":24,"Bots":0,"server_type":"Dedicated","server_os":"Linux","password":true,"vac":true,"version":"7961495","steam_id":85568392924515217,"keywords":["cp","nocrits","nodmgspread","uncletopia"],"game_id":440,"stv_port":27036,"stv_name":"Uncletopia | Seattle | 3 | Stopwatch | STV","players":null},{"server_id":17,"name":"Uncletopia | San Francisco | 1 | All Maps","name_short":"sfo-1","host":"sfo-1.us.uncletopia.com","port":27015,"enabled":true,"region":"us-west","cc":"us","latitude":37.77397,"longitude":-122.4313,"reserved":0,"last_update":"0001-01-01T00:00:00Z","name_a2s":"Uncletopia | San Francisco | 1 | All Maps","protocol":17,"map":"koth_cascade","folder":"tf","game":"Team Fortress","app_id":440,"player_count":0,"max_players":24,"Bots":0,"server_type":"Dedicated","server_os":"Linux","password":true,"vac":true,"version":"7961495","steam_id":85568392924469999,"keywords":["cp","nocrits","nodmgspread","uncletopia"],"game_id":440,"stv_port":27016,"stv_name":"Uncletopia | San Francisco | 1 | All Maps | STV","players":null},{"server_id":18,"name":"Uncletopia | San Francisco | 2 | All Maps","name_short":"sfo-2","host":"sfo-1.us.uncletopia.com","port":27025,"enabled":true,"region":"us-west","cc":"us","latitude":37.77397,"longitude":-122.4313,"reserved":0,"last_update":"0001-01-01T00:00:00Z","name_a2s":"Uncletopia | San Francisco | 2 | All Maps","protocol":17,"map":"pl_pier","folder":"tf","game":"Team Fortress","app_id":440,"player_count":0,"max_players":24,"Bots":0,"server_type":"Dedicated","server_os":"Linux","password":true,"vac":true,"version":"7961495","steam_id":85568392924470000,"keywords":["nocrits","nodmgspread","payload","uncletopia"],"game_id":440,"stv_port":27026,"stv_name":"Uncletopia | San Francisco | 2 | All Maps | STV","players":null},{"server_id":19,"name":"Uncletopia | San Francisco | 3 | Stopwatch","name_short":"sfo-3","host":"sfo-1.us.uncletopia.com","port":27035,"enabled":true,"region":"us-west","cc":"us","latitude":37.77397,"longitude":-122.4313,"reserved":0,"last_update":"0001-01-01T00:00:00Z","name_a2s":"Uncletopia | San Francisco | 3 | Stopwatch","protocol":17,"map":"pl_pier","folder":"tf","game":"Team Fortress","app_id":440,"player_count":0,"max_players":24,"Bots":0,"server_type":"Dedicated","server_os":"Linux","password":true,"vac":true,"version":"7961495","steam_id":85568392924742824,"keywords":["nocrits","nodmgspread","payload","uncletopia"],"game_id":440,"stv_port":27036,"stv_name":"Uncletopia | San Francisco | 3 | Stopwatch | STV","players":null},{"server_id":20,"name":"Uncletopia | San Francisco | 4 | Community","name_short":"sfo-4","host":"sfo-1.us.uncletopia.com","port":27045,"enabled":true,"region":"us-west","cc":"us","latitude":37.77397,"longitude":-122.4313,"reserved":0,"last_update":"0001-01-01T00:00:00Z","name_a2s":"Uncletopia | San Francisco | 4 | Community","protocol":17,"map":"workshop/koth_synthetic_rc6a.ugc1549817316","folder":"tf","game":"Team Fortress","app_id":440,"player_count":0,"max_players":24,"Bots":0,"server_type":"Dedicated","server_os":"Linux","password":true,"vac":true,"version":"7961495","steam_id":85568392924742826,"keywords":["cp","nocrits","nodmgspread","uncletopia"],"game_id":440,"stv_port":27046,"stv_name":"Uncletopia | San Francisco | 4 | Community | STV","players":null},{"server_id":141,"name":"Uncletopia | Sydney | 1 | All Maps","name_short":"syd-1","host":"syd-1.au.uncletopia.com","port":27015,"enabled":true,"region":"au","cc":"au","latitude":-33.865143,"longitude":151.2099,"reserved":0,"last_update":"0001-01-01T00:00:00Z","name_a2s":"Uncletopia | Sydney | 1 | All Maps","protocol":17,"map":"koth_viaduct","folder":"tf","game":"Team Fortress","app_id":440,"player_count":0,"max_players":24,"Bots":0,"server_type":"Dedicated","server_os":"Linux","password":true,"vac":true,"version":"7961495","steam_id":85568392924470001,"keywords":["cp","nocrits","nodmgspread","uncletopia"],"game_id":440,"stv_port":27016,"stv_name":"Uncletopia | Sydney | 1 | All Maps | STV","players":null},{"server_id":123,"name":"Uncletopia | Sydney | 2 | All Maps","name_short":"syd-2","host":"syd-1.au.uncletopia.com","port":27025,"enabled":true,"region":"au","cc":"au","latitude":-33.865143,"longitude":151.2099,"reserved":0,"last_update":"0001-01-01T00:00:00Z","name_a2s":"Uncletopia | Sydney | 2 | All Maps","protocol":17,"map":"koth_lakeside_final","folder":"tf","game":"Team Fortress","app_id":440,"player_count":0,"max_players":24,"Bots":0,"server_type":"Dedicated","server_os":"Linux","password":true,"vac":true,"version":"7961495","steam_id":85568392924470002,"keywords":["cp","nocrits","nodmgspread","uncletopia"],"game_id":440,"stv_port":27026,"stv_name":"Uncletopia | Sydney | 2 | All Maps | STV","players":null},{"server_id":395,"name":"Uncletopia | Sydney | 3 | All Maps","name_short":"syd-3","host":"syd-1.au.uncletopia.com","port":27035,"enabled":true,"region":"au","cc":"au","latitude":-33.865143,"longitude":151.2099,"reserved":0,"last_update":"0001-01-01T00:00:00Z","name_a2s":"Uncletopia | Sydney | 3 | All Maps","protocol":17,"map":"cp_mountainlab","folder":"tf","game":"Team Fortress","app_id":440,"player_count":0,"max_players":24,"Bots":0,"server_type":"Dedicated","server_os":"Linux","password":true,"vac":true,"version":"7961495","steam_id":85568392925194467,"keywords":["cp","nocrits","nodmgspread","uncletopia"],"game_id":440,"stv_port":27036,"stv_name":"Uncletopia | Sydney | 3 | All Maps | STV","players":null},{"server_id":396,"name":"Uncletopia | Sydney | 4 | All Maps","name_short":"syd-4","host":"syd-1.au.uncletopia.com","port":27045,"enabled":true,"region":"au","cc":"au","latitude":-33.865143,"longitude":151.2099,"reserved":0,"last_update":"0001-01-01T00:00:00Z","name_a2s":"Uncletopia | Sydney | 4 | All Maps","protocol":17,"map":"cp_process_final","folder":"tf","game":"Team Fortress","app_id":440,"player_count":0,"max_players":24,"Bots":0,"server_type":"Dedicated","server_os":"Linux","password":true,"vac":true,"version":"7961495","steam_id":85568392925397958,"keywords":["cp","nocrits","nodmgspread","uncletopia"],"game_id":440,"stv_port":27046,"stv_name":"Uncletopia | Sydney | 4 | All Maps | STV","players":null},{"server_id":58,"name":"Uncletopia | Sydney | 5 | Stopwatch","name_short":"syd-5","host":"syd-1.au.uncletopia.com","port":27055,"enabled":true,"region":"au","cc":"au","latitude":-33.865143,"longitude":151.2099,"reserved":0,"last_update":"0001-01-01T00:00:00Z","name_a2s":"Uncletopia | Sydney | 5 | Stopwatch","protocol":17,"map":"workshop/koth_clearcut_b15.ugc2107050255","folder":"tf","game":"Team Fortress","app_id":440,"player_count":0,"max_players":24,"Bots":0,"server_type":"Dedicated","server_os":"Linux","password":true,"vac":true,"version":"7961495","steam_id":85568392925397959,"keywords":["cp","nocrits","nodmgspread","uncletopia"],"game_id":440,"stv_port":27056,"stv_name":"Uncletopia | Sydney | 5 | Stopwatch | STV","players":null},{"server_id":59,"name":"Uncletopia | Sydney | 6 | Community","name_short":"syd-6","host":"syd-1.au.uncletopia.com","port":27065,"enabled":true,"region":"au","cc":"au","latitude":-33.865143,"longitude":151.2099,"reserved":0,"last_update":"0001-01-01T00:00:00Z","name_a2s":"Uncletopia | Sydney | 6 | Community","protocol":17,"map":"cp_sunshine","folder":"tf","game":"Team Fortress","app_id":440,"player_count":0,"max_players":24,"Bots":0,"server_type":"Dedicated","server_os":"Linux","password":true,"vac":true,"version":"7961495","steam_id":85568392925397960,"keywords":["cp","nocrits","nodmgspread","uncletopia"],"game_id":440,"stv_port":27066,"stv_name":"Uncletopia | Sydney | 6 | Community | STV","players":null},{"server_id":49,"name":"Uncletopia | Warsaw | 1 | All Maps","name_short":"waw-1","host":"waw-1.pl.uncletopia.com","port":27015,"enabled":true,"region":"eu","cc":"pl","latitude":52.2297,"longitude":21.017532,"reserved":0,"last_update":"0001-01-01T00:00:00Z","name_a2s":"Uncletopia | Warsaw | 1 | All Maps","protocol":17,"map":"cp_sunshine","folder":"tf","game":"Team Fortress","app_id":440,"player_count":0,"max_players":24,"Bots":0,"server_type":"Dedicated","server_os":"Linux","password":true,"vac":true,"version":"7961495","steam_id":85568392925397850,"keywords":["cp","nocrits","nodmgspread","uncletopia"],"game_id":440,"stv_port":27016,"stv_name":"Uncletopia | Warsaw | 1 | All Maps | STV","players":null},{"server_id":50,"name":"Uncletopia | Warsaw | 2 | All Maps","name_short":"waw-2","host":"waw-1.pl.uncletopia.com","port":27025,"enabled":true,"region":"eu","cc":"pl","latitude":52.2297,"longitude":21.017532,"reserved":0,"last_update":"0001-01-01T00:00:00Z","name_a2s":"Uncletopia | Warsaw | 2 | All Maps","protocol":17,"map":"koth_cascade","folder":"tf","game":"Team Fortress","app_id":440,"player_count":0,"max_players":24,"Bots":0,"server_type":"Dedicated","server_os":"Linux","password":true,"vac":true,"version":"7961495","steam_id":85568392925397851,"keywords":["cp","nocrits","nodmgspread","uncletopia"],"game_id":440,"stv_port":27026,"stv_name":"Uncletopia | Warsaw | 2 | All Maps | STV","players":null},{"server_id":51,"name":"Uncletopia | Warsaw | 3 | All Maps","name_short":"waw-3","host":"waw-1.pl.uncletopia.com","port":27035,"enabled":true,"region":"eu","cc":"pl","latitude":52.2297,"longitude":21.017532,"reserved":0,"last_update":"0001-01-01T00:00:00Z","name_a2s":"Uncletopia | Warsaw | 3 | All Maps","protocol":17,"map":"pl_frontier_final","folder":"tf","game":"Team Fortress","app_id":440,"player_count":0,"max_players":24,"Bots":0,"server_type":"Dedicated","server_os":"Linux","password":true,"vac":true,"version":"7961495","steam_id":85568392925397852,"keywords":["nocrits","nodmgspread","payload","uncletopia"],"game_id":440,"stv_port":27036,"stv_name":"Uncletopia | Warsaw | 3 | All Maps | STV","players":null},{"server_id":52,"name":"Uncletopia | Warsaw | 4 | All Maps","name_short":"waw-4","host":"waw-1.pl.uncletopia.com","port":27045,"enabled":true,"region":"eu","cc":"pl","latitude":52.2297,"longitude":21.017532,"reserved":0,"last_update":"0001-01-01T00:00:00Z","name_a2s":"Uncletopia | Warsaw | 4 | All Maps","protocol":17,"map":"koth_lakeside_final","folder":"tf","game":"Team Fortress","app_id":440,"player_count":0,"max_players":24,"Bots":0,"server_type":"Dedicated","server_os":"Linux","password":true,"vac":true,"version":"7961495","steam_id":85568392925397853,"keywords":["cp","nocrits","nodmgspread","uncletopia"],"game_id":440,"stv_port":27046,"stv_name":"Uncletopia | Warsaw | 4 | All Maps | STV","players":null},{"server_id":53,"name":"Uncletopia | Warsaw | 5 | Stopwatch","name_short":"waw-5","host":"waw-1.pl.uncletopia.com","port":27055,"enabled":true,"region":"eu","cc":"pl","latitude":52.2297,"longitude":21.017532,"reserved":0,"last_update":"0001-01-01T00:00:00Z","name_a2s":"Uncletopia | Warsaw | 5 | Stopwatch","protocol":17,"map":"workshop/pl_vigil_rc10.ugc1266210012","folder":"tf","game":"Team Fortress","app_id":440,"player_count":0,"max_players":24,"Bots":0,"server_type":"Dedicated","server_os":"Linux","password":true,"vac":true,"version":"7961495","steam_id":85568392925397854,"keywords":["nocrits","nodmgspread","payload","uncletopia"],"game_id":440,"stv_port":27056,"stv_name":"Uncletopia | Warsaw | 5 | Stopwatch | STV","players":null},{"server_id":54,"name":"Uncletopia | Warsaw | 6 | Community","name_short":"waw-6","host":"waw-1.pl.uncletopia.com","port":27065,"enabled":true,"region":"eu","cc":"pl","latitude":52.2297,"longitude":21.017532,"reserved":0,"last_update":"0001-01-01T00:00:00Z","name_a2s":"Uncletopia | Warsaw | 6 | Community","protocol":17,"map":"workshop/cp_mannbase_rc2a.ugc1900737467","folder":"tf","game":"Team Fortress","app_id":440,"player_count":0,"max_players":24,"Bots":0,"server_type":"Dedicated","server_os":"Linux","password":true,"vac":true,"version":"7961495","steam_id":85568392925397856,"keywords":["cp","nocrits","nodmgspread","uncletopia"],"game_id":440,"stv_port":27066,"stv_name":"Uncletopia | Warsaw | 6 | Community | STV","players":null}]}