{"status":true,"message":"","result":[{"server_id":9,"name":"Uncletopia | Atlanta | 1 | All Maps","name_short":"atl-1","host":"atl-1.us.uncletopia.com","port":27015,"enabled":true,"region":"us-east","cc":"us","latitude":33.753746,"longitude":-84.38633,"reserved":0,"last_update":"0001-01-01T00:00:00Z","name_a2s":"Uncletopia | Atlanta | 1 | All Maps","protocol":17,"map":"pl_swiftwater_final1","folder":"tf","game":"Team Fortress","app_id":440,"player_count":24,"max_players":24,"Bots":0,"server_type":"Dedicated","server_os":"Linux","password":true,"vac":true,"version":"7757534","steam_id":85568392924469982,"keywords":["nocrits","nodmgspread","payload","uncletopia"],"game_id":440,"stv_port":27016,"stv_name":"Uncletopia | Atlanta | 1 | All Maps | STV","players":[{"user_id":261,"name":"BUNGACOWA","steam_id":76561198979176018,"connected_time":419000000000,"state":"active","ping":69},{"user_id":241,"name":"Raptortastico","steam_id":76561198105613110,"connected_time":3172000000000,"state":"active","ping":67},{"user_id":272,"name":"professional twelve year old","steam_id":76561198858796870,"connected_time":178000000000,"state":"active","ping":93},{"user_id":250,"name":"oopsboom24","steam_id":76561199105248648,"connected_time":2097000000000,"state":"active","ping":63},{"user_id":245,"name":"bad","steam_id":76561198090531755,"connected_time":2777000000000,"state":"active","ping":70},{"user_id":222,"name":"CRWND","steam_id":76561198329810027,"connected_time":5057000000000,"state":"active","ping":144},{"user_id":271,"name":"e doctor","steam_id":76561198081851446,"connected_time":225000000000,"state":"active","ping":60},{"user_id":262,"name":"--_Cook_--","steam_id":76561198080855748,"connected_time":407000000000,"state":"active","ping":45},{"user_id":263,"name":"Admiral Catradora","steam_id":76561198017271944,"connected_time":407000000000,"state":"active","ping":90},{"user_id":275,"name":"SeaBass","steam_id":76561197982949108,"connected_time":50000000000,"state":"active","ping":56},{"user_id":264,"name":"Zillers","steam_id":76561198095248744,"connected_time":407000000000,"state":"active","ping":86},{"user_id":154,"name":"Albino Jellyfish","steam_id":76561198208561097,"connected_time":9106000000000,"state":"active","ping":67},{"user_id":155,"name":"NovaSc6ut","steam_id":76561198277163301,"connected_time":9083000000000,"state":"active","ping":83},{"user_id":253,"name":"Epifiny","steam_id":76561198027958086,"connected_time":1564000000000,"state":"active","ping":87},{"user_id":247,"name":"Thotimus Begonimus","steam_id":76561197970275938,"connected_time":2434000000000,"state":"active","ping":43},{"user_id":266,"name":"Jackie Bnuyy {{Trans Rights}}","steam_id":76561198804886675,"connected_time":394000000000,"state":"active","ping":91},{"user_id":268,"name":"yomo","steam_id":76561198063175935,"connected_time":360000000000,"state":"active","ping":58},{"user_id":273,"name":"Dreszerg","steam_id":76561198838757422,"connected_time":128000000000,"state":"active","ping":80},{"user_id":274,"name":"jema","steam_id":76561198276513608,"connected_time":127000000000,"state":"active","ping":166},{"user_id":269,"name":"TheArachnidGamer","steam_id":76561198304986752,"connected_time":351000000000,"state":"active","ping":76},{"user_id":37,"name":"creepycrawler","steam_id":76561198352016831,"connected_time":18009000000000,"state":"active","ping":76},{"user_id":229,"name":"C Papi","steam_id":76561198027779564,"connected_time":4293000000000,"state":"active","ping":52},{"user_id":270,"name":"noided","steam_id":76561198353924837,"connected_time":345000000000,"state":"active","ping":83},{"user_id":249,"name":"BERBBLES","steam_id":76561198815107994,"connected_time":2120000000000,"state":"active","ping":46}]},{"server_id":104,"name":"Uncletopia | Atlanta | 2 | All Maps","name_short":"atl-2","host":"atl-1.us.uncletopia.com","port":27025,"enabled":true,"region":"us-east","cc":"us","latitude":33.753746,"longitude":-84.38633,"reserved":0,"last_update":"0001-01-01T00:00:00Z","name_a2s":"Uncletopia | Atlanta | 2 | All Maps","protocol":17,"map":"cp_mountainlab","folder":"tf","game":"Team Fortress","app_id":440,"player_count":24,"max_players":24,"Bots":0,"server_type":"Dedicated","server_os":"Linux","password":true,"vac":true,"version":"7757534","steam_id":85568392924469983,"keywords":["cp","nocrits","nodmgspread","uncletopia"],"game_id":440,"stv_port":27026,"stv_name":"Uncletopia | Atlanta | 2 | All Maps | STV","players":[{"user_id":110,"name":"Eosson","steam_id":76561198108642113,"connected_time":864000000000,"state":"active","ping":78},{"user_id":97,"name":"corpach","steam_id":76561198150418268,"connected_time":2440000000000,"state":"active","ping":85},{"user_id":114,"name":"Sh/7 Stain","steam_id":76561198408817739,"connected_time":768000000000,"state":"active","ping":56},{"user_id":103,"name":"Pascal","steam_id":76561198902657591,"connected_time":1943000000000,"state":"active","ping":47},{"user_id":112,"name":"Look See","steam_id":76561198157253413,"connected_time":836000000000,"state":"active","ping":73},{"user_id":98,"name":"\u003cBLAH\u003e","steam_id":76561198094826838,"connected_time":2410000000000,"state":"active","ping":90},{"user_id":92,"name":"troll","steam_id":76561198040890252,"connected_time":2896000000000,"state":"active","ping":45},{"user_id":70,"name":"SHiFT_DeL3TE","steam_id":76561198234965064,"connected_time":5183000000000,"state":"active","ping":41},{"user_id":115,"name":"ticklemytush","steam_id":76561199206080182,"connected_time":766000000000,"state":"active","ping":67},{"user_id":120,"name":"a hyena","steam_id":76561198299493639,"connected_time":594000000000,"state":"active","ping":58},{"user_id":116,"name":"Frost","steam_id":76561198083694664,"connected_time":736000000000,"state":"active","ping":62},{"user_id":117,"name":"Monochrome","steam_id":76561198377320040,"connected_time":718000000000,"state":"active","ping":61},{"user_id":52,"name":"Testosteroblerone","steam_id":76561199031278496,"connected_time":5848000000000,"state":"active","ping":85},{"user_id":121,"name":"LemonZest","steam_id":76561199196369249,"connected_time":549000000000,"state":"active","ping":74},{"user_id":118,"name":"Transfem Furry \u003c3","steam_id":76561198288036403,"connected_time":706000000000,"state":"active","ping":107},{"user_id":87,"name":"insane clown pussy","steam_id":76561198329087915,"connected_time":3534000000000,"state":"active","ping":91},{"user_id":73,"name":"Doorhinge","steam_id":76561198872501684,"connected_time":4816000000000,"state":"active","ping":150},{"user_id":74,"name":"Reaper","steam_id":76561198435826103,"connected_time":4751000000000,"state":"active","ping":78},{"user_id":106,"name":"Massa Gaming","steam_id":76561198881383557,"connected_time":1759000000000,"state":"active","ping":55},{"user_id":59,"name":"BigBubble42","steam_id":76561198136286123,"connected_time":5593000000000,"state":"active","ping":48},{"user_id":84,"name":"Anax Alter","steam_id":76561198110249546,"connected_time":3883000000000,"state":"active","ping":65},{"user_id":107,"name":"nnobi","steam_id":76561198878729277,"connected_time":1743000000000,"state":"active","ping":59},{"user_id":119,"name":"I need COCK medic","steam_id":76561198451638173,"connected_time":687000000000,"state":"active","ping":161},{"user_id":122,"name":"shadowarrior","steam_id":76561198231304076,"connected_time":476000000000,"state":"active","ping":81}]},{"server_id":400,"name":"Uncletopia | Atlanta | 3 | Community","name_short":"atl-3","host":"atl-1.us.uncletopia.com","port":27035,"enabled":true,"region":"us-east","cc":"us","latitude":33.753746,"longitude":-84.38633,"reserved":0,"last_update":"0001-01-01T00:00:00Z","name_a2s":"Uncletopia | Atlanta | 3 | Community","protocol":17,"map":"workshop/cp_glacier_rc6.ugc2905735376","folder":"tf","game":"Team Fortress","app_id":440,"player_count":0,"max_players":24,"Bots":0,"server_type":"Dedicated","server_os":"Linux","password":true,"vac":true,"version":"7757534","steam_id":85568392924515187,"keywords":["cp","nocrits","nodmgspread","uncletopia"],"game_id":440,"stv_port":27036,"stv_name":"Uncletopia | Atlanta | 3 | Community | STV","players":null},{"server_id":401,"name":"Uncletopia | Atlanta | 4 | No Payload","name_short":"atl-4","host":"atl-1.us.uncletopia.com","port":27045,"enabled":true,"region":"us-east","cc":"us","latitude":33.753746,"longitude":-84.38633,"reserved":0,"last_update":"0001-01-01T00:00:00Z","name_a2s":"","protocol":0,"map":"","folder":"","game":"","app_id":0,"player_count":0,"max_players":0,"Bots":0,"server_type":"","server_os":"","password":false,"vac":false,"version":"","steam_id":0,"keywords":null,"game_id":0,"stv_port":0,"stv_name":"","players":null},{"server_id":2,"name":"Uncletopia | Chicago | 1 | All Maps","name_short":"chi-1","host":"chi-1.us.uncletopia.com","port":27015,"enabled":true,"region":"us-central","cc":"us","latitude":41.881832,"longitude":-87.62318,"reserved":0,"last_update":"0001-01-01T00:00:00Z","name_a2s":"Uncletopia | Chicago | 1 | All Maps","protocol":17,"map":"pl_snowycoast","folder":"tf","game":"Team Fortress","app_id":440,"player_count":24,"max_players":24,"Bots":0,"server_type":"Dedicated","server_os":"Linux","password":true,"vac":true,"version":"7757534","steam_id":85568392924469984,"keywords":["nocrits","nodmgspread","payload","uncletopia"],"game_id":440,"stv_port":27016,"stv_name":"Uncletopia | Chicago | 1 | All Maps | STV","players":[{"user_id":374,"name":"DotA Psychologist","steam_id":76561198052171640,"connected_time":163000000000,"state":"active","ping":99},{"user_id":370,"name":"kametro4","steam_id":76561198835430429,"connected_time":270000000000,"state":"active","ping":75},{"user_id":328,"name":"Vile Gunner","steam_id":76561198806668514,"connected_time":3089000000000,"state":"active","ping":99},{"user_id":345,"name":"Influrrno","steam_id":76561198398893302,"connected_time":2469000000000,"state":"active","ping":67},{"user_id":344,"name":"asbestos","steam_id":76561198079178866,"connected_time":2490000000000,"state":"active","ping":61},{"user_id":373,"name":"Edder","steam_id":76561198011088393,"connected_time":230000000000,"state":"active","ping":85},{"user_id":331,"name":"Zero","steam_id":76561199383267408,"connected_time":2944000000000,"state":"active","ping":74},{"user_id":365,"name":"CephalonSinisite","steam_id":76561198165377750,"connected_time":595000000000,"state":"active","ping":142},{"user_id":317,"name":"macabre","steam_id":76561198220125111,"connected_time":3823000000000,"state":"active","ping":77},{"user_id":333,"name":"GreatColorGreen","steam_id":76561198284546954,"connected_time":2901000000000,"state":"active","ping":54},{"user_id":261,"name":"hotdog water","steam_id":76561198031675881,"connected_time":8052000000000,"state":"active","ping":47},{"user_id":369,"name":"snooopay","steam_id":76561198132873984,"connected_time":296000000000,"state":"active","ping":76},{"user_id":367,"name":"tone","steam_id":76561198006505587,"connected_time":395000000000,"state":"active","ping":83},{"user_id":346,"name":"ContinuedBear","steam_id":76561198265176919,"connected_time":2346000000000,"state":"active","ping":56},{"user_id":336,"name":"THEDINKY","steam_id":76561198190077399,"connected_time":2874000000000,"state":"active","ping":68},{"user_id":337,"name":"Kieran","steam_id":76561198072788168,"connected_time":2868000000000,"state":"active","ping":72},{"user_id":353,"name":"Sonidad","steam_id":76561198082763204,"connected_time":1489000000000,"state":"active","ping":73},{"user_id":347,"name":"SaucySandwichKid","steam_id":76561199372590934,"connected_time":1827000000000,"state":"active","ping":75},{"user_id":325,"name":"rori","steam_id":76561198021227843,"connected_time":3196000000000,"state":"active","ping":59},{"user_id":371,"name":"Conjurer","steam_id":76561198316256275,"connected_time":253000000000,"state":"active","ping":56},{"user_id":368,"name":"Filthy Acts at Reasonable Price","steam_id":76561198354615890,"connected_time":368000000000,"state":"active","ping":57},{"user_id":372,"name":"Dan Stan The Mr Man","steam_id":76561198017134269,"connected_time":249000000000,"state":"active","ping":155},{"user_id":341,"name":"EmptyB33R","steam_id":76561198993166528,"connected_time":2788000000000,"state":"active","ping":129},{"user_id":343,"name":"Fred the Beard","steam_id":76561198009310649,"connected_time":2499000000000,"state":"active","ping":58}]},{"server_id":106,"name":"Uncletopia | Chicago | 2 | All Maps","name_short":"chi-2","host":"chi-1.us.uncletopia.com","port":27025,"enabled":true,"region":"us-central","cc":"us","latitude":41.881832,"longitude":-87.62318,"reserved":0,"last_update":"0001-01-01T00:00:00Z","name_a2s":"Uncletopia | Chicago | 2 | All Maps","protocol":17,"map":"pl_upward","folder":"tf","game":"Team Fortress","app_id":440,"player_count":24,"max_players":24,"Bots":0,"server_type":"Dedicated","server_os":"Linux","password":true,"vac":true,"version":"7757534","steam_id":85568392924469985,"keywords":["nocrits","nodmgspread","payload","uncletopia"],"game_id":440,"stv_port":27026,"stv_name":"Uncletopia | Chicago | 2 | All Maps | STV","players":[{"user_id":382,"name":"john","steam_id":76561198850447852,"connected_time":629000000000,"state":"active","ping":75},{"user_id":391,"name":"Paco","steam_id":76561198023504958,"connected_time":304000000000,"state":"active","ping":60},{"user_id":351,"name":"Scorpie Doodle","steam_id":76561198021845763,"connected_time":2132000000000,"state":"active","ping":55},{"user_id":353,"name":"Cynicalrage #TF2center","steam_id":76561198085805532,"connected_time":2097000000000,"state":"active","ping":46},{"user_id":364,"name":"Dwarfo","steam_id":76561198119220289,"connected_time":1638000000000,"state":"active","ping":68},{"user_id":390,"name":"recycle","steam_id":76561198819562111,"connected_time":327000000000,"state":"active","ping":71},{"user_id":380,"name":"loser","steam_id":76561198171507451,"connected_time":688000000000,"state":"active","ping":97},{"user_id":365,"name":"Hi, I'm Jesus","steam_id":76561198015327152,"connected_time":1598000000000,"state":"active","ping":64},{"user_id":302,"name":"YourLocalArsonist","steam_id":76561199111922751,"connected_time":6182000000000,"state":"active","ping":83},{"user_id":329,"name":"LerN","steam_id":76561198083463877,"connected_time":3739000000000,"state":"active","ping":57},{"user_id":373,"name":"Female Gamer","steam_id":76561199366482682,"connected_time":1152000000000,"state":"active","ping":103},{"user_id":325,"name":"heavyArmor","steam_id":76561198191056059,"connected_time":3815000000000,"state":"active","ping":71},{"user_id":345,"name":"femboy foxgirl","steam_id":76561198056432756,"connected_time":2517000000000,"state":"active","ping":61},{"user_id":388,"name":"6kre_1t","steam_id":76561198106157810,"connected_time":384000000000,"state":"active","ping":63},{"user_id":358,"name":"Technic","steam_id":76561198200302281,"connected_time":1978000000000,"state":"active","ping":73},{"user_id":363,"name":"Florist","steam_id":76561198009121060,"connected_time":1653000000000,"state":"active","ping":97},{"user_id":304,"name":"O o g","steam_id":76561199267535506,"connected_time":6154000000000,"state":"active","ping":77},{"user_id":367,"name":"BonnieDrag","steam_id":76561199149216429,"connected_time":1574000000000,"state":"active","ping":173},{"user_id":389,"name":"Sloothman","steam_id":76561198081703122,"connected_time":370000000000,"state":"active","ping":45},{"user_id":362,"name":"fractaldunes","steam_id":76561198118102935,"connected_time":1659000000000,"state":"active","ping":64},{"user_id":387,"name":"Sunflower","steam_id":76561198081223793,"connected_time":431000000000,"state":"active","ping":53},{"user_id":336,"name":"BOO HAWND","steam_id":76561198141617142,"connected_time":3620000000000,"state":"active","ping":100},{"user_id":374,"name":"pl_upward","steam_id":76561198328109873,"connected_time":1126000000000,"state":"active","ping":74},{"user_id":377,"name":"Lilac","steam_id":76561198977523626,"connected_time":883000000000,"state":"active","ping":81}]},{"server_id":402,"name":"Uncletopia | Chicago | 3 | All Maps","name_short":"chi-3","host":"chi-1.us.uncletopia.com","port":27035,"enabled":true,"region":"us-central","cc":"us","latitude":41.881832,"longitude":-87.62318,"reserved":0,"last_update":"0001-01-01T00:00:00Z","name_a2s":"Uncletopia | Chicago | 3 | All Maps","protocol":17,"map":"koth_lakeside_final","folder":"tf","game":"Team Fortress","app_id":440,"player_count":0,"max_players":24,"Bots":0,"server_type":"Dedicated","server_os":"Linux","password":true,"vac":true,"version":"7757534","steam_id":85568392924515191,"keywords":["cp","nocrits","nodmgspread","uncletopia"],"game_id":440,"stv_port":27036,"stv_name":"Uncletopia | Chicago | 3 | All Maps | STV","players":null},{"server_id":403,"name":"Uncletopia | Chicago | 4 | All Maps","name_short":"chi-4","host":"chi-1.us.uncletopia.com","port":27045,"enabled":true,"region":"us-central","cc":"us","latitude":41.881832,"longitude":-87.62318,"reserved":0,"last_update":"0001-01-01T00:00:00Z","name_a2s":"Uncletopia | Chicago | 4 | All Maps","protocol":17,"map":"pl_swiftwater_final1","folder":"tf","game":"Team Fortress","app_id":440,"player_count":24,"max_players":24,"Bots":0,"server_type":"Dedicated","server_os":"Linux","password":true,"vac":true,"version":"7757534","steam_id":85568392924515193,"keywords":["nocrits","nodmgspread","payload","uncletopia"],"game_id":440,"stv_port":27046,"stv_name":"Uncletopia | Chicago | 4 | All Maps | STV","players":[{"user_id":173,"name":"jimmyfnaf172198yay","steam_id":76561198311446636,"connected_time":1718000000000,"state":"active","ping":58},{"user_id":204,"name":"SCATTER","steam_id":76561198405168492,"connected_time":314000000000,"state":"active","ping":77},{"user_id":175,"name":"Mister36","steam_id":76561198019132100,"connected_time":1693000000000,"state":"active","ping":48},{"user_id":110,"name":"Ringo x Seiran","steam_id":76561198357437908,"connected_time":5177000000000,"state":"active","ping":63},{"user_id":193,"name":"WatchWill","steam_id":76561198157237945,"connected_time":1094000000000,"state":"active","ping":74},{"user_id":197,"name":"mari_","steam_id":76561198137855741,"connected_time":828000000000,"state":"active","ping":47},{"user_id":205,"name":"kup","steam_id":76561198046816932,"connected_time":53000000000,"state":"active","ping":60},{"user_id":201,"name":"ThatGamingKiwi","steam_id":76561199170522237,"connected_time":550000000000,"state":"active","ping":76},{"user_id":186,"name":"bary","steam_id":76561197988317087,"connected_time":1463000000000,"state":"active","ping":64},{"user_id":149,"name":"LW | [wrd]HaloLagann","steam_id":76561198047561568,"connected_time":3325000000000,"state":"active","ping":75},{"user_id":151,"name":"Also Known As Assteeth","steam_id":76561198049837377,"connected_time":3293000000000,"state":"active","ping":48},{"user_id":199,"name":"STEVE","steam_id":76561198063475894,"connected_time":572000000000,"state":"active","ping":65},{"user_id":194,"name":"Penny #girl","steam_id":76561198144281771,"connected_time":1027000000000,"state":"active","ping":71},{"user_id":168,"name":"Karrot","steam_id":76561198058970903,"connected_time":2408000000000,"state":"active","ping":68},{"user_id":202,"name":"dudescore","steam_id":76561199091453555,"connected_time":545000000000,"state":"active","ping":102},{"user_id":195,"name":"Mr. Dry Lips","steam_id":76561198028157625,"connected_time":1003000000000,"state":"active","ping":86},{"user_id":140,"name":"Nassu","steam_id":76561198147367577,"connected_time":3982000000000,"state":"active","ping":73},{"user_id":198,"name":"nay ners","steam_id":76561199238480644,"connected_time":705000000000,"state":"active","ping":88},{"user_id":203,"name":"Easd","steam_id":76561198169142631,"connected_time":524000000000,"state":"active","ping":100},{"user_id":180,"name":"Try Gardening","steam_id":76561198120311340,"connected_time":1630000000000,"state":"active","ping":52},{"user_id":187,"name":"Deputy Dog","steam_id":76561197960441667,"connected_time":1458000000000,"state":"active","ping":70},{"user_id":133,"name":"craig dishwasher","steam_id":76561198402235691,"connected_time":4223000000000,"state":"active","ping":70},{"user_id":182,"name":"HansBanans","steam_id":76561198167894050,"connected_time":1618000000000,"state":"active","ping":66},{"user_id":190,"name":"Waffle Wannabe","steam_id":76561198064510650,"connected_time":1373000000000,"state":"active","ping":64}]},{"server_id":36,"name":"Uncletopia | Chicago | 5 | All Maps","name_short":"chi-5","host":"chi-2.us.uncletopia.com","port":27015,"enabled":true,"region":"us-central","cc":"us","latitude":41.881832,"longitude":-87.62318,"reserved":0,"last_update":"0001-01-01T00:00:00Z","name_a2s":"Uncletopia | Chicago | 5 | All Maps","protocol":17,"map":"koth_cascade","folder":"tf","game":"Team Fortress","app_id":440,"player_count":0,"max_players":24,"Bots":0,"server_type":"Dedicated","server_os":"Linux","password":true,"vac":true,"version":"7757534","steam_id":85568392924866362,"keywords":["cp","nocrits","nodmgspread","uncletopia"],"game_id":440,"stv_port":27016,"stv_name":"Uncletopia | Chicago | 5 | All Maps | STV","players":null},{"server_id":37,"name":"Uncletopia | Chicago | 6 | All Maps","name_short":"chi-6","host":"chi-2.us.uncletopia.com","port":27025,"enabled":true,"region":"us-central","cc":"us","latitude":41.881832,"longitude":-87.62318,"reserved":0,"last_update":"0001-01-01T00:00:00Z","name_a2s":"Uncletopia | Chicago | 6 | All Maps","protocol":17,"map":"koth_cascade","folder":"tf","game":"Team Fortress","app_id":440,"player_count":3,"max_players":24,"Bots":0,"server_type":"Dedicated","server_os":"Linux","password":true,"vac":true,"version":"7757534","steam_id":85568392924866363,"keywords":["cp","nocrits","nodmgspread","uncletopia"],"game_id":440,"stv_port":27026,"stv_name":"Uncletopia | Chicago | 6 | All Maps | STV","players":[{"user_id":8,"name":"brandoncg04","steam_id":76561199189398427,"connected_time":1739000000000,"state":"active","ping":56},{"user_id":11,"name":"SNaKe","steam_id":76561198249832738,"connected_time":901000000000,"state":"active","ping":95},{"user_id":10,"name":"DraGoN","steam_id":76561198006224312,"connected_time":938000000000,"state":"active","ping":91}]},{"server_id":38,"name":"Uncletopia | Chicago | 7 | Stopwatch Beta","name_short":"chi-7","host":"chi-2.us.uncletopia.com","port":27035,"enabled":true,"region":"us-central","cc":"us","latitude":41.881832,"longitude":-87.62318,"reserved":0,"last_update":"0001-01-01T00:00:00Z","name_a2s":"Uncletopia | Chicago | 7 | Stopwatch Beta","protocol":17,"map":"pl_barnblitz","folder":"tf","game":"Team Fortress","app_id":440,"player_count":0,"max_players":24,"Bots":0,"server_type":"Dedicated","server_os":"Linux","password":true,"vac":true,"version":"7757534","steam_id":85568392924866364,"keywords":["nocrits","nodmgspread","payload","uncletopia"],"game_id":440,"stv_port":27036,"stv_name":"Uncletopia | Chicago | 7 | Stopwatch Beta | STV","players":null},{"server_id":39,"name":"Uncletopia | Chicago | 8 | Community","name_short":"chi-8","host":"chi-2.us.uncletopia.com","port":27045,"enabled":true,"region":"us-central","cc":"us","latitude":41.881832,"longitude":-87.62318,"reserved":0,"last_update":"0001-01-01T00:00:00Z","name_a2s":"Uncletopia | Chicago | 8 | Community","protocol":17,"map":"koth_cascade","folder":"tf","game":"Team Fortress","app_id":440,"player_count":0,"max_players":24,"Bots":0,"server_type":"Dedicated","server_os":"Linux","password":true,"vac":true,"version":"7757534","steam_id":85568392924866365,"keywords":["cp","nocrits","nodmgspread","uncletopia"],"game_id":440,"stv_port":27046,"stv_name":"Uncletopia | Chicago | 8 | Community | STV","players":null},{"server_id":8,"name":"Uncletopia | Dallas | 1 | All Maps","name_short":"dal-1","host":"dal-1.us.uncletopia.com","port":27015,"enabled":true,"region":"us-central","cc":"us","latitude":32.779167,"longitude":-96.80889,"reserved":0,"last_update":"0001-01-01T00:00:00Z","name_a2s":"Uncletopia | Dallas | 1 | All Maps","protocol":17,"map":"pl_badwater","folder":"tf","game":"Team Fortress","app_id":440,"player_count":23,"max_players":24,"Bots":0,"server_type":"Dedicated","server_os":"Linux","password":true,"vac":true,"version":"7757534","steam_id":85568392924469986,"keywords":["nocrits","nodmgspread","payload","uncletopia"],"game_id":440,"stv_port":27016,"stv_name":"Uncletopia | Dallas | 1 | All Maps | STV","players":[{"user_id":62,"name":"mkl","steam_id":76561197986401685,"connected_time":2011000000000,"state":"active","ping":74},{"user_id":84,"name":"Orca?","steam_id":76561198164341099,"connected_time":232000000000,"state":"active","ping":103},{"user_id":85,"name":"Atoc","steam_id":76561198300877325,"connected_time":193000000000,"state":"active","ping":90},{"user_id":73,"name":"oddulus","steam_id":76561199131213115,"connected_time":1300000000000,"state":"active","ping":180},{"user_id":66,"name":"Gaiduk","steam_id":76561198112323877,"connected_time":1590000000000,"state":"active","ping":114},{"user_id":80,"name":"AlphaScout","steam_id":76561198047797890,"connected_time":496000000000,"state":"active","ping":100},{"user_id":72,"name":"Blake Belladonna","steam_id":76561198010169911,"connected_time":1365000000000,"state":"active","ping":80},{"user_id":81,"name":"Crazy Cane","steam_id":76561198993941174,"connected_time":438000000000,"state":"active","ping":84},{"user_id":86,"name":"cringe","steam_id":76561198104086771,"connected_time":186000000000,"state":"active","ping":76},{"user_id":76,"name":"Shamrock Shake Oct.10.2020 @8pm","steam_id":76561198833313201,"connected_time":947000000000,"state":"active","ping":86},{"user_id":69,"name":"Taser? I Hardly Know Her!","steam_id":76561198180935161,"connected_time":1484000000000,"state":"active","ping":79},{"user_id":27,"name":"Metbol","steam_id":76561198001362410,"connected_time":4473000000000,"state":"active","ping":63},{"user_id":43,"name":"Ice Tray","steam_id":76561198156184504,"connected_time":3877000000000,"state":"active","ping":82},{"user_id":87,"name":"Evenaris","steam_id":76561198087544319,"connected_time":142000000000,"state":"active","ping":75},{"user_id":88,"name":"techturkey","steam_id":76561199154637989,"connected_time":89000000000,"state":"active","ping":84},{"user_id":78,"name":"Jake from FedEx","steam_id":76561198051258256,"connected_time":893000000000,"state":"active","ping":78},{"user_id":71,"name":"VaL-ASROC","steam_id":76561198886493635,"connected_time":1425000000000,"state":"active","ping":74},{"user_id":89,"name":"Minion Slanderer","steam_id":76561198372449718,"connected_time":85000000000,"state":"active","ping":42},{"user_id":64,"name":"Quomples","steam_id":76561198140996628,"connected_time":1633000000000,"state":"active","ping":57},{"user_id":91,"name":"Sosa","steam_id":76561198149636111,"connected_time":16000000000,"state":"spawning","ping":78},{"user_id":63,"name":"Jankyo","steam_id":76561198083339492,"connected_time":1872000000000,"state":"active","ping":85},{"user_id":82,"name":"viaodeegsm","steam_id":76561198025295263,"connected_time":374000000000,"state":"active","ping":55},{"user_id":92,"name":"vic vinegar","steam_id":76561198071775268,"connected_time":2000000000,"state":"spawning","ping":64}]},{"server_id":108,"name":"Uncletopia | Dallas | 2 | All Maps","name_short":"dal-2","host":"dal-1.us.uncletopia.com","port":27025,"enabled":true,"region":"us-central","cc":"us","latitude":32.779167,"longitude":-96.80889,"reserved":0,"last_update":"0001-01-01T00:00:00Z","name_a2s":"Uncletopia | Dallas | 2 | All Maps","protocol":17,"map":"cp_dustbowl","folder":"tf","game":"Team Fortress","app_id":440,"player_count":23,"max_players":24,"Bots":0,"server_type":"Dedicated","server_os":"Linux","password":true,"vac":true,"version":"7757534","steam_id":85568392924469988,"keywords":["cp","nocrits","nodmgspread","uncletopia"],"game_id":440,"stv_port":27026,"stv_name":"Uncletopia | Dallas | 2 | All Maps | STV","players":[{"user_id":7,"name":"clenZORZ","steam_id":76561198835570628,"connected_time":2480000000000,"state":"active","ping":63},{"user_id":24,"name":"name420","steam_id":76561198129374525,"connected_time":981000000000,"state":"active","ping":73},{"user_id":9,"name":"pleasehelpidonthavefingers","steam_id":76561199367935846,"connected_time":2004000000000,"state":"active","ping":72},{"user_id":43,"name":"The_Pacific_gamer","steam_id":76561198089491446,"connected_time":362000000000,"state":"active","ping":92},{"user_id":25,"name":"Superman123389","steam_id":76561198267472539,"connected_time":979000000000,"state":"active","ping":90},{"user_id":13,"name":"Special","steam_id":76561199073634881,"connected_time":1296000000000,"state":"active","ping":99},{"user_id":14,"name":"Glisc0r","steam_id":76561199105956374,"connected_time":1288000000000,"state":"active","ping":157},{"user_id":44,"name":"Dabbledornk","steam_id":76561198065241300,"connected_time":303000000000,"state":"active","ping":76},{"user_id":50,"name":"WhoIsFrosty","steam_id":76561198880588117,"connected_time":84000000000,"state":"active","ping":77},{"user_id":28,"name":"89","steam_id":76561198106308056,"connected_time":777000000000,"state":"active","ping":116},{"user_id":51,"name":"Legit_Jaxer","steam_id":76561198172234053,"connected_time":46000000000,"state":"active","ping":107},{"user_id":19,"name":"ashtondavid1108","steam_id":76561199182234670,"connected_time":1107000000000,"state":"active","ping":91},{"user_id":46,"name":"Xx_UrineEnjoyer_xX","steam_id":76561198397991402,"connected_time":233000000000,"state":"active","ping":100},{"user_id":42,"name":"phanton","steam_id":76561198320847207,"connected_time":375000000000,"state":"active","ping":86},{"user_id":35,"name":"Buttfuck Armstrong","steam_id":76561198075547905,"connected_time":565000000000,"state":"active","ping":79},{"user_id":27,"name":"Dabidio","steam_id":76561198347107425,"connected_time":937000000000,"state":"active","ping":111},{"user_id":47,"name":"Ignatius J. Reilly","steam_id":76561198066958868,"connected_time":229000000000,"state":"active","ping":100},{"user_id":30,"name":"Fishios","steam_id":76561199436428380,"connected_time":702000000000,"state":"active","ping":85},{"user_id":40,"name":"Sketchdude","steam_id":76561198428554205,"connected_time":406000000000,"state":"active","ping":147},{"user_id":49,"name":"oxbudy","steam_id":76561198022120207,"connected_time":211000000000,"state":"active","ping":70},{"user_id":34,"name":"Javaris Jamar Javarison-Lamar","steam_id":76561198146951387,"connected_time":610000000000,"state":"active","ping":100},{"user_id":37,"name":"Pontifex","steam_id":76561198013016489,"connected_time":516000000000,"state":"active","ping":69},{"user_id":38,"name":"Kitawna80","steam_id":76561198052165712,"connected_time":490000000000,"state":"active","ping":82}]},{"server_id":5,"name":"Uncletopia | Frankfurt | 1 | All Maps","name_short":"frk-1","host":"frk-1.de.uncletopia.com","port":27015,"enabled":true,"region":"eu","cc":"de","latitude":50.110924,"longitude":8.682127,"reserved":0,"last_update":"0001-01-01T00:00:00Z","name_a2s":"Uncletopia | Frankfurt | 1 | All Maps","protocol":17,"map":"cp_snakewater_final1","folder":"tf","game":"Team Fortress","app_id":440,"player_count":24,"max_players":24,"Bots":0,"server_type":"Dedicated","server_os":"Linux","password":true,"vac":true,"version":"7757534","steam_id":85568392924469989,"keywords":["cp","nocrits","nodmgspread","uncletopia"],"game_id":440,"stv_port":27016,"stv_name":"Uncletopia | Frankfurt | 1 | All Maps | STV","players":[{"user_id":228,"name":"Nithle","steam_id":76561198025372740,"connected_time":129000000000,"state":"active","ping":45},{"user_id":224,"name":"Fritz","steam_id":76561198129181164,"connected_time":884000000000,"state":"active","ping":58},{"user_id":136,"name":"Artemis","steam_id":76561198199091801,"connected_time":6533000000000,"state":"active","ping":50},{"user_id":223,"name":"GetExp","steam_id":76561198410131881,"connected_time":893000000000,"state":"active","ping":59},{"user_id":210,"name":"mt","steam_id":76561197961319303,"connected_time":1811000000000,"state":"active","ping":44},{"user_id":179,"name":"askulap","steam_id":76561197992018795,"connected_time":4425000000000,"state":"active","ping":75},{"user_id":226,"name":"HERISSON","steam_id":76561199062194778,"connected_time":748000000000,"state":"active","ping":91},{"user_id":135,"name":"sloppy transgirl toppy","steam_id":76561198057092208,"connected_time":6544000000000,"state":"active","ping":59},{"user_id":225,"name":"Tea guy","steam_id":76561198797847641,"connected_time":822000000000,"state":"active","ping":71},{"user_id":227,"name":"Megapuncher","steam_id":76561198023536780,"connected_time":373000000000,"state":"active","ping":48},{"user_id":184,"name":"Pope John Paul III","steam_id":76561197999421201,"connected_time":4212000000000,"state":"active","ping":75},{"user_id":236,"name":"hud_saytext_time 0","steam_id":76561198010327228,"connected_time":43000000000,"state":"active","ping":47},{"user_id":219,"name":"Udinese Dion","steam_id":76561198067931573,"connected_time":1139000000000,"state":"active","ping":52},{"user_id":230,"name":"Dave The Sloth","steam_id":76561199135831355,"connected_time":117000000000,"state":"active","ping":62},{"user_id":231,"name":"Subterranean","steam_id":76561198106684566,"connected_time":109000000000,"state":"active","ping":75},{"user_id":220,"name":"noodlehairronaldoprime","steam_id":76561199471954402,"connected_time":1127000000000,"state":"active","ping":60},{"user_id":232,"name":"Ruke 1","steam_id":76561198409908008,"connected_time":81000000000,"state":"active","ping":74},{"user_id":198,"name":"REN","steam_id":76561198000596385,"connected_time":3316000000000,"state":"active","ping":72},{"user_id":206,"name":"That Phlog mfer","steam_id":76561198050416948,"connected_time":2209000000000,"state":"active","ping":58},{"user_id":233,"name":"ant753","steam_id":76561198103458889,"connected_time":79000000000,"state":"active","ping":61},{"user_id":201,"name":"YisusTheYellow","steam_id":76561198111343446,"connected_time":2964000000000,"state":"active","ping":85},{"user_id":205,"name":"1ggy","steam_id":76561199051285912,"connected_time":2761000000000,"state":"active","ping":75},{"user_id":237,"name":"doker","steam_id":76561198251840154,"connected_time":21000000000,"state":"active","ping":68},{"user_id":216,"name":"BoPoe","steam_id":76561198093333882,"connected_time":1578000000000,"state":"active","ping":104}]},{"server_id":110,"name":"Uncletopia | Frankfurt | 2 | All Maps","name_short":"frk-2","host":"frk-1.de.uncletopia.com","port":27025,"enabled":true,"region":"eu","cc":"de","latitude":50.110924,"longitude":8.682127,"reserved":0,"last_update":"0001-01-01T00:00:00Z","name_a2s":"Uncletopia | Frankfurt | 2 | All Maps","protocol":17,"map":"koth_highpass","folder":"tf","game":"Team Fortress","app_id":440,"player_count":24,"max_players":24,"Bots":0,"server_type":"Dedicated","server_os":"Linux","password":true,"vac":true,"version":"7757534","steam_id":85568392924469990,"keywords":["cp","nocrits","nodmgspread","uncletopia"],"game_id":440,"stv_port":27026,"stv_name":"Uncletopia | Frankfurt | 2 | All Maps | STV","players":[{"user_id":443,"name":"Spurt","steam_id":76561198078523852,"connected_time":2482000000000,"state":"active","ping":51},{"user_id":462,"name":"Rofl","steam_id":76561198854136945,"connected_time":526000000000,"state":"active","ping":67},{"user_id":465,"name":"DubiozaK","steam_id":76561199428701264,"connected_time":251000000000,"state":"active","ping":89},{"user_id":460,"name":"I Bleed Butter","steam_id":76561198130814770,"connected_time":1056000000000,"state":"active","ping":75},{"user_id":425,"name":"Bob Sacamano","steam_id":76561198085610701,"connected_time":3364000000000,"state":"active","ping":92},{"user_id":420,"name":"Edmost","steam_id":76561198090748165,"connected_time":3403000000000,"state":"active","ping":60},{"user_id":464,"name":"aphextwinsucks","steam_id":76561198132185926,"connected_time":266000000000,"state":"active","ping":60},{"user_id":463,"name":"THVG","steam_id":76561199156685368,"connected_time":366000000000,"state":"active","ping":62},{"user_id":449,"name":"SMhjatt","steam_id":76561198856879110,"connected_time":1977000000000,"state":"active","ping":87},{"user_id":435,"name":"Maxim Prime","steam_id":76561198001342231,"connected_time":3139000000000,"state":"active","ping":75},{"user_id":384,"name":"Ita","steam_id":76561198147277460,"connected_time":6231000000000,"state":"active","ping":60},{"user_id":466,"name":"8 Ball","steam_id":76561197960988736,"connected_time":180000000000,"state":"active","ping":64},{"user_id":442,"name":"Igoreshkin","steam_id":76561197990780500,"connected_time":2576000000000,"state":"active","ping":84},{"user_id":385,"name":"johnny dorito","steam_id":76561198148074472,"connected_time":6231000000000,"state":"active","ping":39},{"user_id":401,"name":"Johan","steam_id":76561199380849468,"connected_time":5370000000000,"state":"active","ping":60},{"user_id":461,"name":"Drewbinz[Ow]","steam_id":76561197983576789,"connected_time":731000000000,"state":"active","ping":71},{"user_id":448,"name":"Hardway","steam_id":76561198272529254,"connected_time":1982000000000,"state":"active","ping":50},{"user_id":429,"name":"Shingo the Brit","steam_id":76561198439680647,"connected_time":3302000000000,"state":"active","ping":77},{"user_id":456,"name":"Gul Dukat","steam_id":76561199171591060,"connected_time":1384000000000,"state":"active","ping":75},{"user_id":467,"name":"Ablak Viktor (o1g)","steam_id":76561199015744154,"connected_time":125000000000,"state":"active","ping":93},{"user_id":459,"name":"Seb, Comrade","steam_id":76561198040279587,"connected_time":1096000000000,"state":"active","ping":89},{"user_id":453,"name":"Soldier Boy","steam_id":76561198042593027,"connected_time":1696000000000,"state":"active","ping":88},{"user_id":407,"name":"The tiniest boy","steam_id":76561198044165189,"connected_time":5210000000000,"state":"active","ping":60},{"user_id":468,"name":"Manza","steam_id":76561198982262924,"connected_time":123000000000,"state":"active","ping":58}]},{"server_id":308,"name":"Uncletopia | Frankfurt | 3 | All Maps","name_short":"frk-3","host":"frk-1.de.uncletopia.com","port":27035,"enabled":true,"region":"eu","cc":"de","latitude":50.110924,"longitude":8.682127,"reserved":0,"last_update":"0001-01-01T00:00:00Z","name_a2s":"Uncletopia | Frankfurt | 3 | All Maps","protocol":17,"map":"cp_sunshine","folder":"tf","game":"Team Fortress","app_id":440,"player_count":0,"max_players":24,"Bots":0,"server_type":"Dedicated","server_os":"Linux","password":true,"vac":true,"version":"7757534","steam_id":85568392924504274,"keywords":["cp","nocrits","nodmgspread","uncletopia"],"game_id":440,"stv_port":27036,"stv_name":"Uncletopia | Frankfurt | 3 | All Maps | STV","players":null},{"server_id":309,"name":"Uncletopia | Frankfurt | 4 | All Maps","name_short":"frk-4","host":"frk-1.de.uncletopia.com","port":27045,"enabled":true,"region":"eu","cc":"de","latitude":50.110924,"longitude":8.682127,"reserved":0,"last_update":"0001-01-01T00:00:00Z","name_a2s":"Uncletopia | Frankfurt | 4 | All Maps","protocol":17,"map":"pl_frontier_final","folder":"tf","game":"Team Fortress","app_id":440,"player_count":24,"max_players":24,"Bots":0,"server_type":"Dedicated","server_os":"Linux","password":true,"vac":true,"version":"7757534","steam_id":85568392924504275,"keywords":["nocrits","nodmgspread","payload","uncletopia"],"game_id":440,"stv_port":27046,"stv_name":"Uncletopia | Frankfurt | 4 | All Maps | STV","players":[{"user_id":787,"name":"I.C. Wiener","steam_id":76561197999912254,"connected_time":427000000000,"state":"active","ping":87},{"user_id":788,"name":"Kodutah","steam_id":76561198203405574,"connected_time":412000000000,"state":"active","ping":87},{"user_id":791,"name":"Shaiva","steam_id":76561198034677706,"connected_time":356000000000,"state":"active","ping":75},{"user_id":757,"name":"Carrot","steam_id":76561198119340863,"connected_time":3392000000000,"state":"active","ping":52},{"user_id":720,"name":"roblan11","steam_id":76561198066839258,"connected_time":6039000000000,"state":"active","ping":44},{"user_id":743,"name":"Syll","steam_id":76561198040736202,"connected_time":3779000000000,"state":"active","ping":96},{"user_id":780,"name":"Gray","steam_id":76561198449128916,"connected_time":1344000000000,"state":"active","ping":75},{"user_id":792,"name":"bass solo","steam_id":76561199117720299,"connected_time":209000000000,"state":"active","ping":51},{"user_id":768,"name":"Currently wearing crocs","steam_id":76561198139404261,"connected_time":2533000000000,"state":"active","ping":55},{"user_id":733,"name":"ufomaster1111111","steam_id":76561198837347666,"connected_time":4109000000000,"state":"active","ping":69},{"user_id":770,"name":"Dewotter","steam_id":76561198007653168,"connected_time":2457000000000,"state":"active","ping":68},{"user_id":781,"name":"eeeeee","steam_id":76561198017786875,"connected_time":1340000000000,"state":"active","ping":57},{"user_id":786,"name":"FoOzTV","steam_id":76561197998636728,"connected_time":597000000000,"state":"active","ping":76},{"user_id":767,"name":"Spectral Sloth","steam_id":76561198170083139,"connected_time":2535000000000,"state":"active","ping":74},{"user_id":776,"name":"Vorge","steam_id":76561198411852459,"connected_time":2198000000000,"state":"active","ping":118},{"user_id":782,"name":"BlinkedUp","steam_id":76561198249985618,"connected_time":1325000000000,"state":"active","ping":54},{"user_id":755,"name":"sape (huntsman enjoyer)","steam_id":76561198089322416,"connected_time":3397000000000,"state":"active","ping":113},{"user_id":783,"name":"à¹–Û£ÛœSir Robbiewolf","steam_id":76561198001357988,"connected_time":1282000000000,"state":"active","ping":70},{"user_id":784,"name":"David \"Crash\" Murphy","steam_id":76561198292845505,"connected_time":1238000000000,"state":"active","ping":94},{"user_id":728,"name":"kornetov.vitalya","steam_id":76561199286034833,"connected_time":5818000000000,"state":"active","ping":96},{"user_id":775,"name":"zek","steam_id":76561198862763731,"connected_time":2277000000000,"state":"active","ping":61},{"user_id":716,"name":"LiterallyRyanGosling","steam_id":76561199017856691,"connected_time":6523000000000,"state":"active","ping":67},{"user_id":785,"name":"KingVoker","steam_id":76561198039602539,"connected_time":1208000000000,"state":"active","ping":68},{"user_id":790,"name":"kreisztata68","steam_id":76561198850290920,"connected_time":379000000000,"state":"active","ping":65}]},{"server_id":310,"name":"Uncletopia | Frankfurt | 5 | All Maps","name_short":"frk-5","host":"frk-1.de.uncletopia.com","port":27055,"enabled":true,"region":"eu","cc":"de","latitude":50.110924,"longitude":8.682127,"reserved":0,"last_update":"0001-01-01T00:00:00Z","name_a2s":"Uncletopia | Frankfurt | 5 | All Maps","protocol":17,"map":"pl_pier","folder":"tf","game":"Team Fortress","app_id":440,"player_count":0,"max_players":24,"Bots":0,"server_type":"Dedicated","server_os":"Linux","password":true,"vac":true,"version":"7757534","steam_id":85568392924504277,"keywords":["nocrits","nodmgspread","payload","uncletopia"],"game_id":440,"stv_port":27056,"stv_name":"Uncletopia | Frankfurt | 5 | All Maps | STV","players":null},{"server_id":311,"name":"Uncletopia | Frankfurt | 6 | All Maps","name_short":"frk-6","host":"frk-1.de.uncletopia.com","port":27065,"enabled":true,"region":"eu","cc":"de","latitude":50.110924,"longitude":8.682127,"reserved":0,"last_update":"0001-01-01T00:00:00Z","name_a2s":"Uncletopia | Frankfurt | 6 | All Maps","protocol":17,"map":"pl_upward","folder":"tf","game":"Team Fortress","app_id":440,"player_count":24,"max_players":24,"Bots":0,"server_type":"Dedicated","server_os":"Linux","password":true,"vac":true,"version":"7757534","steam_id":85568392924504278,"keywords":["nocrits","nodmgspread","payload","uncletopia"],"game_id":440,"stv_port":27066,"stv_name":"Uncletopia | Frankfurt | 6 | All Maps | STV","players":[{"user_id":378,"name":"all quiet on the wanker front","steam_id":76561198011155232,"connected_time":876000000000,"state":"active","ping":74},{"user_id":346,"name":"limbicsystem","steam_id":76561198025612680,"connected_time":2803000000000,"state":"active","ping":67},{"user_id":374,"name":"symbiome","steam_id":76561198047548582,"connected_time":1268000000000,"state":"active","ping":63},{"user_id":301,"name":"New","steam_id":76561198402195911,"connected_time":5818000000000,"state":"active","ping":117},{"user_id":373,"name":"Flej","steam_id":76561198212366369,"connected_time":1283000000000,"state":"active","ping":68},{"user_id":338,"name":"Pixie","steam_id":76561198044038797,"connected_time":3206000000000,"state":"active","ping":85},{"user_id":398,"name":"horny femboy","steam_id":76561199480741801,"connected_time":88000000000,"state":"active","ping":46},{"user_id":384,"name":"Boki","steam_id":76561198044553351,"connected_time":727000000000,"state":"active","ping":77},{"user_id":334,"name":"0","steam_id":76561198267909207,"connected_time":3473000000000,"state":"active","ping":81},{"user_id":393,"name":"Quartermistress","steam_id":76561198140199123,"connected_time":143000000000,"state":"active","ping":52},{"user_id":397,"name":"â™¥ trixy â™¥","steam_id":76561199474154775,"connected_time":110000000000,"state":"active","ping":56},{"user_id":343,"name":"æ‚ª","steam_id":76561198095879087,"connected_time":2887000000000,"state":"active","ping":68},{"user_id":390,"name":"lore","steam_id":76561198120984188,"connected_time":179000000000,"state":"active","ping":59},{"user_id":381,"name":"Frigo [1gâ„¢]","steam_id":76561197980853294,"connected_time":851000000000,"state":"active","ping":48},{"user_id":345,"name":"âœª m_br3","steam_id":76561198044981990,"connected_time":2835000000000,"state":"active","ping":67},{"user_id":380,"name":"ScottishWolf141","steam_id":76561199122304112,"connected_time":862000000000,"state":"active","ping":77},{"user_id":391,"name":"Doohickey mechanic","steam_id":76561198146180114,"connected_time":169000000000,"state":"active","ping":95},{"user_id":392,"name":"RIFT","steam_id":76561198991622379,"connected_time":149000000000,"state":"active","ping":62},{"user_id":359,"name":"a Regurar Barroon","steam_id":76561198834913692,"connected_time":2131000000000,"state":"active","ping":66},{"user_id":360,"name":"Dozer","steam_id":76561197998742338,"connected_time":2115000000000,"state":"active","ping":65},{"user_id":382,"name":"hichem","steam_id":76561198056197307,"connected_time":844000000000,"state":"active","ping":60},{"user_id":389,"name":"howabe","steam_id":76561197996486818,"connected_time":181000000000,"state":"active","ping":54},{"user_id":394,"name":"YuraGreek","steam_id":76561198050182252,"connected_time":141000000000,"state":"active","ping":77},{"user_id":395,"name":"Maestro_69","steam_id":76561199153246582,"connected_time":130000000000,"state":"active","ping":114}]},{"server_id":23,"name":"Uncletopia | Frankfurt | 7 | Stopwatch Beta","name_short":"frk-7","host":"frk-1.de.uncletopia.com","port":27075,"enabled":true,"region":"eu","cc":"de","latitude":50.110924,"longitude":8.682127,"reserved":0,"last_update":"0001-01-01T00:00:00Z","name_a2s":"Uncletopia | Frankfurt | 7 | Stopwatch Beta","protocol":17,"map":"workshop/pl_barnblitz_pro7.ugc582280235","folder":"tf","game":"Team Fortress","app_id":440,"player_count":0,"max_players":24,"Bots":0,"server_type":"Dedicated","server_os":"Linux","password":true,"vac":true,"version":"7757534","steam_id":85568392924742827,"keywords":["nocrits","nodmgspread","payload","uncletopia"],"game_id":440,"stv_port":27076,"stv_name":"Uncletopia | Frankfurt | 7 | Stopwatch Beta | STV","players":null},{"server_id":24,"name":"Uncletopia | Frankfurt | 8 | Community","name_short":"frk-8","host":"frk-1.de.uncletopia.com","port":27085,"enabled":true,"region":"eu","cc":"de","latitude":50.110924,"longitude":8.682127,"reserved":0,"last_update":"0001-01-01T00:00:00Z","name_a2s":"Uncletopia | Frankfurt | 8 | Community","protocol":17,"map":"workshop/cp_indulge.ugc528106646","folder":"tf","game":"Team Fortress","app_id":440,"player_count":6,"max_players":24,"Bots":0,"server_type":"Dedicated","server_os":"Linux","password":true,"vac":true,"version":"7757534","steam_id":85568392924742828,"keywords":["cp","nocrits","nodmgspread","uncletopia"],"game_id":440,"stv_port":27086,"stv_name":"Uncletopia | Frankfurt | 8 | Community | STV","players":[{"user_id":19,"name":"(can't chat)mafutbolero","steam_id":76561199233664005,"connected_time":7799000000000,"state":"active","ping":71},{"user_id":52,"name":"ÐšÑ€Ð¸Ð¼Ð¸Ð½Ð°Ð»ÑŒÐ½Ñ‹Ð¹ ÑƒÑ‰Ðµ","steam_id":76561198034136409,"connected_time":121000000000,"state":"active","ping":94},{"user_id":33,"name":"[waffles]","steam_id":76561198951206047,"connected_time":3538000000000,"state":"active","ping":72},{"user_id":40,"name":"Andrei12264","steam_id":76561199123066659,"connected_time":1602000000000,"state":"active","ping":86},{"user_id":42,"name":"kaa","steam_id":76561198044061430,"connected_time":1411000000000,"state":"active","ping":46},{"user_id":43,"name":"BattersðŸŒ¸","steam_id":76561198927992205,"connected_time":1229000000000,"state":"active","ping":49}]},{"server_id":202,"name":"Uncletopia | Hong Kong | 1 | All Maps","name_short":"hgk-1","host":"hgk-1.hk.uncletopia.com","port":27015,"enabled":true,"region":"asia","cc":"hk","latitude":22.302711,"longitude":114.177216,"reserved":0,"last_update":"0001-01-01T00:00:00Z","name_a2s":"Uncletopia | Hong Kong | 1 | All Maps","protocol":17,"map":"koth_cascade","folder":"tf","game":"Team Fortress","app_id":440,"player_count":0,"max_players":24,"Bots":0,"server_type":"Dedicated","server_os":"Linux","password":true,"vac":true,"version":"7757534","steam_id":85568392924494504,"keywords":["cp","nocrits","nodmgspread","uncletopia"],"game_id":440,"stv_port":27016,"stv_name":"Uncletopia | Hong Kong | 1 | All Maps | STV","players":null},{"server_id":1,"name":"Uncletopia | Los Angeles | 1 | All Maps","name_short":"lax-1","host":"lax-1.us.uncletopia.com","port":27015,"enabled":true,"region":"us-west","cc":"us","latitude":33.94279,"longitude":-118.41004,"reserved":0,"last_update":"0001-01-01T00:00:00Z","name_a2s":"Uncletopia | Los Angeles | 1 | All Maps","protocol":17,"map":"koth_lakeside_final","folder":"tf","game":"Team Fortress","app_id":440,"player_count":0,"max_players":24,"Bots":0,"server_type":"Dedicated","server_os":"Linux","password":true,"vac":true,"version":"7757534","steam_id":85568392924469991,"keywords":["cp","nocrits","nodmgspread","uncletopia"],"game_id":440,"stv_port":27016,"stv_name":"Uncletopia | Los Angeles | 1 | All Maps | STV","players":null},{"server_id":112,"name":"Uncletopia | Los Angeles | 2 | All Maps","name_short":"lax-2","host":"lax-1.us.uncletopia.com","port":27025,"enabled":true,"region":"us-west","cc":"us","latitude":33.94279,"longitude":-118.41004,"reserved":0,"last_update":"0001-01-01T00:00:00Z","name_a2s":"Uncletopia | Los Angeles | 2 | All Maps","protocol":17,"map":"pl_swiftwater_final1","folder":"tf","game":"Team Fortress","app_id":440,"player_count":24,"max_players":24,"Bots":0,"server_type":"Dedicated","server_os":"Linux","password":true,"vac":true,"version":"7757534","steam_id":85568392924469992,"keywords":["nocrits","nodmgspread","payload","uncletopia"],"game_id":440,"stv_port":27026,"stv_name":"Uncletopia | Los Angeles | 2 | All Maps | STV","players":[{"user_id":75,"name":"poopshitter33","steam_id":76561199135483712,"connected_time":672000000000,"state":"active","ping":104},{"user_id":68,"name":"Honey Boo Boo","steam_id":76561198119340886,"connected_time":1091000000000,"state":"active","ping":102},{"user_id":56,"name":"klonoaaaaaaaAAAAAAA","steam_id":76561198067196509,"connected_time":2281000000000,"state":"active","ping":30},{"user_id":76,"name":"Kintsugi","steam_id":76561198301867054,"connected_time":612000000000,"state":"active","ping":45},{"user_id":31,"name":"Risky","steam_id":76561198231029328,"connected_time":3570000000000,"state":"active","ping":55},{"user_id":21,"name":"Enforcer Enthusiast","steam_id":76561199124102271,"connected_time":4475000000000,"state":"active","ping":78},{"user_id":74,"name":"VixianUwU ãƒƒ â¤","steam_id":76561198948815060,"connected_time":756000000000,"state":"active","ping":83},{"user_id":72,"name":"2Fort Cactus","steam_id":76561199273395913,"connected_time":1010000000000,"state":"active","ping":75},{"user_id":77,"name":"Gentle Opp 3","steam_id":76561198150406851,"connected_time":585000000000,"state":"active","ping":55},{"user_id":39,"name":"stwoom","steam_id":76561199388774711,"connected_time":2812000000000,"state":"active","ping":101},{"user_id":63,"name":"Skinny Pete","steam_id":76561198801608576,"connected_time":1847000000000,"state":"active","ping":83},{"user_id":82,"name":"MR MODE","steam_id":76561198046775352,"connected_time":376000000000,"state":"active","ping":53},{"user_id":83,"name":"Maid 'n' China","steam_id":76561198423392976,"connected_time":330000000000,"state":"active","ping":59},{"user_id":84,"name":"touka","steam_id":76561198171521806,"connected_time":288000000000,"state":"active","ping":81},{"user_id":64,"name":"Jake","steam_id":76561198118425600,"connected_time":1660000000000,"state":"active","ping":93},{"user_id":45,"name":"â–²â–¼â–² Paul Atreideeznuts","steam_id":76561198015714075,"connected_time":2694000000000,"state":"active","ping":132},{"user_id":47,"name":"Shalom","steam_id":76561198410005222,"connected_time":2639000000000,"state":"active","ping":79},{"user_id":66,"name":"EleventhGoose","steam_id":76561198912390211,"connected_time":1386000000000,"state":"active","ping":62},{"user_id":81,"name":"Blue Morpho","steam_id":76561198176770386,"connected_time":513000000000,"state":"active","ping":79},{"user_id":52,"name":"squid","steam_id":76561198070236972,"connected_time":2435000000000,"state":"active","ping":61},{"user_id":57,"name":"Magnus","steam_id":76561198061634483,"connected_time":2276000000000,"state":"active","ping":79},{"user_id":58,"name":"Shiverse","steam_id":76561199136548914,"connected_time":2184000000000,"state":"active","ping":126},{"user_id":60,"name":"Critical","steam_id":76561198123744966,"connected_time":2110000000000,"state":"active","ping":123},{"user_id":71,"name":"Luffa Rigno","steam_id":76561197998700507,"connected_time":1059000000000,"state":"active","ping":92}]},{"server_id":324,"name":"Uncletopia | Los Angeles | 3 | All Maps","name_short":"lax-3","host":"lax-1.us.uncletopia.com","port":27035,"enabled":true,"region":"us-west","cc":"us","latitude":33.94279,"longitude":-118.41004,"reserved":0,"last_update":"0001-01-01T00:00:00Z","name_a2s":"Uncletopia | Los Angeles | 3 | All Maps","protocol":17,"map":"cp_snakewater_final1","folder":"tf","game":"Team Fortress","app_id":440,"player_count":0,"max_players":24,"Bots":0,"server_type":"Dedicated","server_os":"Linux","password":true,"vac":true,"version":"7757534","steam_id":85568392924510198,"keywords":["cp","nocrits","nodmgspread","uncletopia"],"game_id":440,"stv_port":27036,"stv_name":"Uncletopia | Los Angeles | 3 | All Maps | STV","players":null},{"server_id":25,"name":"Uncletopia | Los Angeles | 4 | Stopwatch Beta","name_short":"lax-4","host":"lax-1.us.uncletopia.com","port":27045,"enabled":true,"region":"us-west","cc":"us","latitude":33.94279,"longitude":-118.41004,"reserved":0,"last_update":"0001-01-01T00:00:00Z","name_a2s":"Uncletopia | Los Angeles | 4 | Stopwatch Beta","protocol":17,"map":"pl_swiftwater_final1","folder":"tf","game":"Team Fortress","app_id":440,"player_count":0,"max_players":24,"Bots":0,"server_type":"Dedicated","server_os":"Linux","password":true,"vac":true,"version":"7757534","steam_id":85568392924510199,"keywords":["nocrits","nodmgspread","payload","uncletopia"],"game_id":440,"stv_port":27046,"stv_name":"Uncletopia | Los Angeles | 4 | Stopwatch Beta | STV","players":null},{"server_id":11,"name":"Uncletopia | London | 1 | All Maps","name_short":"lon-1","host":"lon-1.uk.uncletopia.com","port":27015,"enabled":true,"region":"eu","cc":"gb","latitude":51.509865,"longitude":-0.118092,"reserved":0,"last_update":"0001-01-01T00:00:00Z","name_a2s":"Uncletopia | London | 1 | All Maps","protocol":17,"map":"pl_badwater","folder":"tf","game":"Team Fortress","app_id":440,"player_count":24,"max_players":24,"Bots":0,"server_type":"Dedicated","server_os":"Linux","password":true,"vac":true,"version":"7757534","steam_id":85568392924367362,"keywords":["nocrits","nodmgspread","payload","uncletopia"],"game_id":440,"stv_port":27016,"stv_name":"Uncletopia | London | 1 | All Maps | STV","players":[{"user_id":518,"name":"leg","steam_id":76561199026097466,"connected_time":5888000000000,"state":"active","ping":70},{"user_id":576,"name":"Iountzululululululululululululu","steam_id":76561198956308470,"connected_time":2090000000000,"state":"active","ping":94},{"user_id":578,"name":"Gideon","steam_id":76561198045132575,"connected_time":1883000000000,"state":"active","ping":41},{"user_id":577,"name":"Random","steam_id":76561199116602799,"connected_time":2031000000000,"state":"active","ping":53},{"user_id":476,"name":"Jesus Enjoyer","steam_id":76561198840259819,"connected_time":8198000000000,"state":"active","ping":47},{"user_id":501,"name":"Kvicha Kvaratskhelia","steam_id":76561198179339326,"connected_time":6621000000000,"state":"active","ping":79},{"user_id":592,"name":"dec","steam_id":76561198009660168,"connected_time":276000000000,"state":"active","ping":59},{"user_id":574,"name":"KPhii","steam_id":76561198970587061,"connected_time":2183000000000,"state":"active","ping":69},{"user_id":579,"name":"arowin24","steam_id":76561198077342689,"connected_time":1861000000000,"state":"active","ping":63},{"user_id":569,"name":"The Fellow Feller","steam_id":76561198188864306,"connected_time":2629000000000,"state":"active","ping":73},{"user_id":494,"name":"Mi Manchi","steam_id":76561198171573129,"connected_time":6824000000000,"state":"active","ping":65},{"user_id":547,"name":"Caerot","steam_id":76561198839000676,"connected_time":4620000000000,"state":"active","ping":74},{"user_id":588,"name":"Vershal Smershal","steam_id":76561198116223995,"connected_time":1149000000000,"state":"active","ping":51},{"user_id":587,"name":"R0mulone","steam_id":76561198352513792,"connected_time":1247000000000,"state":"active","ping":66},{"user_id":575,"name":"duck","steam_id":76561198030677425,"connected_time":2111000000000,"state":"active","ping":60},{"user_id":581,"name":"mud","steam_id":76561198141497461,"connected_time":1763000000000,"state":"active","ping":74},{"user_id":571,"name":"thepro-strong","steam_id":76561198047359132,"connected_time":2465000000000,"state":"active","ping":74},{"user_id":582,"name":"Grim","steam_id":76561198040346281,"connected_time":1755000000000,"state":"active","ping":64},{"user_id":538,"name":"united chunk","steam_id":76561199017850298,"connected_time":4792000000000,"state":"active","ping":75},{"user_id":570,"name":"Aaron","steam_id":76561197990046953,"connected_time":2494000000000,"state":"active","ping":68},{"user_id":584,"name":"generic alias","steam_id":76561198271607226,"connected_time":1733000000000,"state":"active","ping":84},{"user_id":573,"name":"Meth","steam_id":76561199300394949,"connected_time":2280000000000,"state":"active","ping":64},{"user_id":585,"name":"Cypher","steam_id":76561197996967254,"connected_time":1601000000000,"state":"active","ping":66},{"user_id":590,"name":"Pilaarius","steam_id":76561198120273212,"connected_time":381000000000,"state":"active","ping":105}]},{"server_id":114,"name":"Uncletopia | London | 2 | All Maps","name_short":"lon-2","host":"lon-1.uk.uncletopia.com","port":27025,"enabled":true,"region":"eu","cc":"gb","latitude":51.509865,"longitude":-0.118092,"reserved":0,"last_update":"0001-01-01T00:00:00Z","name_a2s":"Uncletopia | London | 2 | All Maps","protocol":17,"map":"pl_snowycoast","folder":"tf","game":"Team Fortress","app_id":440,"player_count":24,"max_players":24,"Bots":0,"server_type":"Dedicated","server_os":"Linux","password":true,"vac":true,"version":"7757534","steam_id":85568392924470941,"keywords":["nocrits","nodmgspread","payload","uncletopia"],"game_id":440,"stv_port":27026,"stv_name":"Uncletopia | London | 2 | All Maps | STV","players":[{"user_id":365,"name":"AWP-PA GANGNAM STYLE","steam_id":76561198413545609,"connected_time":609000000000,"state":"active","ping":50},{"user_id":372,"name":"sam-","steam_id":76561198013770973,"connected_time":433000000000,"state":"active","ping":69},{"user_id":351,"name":"Qwichi","steam_id":76561198264893430,"connected_time":1515000000000,"state":"active","ping":93},{"user_id":333,"name":"onionich","steam_id":76561198835619904,"connected_time":2535000000000,"state":"active","ping":119},{"user_id":359,"name":"Shovelhalfrusty","steam_id":76561198346447513,"connected_time":1101000000000,"state":"active","ping":78},{"user_id":354,"name":"Kikuri Hiroi","steam_id":76561198376786609,"connected_time":1444000000000,"state":"active","ping":106},{"user_id":300,"name":"ï¼² ï¼¯ ï¼¢ ï¼¢ ï¼¥ ï¼² ï¼´","steam_id":76561198134404830,"connected_time":3987000000000,"state":"active","ping":116},{"user_id":292,"name":"Vanilla","steam_id":76561198073933435,"connected_time":4816000000000,"state":"active","ping":70},{"user_id":268,"name":"[T]aKer","steam_id":76561198001778013,"connected_time":7591000000000,"state":"active","ping":47},{"user_id":373,"name":"cl_skinnyboi 1","steam_id":76561198042864708,"connected_time":421000000000,"state":"active","ping":54},{"user_id":360,"name":"Dwevy","steam_id":76561198090379437,"connected_time":898000000000,"state":"active","ping":56},{"user_id":329,"name":"Acid","steam_id":76561198102110680,"connected_time":2617000000000,"state":"active","ping":104},{"user_id":364,"name":"EspaÃ±aa","steam_id":76561198879587832,"connected_time":658000000000,"state":"active","ping":79},{"user_id":371,"name":"DonD","steam_id":76561198061496731,"connected_time":539000000000,"state":"active","ping":77},{"user_id":346,"name":"Kristianma","steam_id":76561198021772843,"connected_time":2170000000000,"state":"active","ping":60},{"user_id":377,"name":"Disasterday","steam_id":76561198044767090,"connected_time":54000000000,"state":"active","ping":53},{"user_id":353,"name":"dartling gunner","steam_id":76561199042470246,"connected_time":1482000000000,"state":"active","ping":60},{"user_id":368,"name":"LemonLeCitron","steam_id":76561198215545267,"connected_time":574000000000,"state":"active","ping":67},{"user_id":356,"name":"Ð¢Ñ€ÑƒÐ¿ Ð’Ð¾Ð»Ð¾Ð´Ñ","steam_id":76561198035718457,"connected_time":1343000000000,"state":"active","ping":91},{"user_id":341,"name":"Testicular torsion","steam_id":76561198119547399,"connected_time":2372000000000,"state":"active","ping":70},{"user_id":376,"name":"trite","steam_id":76561197983765323,"connected_time":137000000000,"state":"active","ping":53},{"user_id":343,"name":"Rz!","steam_id":76561198364380889,"connected_time":2288000000000,"state":"active","ping":128},{"user_id":350,"name":"Hoff","steam_id":76561198026537318,"connected_time":1529000000000,"state":"active","ping":41},{"user_id":370,"name":"Owenter","steam_id":76561198083201886,"connected_time":561000000000,"state":"active","ping":39}]},{"server_id":320,"name":"Uncletopia | London | 3 | All Maps","name_short":"lon-3","host":"lon-1.uk.uncletopia.com","port":27035,"enabled":true,"region":"eu","cc":"gb","latitude":51.509865,"longitude":-0.118092,"reserved":0,"last_update":"0001-01-01T00:00:00Z","name_a2s":"Uncletopia | London | 3 | All Maps","protocol":17,"map":"pl_upward","folder":"tf","game":"Team Fortress","app_id":440,"player_count":23,"max_players":24,"Bots":0,"server_type":"Dedicated","server_os":"Linux","password":true,"vac":true,"version":"7757534","steam_id":85568392924510192,"keywords":["nocrits","nodmgspread","payload","uncletopia"],"game_id":440,"stv_port":27036,"stv_name":"Uncletopia | London | 3 | All Maps | STV","players":[{"user_id":529,"name":"Mario","steam_id":76561198321794277,"connected_time":4226000000000,"state":"active","ping":147},{"user_id":524,"name":"Madmoose96","steam_id":76561198081888486,"connected_time":4809000000000,"state":"active","ping":78},{"user_id":558,"name":"Lessoz","steam_id":76561199211572036,"connected_time":870000000000,"state":"active","ping":90},{"user_id":562,"name":"cult","steam_id":76561198188647690,"connected_time":545000000000,"state":"active","ping":75},{"user_id":576,"name":"the indomitable human spirit","steam_id":76561198718760200,"connected_time":285000000000,"state":"active","ping":49},{"user_id":566,"name":"gabagool","steam_id":76561198307111838,"connected_time":448000000000,"state":"active","ping":29},{"user_id":557,"name":"OlkiSoup","steam_id":76561199209805904,"connected_time":933000000000,"state":"active","ping":85},{"user_id":565,"name":"Spliffendor","steam_id":76561198144020209,"connected_time":464000000000,"state":"active","ping":47},{"user_id":492,"name":"zvekan","steam_id":76561198381101196,"connected_time":6651000000000,"state":"active","ping":75},{"user_id":547,"name":"NuGs","steam_id":76561198305550934,"connected_time":2407000000000,"state":"active","ping":48},{"user_id":573,"name":"Krefa12","steam_id":76561198268375393,"connected_time":376000000000,"state":"active","ping":113},{"user_id":545,"name":"JownCenta","steam_id":76561198121397124,"connected_time":2513000000000,"state":"active","ping":48},{"user_id":567,"name":"Ross from F.R.I.E.N.D.S.","steam_id":76561198008511665,"connected_time":446000000000,"state":"active","ping":58},{"user_id":556,"name":"Uncle Terry","steam_id":76561198396415736,"connected_time":1201000000000,"state":"active","ping":47},{"user_id":550,"name":"Bottom feeder","steam_id":76561198181298169,"connected_time":2234000000000,"state":"active","ping":139},{"user_id":577,"name":"Big Al","steam_id":76561198079585198,"connected_time":37000000000,"state":"active","ping":60},{"user_id":575,"name":"dosuhaa","steam_id":76561199009139127,"connected_time":301000000000,"state":"active","ping":60},{"user_id":568,"name":"PK Blizzard","steam_id":76561198039836567,"connected_time":438000000000,"state":"active","ping":43},{"user_id":569,"name":"Dr Sex","steam_id":76561198029044617,"connected_time":433000000000,"state":"active","ping":51},{"user_id":570,"name":"Hildreth","steam_id":76561197995254867,"connected_time":429000000000,"state":"active","ping":46},{"user_id":572,"name":"UrFavFemboy","steam_id":76561199140460467,"connected_time":384000000000,"state":"active","ping":69},{"user_id":561,"name":"solovey_","steam_id":76561198014200179,"connected_time":621000000000,"state":"active","ping":102},{"user_id":574,"name":"Salih","steam_id":76561198287934839,"connected_time":370000000000,"state":"active","ping":66}]},{"server_id":321,"name":"Uncletopia | London | 4 | All Maps","name_short":"lon-4","host":"lon-1.uk.uncletopia.com","port":27045,"enabled":true,"region":"eu","cc":"gb","latitude":51.509865,"longitude":-0.118092,"reserved":0,"last_update":"0001-01-01T00:00:00Z","name_a2s":"Uncletopia | London | 4 | All Maps","protocol":17,"map":"pl_upward","folder":"tf","game":"Team Fortress","app_id":440,"player_count":23,"max_players":24,"Bots":0,"server_type":"Dedicated","server_os":"Linux","password":true,"vac":true,"version":"7757534","steam_id":85568392924510193,"keywords":["nocrits","nodmgspread","payload","uncletopia"],"game_id":440,"stv_port":27046,"stv_name":"Uncletopia | London | 4 | All Maps | STV","players":[{"user_id":248,"name":"tube","steam_id":76561198188642265,"connected_time":1970000000000,"state":"active","ping":53},{"user_id":268,"name":"Shynii","steam_id":76561198194682105,"connected_time":677000000000,"state":"active","ping":57},{"user_id":252,"name":"DooWooD","steam_id":76561198335810106,"connected_time":1768000000000,"state":"active","ping":76},{"user_id":255,"name":"tWx","steam_id":76561198123145824,"connected_time":1724000000000,"state":"active","ping":75},{"user_id":266,"name":"Lyncurion","steam_id":76561199260022725,"connected_time":713000000000,"state":"active","ping":84},{"user_id":271,"name":"Certified Hood pybro (ua)","steam_id":76561198970562699,"connected_time":296000000000,"state":"active","ping":55},{"user_id":171,"name":"Dabman","steam_id":76561199207417437,"connected_time":7827000000000,"state":"active","ping":110},{"user_id":64,"name":"brokenphilip","steam_id":76561198080960604,"connected_time":14899000000000,"state":"active","ping":72},{"user_id":258,"name":"Gry","steam_id":76561198053961616,"connected_time":1542000000000,"state":"active","ping":52},{"user_id":257,"name":"beheading video from 2009","steam_id":76561198834897089,"connected_time":1562000000000,"state":"active","ping":72},{"user_id":226,"name":"KFD","steam_id":76561198157183003,"connected_time":4020000000000,"state":"active","ping":82},{"user_id":274,"name":"ToniGAM3S","steam_id":76561198128605351,"connected_time":74000000000,"state":"active","ping":66},{"user_id":269,"name":"possiblename","steam_id":76561199064350902,"connected_time":676000000000,"state":"active","ping":111},{"user_id":256,"name":"AXAL","steam_id":76561198178250598,"connected_time":1630000000000,"state":"active","ping":60},{"user_id":265,"name":"StaÅ„czyk","steam_id":76561197998906563,"connected_time":890000000000,"state":"active","ping":45},{"user_id":111,"name":"Smash hit enjoyer","steam_id":76561198311322738,"connected_time":12277000000000,"state":"active","ping":59},{"user_id":216,"name":"Flint","steam_id":76561197995920776,"connected_time":4914000000000,"state":"active","ping":48},{"user_id":233,"name":"ASDF656565","steam_id":76561197995676953,"connected_time":3448000000000,"state":"active","ping":56},{"user_id":254,"name":"cortex","steam_id":76561198839790230,"connected_time":1753000000000,"state":"active","ping":73},{"user_id":48,"name":"syndenz","steam_id":76561198176063813,"connected_time":16093000000000,"state":"active","ping":74},{"user_id":273,"name":"tayro","steam_id":76561198202990635,"connected_time":186000000000,"state":"active","ping":69},{"user_id":210,"name":"One Shiny Boiâ„¢","steam_id":76561198199193627,"connected_time":5397000000000,"state":"active","ping":77},{"user_id":270,"name":"Tort","steam_id":76561198329646769,"connected_time":669000000000,"state":"active","ping":57}]},{"server_id":21,"name":"Uncletopia | London | 5 | All Maps","name_short":"lon-5","host":"lon-1.uk.uncletopia.com","port":27055,"enabled":true,"region":"eu","cc":"gb","latitude":51.509865,"longitude":-0.118092,"reserved":0,"last_update":"0001-01-01T00:00:00Z","name_a2s":"Uncletopia | London | 5 | All Maps","protocol":17,"map":"cp_process_final","folder":"tf","game":"Team Fortress","app_id":440,"player_count":23,"max_players":24,"Bots":0,"server_type":"Dedicated","server_os":"Linux","password":true,"vac":true,"version":"7757534","steam_id":85568392924742829,"keywords":["cp","nocrits","nodmgspread","uncletopia"],"game_id":440,"stv_port":27056,"stv_name":"Uncletopia | London | 5 | All Maps | STV","players":[{"user_id":305,"name":"Mandele","steam_id":76561199183213205,"connected_time":87000000000,"state":"active","ping":101},{"user_id":306,"name":"Borat","steam_id":76561198122226417,"connected_time":55000000000,"state":"active","ping":35},{"user_id":248,"name":"soofoul","steam_id":76561198285862099,"connected_time":2386000000000,"state":"active","ping":46},{"user_id":307,"name":"Mari Christmas","steam_id":76561197997020707,"connected_time":54000000000,"state":"active","ping":46},{"user_id":268,"name":"Hooodeeney","steam_id":76561199013654263,"connected_time":1260000000000,"state":"active","ping":70},{"user_id":284,"name":"Explosive Poptart","steam_id":76561198023918830,"connected_time":816000000000,"state":"active","ping":45},{"user_id":282,"name":"BING CHILLING","steam_id":76561198065438030,"connected_time":841000000000,"state":"active","ping":120},{"user_id":304,"name":"Wergle","steam_id":76561198046863004,"connected_time":213000000000,"state":"active","ping":50},{"user_id":269,"name":"Absolute_clamp","steam_id":76561198958563865,"connected_time":1257000000000,"state":"active","ping":30},{"user_id":301,"name":"whyamialive","steam_id":76561199070008862,"connected_time":317000000000,"state":"active","ping":38},{"user_id":256,"name":"what is he doing?","steam_id":76561198139303045,"connected_time":1979000000000,"state":"active","ping":91},{"user_id":288,"name":"let me cook","steam_id":76561198010380786,"connected_time":720000000000,"state":"active","ping":48},{"user_id":218,"name":"WeegeePJ","steam_id":76561199383362382,"connected_time":3092000000000,"state":"active","ping":129},{"user_id":308,"name":"Knapka","steam_id":76561198090422767,"connected_time":47000000000,"state":"active","ping":131},{"user_id":309,"name":"Craig Crusade","steam_id":76561199225918086,"connected_time":29000000000,"state":"active","ping":60},{"user_id":270,"name":"Kleiner Engel","steam_id":76561198009922500,"connected_time":1257000000000,"state":"active","ping":68},{"user_id":265,"name":"mesi","steam_id":76561198152458174,"connected_time":1639000000000,"state":"active","ping":73},{"user_id":266,"name":"Kiif","steam_id":76561198175271494,"connected_time":1466000000000,"state":"active","ping":84},{"user_id":310,"name":"jungle wood slab","steam_id":76561198180361759,"connected_time":29000000000,"state":"active","ping":43},{"user_id":172,"name":"a straight white male","steam_id":76561198381120660,"connected_time":5287000000000,"state":"active","ping":90},{"user_id":263,"name":"Gekoloniseerd","steam_id":76561198819871606,"connected_time":1682000000000,"state":"active","ping":125},{"user_id":247,"name":"mike erhmentraut","steam_id":76561199025378498,"connected_time":2423000000000,"state":"active","ping":45},{"user_id":274,"name":"tapeworms!","steam_id":76561198069649097,"connected_time":1017000000000,"state":"active","ping":52}]},{"server_id":22,"name":"Uncletopia | London | 6 | All Maps","name_short":"lon-6","host":"lon-1.uk.uncletopia.com","port":27065,"enabled":true,"region":"eu","cc":"gb","latitude":51.509865,"longitude":-0.118092,"reserved":0,"last_update":"0001-01-01T00:00:00Z","name_a2s":"Uncletopia | London | 6 | All Maps","protocol":17,"map":"pl_snowycoast","folder":"tf","game":"Team Fortress","app_id":440,"player_count":3,"max_players":24,"Bots":0,"server_type":"Dedicated","server_os":"Linux","password":true,"vac":true,"version":"7757534","steam_id":85568392924742830,"keywords":["nocrits","nodmgspread","payload","uncletopia"],"game_id":440,"stv_port":27066,"stv_name":"Uncletopia | London | 6 | All Maps | STV","players":[{"user_id":20,"name":"Hubble","steam_id":76561198329002678,"connected_time":267000000000,"state":"active","ping":56},{"user_id":21,"name":"Wattsit","steam_id":76561198250015476,"connected_time":263000000000,"state":"active","ping":58},{"user_id":22,"name":"nakedpee","steam_id":76561198064345980,"connected_time":239000000000,"state":"active","ping":75}]},{"server_id":40,"name":"Uncletopia | London | 7 | No Payload","name_short":"lon-7","host":"lon-1.uk.uncletopia.com","port":27075,"enabled":true,"region":"eu","cc":"gb","latitude":51.509865,"longitude":-0.118092,"reserved":0,"last_update":"0001-01-01T00:00:00Z","name_a2s":"Uncletopia | London | 7 | No Payload","protocol":17,"map":"cp_dustbowl","folder":"tf","game":"Team Fortress","app_id":440,"player_count":15,"max_players":24,"Bots":0,"server_type":"Dedicated","server_os":"Linux","password":true,"vac":true,"version":"7757534","steam_id":85568392924964314,"keywords":["cp","nocrits","nodmgspread","uncletopia"],"game_id":440,"stv_port":27076,"stv_name":"Uncletopia | London | 7 | No Payload | STV","players":[{"user_id":114,"name":"Black Sheep","steam_id":76561198042244701,"connected_time":293000000000,"state":"active","ping":55},{"user_id":108,"name":"127x Shaped Glass","steam_id":76561199171315453,"connected_time":1133000000000,"state":"active","ping":49},{"user_id":100,"name":"Lengard","steam_id":76561198094189180,"connected_time":2238000000000,"state":"active","ping":109},{"user_id":102,"name":"Birdseye","steam_id":76561198025852216,"connected_time":1993000000000,"state":"active","ping":47},{"user_id":109,"name":"ATastyAsty","steam_id":76561198353233738,"connected_time":1126000000000,"state":"active","ping":84},{"user_id":110,"name":"Flying skyhigh","steam_id":76561198372971096,"connected_time":1049000000000,"state":"active","ping":75},{"user_id":111,"name":"63756d","steam_id":76561198808699024,"connected_time":873000000000,"state":"active","ping":70},{"user_id":112,"name":"Avitz","steam_id":76561197986150359,"connected_time":866000000000,"state":"active","ping":43},{"user_id":115,"name":"the silly","steam_id":76561198289285025,"connected_time":193000000000,"state":"active","ping":55},{"user_id":116,"name":"the stinky","steam_id":76561198035518160,"connected_time":192000000000,"state":"active","ping":71},{"user_id":117,"name":"Zune","steam_id":76561198119382708,"connected_time":177000000000,"state":"active","ping":76},{"user_id":118,"name":"engie?","steam_id":76561198331852832,"connected_time":149000000000,"state":"active","ping":46},{"user_id":120,"name":"rabbitface26","steam_id":76561198327540113,"connected_time":27000000000,"state":"active","ping":46},{"user_id":37,"name":"Space","steam_id":76561198021572167,"connected_time":6302000000000,"state":"active","ping":45},{"user_id":86,"name":"Kibby","steam_id":76561197990056450,"connected_time":3098000000000,"state":"active","ping":47}]},{"server_id":41,"name":"Uncletopia | London | 8 | Community","name_short":"lon-8","host":"lon-1.uk.uncletopia.com","port":27085,"enabled":true,"region":"eu","cc":"gb","latitude":51.509865,"longitude":-0.118092,"reserved":0,"last_update":"0001-01-01T00:00:00Z","name_a2s":"Uncletopia | London | 8 | Community","protocol":17,"map":"pl_barnblitz","folder":"tf","game":"Team Fortress","app_id":440,"player_count":0,"max_players":24,"Bots":0,"server_type":"Dedicated","server_os":"Linux","password":true,"vac":true,"version":"7757534","steam_id":85568392924964315,"keywords":["nocrits","nodmgspread","payload","uncletopia"],"game_id":440,"stv_port":27086,"stv_name":"Uncletopia | London | 8 | Community | STV","players":null},{"server_id":300,"name":"Uncletopia | MontrÃ©al | 1 | All Maps","name_short":"mtl-1","host":"mtl-1.ca.uncletopia.com","port":27015,"enabled":true,"region":"us-east","cc":"ca","latitude":45.50889,"longitude":-73.56167,"reserved":0,"last_update":"0001-01-01T00:00:00Z","name_a2s":"Uncletopia | MontrÃ©al | 1 | All Maps","protocol":17,"map":"cp_sunshine","folder":"tf","game":"Team Fortress","app_id":440,"player_count":0,"max_players":24,"Bots":0,"server_type":"Dedicated","server_os":"Linux","password":true,"vac":true,"version":"7757534","steam_id":85568392924500087,"keywords":["cp","nocrits","nodmgspread","uncletopia"],"game_id":440,"stv_port":27016,"stv_name":"Uncletopia | MontrÃ©al | 1 | All Maps | STV","players":null},{"server_id":301,"name":"Uncletopia | MontrÃ©al | 2 | All Maps","name_short":"mtl-2","host":"mtl-1.ca.uncletopia.com","port":27025,"enabled":true,"region":"us-east","cc":"ca","latitude":45.50889,"longitude":-73.56167,"reserved":0,"last_update":"0001-01-01T00:00:00Z","name_a2s":"Uncletopia | MontrÃ©al | 2 | All Maps","protocol":17,"map":"pl_snowycoast","folder":"tf","game":"Team Fortress","app_id":440,"player_count":0,"max_players":24,"Bots":0,"server_type":"Dedicated","server_os":"Linux","password":true,"vac":true,"version":"7757534","steam_id":85568392924500088,"keywords":["nocrits","nodmgspread","payload","uncletopia"],"game_id":440,"stv_port":27026,"stv_name":"Uncletopia | MontrÃ©al | 2 | All Maps | STV","players":null},{"server_id":302,"name":"Uncletopia | MontrÃ©al | 3 | All Maps","name_short":"mtl-3","host":"mtl-1.ca.uncletopia.com","port":27035,"enabled":true,"region":"us-east","cc":"ca","latitude":45.50889,"longitude":-73.56167,"reserved":0,"last_update":"0001-01-01T00:00:00Z","name_a2s":"Uncletopia | MontrÃ©al | 3 | All Maps","protocol":17,"map":"pl_swiftwater_final1","folder":"tf","game":"Team Fortress","app_id":440,"player_count":0,"max_players":24,"Bots":0,"server_type":"Dedicated","server_os":"Linux","password":true,"vac":true,"version":"7757534","steam_id":85568392924500089,"keywords":["nocrits","nodmgspread","payload","uncletopia"],"game_id":440,"stv_port":27036,"stv_name":"Uncletopia | MontrÃ©al | 3 | All Maps | STV","players":null},{"server_id":303,"name":"Uncletopia | MontrÃ©al | 4 | No Payload","name_short":"mtl-4","host":"mtl-1.ca.uncletopia.com","port":27045,"enabled":true,"region":"us-east","cc":"ca","latitude":45.50889,"longitude":-73.56167,"reserved":0,"last_update":"0001-01-01T00:00:00Z","name_a2s":"Uncletopia | MontrÃ©al | 4 | No Payload","protocol":17,"map":"cp_steel","folder":"tf","game":"Team Fortress","app_id":440,"player_count":0,"max_players":24,"Bots":0,"server_type":"Dedicated","server_os":"Linux","password":true,"vac":true,"version":"7757534","steam_id":85568392924500090,"keywords":["cp","nocrits","nodmgspread","uncletopia"],"game_id":440,"stv_port":27046,"stv_name":"Uncletopia | MontrÃ©al | 4 | No Payload | STV","players":null},{"server_id":13,"name":"Uncletopia | New York City | 1 | All Maps","name_short":"nyc-1","host":"nyc-1.us.uncletopia.com","port":27015,"enabled":true,"region":"us-east","cc":"us","latitude":40.73061,"longitude":-73.93524,"reserved":0,"last_update":"0001-01-01T00:00:00Z","name_a2s":"Uncletopia | New York City | 1 | All Maps","protocol":17,"map":"plr_bananabay","folder":"tf","game":"Team Fortress","app_id":440,"player_count":24,"max_players":24,"Bots":0,"server_type":"Dedicated","server_os":"Linux","password":true,"vac":true,"version":"7757534","steam_id":85568392924469993,"keywords":["nocrits","nodmgspread","payload","uncletopia"],"game_id":440,"stv_port":27016,"stv_name":"Uncletopia | New York City | 1 | All Maps | STV","players":[{"user_id":262,"name":"CupcakeWarlock","steam_id":76561198179963697,"connected_time":1907000000000,"state":"active","ping":60},{"user_id":270,"name":"Seedkns","steam_id":76561199092210172,"connected_time":1290000000000,"state":"active","ping":43},{"user_id":286,"name":"Grandpa Simpson (Official)","steam_id":76561198057607033,"connected_time":62000000000,"state":"active","ping":63},{"user_id":259,"name":"Havok","steam_id":76561198063455003,"connected_time":2526000000000,"state":"active","ping":51},{"user_id":244,"name":"p","steam_id":76561198030291655,"connected_time":3732000000000,"state":"active","ping":60},{"user_id":208,"name":"burger king fries on the dash","steam_id":76561199049096532,"connected_time":6088000000000,"state":"active","ping":87},{"user_id":218,"name":"Tomcouger","steam_id":76561198022866923,"connected_time":5380000000000,"state":"active","ping":140},{"user_id":275,"name":"[hammer]DMX","steam_id":76561198033476718,"connected_time":909000000000,"state":"active","ping":163},{"user_id":287,"name":"Bad Rollout","steam_id":76561197971948876,"connected_time":58000000000,"state":"active","ping":75},{"user_id":219,"name":"Bipolar Beary","steam_id":76561198042027933,"connected_time":5372000000000,"state":"active","ping":125},{"user_id":288,"name":"ECCO","steam_id":76561198002821513,"connected_time":53000000000,"state":"active","ping":70},{"user_id":284,"name":"Guy","steam_id":76561198054734578,"connected_time":457000000000,"state":"active","ping":70},{"user_id":276,"name":"Bob The Frenchy","steam_id":76561198042180206,"connected_time":891000000000,"state":"active","ping":58},{"user_id":221,"name":"Training Arc","steam_id":76561198038832034,"connected_time":5293000000000,"state":"active","ping":121},{"user_id":264,"name":"lker","steam_id":76561197976975075,"connected_time":1851000000000,"state":"active","ping":59},{"user_id":271,"name":"Oh no","steam_id":76561198123441203,"connected_time":1268000000000,"state":"active","ping":74},{"user_id":280,"name":"Zeke McGeeks","steam_id":76561198067050258,"connected_time":819000000000,"state":"active","ping":106},{"user_id":273,"name":"Junko","steam_id":76561198146089003,"connected_time":1225000000000,"state":"active","ping":30},{"user_id":289,"name":"GrimDaReaper","steam_id":76561199038948822,"connected_time":46000000000,"state":"active","ping":89},{"user_id":210,"name":"roby","steam_id":76561198044660393,"connected_time":5981000000000,"state":"active","ping":128},{"user_id":282,"name":"Bother","steam_id":76561198336750909,"connected_time":502000000000,"state":"active","ping":44},{"user_id":290,"name":"Menacing Pile of Frogs","steam_id":76561198360134800,"connected_time":45000000000,"state":"active","ping":60},{"user_id":215,"name":"Aeonspassed","steam_id":76561198014016451,"connected_time":5411000000000,"state":"active","ping":76},{"user_id":217,"name":"Dastardly","steam_id":76561198028351509,"connected_time":5409000000000,"state":"active","ping":161}]},{"server_id":14,"name":"Uncletopia | New York City | 2 | All Maps","name_short":"nyc-2","host":"nyc-1.us.uncletopia.com","port":27025,"enabled":true,"region":"us-east","cc":"us","latitude":40.73061,"longitude":-73.93524,"reserved":0,"last_update":"0001-01-01T00:00:00Z","name_a2s":"Uncletopia | New York City | 2 | All Maps","protocol":17,"map":"pl_upward","folder":"tf","game":"Team Fortress","app_id":440,"player_count":24,"max_players":24,"Bots":0,"server_type":"Dedicated","server_os":"Linux","password":true,"vac":true,"version":"7757534","steam_id":85568392924469994,"keywords":["nocrits","nodmgspread","payload","uncletopia"],"game_id":440,"stv_port":27026,"stv_name":"Uncletopia | New York City | 2 | All Maps | STV","players":[{"user_id":193,"name":"James Earl Carter Jr","steam_id":76561198069735882,"connected_time":1486000000000,"state":"active","ping":80},{"user_id":206,"name":"A Lost CAWs","steam_id":76561198127120212,"connected_time":791000000000,"state":"active","ping":85},{"user_id":192,"name":"barbara","steam_id":76561198072417792,"connected_time":1513000000000,"state":"active","ping":133},{"user_id":209,"name":"The magic doo bus","steam_id":76561198243387974,"connected_time":574000000000,"state":"active","ping":49},{"user_id":117,"name":"Notafraid90","steam_id":76561198104072542,"connected_time":6994000000000,"state":"active","ping":47},{"user_id":203,"name":"heywaitasecond","steam_id":76561199064548292,"connected_time":899000000000,"state":"active","ping":64},{"user_id":204,"name":"the bane","steam_id":76561198053046161,"connected_time":888000000000,"state":"active","ping":45},{"user_id":200,"name":"A_Malebolgia","steam_id":76561198097722818,"connected_time":1035000000000,"state":"active","ping":90},{"user_id":194,"name":"gIBBY","steam_id":76561198080099598,"connected_time":1475000000000,"state":"active","ping":34},{"user_id":154,"name":"QwilfishFan22","steam_id":76561198078565975,"connected_time":4319000000000,"state":"active","ping":55},{"user_id":177,"name":"custodian","steam_id":76561198058793778,"connected_time":2019000000000,"state":"active","ping":52},{"user_id":169,"name":"h","steam_id":76561198319179446,"connected_time":3042000000000,"state":"active","ping":94},{"user_id":146,"name":"Schmingus","steam_id":76561199476148332,"connected_time":5012000000000,"state":"active","ping":98},{"user_id":205,"name":"MurpAMurp","steam_id":76561198374437261,"connected_time":843000000000,"state":"active","ping":67},{"user_id":167,"name":"NanoBite","steam_id":76561197999426452,"connected_time":3243000000000,"state":"active","ping":113},{"user_id":210,"name":"Copter_Boy","steam_id":76561198322921312,"connected_time":346000000000,"state":"active","ping":53},{"user_id":170,"name":"Chestnut","steam_id":76561198078198968,"connected_time":2997000000000,"state":"active","ping":78},{"user_id":173,"name":"Genne","steam_id":76561198153434791,"connected_time":2184000000000,"state":"active","ping":58},{"user_id":207,"name":"Super D Duper","steam_id":76561198078203677,"connected_time":741000000000,"state":"active","ping":59},{"user_id":149,"name":"SINEPLLAMS","steam_id":76561198316993833,"connected_time":4735000000000,"state":"active","ping":49},{"user_id":180,"name":"Fstev âœ˜","steam_id":76561198358766202,"connected_time":1954000000000,"state":"active","ping":144},{"user_id":211,"name":"C1","steam_id":76561198359647921,"connected_time":319000000000,"state":"active","ping":64},{"user_id":196,"name":"ã€Ž Ethereal ã€","steam_id":76561199385170644,"connected_time":1393000000000,"state":"active","ping":75},{"user_id":199,"name":"Penrose42","steam_id":76561198288577396,"connected_time":1101000000000,"state":"active","ping":73}]},{"server_id":15,"name":"Uncletopia | New York City | 3 | Stopwatch Beta","name_short":"nyc-3","host":"nyc-1.us.uncletopia.com","port":27035,"enabled":true,"region":"us-east","cc":"us","latitude":40.73061,"longitude":-73.93524,"reserved":0,"last_update":"0001-01-01T00:00:00Z","name_a2s":"Uncletopia | New York City | 3 | Stopwatch Beta","protocol":17,"map":"workshop/koth_ashville_final.ugc2130459942","folder":"tf","game":"Team Fortress","app_id":440,"player_count":0,"max_players":24,"Bots":0,"server_type":"Dedicated","server_os":"Linux","password":true,"vac":true,"version":"7757534","steam_id":85568392924742820,"keywords":["cp","nocrits","nodmgspread","uncletopia"],"game_id":440,"stv_port":27036,"stv_name":"Uncletopia | New York City | 3 | Stopwatch Beta | STV","players":null},{"server_id":16,"name":"Uncletopia | New York City | 4 | Community","name_short":"nyc-4","host":"nyc-1.us.uncletopia.com","port":27045,"enabled":true,"region":"us-east","cc":"us","latitude":40.73061,"longitude":-73.93524,"reserved":0,"last_update":"0001-01-01T00:00:00Z","name_a2s":"Uncletopia | New York City | 4 | Community","protocol":17,"map":"workshop/koth_ramjam_rc1.ugc459778887","folder":"tf","game":"Team Fortress","app_id":440,"player_count":2,"max_players":24,"Bots":0,"server_type":"Dedicated","server_os":"Linux","password":true,"vac":true,"version":"7757534","steam_id":85568392924742821,"keywords":["cp","nocrits","nodmgspread","uncletopia"],"game_id":440,"stv_port":27046,"stv_name":"Uncletopia | New York City | 4 | Community | STV","players":[{"user_id":5,"name":"waffleiron692","steam_id":76561199202145798,"connected_time":1498000000000,"state":"active","ping":77},{"user_id":6,"name":"M16A1Sauce","steam_id":76561199058049384,"connected_time":1163000000000,"state":"active","ping":60}]},{"server_id":142,"name":"Uncletopia | SÃ£o Paulo | 1 | All Maps","name_short":"sao-1","host":"sao-1.br.uncletopia.com","port":27015,"enabled":true,"region":"sa","cc":"br","latitude":-23.533773,"longitude":-46.62529,"reserved":0,"last_update":"0001-01-01T00:00:00Z","name_a2s":"Uncletopia | SÃ£o Paulo | 1 | All Maps","protocol":17,"map":"koth_highpass","folder":"tf","game":"Team Fortress","app_id":440,"player_count":0,"max_players":24,"Bots":0,"server_type":"Dedicated","server_os":"Linux","password":true,"vac":true,"version":"7757534","steam_id":85568392924469996,"keywords":["cp","nocrits","nodmgspread","uncletopia"],"game_id":440,"stv_port":27016,"stv_name":"Uncletopia | SÃ£o Paulo | 1 | All Maps | STV","players":null},{"server_id":143,"name":"Uncletopia | SÃ£o Paulo | 2 | All Maps","name_short":"sao-2","host":"sao-2.br.uncletopia.com","port":27015,"enabled":true,"region":"sa","cc":"br","latitude":-23.533773,"longitude":-46.62529,"reserved":0,"last_update":"0001-01-01T00:00:00Z","name_a2s":"Uncletopia | SÃ£o Paulo | 2 | All Maps","protocol":17,"map":"koth_highpass","folder":"tf","game":"Team Fortress","app_id":440,"player_count":6,"max_players":24,"Bots":0,"server_type":"Dedicated","server_os":"Linux","password":true,"vac":true,"version":"7757534","steam_id":85568392924485349,"keywords":["cp","nocrits","nodmgspread","uncletopia"],"game_id":440,"stv_port":27016,"stv_name":"Uncletopia | SÃ£o Paulo | 2 | All Maps | STV","players":[{"user_id":35,"name":"Fapper","steam_id":76561198145896007,"connected_time":320000000000,"state":"active","ping":66},{"user_id":36,"name":"ã‚ãªãŸã¯æœ¬å½“ã«ã“ã‚Œã‚’\ufffd","steam_id":76561198317090330,"connected_time":105000000000,"state":"active","ping":59},{"user_id":37,"name":"Edge prince (a F2P)","steam_id":76561199076658868,"connected_time":41000000000,"state":"active","ping":53},{"user_id":26,"name":"Milkman","steam_id":76561199089290269,"connected_time":1813000000000,"state":"active","ping":257},{"user_id":38,"name":"victukkj","steam_id":76561198824568512,"connected_time":2000000000,"state":"spawning","ping":105},{"user_id":31,"name":"miscellaneous","steam_id":76561199436642954,"connected_time":888000000000,"state":"active","ping":227}]},{"server_id":7,"name":"Uncletopia | Seattle | 1 | All Maps","name_short":"sea-1","host":"sea-1.us.uncletopia.com","port":27015,"enabled":true,"region":"us-west","cc":"us","latitude":47.608013,"longitude":-122.33517,"reserved":0,"last_update":"0001-01-01T00:00:00Z","name_a2s":"Uncletopia | Seattle | 1 | All Maps","protocol":17,"map":"pl_badwater","folder":"tf","game":"Team Fortress","app_id":440,"player_count":24,"max_players":24,"Bots":0,"server_type":"Dedicated","server_os":"Linux","password":true,"vac":true,"version":"7757534","steam_id":85568392924469997,"keywords":["nocrits","nodmgspread","payload","uncletopia"],"game_id":440,"stv_port":27016,"stv_name":"Uncletopia | Seattle | 1 | All Maps | STV","players":[{"user_id":287,"name":"Mediarch","steam_id":76561198050765729,"connected_time":1707000000000,"state":"active","ping":59},{"user_id":309,"name":"soda","steam_id":76561198105924953,"connected_time":729000000000,"state":"active","ping":72},{"user_id":320,"name":"Ricky Dicky Doo Dah Grimes","steam_id":76561198143221900,"connected_time":196000000000,"state":"active","ping":115},{"user_id":259,"name":"aden","steam_id":76561199083568754,"connected_time":4704000000000,"state":"active","ping":78},{"user_id":317,"name":"The_Total_Train_Wreck","steam_id":76561199453505591,"connected_time":442000000000,"state":"active","ping":142},{"user_id":315,"name":"Shawn","steam_id":76561199199772083,"connected_time":467000000000,"state":"active","ping":84},{"user_id":290,"name":"5392vin","steam_id":76561198880493511,"connected_time":1600000000000,"state":"active","ping":63},{"user_id":250,"name":"purpleâ„¢ | they/she","steam_id":76561198057459725,"connected_time":4991000000000,"state":"active","ping":50},{"user_id":313,"name":"Dallas","steam_id":76561198066542919,"connected_time":490000000000,"state":"active","ping":67},{"user_id":321,"name":"Keamy","steam_id":76561199471434875,"connected_time":62000000000,"state":"active","ping":32},{"user_id":292,"name":"Lightish Red","steam_id":76561198060879701,"connected_time":1593000000000,"state":"active","ping":104},{"user_id":306,"name":"Reposas","steam_id":76561198058803197,"connected_time":809000000000,"state":"active","ping":102},{"user_id":294,"name":"Lime","steam_id":76561198080786408,"connected_time":1442000000000,"state":"active","ping":55},{"user_id":244,"name":"Lou Wii Gee","steam_id":76561198308449320,"connected_time":5600000000000,"state":"active","ping":78},{"user_id":305,"name":"mega","steam_id":76561198089520959,"connected_time":838000000000,"state":"active","ping":96},{"user_id":282,"name":"lavender","steam_id":76561199069518286,"connected_time":2363000000000,"state":"active","ping":69},{"user_id":300,"name":"EDJRMorpheus95","steam_id":76561198830669778,"connected_time":1130000000000,"state":"active","ping":120},{"user_id":298,"name":"â™¥ President Shitfart â™¥","steam_id":76561198141819053,"connected_time":1288000000000,"state":"active","ping":75},{"user_id":276,"name":"weenie hut jr","steam_id":76561198206922028,"connected_time":2605000000000,"state":"active","ping":75},{"user_id":312,"name":"Sentry Bustin' A Move","steam_id":76561198851536991,"connected_time":592000000000,"state":"active","ping":81},{"user_id":283,"name":"RagingBagon","steam_id":76561198255453127,"connected_time":2027000000000,"state":"active","ping":74},{"user_id":301,"name":"Username","steam_id":76561198855586261,"connected_time":980000000000,"state":"active","ping":64},{"user_id":286,"name":"MegumiTame","steam_id":76561198450280686,"connected_time":1938000000000,"state":"active","ping":55},{"user_id":319,"name":"the killer","steam_id":76561198300167622,"connected_time":412000000000,"state":"active","ping":77}]},{"server_id":119,"name":"Uncletopia | Seattle | 2 | All Maps","name_short":"sea-2","host":"sea-1.us.uncletopia.com","port":27025,"enabled":true,"region":"us-west","cc":"us","latitude":47.608013,"longitude":-122.33517,"reserved":0,"last_update":"0001-01-01T00:00:00Z","name_a2s":"Uncletopia | Seattle | 2 | All Maps","protocol":17,"map":"koth_suijin","folder":"tf","game":"Team Fortress","app_id":440,"player_count":24,"max_players":24,"Bots":0,"server_type":"Dedicated","server_os":"Linux","password":true,"vac":true,"version":"7757534","steam_id":85568392924469998,"keywords":["cp","nocrits","nodmgspread","uncletopia"],"game_id":440,"stv_port":27026,"stv_name":"Uncletopia | Seattle | 2 | All Maps | STV","players":[{"user_id":209,"name":"Lim3Slush","steam_id":76561198842647158,"connected_time":732000000000,"state":"active","ping":89},{"user_id":221,"name":"SuperFresh","steam_id":76561198200723198,"connected_time":34000000000,"state":"spawning","ping":89},{"user_id":184,"name":"Owl of Delos","steam_id":76561198437116566,"connected_time":2234000000000,"state":"active","ping":64},{"user_id":218,"name":"Algibruh","steam_id":76561199221599415,"connected_time":225000000000,"state":"active","ping":45},{"user_id":136,"name":"PinguEnjoyer6","steam_id":76561199186723516,"connected_time":4778000000000,"state":"active","ping":63},{"user_id":220,"name":"Monke","steam_id":76561198123628210,"connected_time":59000000000,"state":"active","ping":138},{"user_id":205,"name":"Capitalist","steam_id":76561198054534866,"connected_time":1212000000000,"state":"active","ping":140},{"user_id":194,"name":"Duck nut","steam_id":76561198355475831,"connected_time":1970000000000,"state":"active","ping":88},{"user_id":173,"name":"earthbound393","steam_id":76561199444276547,"connected_time":2658000000000,"state":"active","ping":117},{"user_id":214,"name":"Local Shower Shitter","steam_id":76561199230072867,"connected_time":404000000000,"state":"active","ping":119},{"user_id":185,"name":"trackpad gaming | f2p","steam_id":76561198840414371,"connected_time":2202000000000,"state":"active","ping":50},{"user_id":161,"name":"MisterManne","steam_id":76561198106598600,"connected_time":3449000000000,"state":"active","ping":55},{"user_id":216,"name":"LizardGames","steam_id":76561199147525483,"connected_time":303000000000,"state":"active","ping":43},{"user_id":202,"name":"cat","steam_id":76561198118751831,"connected_time":1324000000000,"state":"active","ping":110},{"user_id":219,"name":"Luca","steam_id":76561198125087140,"connected_time":215000000000,"state":"active","ping":46},{"user_id":188,"name":"cool beans","steam_id":76561198045758072,"connected_time":2116000000000,"state":"active","ping":61},{"user_id":191,"name":"JPMå²©","steam_id":76561198043967997,"connected_time":2008000000000,"state":"active","ping":74},{"user_id":203,"name":"Lampy","steam_id":76561199196536318,"connected_time":1272000000000,"state":"active","ping":109},{"user_id":208,"name":"JoySlip","steam_id":76561198269476149,"connected_time":811000000000,"state":"active","ping":75},{"user_id":190,"name":"CreativeUsername","steam_id":76561198186045503,"connected_time":2013000000000,"state":"active","ping":94},{"user_id":215,"name":"ZUZINATOR","steam_id":76561198086369424,"connected_time":374000000000,"state":"active","ping":82},{"user_id":217,"name":"leroy","steam_id":76561199013064727,"connected_time":271000000000,"state":"active","ping":103},{"user_id":201,"name":"Lucky Ninja","steam_id":76561198053366752,"connected_time":1507000000000,"state":"active","ping":105},{"user_id":198,"name":"ROGUE-PLANET","steam_id":76561198116023052,"connected_time":1827000000000,"state":"active","ping":75}]},{"server_id":406,"name":"Uncletopia | Seattle | 3 | Stopwatch Beta","name_short":"sea-3","host":"sea-1.us.uncletopia.com","port":27035,"enabled":true,"region":"us-west","cc":"us","latitude":47.608013,"longitude":-122.33517,"reserved":0,"last_update":"0001-01-01T00:00:00Z","name_a2s":"Uncletopia | Seattle | 3 | Stopwatch Beta","protocol":17,"map":"cp_metalworks","folder":"tf","game":"Team Fortress","app_id":440,"player_count":0,"max_players":24,"Bots":0,"server_type":"Dedicated","server_os":"Linux","password":true,"vac":true,"version":"7757534","steam_id":85568392924515217,"keywords":["cp","nocrits","nodmgspread","uncletopia"],"game_id":440,"stv_port":27036,"stv_name":"Uncletopia | Seattle | 3 | Stopwatch Beta | STV","players":null},{"server_id":17,"name":"Uncletopia | San Francisco | 1 | All Maps","name_short":"sfo-1","host":"sfo-1.us.uncletopia.com","port":27015,"enabled":true,"region":"us-west","cc":"us","latitude":37.77397,"longitude":-122.4313,"reserved":0,"last_update":"0001-01-01T00:00:00Z","name_a2s":"Uncletopia | San Francisco | 1 | All Maps","protocol":17,"map":"cp_mountainlab","folder":"tf","game":"Team Fortress","app_id":440,"player_count":5,"max_players":24,"Bots":0,"server_type":"Dedicated","server_os":"Linux","password":true,"vac":true,"version":"7757534","steam_id":85568392924469999,"keywords":["cp","nocrits","nodmgspread","uncletopia"],"game_id":440,"stv_port":27016,"stv_name":"Uncletopia | San Francisco | 1 | All Maps | STV","players":[{"user_id":10,"name":"PheebsyDeebsy","steam_id":76561198101509436,"connected_time":905000000000,"state":"active","ping":45},{"user_id":15,"name":"grub no. III","steam_id":76561198829492245,"connected_time":488000000000,"state":"active","ping":57},{"user_id":13,"name":"FrozenPopcorn24","steam_id":76561199431867051,"connected_time":765000000000,"state":"active","ping":127},{"user_id":16,"name":"Samthetic","steam_id":76561198285241928,"connected_time":329000000000,"state":"active","ping":74},{"user_id":17,"name":"Kras","steam_id":76561199467334502,"connected_time":84000000000,"state":"active","ping":40}]},{"server_id":18,"name":"Uncletopia | San Francisco | 2 | All Maps","name_short":"sfo-2","host":"sfo-1.us.uncletopia.com","port":27025,"enabled":true,"region":"us-west","cc":"us","latitude":37.77397,"longitude":-122.4313,"reserved":0,"last_update":"0001-01-01T00:00:00Z","name_a2s":"Uncletopia | San Francisco | 2 | All Maps","protocol":17,"map":"koth_highpass","folder":"tf","game":"Team Fortress","app_id":440,"player_count":0,"max_players":24,"Bots":0,"server_type":"Dedicated","server_os":"Linux","password":true,"vac":true,"version":"7757534","steam_id":85568392924470000,"keywords":["cp","nocrits","nodmgspread","uncletopia"],"game_id":440,"stv_port":27026,"stv_name":"Uncletopia | San Francisco | 2 | All Maps | STV","players":null},{"server_id":19,"name":"Uncletopia | San Francisco | 3 | Stopwatch Beta","name_short":"sfo-3","host":"sfo-1.us.uncletopia.com","port":27035,"enabled":true,"region":"us-west","cc":"us","latitude":37.77397,"longitude":-122.4313,"reserved":0,"last_update":"0001-01-01T00:00:00Z","name_a2s":"Uncletopia | San Francisco | 3 | Stopwatch Beta","protocol":17,"map":"koth_lakeside_final","folder":"tf","game":"Team Fortress","app_id":440,"player_count":0,"max_players":24,"Bots":0,"server_type":"Dedicated","server_os":"Linux","password":true,"vac":true,"version":"7757534","steam_id":85568392924742824,"keywords":["cp","nocrits","nodmgspread","uncletopia"],"game_id":440,"stv_port":27036,"stv_name":"Uncletopia | San Francisco | 3 | Stopwatch Beta | STV","players":null},{"server_id":20,"name":"Uncletopia | San Francisco | 4 | Community","name_short":"sfo-4","host":"sfo-1.us.uncletopia.com","port":27045,"enabled":true,"region":"us-west","cc":"us","latitude":37.77397,"longitude":-122.4313,"reserved":0,"last_update":"0001-01-01T00:00:00Z","name_a2s":"Uncletopia | San Francisco | 4 | Community","protocol":17,"map":"workshop/pl_cashworks_final1.ugc2904065412","folder":"tf","game":"Team Fortress","app_id":440,"player_count":0,"max_players":24,"Bots":0,"server_type":"Dedicated","server_os":"Linux","password":true,"vac":true,"version":"7757534","steam_id":85568392924742826,"keywords":["nocrits","nodmgspread","payload","uncletopia"],"game_id":440,"stv_port":27046,"stv_name":"Uncletopia | San Francisco | 4 | Community | STV","players":null},{"server_id":141,"name":"Uncletopia | Sydney | 1 | All Maps","name_short":"syd-1","host":"syd-1.au.uncletopia.com","port":27015,"enabled":true,"region":"au","cc":"au","latitude":-33.865143,"longitude":151.2099,"reserved":0,"last_update":"0001-01-01T00:00:00Z","name_a2s":"Uncletopia | Sydney | 1 | All Maps","protocol":17,"map":"koth_viaduct","folder":"tf","game":"Team Fortress","app_id":440,"player_count":0,"max_players":24,"Bots":0,"server_type":"Dedicated","server_os":"Linux","password":true,"vac":true,"version":"7757534","steam_id":85568392924470001,"keywords":["cp","nocrits","nodmgspread","uncletopia"],"game_id":440,"stv_port":27016,"stv_name":"Uncletopia | Sydney | 1 | All Maps | STV","players":null},{"server_id":123,"name":"Uncletopia | Sydney | 2 | All Maps","name_short":"syd-2","host":"syd-1.au.uncletopia.com","port":27025,"enabled":true,"region":"au","cc":"au","latitude":-33.865143,"longitude":151.2099,"reserved":0,"last_update":"0001-01-01T00:00:00Z","name_a2s":"Uncletopia | Sydney | 2 | All Maps","protocol":17,"map":"cp_process_final","folder":"tf","game":"Team Fortress","app_id":440,"player_count":0,"max_players":24,"Bots":0,"server_type":"Dedicated","server_os":"Linux","password":true,"vac":true,"version":"7757534","steam_id":85568392924470002,"keywords":["cp","nocrits","nodmgspread","uncletopia"],"game_id":440,"stv_port":27026,"stv_name":"Uncletopia | Sydney | 2 | All Maps | STV","players":null},{"server_id":395,"name":"Uncletopia | Sydney | 3 | All Maps","name_short":"syd-3","host":"syd-1.au.uncletopia.com","port":27035,"enabled":true,"region":"au","cc":"au","latitude":-33.865143,"longitude":151.2099,"reserved":0,"last_update":"0001-01-01T00:00:00Z","name_a2s":"Uncletopia | Sydney | 3 | All Maps","protocol":17,"map":"pl_swiftwater_final1","folder":"tf","game":"Team Fortress","app_id":440,"player_count":0,"max_players":24,"Bots":0,"server_type":"Dedicated","server_os":"Linux","password":true,"vac":true,"version":"7757534","steam_id":85568392925194467,"keywords":["nocrits","nodmgspread","payload","uncletopia"],"game_id":440,"stv_port":27036,"stv_name":"Uncletopia | Sydney | 3 | All Maps | STV","players":null},{"server_id":396,"name":"Uncletopia | Sydney | 4 | All Maps","name_short":"syd-4","host":"syd-1.au.uncletopia.com","port":27045,"enabled":true,"region":"au","cc":"au","latitude":-33.865143,"longitude":151.2099,"reserved":0,"last_update":"0001-01-01T00:00:00Z","name_a2s":"Uncletopia | Sydney | 4 | All Maps","protocol":17,"map":"koth_highpass","folder":"tf","game":"Team Fortress","app_id":440,"player_count":0,"max_players":24,"Bots":0,"server_type":"Dedicated","server_os":"Linux","password":true,"vac":true,"version":"7757534","steam_id":85568392925397958,"keywords":["cp","nocrits","nodmgspread","uncletopia"],"game_id":440,"stv_port":27046,"stv_name":"Uncletopia | Sydney | 4 | All Maps | STV","players":null},{"server_id":58,"name":"Uncletopia | Sydney | 5 | Stopwatch Beta","name_short":"syd-5","host":"syd-1.au.uncletopia.com","port":27055,"enabled":true,"region":"au","cc":"au","latitude":-33.865143,"longitude":151.2099,"reserved":0,"last_update":"0001-01-01T00:00:00Z","name_a2s":"Uncletopia | Sydney | 5 | Stopwatch Beta","protocol":17,"map":"koth_cascade","folder":"tf","game":"Team Fortress","app_id":440,"player_count":0,"max_players":24,"Bots":0,"server_type":"Dedicated","server_os":"Linux","password":true,"vac":true,"version":"7757534","steam_id":85568392925397959,"keywords":["cp","nocrits","nodmgspread","uncletopia"],"game_id":440,"stv_port":27056,"stv_name":"Uncletopia | Sydney | 5 | Stopwatch Beta | STV","players":null},{"server_id":59,"name":"Uncletopia | Sydney | 6 | Community","name_short":"syd-6","host":"syd-1.au.uncletopia.com","port":27065,"enabled":true,"region":"au","cc":"au","latitude":-33.865143,"longitude":151.2099,"reserved":0,"last_update":"0001-01-01T00:00:00Z","name_a2s":"Uncletopia | Sydney | 6 | Community","protocol":17,"map":"cp_snakewater_final1","folder":"tf","game":"Team Fortress","app_id":440,"player_count":0,"max_players":24,"Bots":0,"server_type":"Dedicated","server_os":"Linux","password":true,"vac":true,"version":"7757534","steam_id":85568392925397960,"keywords":["cp","nocrits","nodmgspread","uncletopia"],"game_id":440,"stv_port":27066,"stv_name":"Uncletopia | Sydney | 6 | Community | STV","players":null},{"server_id":49,"name":"Uncletopia | Warsaw | 1 | All Maps","name_short":"waw-1","host":"waw-1.pl.uncletopia.com","port":27015,"enabled":true,"region":"eu","cc":"pl","latitude":52.2297,"longitude":21.017532,"reserved":0,"last_update":"0001-01-01T00:00:00Z","name_a2s":"","protocol":0,"map":"","folder":"","game":"","app_id":0,"player_count":0,"max_players":0,"Bots":0,"server_type":"","server_os":"","password":false,"vac":false,"version":"","steam_id":0,"keywords":null,"game_id":0,"stv_port":0,"stv_name":"","players":null},{"server_id":50,"name":"Uncletopia | Warsaw | 2 | All Maps","name_short":"waw-2","host":"waw-1.pl.uncletopia.com","port":27025,"enabled":true,"region":"eu","cc":"pl","latitude":52.2297,"longitude":21.017532,"reserved":0,"last_update":"0001-01-01T00:00:00Z","name_a2s":"Uncletopia | Warsaw | 2 | All Maps","protocol":17,"map":"pl_frontier_final","folder":"tf","game":"Team Fortress","app_id":440,"player_count":0,"max_players":24,"Bots":0,"server_type":"Dedicated","server_os":"Linux","password":true,"vac":true,"version":"7757534","steam_id":85568392925397851,"keywords":["nocrits","nodmgspread","payload","uncletopia"],"game_id":440,"stv_port":27026,"stv_name":"Uncletopia | Warsaw | 2 | All Maps | STV","players":null},{"server_id":51,"name":"Uncletopia | Warsaw | 3 | All Maps","name_short":"waw-3","host":"waw-1.pl.uncletopia.com","port":27035,"enabled":true,"region":"eu","cc":"pl","latitude":52.2297,"longitude":21.017532,"reserved":0,"last_update":"0001-01-01T00:00:00Z","name_a2s":"Uncletopia | Warsaw | 3 | All Maps","protocol":17,"map":"pl_badwater","folder":"tf","game":"Team Fortress","app_id":440,"player_count":0,"max_players":24,"Bots":0,"server_type":"Dedicated","server_os":"Linux","password":true,"vac":true,"version":"7757534","steam_id":85568392925397852,"keywords":["nocrits","nodmgspread","payload","uncletopia"],"game_id":440,"stv_port":27036,"stv_name":"Uncletopia | Warsaw | 3 | All Maps | STV","players":null},{"server_id":52,"name":"Uncletopia | Warsaw | 4 | All Maps","name_short":"waw-4","host":"waw-1.pl.uncletopia.com","port":27045,"enabled":true,"region":"eu","cc":"pl","latitude":52.2297,"longitude":21.017532,"reserved":0,"last_update":"0001-01-01T00:00:00Z","name_a2s":"Uncletopia | Warsaw | 4 | All Maps","protocol":17,"map":"koth_lakeside_final","folder":"tf","game":"Team Fortress","app_id":440,"player_count":0,"max_players":24,"Bots":0,"server_type":"Dedicated","server_os":"Linux","password":true,"vac":true,"version":"7757534","steam_id":85568392925397853,"keywords":["cp","nocrits","nodmgspread","uncletopia"],"game_id":440,"stv_port":27046,"stv_name":"Uncletopia | Warsaw | 4 | All Maps | STV","players":null},{"server_id":53,"name":"Uncletopia | Warsaw | 5 | Stopwatch Beta","name_short":"waw-5","host":"waw-1.pl.uncletopia.com","port":27055,"enabled":true,"region":"eu","cc":"pl","latitude":52.2297,"longitude":21.017532,"reserved":0,"last_update":"0001-01-01T00:00:00Z","name_a2s":"Uncletopia | Warsaw | 5 | Stopwatch Beta","protocol":17,"map":"pl_borneo","folder":"tf","game":"Team Fortress","app_id":440,"player_count":0,"max_players":24,"Bots":0,"server_type":"Dedicated","server_os":"Linux","password":true,"vac":true,"version":"7757534","steam_id":85568392925397854,"keywords":["nocrits","nodmgspread","payload","uncletopia"],"game_id":440,"stv_port":27056,"stv_name":"Uncletopia | Warsaw | 5 | Stopwatch Beta | STV","players":null},{"server_id":54,"name":"Uncletopia | Warsaw | 6 | Community","name_short":"waw-6","host":"waw-1.pl.uncletopia.com","port":27065,"enabled":true,"region":"eu","cc":"pl","latitude":52.2297,"longitude":21.017532,"reserved":0,"last_update":"0001-01-01T00:00:00Z","name_a2s":"Uncletopia | Warsaw | 6 | Community","protocol":17,"map":"koth_lakeside_final","folder":"tf","game":"Team Fortress","app_id":440,"player_count":0,"max_players":24,"Bots":0,"server_type":"Dedicated","server_os":"Linux","password":true,"vac":true,"version":"7757534","steam_id":85568392925397856,"keywords":["cp","nocrits","nodmgspread","uncletopia"],"game_id":440,"stv_port":27066,"stv_name":"Uncletopia | Warsaw | 6 | Community | STV","players":null}]}