{"status":true,"message":"","result":[{"server_id":9,"name":"Uncletopia | Atlanta | 1 | All Maps","name_short":"atl-1","host":"atl-1.us.uncletopia.com","port":27015,"enabled":true,"region":"us-east","cc":"us","latitude":33.753746,"longitude":-84.38633,"reserved":0,"last_update":"0001-01-01T00:00:00Z","name_a2s":"Uncletopia | Atlanta | 1 | All Maps","protocol":17,"map":"cp_gorge","folder":"tf","game":"Team Fortress","app_id":440,"player_count":24,"max_players":24,"Bots":0,"server_type":"Dedicated","server_os":"Linux","password":true,"vac":true,"version":"7757534","steam_id":85568392924469982,"keywords":["cp","nocrits","nodmgspread","uncletopia"],"game_id":440,"stv_port":27016,"stv_name":"Uncletopia | Atlanta | 1 | All Maps | STV","players":[{"user_id":381,"name":"redindy","steam_id":76561198070154445,"connected_time":39000000000,"state":"active","ping":53},{"user_id":376,"name":"Jesus","steam_id":76561198040330079,"connected_time":548000000000,"state":"active","ping":90},{"user_id":353,"name":"BLU1 l Epifiny","steam_id":76561198027958086,"connected_time":2023000000000,"state":"active","ping":85},{"user_id":377,"name":"twix","steam_id":76561198040912048,"connected_time":529000000000,"state":"active","ping":72},{"user_id":357,"name":"Jovyel","steam_id":76561198118777065,"connected_time":1599000000000,"state":"active","ping":81},{"user_id":358,"name":"waZ","steam_id":76561199100318172,"connected_time":1598000000000,"state":"active","ping":90},{"user_id":370,"name":"SCATTER","steam_id":76561198405168492,"connected_time":1030000000000,"state":"active","ping":88},{"user_id":380,"name":"Dude bro","steam_id":76561198249916746,"connected_time":430000000000,"state":"active","ping":58},{"user_id":378,"name":"OMG!!!!","steam_id":76561198069600113,"connected_time":469000000000,"state":"active","ping":47},{"user_id":322,"name":"BLU1 | Pango","steam_id":76561198069811545,"connected_time":4191000000000,"state":"active","ping":45},{"user_id":350,"name":"RED1 | ma0re","steam_id":76561199231971506,"connected_time":2554000000000,"state":"active","ping":70},{"user_id":317,"name":"RED1 | p4ka","steam_id":76561198315291317,"connected_time":4381000000000,"state":"active","ping":64},{"user_id":372,"name":"Krampus Kraut","steam_id":76561198018912093,"connected_time":813000000000,"state":"active","ping":134},{"user_id":325,"name":"daemon","steam_id":76561198001541433,"connected_time":4158000000000,"state":"active","ping":75},{"user_id":367,"name":"ZONE","steam_id":76561197988764692,"connected_time":1346000000000,"state":"active","ping":92},{"user_id":379,"name":"Knifeagent701","steam_id":76561198080002386,"connected_time":456000000000,"state":"active","ping":74},{"user_id":363,"name":"Silberman","steam_id":76561199061086990,"connected_time":1502000000000,"state":"active","ping":162},{"user_id":371,"name":"Heppeh","steam_id":76561198068049507,"connected_time":844000000000,"state":"active","ping":63},{"user_id":364,"name":"i will melt your bone marrow","steam_id":76561198067994868,"connected_time":1457000000000,"state":"active","ping":89},{"user_id":368,"name":"Demoman With One Joke","steam_id":76561197993467034,"connected_time":1329000000000,"state":"active","ping":75},{"user_id":373,"name":"kohlhagen","steam_id":76561198120440587,"connected_time":780000000000,"state":"active","ping":56},{"user_id":248,"name":"shady lurker","steam_id":76561197983585579,"connected_time":8890000000000,"state":"active","ping":55},{"user_id":366,"name":"zero","steam_id":76561198113096772,"connected_time":1437000000000,"state":"active","ping":125},{"user_id":352,"name":"Ashes!","steam_id":76561197998475441,"connected_time":2059000000000,"state":"active","ping":89}]},{"server_id":400,"name":"Uncletopia | Atlanta | 3 | Community","name_short":"atl-3","host":"atl-1.us.uncletopia.com","port":27035,"enabled":true,"region":"us-east","cc":"us","latitude":33.753746,"longitude":-84.38633,"reserved":0,"last_update":"0001-01-01T00:00:00Z","name_a2s":"Uncletopia | Atlanta | 3 | Community","protocol":17,"map":"workshop/cp_kalinka_rc6a.ugc1272700588","folder":"tf","game":"Team Fortress","app_id":440,"player_count":0,"max_players":24,"Bots":0,"server_type":"Dedicated","server_os":"Linux","password":true,"vac":true,"version":"7757534","steam_id":85568392924515187,"keywords":["cp","nocrits","nodmgspread","uncletopia"],"game_id":440,"stv_port":27036,"stv_name":"Uncletopia | Atlanta | 3 | Community | STV","players":null},{"server_id":401,"name":"Uncletopia | Atlanta | 4 | No Payload","name_short":"atl-4","host":"atl-1.us.uncletopia.com","port":27045,"enabled":true,"region":"us-east","cc":"us","latitude":33.753746,"longitude":-84.38633,"reserved":0,"last_update":"0001-01-01T00:00:00Z","name_a2s":"","protocol":0,"map":"","folder":"","game":"","app_id":0,"player_count":0,"max_players":0,"Bots":0,"server_type":"","server_os":"","password":false,"vac":false,"version":"","steam_id":0,"keywords":null,"game_id":0,"stv_port":0,"stv_name":"","players":null},{"server_id":2,"name":"Uncletopia | Chicago | 1 | All Maps","name_short":"chi-1","host":"chi-1.us.uncletopia.com","port":27015,"enabled":true,"region":"us-central","cc":"us","latitude":41.881832,"longitude":-87.62318,"reserved":0,"last_update":"0001-01-01T00:00:00Z","name_a2s":"Uncletopia | Chicago | 1 | All Maps","protocol":17,"map":"pl_upward","folder":"tf","game":"Team Fortress","app_id":440,"player_count":24,"max_players":24,"Bots":0,"server_type":"Dedicated","server_os":"Linux","password":true,"vac":true,"version":"7757534","steam_id":85568392924469984,"keywords":["nocrits","nodmgspread","payload","uncletopia"],"game_id":440,"stv_port":27016,"stv_name":"Uncletopia | Chicago | 1 | All Maps | STV","players":[{"user_id":17,"name":"Zuffin","steam_id":76561198072968677,"connected_time":1872000000000,"state":"active","ping":61},{"user_id":22,"name":"Yayifications","steam_id":76561198066227208,"connected_time":1348000000000,"state":"active","ping":60},{"user_id":21,"name":"Tlaloc","steam_id":76561198375215983,"connected_time":1465000000000,"state":"active","ping":115},{"user_id":53,"name":"Katy | Synr.gg","steam_id":76561198079395814,"connected_time":86000000000,"state":"connecting","ping":55},{"user_id":56,"name":"VINCENT TELEVISION","steam_id":76561198036267748,"connected_time":57000000000,"state":"active","ping":47},{"user_id":25,"name":"Printified","steam_id":76561198063534010,"connected_time":1047000000000,"state":"active","ping":68},{"user_id":54,"name":"papa guacamole","steam_id":76561198167665608,"connected_time":72000000000,"state":"active","ping":48},{"user_id":27,"name":"RaddahRaddah","steam_id":76561198194462829,"connected_time":1007000000000,"state":"active","ping":66},{"user_id":43,"name":"Excalahave","steam_id":76561198072622946,"connected_time":596000000000,"state":"active","ping":54},{"user_id":29,"name":"frizzle fried","steam_id":76561198062991744,"connected_time":984000000000,"state":"active","ping":64},{"user_id":33,"name":"ApertureCity","steam_id":76561198004153607,"connected_time":799000000000,"state":"active","ping":81},{"user_id":32,"name":"Hsepirn","steam_id":76561198152395431,"connected_time":804000000000,"state":"active","ping":113},{"user_id":34,"name":"Nevu","steam_id":76561198378240571,"connected_time":797000000000,"state":"active","ping":133},{"user_id":35,"name":"ShortenedName","steam_id":76561198079337360,"connected_time":773000000000,"state":"active","ping":68},{"user_id":51,"name":"mr. nine","steam_id":76561198097599414,"connected_time":396000000000,"state":"active","ping":119},{"user_id":37,"name":"cassius","steam_id":76561198203851303,"connected_time":760000000000,"state":"active","ping":102},{"user_id":45,"name":"CaptainNuclear","steam_id":76561198297755938,"connected_time":558000000000,"state":"active","ping":121},{"user_id":39,"name":"Mike Arsfast","steam_id":76561198839205387,"connected_time":722000000000,"state":"active","ping":65},{"user_id":55,"name":"Rec","steam_id":76561198022813906,"connected_time":72000000000,"state":"active","ping":41},{"user_id":50,"name":"EXP9182","steam_id":76561198182434729,"connected_time":470000000000,"state":"active","ping":68},{"user_id":46,"name":"You're*","steam_id":76561198357316376,"connected_time":556000000000,"state":"connecting","ping":369},{"user_id":47,"name":"Ryan","steam_id":76561198045137432,"connected_time":544000000000,"state":"active","ping":45},{"user_id":48,"name":"Phil Collins","steam_id":76561198068868644,"connected_time":532000000000,"state":"active","ping":98},{"user_id":52,"name":"I hit my head (ow)","steam_id":76561198053346120,"connected_time":148000000000,"state":"active","ping":51}]},{"server_id":106,"name":"Uncletopia | Chicago | 2 | All Maps","name_short":"chi-2","host":"chi-1.us.uncletopia.com","port":27025,"enabled":true,"region":"us-central","cc":"us","latitude":41.881832,"longitude":-87.62318,"reserved":0,"last_update":"0001-01-01T00:00:00Z","name_a2s":"Uncletopia | Chicago | 2 | All Maps","protocol":17,"map":"koth_viaduct","folder":"tf","game":"Team Fortress","app_id":440,"player_count":0,"max_players":24,"Bots":0,"server_type":"Dedicated","server_os":"Linux","password":true,"vac":true,"version":"7757534","steam_id":85568392924469985,"keywords":["cp","nocrits","nodmgspread","uncletopia"],"game_id":440,"stv_port":27026,"stv_name":"Uncletopia | Chicago | 2 | All Maps | STV","players":null},{"server_id":402,"name":"Uncletopia | Chicago | 3 | All Maps","name_short":"chi-3","host":"chi-1.us.uncletopia.com","port":27035,"enabled":true,"region":"us-central","cc":"us","latitude":41.881832,"longitude":-87.62318,"reserved":0,"last_update":"0001-01-01T00:00:00Z","name_a2s":"Uncletopia | Chicago | 3 | All Maps","protocol":17,"map":"koth_lakeside_final","folder":"tf","game":"Team Fortress","app_id":440,"player_count":0,"max_players":24,"Bots":0,"server_type":"Dedicated","server_os":"Linux","password":true,"vac":true,"version":"7757534","steam_id":85568392924515191,"keywords":["cp","nocrits","nodmgspread","uncletopia"],"game_id":440,"stv_port":27036,"stv_name":"Uncletopia | Chicago | 3 | All Maps | STV","players":null},{"server_id":403,"name":"Uncletopia | Chicago | 4 | All Maps","name_short":"chi-4","host":"chi-1.us.uncletopia.com","port":27045,"enabled":true,"region":"us-central","cc":"us","latitude":41.881832,"longitude":-87.62318,"reserved":0,"last_update":"0001-01-01T00:00:00Z","name_a2s":"Uncletopia | Chicago | 4 | All Maps","protocol":17,"map":"pl_pier","folder":"tf","game":"Team Fortress","app_id":440,"player_count":23,"max_players":24,"Bots":0,"server_type":"Dedicated","server_os":"Linux","password":true,"vac":true,"version":"7757534","steam_id":85568392924515193,"keywords":["nocrits","nodmgspread","payload","uncletopia"],"game_id":440,"stv_port":27046,"stv_name":"Uncletopia | Chicago | 4 | All Maps | STV","players":[{"user_id":94,"name":"Fuegan Ra","steam_id":76561198287923849,"connected_time":3671000000000,"state":"active","ping":52},{"user_id":110,"name":"JustCoffee","steam_id":76561199389473180,"connected_time":2937000000000,"state":"active","ping":69},{"user_id":129,"name":"gaylittlemouse","steam_id":76561198819562111,"connected_time":1562000000000,"state":"active","ping":64},{"user_id":133,"name":"Legit_Jaxer","steam_id":76561198172234053,"connected_time":1281000000000,"state":"active","ping":123},{"user_id":140,"name":"Cypher","steam_id":76561197996967254,"connected_time":430000000000,"state":"active","ping":135},{"user_id":134,"name":"Reyoku","steam_id":76561199119948282,"connected_time":1101000000000,"state":"active","ping":62},{"user_id":144,"name":"BeerDrinker49000000000","steam_id":76561198846515168,"connected_time":128000000000,"state":"active","ping":104},{"user_id":126,"name":"rage","steam_id":76561198208213491,"connected_time":1748000000000,"state":"active","ping":54},{"user_id":114,"name":"R4wb33fG4m1ng73","steam_id":76561198121372198,"connected_time":2711000000000,"state":"active","ping":72},{"user_id":145,"name":"Nespreco","steam_id":76561198252035336,"connected_time":94000000000,"state":"active","ping":76},{"user_id":118,"name":"Sexyrevolver","steam_id":76561199058132505,"connected_time":2432000000000,"state":"active","ping":61},{"user_id":141,"name":"Bozanimal","steam_id":76561198044096897,"connected_time":164000000000,"state":"active","ping":66},{"user_id":128,"name":"Dennis Tight Pants (Hypertight)","steam_id":76561198023306720,"connected_time":1730000000000,"state":"active","ping":90},{"user_id":112,"name":"[ ¬£≈∏,ƒê ] Not AirmanBlueJay","steam_id":76561198030901346,"connected_time":2746000000000,"state":"active","ping":84},{"user_id":88,"name":"paul blart","steam_id":76561198068558572,"connected_time":4141000000000,"state":"active","ping":78},{"user_id":60,"name":"None of that $9.99 bullshit","steam_id":76561198116169903,"connected_time":5600000000000,"state":"active","ping":45},{"user_id":132,"name":"rlty","steam_id":76561198009395055,"connected_time":1497000000000,"state":"active","ping":60},{"user_id":68,"name":"SexySpectacles","steam_id":76561198211449103,"connected_time":5398000000000,"state":"active","ping":62},{"user_id":105,"name":"[UHS] K24A4 2.4","steam_id":76561199072970627,"connected_time":3571000000000,"state":"active","ping":45},{"user_id":121,"name":"Menace to Sobriety","steam_id":76561198245103000,"connected_time":2386000000000,"state":"active","ping":69},{"user_id":96,"name":"goblino","steam_id":76561198068260422,"connected_time":3640000000000,"state":"active","ping":51},{"user_id":142,"name":"soundwave | sfm comms open!","steam_id":76561198454725718,"connected_time":163000000000,"state":"active","ping":45},{"user_id":137,"name":"Iggy Dogg","steam_id":76561198059602545,"connected_time":610000000000,"state":"active","ping":54}]},{"server_id":36,"name":"Uncletopia | Chicago | 5 | All Maps","name_short":"chi-5","host":"chi-2.us.uncletopia.com","port":27015,"enabled":true,"region":"us-central","cc":"us","latitude":41.881832,"longitude":-87.62318,"reserved":0,"last_update":"0001-01-01T00:00:00Z","name_a2s":"Uncletopia | Chicago | 5 | All Maps","protocol":17,"map":"koth_cascade","folder":"tf","game":"Team Fortress","app_id":440,"player_count":0,"max_players":24,"Bots":0,"server_type":"Dedicated","server_os":"Linux","password":true,"vac":true,"version":"7757534","steam_id":85568392924866362,"keywords":["cp","nocrits","nodmgspread","uncletopia"],"game_id":440,"stv_port":27016,"stv_name":"Uncletopia | Chicago | 5 | All Maps | STV","players":null},{"server_id":37,"name":"Uncletopia | Chicago | 6 | All Maps","name_short":"chi-6","host":"chi-2.us.uncletopia.com","port":27025,"enabled":true,"region":"us-central","cc":"us","latitude":41.881832,"longitude":-87.62318,"reserved":0,"last_update":"0001-01-01T00:00:00Z","name_a2s":"Uncletopia | Chicago | 6 | All Maps","protocol":17,"map":"koth_cascade","folder":"tf","game":"Team Fortress","app_id":440,"player_count":0,"max_players":24,"Bots":0,"server_type":"Dedicated","server_os":"Linux","password":true,"vac":true,"version":"7757534","steam_id":85568392924866363,"keywords":["cp","nocrits","nodmgspread","uncletopia"],"game_id":440,"stv_port":27026,"stv_name":"Uncletopia | Chicago | 6 | All Maps | STV","players":null},{"server_id":38,"name":"Uncletopia | Chicago | 7 | Stopwatch Beta","name_short":"chi-7","host":"chi-2.us.uncletopia.com","port":27035,"enabled":true,"region":"us-central","cc":"us","latitude":41.881832,"longitude":-87.62318,"reserved":0,"last_update":"0001-01-01T00:00:00Z","name_a2s":"Uncletopia | Chicago | 7 | Stopwatch Beta","protocol":17,"map":"pl_upward","folder":"tf","game":"Team Fortress","app_id":440,"player_count":0,"max_players":24,"Bots":0,"server_type":"Dedicated","server_os":"Linux","password":true,"vac":true,"version":"7757534","steam_id":85568392924866364,"keywords":["nocrits","nodmgspread","payload","uncletopia"],"game_id":440,"stv_port":27036,"stv_name":"Uncletopia | Chicago | 7 | Stopwatch Beta | STV","players":null},{"server_id":39,"name":"Uncletopia | Chicago | 8 | Community","name_short":"chi-8","host":"chi-2.us.uncletopia.com","port":27045,"enabled":true,"region":"us-central","cc":"us","latitude":41.881832,"longitude":-87.62318,"reserved":0,"last_update":"0001-01-01T00:00:00Z","name_a2s":"Uncletopia | Chicago | 8 | Community","protocol":17,"map":"pl_barnblitz","folder":"tf","game":"Team Fortress","app_id":440,"player_count":0,"max_players":24,"Bots":0,"server_type":"Dedicated","server_os":"Linux","password":true,"vac":true,"version":"7757534","steam_id":85568392924866365,"keywords":["nocrits","nodmgspread","payload","uncletopia"],"game_id":440,"stv_port":27046,"stv_name":"Uncletopia | Chicago | 8 | Community | STV","players":null},{"server_id":8,"name":"Uncletopia | Dallas | 1 | All Maps","name_short":"dal-1","host":"dal-1.us.uncletopia.com","port":27015,"enabled":true,"region":"us-central","cc":"us","latitude":32.779167,"longitude":-96.80889,"reserved":0,"last_update":"0001-01-01T00:00:00Z","name_a2s":"Uncletopia | Dallas | 1 | All Maps","protocol":17,"map":"koth_cascade","folder":"tf","game":"Team Fortress","app_id":440,"player_count":0,"max_players":24,"Bots":0,"server_type":"Dedicated","server_os":"Linux","password":true,"vac":true,"version":"7757534","steam_id":85568392924469986,"keywords":["cp","nocrits","nodmgspread","uncletopia"],"game_id":440,"stv_port":27016,"stv_name":"Uncletopia | Dallas | 1 | All Maps | STV","players":null},{"server_id":108,"name":"Uncletopia | Dallas | 2 | All Maps","name_short":"dal-2","host":"dal-1.us.uncletopia.com","port":27025,"enabled":true,"region":"us-central","cc":"us","latitude":32.779167,"longitude":-96.80889,"reserved":0,"last_update":"0001-01-01T00:00:00Z","name_a2s":"Uncletopia | Dallas | 2 | All Maps","protocol":17,"map":"koth_highpass","folder":"tf","game":"Team Fortress","app_id":440,"player_count":0,"max_players":24,"Bots":0,"server_type":"Dedicated","server_os":"Linux","password":true,"vac":true,"version":"7757534","steam_id":85568392924469988,"keywords":["cp","nocrits","nodmgspread","uncletopia"],"game_id":440,"stv_port":27026,"stv_name":"Uncletopia | Dallas | 2 | All Maps | STV","players":null},{"server_id":5,"name":"Uncletopia | Frankfurt | 1 | All Maps","name_short":"frk-1","host":"frk-1.de.uncletopia.com","port":27015,"enabled":true,"region":"eu","cc":"de","latitude":50.110924,"longitude":8.682127,"reserved":0,"last_update":"0001-01-01T00:00:00Z","name_a2s":"Uncletopia | Frankfurt | 1 | All Maps","protocol":17,"map":"cp_snakewater_final1","folder":"tf","game":"Team Fortress","app_id":440,"player_count":24,"max_players":24,"Bots":0,"server_type":"Dedicated","server_os":"Linux","password":true,"vac":true,"version":"7757534","steam_id":85568392924469989,"keywords":["cp","nocrits","nodmgspread","uncletopia"],"game_id":440,"stv_port":27016,"stv_name":"Uncletopia | Frankfurt | 1 | All Maps | STV","players":[{"user_id":470,"name":"„Äå‚óÜRaku‚Ä¢ „Äç","steam_id":76561198059283183,"connected_time":2920000000000,"state":"active","ping":74},{"user_id":474,"name":"Yatsuzume","steam_id":76561198059762108,"connected_time":2406000000000,"state":"active","ping":54},{"user_id":477,"name":"saml","steam_id":76561198040716257,"connected_time":1511000000000,"state":"active","ping":71},{"user_id":463,"name":"Velma","steam_id":76561198047359132,"connected_time":3137000000000,"state":"active","ping":70},{"user_id":358,"name":"citronous","steam_id":76561198093290934,"connected_time":9639000000000,"state":"active","ping":56},{"user_id":481,"name":"Jeg","steam_id":76561198405291408,"connected_time":909000000000,"state":"active","ping":63},{"user_id":489,"name":"bloody margielas","steam_id":76561199433913089,"connected_time":0,"state":"spawning","ping":0},{"user_id":485,"name":"CarBombEnthusiast","steam_id":76561199448185434,"connected_time":746000000000,"state":"active","ping":65},{"user_id":467,"name":"Carry Krypl","steam_id":76561198136938121,"connected_time":2938000000000,"state":"active","ping":57},{"user_id":464,"name":"Eck","steam_id":76561198170101474,"connected_time":3136000000000,"state":"active","ping":71},{"user_id":471,"name":"holykyckling","steam_id":76561198040661615,"connected_time":2919000000000,"state":"active","ping":72},{"user_id":459,"name":"Average Trader","steam_id":76561199179702903,"connected_time":3339000000000,"state":"active","ping":126},{"user_id":447,"name":"Ham Man","steam_id":76561198888755969,"connected_time":4258000000000,"state":"active","ping":78},{"user_id":469,"name":"Ducc","steam_id":76561198030677425,"connected_time":2922000000000,"state":"active","ping":53},{"user_id":486,"name":"Chicote","steam_id":76561198054689637,"connected_time":711000000000,"state":"active","ping":71},{"user_id":472,"name":"Vitun Jonne","steam_id":76561198401737380,"connected_time":2917000000000,"state":"active","ping":60},{"user_id":487,"name":"playing while wearing crocs.","steam_id":76561198139404261,"connected_time":413000000000,"state":"active","ping":58},{"user_id":482,"name":"Scutchy","steam_id":76561198104431220,"connected_time":777000000000,"state":"active","ping":70},{"user_id":483,"name":"TheEventGuy","steam_id":76561197972797744,"connected_time":774000000000,"state":"active","ping":58},{"user_id":364,"name":"tm","steam_id":76561198256619964,"connected_time":9399000000000,"state":"active","ping":80},{"user_id":484,"name":"Jeeworth","steam_id":76561198797972504,"connected_time":773000000000,"state":"active","ping":72},{"user_id":450,"name":"Pronton","steam_id":76561198082502910,"connected_time":4092000000000,"state":"active","ping":67},{"user_id":457,"name":"WAP assassin","steam_id":76561198133532980,"connected_time":3376000000000,"state":"active","ping":60},{"user_id":479,"name":"Pomson collector guy","steam_id":76561198990438917,"connected_time":1405000000000,"state":"active","ping":66}]},{"server_id":110,"name":"Uncletopia | Frankfurt | 2 | All Maps","name_short":"frk-2","host":"frk-1.de.uncletopia.com","port":27025,"enabled":true,"region":"eu","cc":"de","latitude":50.110924,"longitude":8.682127,"reserved":0,"last_update":"0001-01-01T00:00:00Z","name_a2s":"Uncletopia | Frankfurt | 2 | All Maps","protocol":17,"map":"pl_barnblitz","folder":"tf","game":"Team Fortress","app_id":440,"player_count":24,"max_players":24,"Bots":0,"server_type":"Dedicated","server_os":"Linux","password":true,"vac":true,"version":"7757534","steam_id":85568392924469990,"keywords":["nocrits","nodmgspread","payload","uncletopia"],"game_id":440,"stv_port":27026,"stv_name":"Uncletopia | Frankfurt | 2 | All Maps | STV","players":[{"user_id":91,"name":"Darkey","steam_id":76561198148297434,"connected_time":263000000000,"state":"active","ping":52},{"user_id":89,"name":"Suetolog","steam_id":76561199053090212,"connected_time":398000000000,"state":"active","ping":53},{"user_id":61,"name":"Mussolini","steam_id":76561198218384865,"connected_time":2163000000000,"state":"active","ping":88},{"user_id":26,"name":"beurgeur","steam_id":76561198872426314,"connected_time":3423000000000,"state":"active","ping":45},{"user_id":87,"name":"Â∞è„Åï„Å™„Éö„Éã„Çπ„ÅÆÊïóËÄÖ","steam_id":76561198394221491,"connected_time":585000000000,"state":"active","ping":59},{"user_id":17,"name":"Balls","steam_id":76561198086400484,"connected_time":5868000000000,"state":"active","ping":85},{"user_id":84,"name":"Daniele Antox","steam_id":76561198323879930,"connected_time":812000000000,"state":"active","ping":60},{"user_id":83,"name":"spada dell'islam","steam_id":76561198038748489,"connected_time":855000000000,"state":"active","ping":69},{"user_id":92,"name":"...jla","steam_id":76561198052435481,"connected_time":261000000000,"state":"active","ping":61},{"user_id":34,"name":"Mr.Schnittlauch","steam_id":76561198295868113,"connected_time":2973000000000,"state":"active","ping":66},{"user_id":93,"name":"After8","steam_id":76561198090750865,"connected_time":248000000000,"state":"active","ping":68},{"user_id":78,"name":"Kokas","steam_id":76561197996786353,"connected_time":887000000000,"state":"active","ping":59},{"user_id":85,"name":"Allereinan","steam_id":76561198342239906,"connected_time":794000000000,"state":"active","ping":110},{"user_id":41,"name":"dash.","steam_id":76561198084796149,"connected_time":2895000000000,"state":"active","ping":46},{"user_id":73,"name":"‚ò© Knightz ‚ò©","steam_id":76561198040936414,"connected_time":1370000000000,"state":"active","ping":124},{"user_id":74,"name":"^6demoknight66 trade.tf\"","steam_id":76561198104631920,"connected_time":916000000000,"state":"active","ping":79},{"user_id":60,"name":"SantiThePug #ReviveTheCaber","steam_id":76561199049615996,"connected_time":2193000000000,"state":"active","ping":72},{"user_id":49,"name":"rathotel","steam_id":76561198208126512,"connected_time":2751000000000,"state":"active","ping":151},{"user_id":94,"name":"many thanks","steam_id":76561198089003514,"connected_time":241000000000,"state":"active","ping":45},{"user_id":48,"name":"Mehrtelb","steam_id":76561198054162669,"connected_time":2759000000000,"state":"active","ping":53},{"user_id":96,"name":"B√®.√©S","steam_id":76561198045752247,"connected_time":15000000000,"state":"active","ping":59},{"user_id":77,"name":"Gjs√∂ekakeurhdkfisgjchjateyvxsr","steam_id":76561198220571256,"connected_time":899000000000,"state":"active","ping":61},{"user_id":95,"name":"Wardruna96","steam_id":76561199057083828,"connected_time":235000000000,"state":"active","ping":71},{"user_id":82,"name":"Adrenaline","steam_id":76561197970852048,"connected_time":874000000000,"state":"active","ping":61}]},{"server_id":308,"name":"Uncletopia | Frankfurt | 3 | All Maps","name_short":"frk-3","host":"frk-1.de.uncletopia.com","port":27035,"enabled":true,"region":"eu","cc":"de","latitude":50.110924,"longitude":8.682127,"reserved":0,"last_update":"0001-01-01T00:00:00Z","name_a2s":"Uncletopia | Frankfurt | 3 | All Maps","protocol":17,"map":"pl_thundermountain","folder":"tf","game":"Team Fortress","app_id":440,"player_count":24,"max_players":24,"Bots":0,"server_type":"Dedicated","server_os":"Linux","password":true,"vac":true,"version":"7757534","steam_id":85568392924504274,"keywords":["nocrits","nodmgspread","payload","uncletopia"],"game_id":440,"stv_port":27036,"stv_name":"Uncletopia | Frankfurt | 3 | All Maps | STV","players":[{"user_id":273,"name":"SoldierSo1o","steam_id":76561199109522950,"connected_time":98000000000,"state":"active","ping":71},{"user_id":231,"name":"Menty","steam_id":76561198036748212,"connected_time":3187000000000,"state":"active","ping":44},{"user_id":244,"name":"Filleman","steam_id":76561198159386946,"connected_time":2404000000000,"state":"active","ping":62},{"user_id":182,"name":"Arcader","steam_id":76561198109860110,"connected_time":6168000000000,"state":"active","ping":63},{"user_id":268,"name":"Harpenden, Harpenden, Harpenden","steam_id":76561198118138546,"connected_time":368000000000,"state":"active","ping":60},{"user_id":260,"name":"toust","steam_id":76561199103417422,"connected_time":931000000000,"state":"active","ping":56},{"user_id":266,"name":"whathefox","steam_id":76561197983055690,"connected_time":451000000000,"state":"active","ping":85},{"user_id":275,"name":"scantron","steam_id":76561199103959197,"connected_time":38000000000,"state":"spawning","ping":75},{"user_id":183,"name":"zek","steam_id":76561198862763731,"connected_time":6147000000000,"state":"active","ping":60},{"user_id":261,"name":"Spageti","steam_id":76561198074122906,"connected_time":662000000000,"state":"active","ping":84},{"user_id":239,"name":"RQsC FeQuR","steam_id":76561198090884017,"connected_time":2933000000000,"state":"active","ping":60},{"user_id":246,"name":"duck_fetish","steam_id":76561199015909776,"connected_time":2121000000000,"state":"active","ping":84},{"user_id":139,"name":"Charles Darwin","steam_id":76561197973496139,"connected_time":9122000000000,"state":"active","ping":60},{"user_id":210,"name":"Hexagon","steam_id":76561198151205758,"connected_time":4378000000000,"state":"active","ping":46},{"user_id":274,"name":"the white wizard","steam_id":76561198853566184,"connected_time":78000000000,"state":"active","ping":68},{"user_id":197,"name":"Mr. Mundy","steam_id":76561198132008918,"connected_time":5289000000000,"state":"active","ping":74},{"user_id":171,"name":"akakez","steam_id":76561198095432821,"connected_time":6898000000000,"state":"active","ping":122},{"user_id":240,"name":"Burpman","steam_id":76561198022897937,"connected_time":2741000000000,"state":"active","ping":61},{"user_id":263,"name":"dafydd","steam_id":76561198052200325,"connected_time":560000000000,"state":"active","ping":80},{"user_id":269,"name":"Soerlssoelss√∂en","steam_id":76561197993060585,"connected_time":342000000000,"state":"active","ping":73},{"user_id":265,"name":"Zippo","steam_id":76561198056773656,"connected_time":519000000000,"state":"active","ping":60},{"user_id":271,"name":"ivan123_","steam_id":76561199015107084,"connected_time":298000000000,"state":"active","ping":94},{"user_id":237,"name":"jabar7","steam_id":76561198055137986,"connected_time":3030000000000,"state":"active","ping":60},{"user_id":216,"name":"Not Friends","steam_id":76561198043775605,"connected_time":4231000000000,"state":"active","ping":77}]},{"server_id":309,"name":"Uncletopia | Frankfurt | 4 | All Maps","name_short":"frk-4","host":"frk-1.de.uncletopia.com","port":27045,"enabled":true,"region":"eu","cc":"de","latitude":50.110924,"longitude":8.682127,"reserved":0,"last_update":"0001-01-01T00:00:00Z","name_a2s":"Uncletopia | Frankfurt | 4 | All Maps","protocol":17,"map":"pl_upward","folder":"tf","game":"Team Fortress","app_id":440,"player_count":24,"max_players":24,"Bots":0,"server_type":"Dedicated","server_os":"Linux","password":true,"vac":true,"version":"7757534","steam_id":85568392924504275,"keywords":["nocrits","nodmgspread","payload","uncletopia"],"game_id":440,"stv_port":27046,"stv_name":"Uncletopia | Frankfurt | 4 | All Maps | STV","players":[{"user_id":128,"name":"Egor Pomidor","steam_id":76561199175688390,"connected_time":1843000000000,"state":"active","ping":78},{"user_id":134,"name":"Magiccomplex","steam_id":76561199203555188,"connected_time":1387000000000,"state":"active","ping":44},{"user_id":142,"name":"khamba","steam_id":76561198054783240,"connected_time":927000000000,"state":"active","ping":113},{"user_id":141,"name":"VZS","steam_id":76561198133050665,"connected_time":1033000000000,"state":"active","ping":60},{"user_id":76,"name":"xenia","steam_id":76561198062107879,"connected_time":4601000000000,"state":"active","ping":77},{"user_id":148,"name":"meatsoupcube","steam_id":76561198276802249,"connected_time":457000000000,"state":"active","ping":60},{"user_id":78,"name":"remove trains","steam_id":76561199433578516,"connected_time":4597000000000,"state":"active","ping":81},{"user_id":152,"name":"Denis Doro","steam_id":76561199124908977,"connected_time":131000000000,"state":"active","ping":89},{"user_id":155,"name":"Bat in a thousand","steam_id":76561198320506848,"connected_time":81000000000,"state":"active","ping":56},{"user_id":147,"name":"Enforcer02","steam_id":76561197966045944,"connected_time":521000000000,"state":"active","ping":49},{"user_id":119,"name":"ike","steam_id":76561198039573338,"connected_time":2295000000000,"state":"active","ping":87},{"user_id":123,"name":"[GHT]walkofsoul","steam_id":76561198053646282,"connected_time":2224000000000,"state":"active","ping":74},{"user_id":89,"name":"skiety","steam_id":76561198126524735,"connected_time":4359000000000,"state":"active","ping":75},{"user_id":79,"name":"XeniasPimp","steam_id":76561198126398022,"connected_time":4591000000000,"state":"active","ping":74},{"user_id":135,"name":"bob0rutin","steam_id":76561198010760312,"connected_time":1341000000000,"state":"active","ping":75},{"user_id":139,"name":"multiflex","steam_id":76561198049639319,"connected_time":1217000000000,"state":"active","ping":68},{"user_id":88,"name":"‰∫∫ √ò–ê–ê–ê√ò‰∫∫","steam_id":76561198944032480,"connected_time":4433000000000,"state":"active","ping":89},{"user_id":103,"name":"Silva_mlon","steam_id":76561199310242047,"connected_time":3637000000000,"state":"active","ping":75},{"user_id":153,"name":"Drdarlekzzz","steam_id":76561198160141785,"connected_time":130000000000,"state":"active","ping":58},{"user_id":154,"name":"RadialMount","steam_id":76561198063002562,"connected_time":112000000000,"state":"active","ping":59},{"user_id":149,"name":"LxZurk","steam_id":76561198114054978,"connected_time":364000000000,"state":"active","ping":56},{"user_id":146,"name":"Rodia","steam_id":76561197968293161,"connected_time":643000000000,"state":"active","ping":73},{"user_id":150,"name":"Majami","steam_id":76561198054365738,"connected_time":349000000000,"state":"active","ping":85},{"user_id":104,"name":"You're doin good lad","steam_id":76561198350707031,"connected_time":3493000000000,"state":"active","ping":85}]},{"server_id":310,"name":"Uncletopia | Frankfurt | 5 | All Maps","name_short":"frk-5","host":"frk-1.de.uncletopia.com","port":27055,"enabled":true,"region":"eu","cc":"de","latitude":50.110924,"longitude":8.682127,"reserved":0,"last_update":"0001-01-01T00:00:00Z","name_a2s":"Uncletopia | Frankfurt | 5 | All Maps","protocol":17,"map":"pl_swiftwater_final1","folder":"tf","game":"Team Fortress","app_id":440,"player_count":22,"max_players":24,"Bots":0,"server_type":"Dedicated","server_os":"Linux","password":true,"vac":true,"version":"7757534","steam_id":85568392924504277,"keywords":["nocrits","nodmgspread","payload","uncletopia"],"game_id":440,"stv_port":27056,"stv_name":"Uncletopia | Frankfurt | 5 | All Maps | STV","players":[{"user_id":100,"name":"TSx* Dante","steam_id":76561198139309331,"connected_time":713000000000,"state":"connecting","ping":78},{"user_id":14,"name":"TSx* Osa__PL","steam_id":76561198027016799,"connected_time":5216000000000,"state":"connecting","ping":91},{"user_id":108,"name":"TonTon","steam_id":76561198145468895,"connected_time":274000000000,"state":"connecting","ping":60},{"user_id":63,"name":"Jedi Knight","steam_id":76561198039030709,"connected_time":2600000000000,"state":"connecting","ping":130},{"user_id":87,"name":"sork","steam_id":76561198082446459,"connected_time":1084000000000,"state":"connecting","ping":75},{"user_id":35,"name":"i always miss","steam_id":76561199379233899,"connected_time":4013000000000,"state":"connecting","ping":98},{"user_id":102,"name":"Saneper","steam_id":76561198046043298,"connected_time":654000000000,"state":"connecting","ping":73},{"user_id":20,"name":"Why?","steam_id":76561198970833545,"connected_time":4651000000000,"state":"connecting","ping":89},{"user_id":47,"name":"antlionguard","steam_id":76561198072747143,"connected_time":3550000000000,"state":"connecting","ping":118},{"user_id":103,"name":"HwK!","steam_id":76561198287835588,"connected_time":545000000000,"state":"spawning","ping":98},{"user_id":99,"name":"bigwish | bmod.tf","steam_id":76561197997859723,"connected_time":729000000000,"state":"connecting","ping":85},{"user_id":68,"name":"TSx* {Demon-Angel}","steam_id":76561198151486463,"connected_time":2348000000000,"state":"spawning","ping":81},{"user_id":57,"name":"hellrunner","steam_id":76561198205309695,"connected_time":2978000000000,"state":"connecting","ping":100},{"user_id":101,"name":"Ruston_ggboi","steam_id":76561199399825597,"connected_time":685000000000,"state":"connecting","ping":104},{"user_id":69,"name":"–ì–ê–†–ò–ì–û–†–ï–ô","steam_id":76561198018992995,"connected_time":2317000000000,"state":"connecting","ping":127},{"user_id":66,"name":"United States of Bacon","steam_id":76561199092175631,"connected_time":2385000000000,"state":"connecting","ping":189},{"user_id":109,"name":"obliteratedthenaho","steam_id":76561198127441800,"connected_time":28000000000,"state":"connecting","ping":419},{"user_id":98,"name":"alphareroooo","steam_id":76561198380799823,"connected_time":780000000000,"state":"connecting","ping":85},{"user_id":96,"name":"Kitten","steam_id":76561198019027657,"connected_time":852000000000,"state":"connecting","ping":77},{"user_id":85,"name":"TSx* Naxer","steam_id":76561198011986779,"connected_time":1518000000000,"state":"connecting","ping":79},{"user_id":83,"name":".quickfast.","steam_id":76561199438900919,"connected_time":1857000000000,"state":"connecting","ping":77}]},{"server_id":311,"name":"Uncletopia | Frankfurt | 6 | All Maps","name_short":"frk-6","host":"frk-1.de.uncletopia.com","port":27065,"enabled":true,"region":"eu","cc":"de","latitude":50.110924,"longitude":8.682127,"reserved":0,"last_update":"0001-01-01T00:00:00Z","name_a2s":"Uncletopia | Frankfurt | 6 | All Maps","protocol":17,"map":"pl_pier","folder":"tf","game":"Team Fortress","app_id":440,"player_count":24,"max_players":24,"Bots":0,"server_type":"Dedicated","server_os":"Linux","password":true,"vac":true,"version":"7757534","steam_id":85568392924504278,"keywords":["nocrits","nodmgspread","payload","uncletopia"],"game_id":440,"stv_port":27066,"stv_name":"Uncletopia | Frankfurt | 6 | All Maps | STV","players":[{"user_id":312,"name":"Tarkus","steam_id":76561198115938777,"connected_time":1413000000000,"state":"active","ping":111},{"user_id":328,"name":"FlameTheGame","steam_id":76561198841108519,"connected_time":50000000000,"state":"active","ping":90},{"user_id":324,"name":"The Bonk Man‚Ñ¢","steam_id":76561199044260792,"connected_time":567000000000,"state":"active","ping":61},{"user_id":248,"name":"üòà COCKDESTROYER üòà","steam_id":76561198042846999,"connected_time":4011000000000,"state":"active","ping":71},{"user_id":276,"name":"Paintbrush","steam_id":76561198119987705,"connected_time":3023000000000,"state":"active","ping":47},{"user_id":321,"name":"i n n o","steam_id":76561199230689289,"connected_time":577000000000,"state":"active","ping":81},{"user_id":298,"name":"Welder","steam_id":76561198355300561,"connected_time":2059000000000,"state":"active","ping":72},{"user_id":301,"name":"Pasta sauce","steam_id":76561198232919072,"connected_time":1873000000000,"state":"active","ping":84},{"user_id":295,"name":"vik vaughn","steam_id":76561198059782462,"connected_time":2149000000000,"state":"active","ping":46},{"user_id":269,"name":"Swedde","steam_id":76561198297296440,"connected_time":3220000000000,"state":"active","ping":82},{"user_id":305,"name":"Paul B√§umer","steam_id":76561198308302932,"connected_time":1579000000000,"state":"active","ping":93},{"user_id":307,"name":"WolfmanCZ","steam_id":76561199157141414,"connected_time":1560000000000,"state":"active","ping":63},{"user_id":306,"name":"Pabs :D","steam_id":76561198000016962,"connected_time":1571000000000,"state":"active","ping":59},{"user_id":308,"name":"nky","steam_id":76561198086229832,"connected_time":1499000000000,"state":"active","ping":72},{"user_id":303,"name":"Pico","steam_id":76561198063552545,"connected_time":1776000000000,"state":"active","ping":100},{"user_id":327,"name":"Creature from the piss drawer","steam_id":76561198055949151,"connected_time":129000000000,"state":"active","ping":68},{"user_id":313,"name":"Paddy","steam_id":76561198081025602,"connected_time":1348000000000,"state":"active","ping":61},{"user_id":319,"name":"My meme now","steam_id":76561199244327387,"connected_time":915000000000,"state":"active","ping":63},{"user_id":326,"name":"Popular monster","steam_id":76561198971926331,"connected_time":464000000000,"state":"active","ping":130},{"user_id":274,"name":"TJ1212","steam_id":76561199013575313,"connected_time":3123000000000,"state":"active","ping":80},{"user_id":322,"name":"whatever","steam_id":76561198095943461,"connected_time":576000000000,"state":"active","ping":65},{"user_id":290,"name":"DING DONG","steam_id":76561198111847899,"connected_time":2409000000000,"state":"active","ping":73},{"user_id":315,"name":"meriones","steam_id":76561198034234373,"connected_time":1302000000000,"state":"active","ping":59},{"user_id":323,"name":"COLD EXPOSURE ENTHUSIAST","steam_id":76561198119392756,"connected_time":572000000000,"state":"active","ping":90}]},{"server_id":23,"name":"Uncletopia | Frankfurt | 7 | Stopwatch Beta","name_short":"frk-7","host":"frk-1.de.uncletopia.com","port":27075,"enabled":true,"region":"eu","cc":"de","latitude":50.110924,"longitude":8.682127,"reserved":0,"last_update":"0001-01-01T00:00:00Z","name_a2s":"Uncletopia | Frankfurt | 7 | Stopwatch Beta","protocol":17,"map":"workshop/koth_product_final.ugc454272353","folder":"tf","game":"Team Fortress","app_id":440,"player_count":0,"max_players":24,"Bots":0,"server_type":"Dedicated","server_os":"Linux","password":true,"vac":true,"version":"7757534","steam_id":85568392924742827,"keywords":["cp","nocrits","nodmgspread","uncletopia"],"game_id":440,"stv_port":27076,"stv_name":"Uncletopia | Frankfurt | 7 | Stopwatch Beta | STV","players":null},{"server_id":24,"name":"Uncletopia | Frankfurt | 8 | Community","name_short":"frk-8","host":"frk-1.de.uncletopia.com","port":27085,"enabled":true,"region":"eu","cc":"de","latitude":50.110924,"longitude":8.682127,"reserved":0,"last_update":"0001-01-01T00:00:00Z","name_a2s":"Uncletopia | Frankfurt | 8 | Community","protocol":17,"map":"workshop/cp_glassworks_rc6a.ugc454118349","folder":"tf","game":"Team Fortress","app_id":440,"player_count":0,"max_players":24,"Bots":0,"server_type":"Dedicated","server_os":"Linux","password":true,"vac":true,"version":"7757534","steam_id":85568392924742828,"keywords":["cp","nocrits","nodmgspread","uncletopia"],"game_id":440,"stv_port":27086,"stv_name":"Uncletopia | Frankfurt | 8 | Community | STV","players":null},{"server_id":202,"name":"Uncletopia | Hong Kong | 1 | All Maps","name_short":"hgk-1","host":"hgk-1.hk.uncletopia.com","port":27015,"enabled":true,"region":"asia","cc":"hk","latitude":22.302711,"longitude":114.177216,"reserved":0,"last_update":"0001-01-01T00:00:00Z","name_a2s":"Uncletopia | Hong Kong | 1 | All Maps","protocol":17,"map":"koth_viaduct","folder":"tf","game":"Team Fortress","app_id":440,"player_count":0,"max_players":24,"Bots":0,"server_type":"Dedicated","server_os":"Linux","password":true,"vac":true,"version":"7757534","steam_id":85568392924494504,"keywords":["cp","nocrits","nodmgspread","uncletopia"],"game_id":440,"stv_port":27016,"stv_name":"Uncletopia | Hong Kong | 1 | All Maps | STV","players":null},{"server_id":1,"name":"Uncletopia | Los Angeles | 1 | All Maps","name_short":"lax-1","host":"lax-1.us.uncletopia.com","port":27015,"enabled":true,"region":"us-west","cc":"us","latitude":33.94279,"longitude":-118.41004,"reserved":0,"last_update":"0001-01-01T00:00:00Z","name_a2s":"Uncletopia | Los Angeles | 1 | All Maps","protocol":17,"map":"koth_lakeside_final","folder":"tf","game":"Team Fortress","app_id":440,"player_count":0,"max_players":24,"Bots":0,"server_type":"Dedicated","server_os":"Linux","password":true,"vac":true,"version":"7757534","steam_id":85568392924469991,"keywords":["cp","nocrits","nodmgspread","uncletopia"],"game_id":440,"stv_port":27016,"stv_name":"Uncletopia | Los Angeles | 1 | All Maps | STV","players":null},{"server_id":112,"name":"Uncletopia | Los Angeles | 2 | All Maps","name_short":"lax-2","host":"lax-1.us.uncletopia.com","port":27025,"enabled":true,"region":"us-west","cc":"us","latitude":33.94279,"longitude":-118.41004,"reserved":0,"last_update":"0001-01-01T00:00:00Z","name_a2s":"Uncletopia | Los Angeles | 2 | All Maps","protocol":17,"map":"koth_cascade","folder":"tf","game":"Team Fortress","app_id":440,"player_count":0,"max_players":24,"Bots":0,"server_type":"Dedicated","server_os":"Linux","password":true,"vac":true,"version":"7757534","steam_id":85568392924469992,"keywords":["cp","nocrits","nodmgspread","uncletopia"],"game_id":440,"stv_port":27026,"stv_name":"Uncletopia | Los Angeles | 2 | All Maps | STV","players":null},{"server_id":324,"name":"Uncletopia | Los Angeles | 3 | All Maps","name_short":"lax-3","host":"lax-1.us.uncletopia.com","port":27035,"enabled":true,"region":"us-west","cc":"us","latitude":33.94279,"longitude":-118.41004,"reserved":0,"last_update":"0001-01-01T00:00:00Z","name_a2s":"Uncletopia | Los Angeles | 3 | All Maps","protocol":17,"map":"pl_snowycoast","folder":"tf","game":"Team Fortress","app_id":440,"player_count":0,"max_players":24,"Bots":0,"server_type":"Dedicated","server_os":"Linux","password":true,"vac":true,"version":"7757534","steam_id":85568392924510198,"keywords":["nocrits","nodmgspread","payload","uncletopia"],"game_id":440,"stv_port":27036,"stv_name":"Uncletopia | Los Angeles | 3 | All Maps | STV","players":null},{"server_id":25,"name":"Uncletopia | Los Angeles | 4 | Stopwatch Beta","name_short":"lax-4","host":"lax-1.us.uncletopia.com","port":27045,"enabled":true,"region":"us-west","cc":"us","latitude":33.94279,"longitude":-118.41004,"reserved":0,"last_update":"0001-01-01T00:00:00Z","name_a2s":"Uncletopia | Los Angeles | 4 | Stopwatch Beta","protocol":17,"map":"pl_frontier_final","folder":"tf","game":"Team Fortress","app_id":440,"player_count":0,"max_players":24,"Bots":0,"server_type":"Dedicated","server_os":"Linux","password":true,"vac":true,"version":"7757534","steam_id":85568392924510199,"keywords":["nocrits","nodmgspread","payload","uncletopia"],"game_id":440,"stv_port":27046,"stv_name":"Uncletopia | Los Angeles | 4 | Stopwatch Beta | STV","players":null},{"server_id":11,"name":"Uncletopia | London | 1 | All Maps","name_short":"lon-1","host":"lon-1.uk.uncletopia.com","port":27015,"enabled":true,"region":"eu","cc":"gb","latitude":51.509865,"longitude":-0.118092,"reserved":0,"last_update":"0001-01-01T00:00:00Z","name_a2s":"Uncletopia | London | 1 | All Maps","protocol":17,"map":"cp_mountainlab","folder":"tf","game":"Team Fortress","app_id":440,"player_count":19,"max_players":24,"Bots":0,"server_type":"Dedicated","server_os":"Linux","password":true,"vac":true,"version":"7757534","steam_id":85568392924367362,"keywords":["cp","nocrits","nodmgspread","uncletopia"],"game_id":440,"stv_port":27016,"stv_name":"Uncletopia | London | 1 | All Maps | STV","players":[{"user_id":506,"name":"get crunk or whatever","steam_id":76561198239265962,"connected_time":1170000000000,"state":"active","ping":60},{"user_id":525,"name":"PASTAMANIA!","steam_id":76561197967858558,"connected_time":15000000000,"state":"spawning","ping":63},{"user_id":521,"name":"Samwise","steam_id":76561198160115838,"connected_time":429000000000,"state":"active","ping":36},{"user_id":512,"name":"yasser","steam_id":76561198103973320,"connected_time":1004000000000,"state":"active","ping":96},{"user_id":507,"name":"Travis Bickle","steam_id":76561198116072862,"connected_time":1148000000000,"state":"active","ping":59},{"user_id":465,"name":"British Disapproval","steam_id":76561198001375260,"connected_time":2721000000000,"state":"active","ping":53},{"user_id":511,"name":"Mario la Maxim","steam_id":76561199137799215,"connected_time":1023000000000,"state":"active","ping":70},{"user_id":520,"name":"Silent Person","steam_id":76561198107763537,"connected_time":636000000000,"state":"active","ping":70},{"user_id":485,"name":"Oak","steam_id":76561198067315672,"connected_time":1798000000000,"state":"active","ping":37},{"user_id":504,"name":"GEP Gun","steam_id":76561197981821003,"connected_time":1267000000000,"state":"active","ping":57},{"user_id":426,"name":"Penis Contortionist","steam_id":76561198073663784,"connected_time":5303000000000,"state":"active","ping":36},{"user_id":508,"name":"JohaTG","steam_id":76561198804468284,"connected_time":1133000000000,"state":"active","ping":54},{"user_id":478,"name":"Ane≈•√°k","steam_id":76561198159294906,"connected_time":2153000000000,"state":"active","ping":61},{"user_id":495,"name":"Quack","steam_id":76561198048712219,"connected_time":1520000000000,"state":"active","ping":49},{"user_id":524,"name":"harry","steam_id":76561198365118514,"connected_time":49000000000,"state":"active","ping":108},{"user_id":523,"name":"Major","steam_id":76561198086483282,"connected_time":79000000000,"state":"active","ping":46},{"user_id":518,"name":"PrivatePengu","steam_id":76561198100112667,"connected_time":913000000000,"state":"active","ping":58},{"user_id":407,"name":"Wario","steam_id":76561198356089255,"connected_time":6806000000000,"state":"active","ping":65},{"user_id":519,"name":"blazeeight","steam_id":76561198159456502,"connected_time":900000000000,"state":"active","ping":45}]},{"server_id":114,"name":"Uncletopia | London | 2 | All Maps","name_short":"lon-2","host":"lon-1.uk.uncletopia.com","port":27025,"enabled":true,"region":"eu","cc":"gb","latitude":51.509865,"longitude":-0.118092,"reserved":0,"last_update":"0001-01-01T00:00:00Z","name_a2s":"Uncletopia | London | 2 | All Maps","protocol":17,"map":"pl_borneo","folder":"tf","game":"Team Fortress","app_id":440,"player_count":24,"max_players":24,"Bots":0,"server_type":"Dedicated","server_os":"Linux","password":true,"vac":true,"version":"7757534","steam_id":85568392924470941,"keywords":["nocrits","nodmgspread","payload","uncletopia"],"game_id":440,"stv_port":27026,"stv_name":"Uncletopia | London | 2 | All Maps | STV","players":[{"user_id":167,"name":"SP1R4L","steam_id":76561198051387644,"connected_time":1658000000000,"state":"active","ping":63},{"user_id":166,"name":"Thibob","steam_id":76561198000541852,"connected_time":1694000000000,"state":"active","ping":46},{"user_id":157,"name":"ketoky frychiken","steam_id":76561198190583242,"connected_time":2269000000000,"state":"active","ping":76},{"user_id":168,"name":"PilloF","steam_id":76561198088635943,"connected_time":1429000000000,"state":"active","ping":76},{"user_id":180,"name":"‚ú™ m_br3","steam_id":76561198044981990,"connected_time":1067000000000,"state":"active","ping":85},{"user_id":175,"name":"Dr.Sees [F2P]","steam_id":76561199219233587,"connected_time":1303000000000,"state":"active","ping":75},{"user_id":182,"name":"New","steam_id":76561198402195911,"connected_time":963000000000,"state":"active","ping":118},{"user_id":187,"name":"Mr. Caesar","steam_id":76561198166329161,"connected_time":664000000000,"state":"active","ping":52},{"user_id":186,"name":"duster cat","steam_id":76561198832231975,"connected_time":691000000000,"state":"active","ping":90},{"user_id":195,"name":"wasto-/-‚Ñ¢","steam_id":76561198102888038,"connected_time":275000000000,"state":"active","ping":59},{"user_id":165,"name":"skilltissues","steam_id":76561198025828664,"connected_time":1827000000000,"state":"active","ping":56},{"user_id":147,"name":"Bloofred","steam_id":76561198111778052,"connected_time":2621000000000,"state":"active","ping":56},{"user_id":191,"name":"Their is a chickpea on my floor","steam_id":76561198987558651,"connected_time":414000000000,"state":"active","ping":54},{"user_id":173,"name":"Grumtsior","steam_id":76561198043563111,"connected_time":1395000000000,"state":"active","ping":77},{"user_id":189,"name":"ANEY‚òÜ The Music Man","steam_id":76561198074404564,"connected_time":449000000000,"state":"active","ping":72},{"user_id":109,"name":"Lyra","steam_id":76561198043601838,"connected_time":5464000000000,"state":"active","ping":66},{"user_id":177,"name":"pansy","steam_id":76561199074558259,"connected_time":1250000000000,"state":"active","ping":73},{"user_id":112,"name":"GardenFungus","steam_id":76561198054894337,"connected_time":5317000000000,"state":"active","ping":30},{"user_id":192,"name":"Kn√∂sta","steam_id":76561198143422139,"connected_time":378000000000,"state":"active","ping":107},{"user_id":188,"name":"Nobaddy","steam_id":76561198037871007,"connected_time":579000000000,"state":"active","ping":72},{"user_id":194,"name":"moggers","steam_id":76561198297444796,"connected_time":338000000000,"state":"active","ping":32},{"user_id":161,"name":"goblin","steam_id":76561198151122921,"connected_time":2140000000000,"state":"active","ping":75},{"user_id":179,"name":"Edla","steam_id":76561198062815315,"connected_time":1239000000000,"state":"active","ping":114},{"user_id":185,"name":"Solly [F2P]","steam_id":76561199035963737,"connected_time":913000000000,"state":"active","ping":60}]},{"server_id":320,"name":"Uncletopia | London | 3 | All Maps","name_short":"lon-3","host":"lon-1.uk.uncletopia.com","port":27035,"enabled":true,"region":"eu","cc":"gb","latitude":51.509865,"longitude":-0.118092,"reserved":0,"last_update":"0001-01-01T00:00:00Z","name_a2s":"Uncletopia | London | 3 | All Maps","protocol":17,"map":"koth_harvest_final","folder":"tf","game":"Team Fortress","app_id":440,"player_count":24,"max_players":24,"Bots":0,"server_type":"Dedicated","server_os":"Linux","password":true,"vac":true,"version":"7757534","steam_id":85568392924510192,"keywords":["cp","nocrits","nodmgspread","uncletopia"],"game_id":440,"stv_port":27036,"stv_name":"Uncletopia | London | 3 | All Maps | STV","players":[{"user_id":583,"name":"Svilar","steam_id":76561198828348612,"connected_time":126000000000,"state":"active","ping":80},{"user_id":577,"name":"kbbq","steam_id":76561198346638308,"connected_time":239000000000,"state":"active","ping":60},{"user_id":578,"name":"JohnTraveltime","steam_id":76561199244281754,"connected_time":194000000000,"state":"active","ping":76},{"user_id":579,"name":"Cosmetic brain","steam_id":76561198055936410,"connected_time":192000000000,"state":"active","ping":75},{"user_id":562,"name":"Fat Pigeon","steam_id":76561198817940142,"connected_time":2472000000000,"state":"active","ping":45},{"user_id":580,"name":"Talkkari","steam_id":76561198025327723,"connected_time":167000000000,"state":"active","ping":60},{"user_id":581,"name":"KLAMA  ‚ù§","steam_id":76561198351549661,"connected_time":166000000000,"state":"active","ping":75},{"user_id":546,"name":"most sane mentalist","steam_id":76561198310095220,"connected_time":3060000000000,"state":"active","ping":30},{"user_id":556,"name":"Joseph Stalin","steam_id":76561198033199746,"connected_time":2724000000000,"state":"active","ping":45},{"user_id":560,"name":"Creative","steam_id":76561198835034247,"connected_time":2501000000000,"state":"active","ping":79},{"user_id":587,"name":"a fresh pan of lemon squares","steam_id":76561197984071376,"connected_time":52000000000,"state":"active","ping":69},{"user_id":582,"name":"Insanitybomb","steam_id":76561198048707708,"connected_time":145000000000,"state":"active","ping":57},{"user_id":584,"name":"Remcos","steam_id":76561198143972906,"connected_time":104000000000,"state":"active","ping":73},{"user_id":555,"name":"Pls.do.it!","steam_id":76561198211638119,"connected_time":2815000000000,"state":"active","ping":86},{"user_id":453,"name":"player","steam_id":76561198054474684,"connected_time":11092000000000,"state":"active","ping":87},{"user_id":585,"name":"Mr. Call You Back","steam_id":76561198025172811,"connected_time":103000000000,"state":"active","ping":119},{"user_id":527,"name":"Caerot","steam_id":76561198839000676,"connected_time":4815000000000,"state":"active","ping":71},{"user_id":586,"name":"BRUCE BEE","steam_id":76561198083063005,"connected_time":95000000000,"state":"active","ping":34},{"user_id":588,"name":"j0rgos fatass","steam_id":76561198305820017,"connected_time":43000000000,"state":"active","ping":83},{"user_id":576,"name":"‚ú™ Danny","steam_id":76561198104483241,"connected_time":1192000000000,"state":"active","ping":53},{"user_id":589,"name":"kiki","steam_id":76561198838277022,"connected_time":34000000000,"state":"active","ping":73},{"user_id":575,"name":"Dolcelatte","steam_id":76561198038501770,"connected_time":1294000000000,"state":"active","ping":68},{"user_id":591,"name":"ch4os","steam_id":76561198344195209,"connected_time":7000000000,"state":"active","ping":213},{"user_id":544,"name":"NiKoRo","steam_id":76561197963686614,"connected_time":3299000000000,"state":"active","ping":90}]},{"server_id":321,"name":"Uncletopia | London | 4 | All Maps","name_short":"lon-4","host":"lon-1.uk.uncletopia.com","port":27045,"enabled":true,"region":"eu","cc":"gb","latitude":51.509865,"longitude":-0.118092,"reserved":0,"last_update":"0001-01-01T00:00:00Z","name_a2s":"Uncletopia | London | 4 | All Maps","protocol":17,"map":"koth_viaduct","folder":"tf","game":"Team Fortress","app_id":440,"player_count":0,"max_players":24,"Bots":0,"server_type":"Dedicated","server_os":"Linux","password":true,"vac":true,"version":"7757534","steam_id":85568392924510193,"keywords":["cp","nocrits","nodmgspread","uncletopia"],"game_id":440,"stv_port":27046,"stv_name":"Uncletopia | London | 4 | All Maps | STV","players":null},{"server_id":21,"name":"Uncletopia | London | 5 | All Maps","name_short":"lon-5","host":"lon-1.uk.uncletopia.com","port":27055,"enabled":true,"region":"eu","cc":"gb","latitude":51.509865,"longitude":-0.118092,"reserved":0,"last_update":"0001-01-01T00:00:00Z","name_a2s":"Uncletopia | London | 5 | All Maps","protocol":17,"map":"pl_thundermountain","folder":"tf","game":"Team Fortress","app_id":440,"player_count":24,"max_players":24,"Bots":0,"server_type":"Dedicated","server_os":"Linux","password":true,"vac":true,"version":"7757534","steam_id":85568392924742829,"keywords":["nocrits","nodmgspread","payload","uncletopia"],"game_id":440,"stv_port":27056,"stv_name":"Uncletopia | London | 5 | All Maps | STV","players":[{"user_id":186,"name":"trexwithlasereyes ü•ö","steam_id":76561198417276908,"connected_time":2727000000000,"state":"active","ping":49},{"user_id":208,"name":".4b (fourbee)","steam_id":76561198249832770,"connected_time":799000000000,"state":"active","ping":48},{"user_id":175,"name":"henryl200","steam_id":76561198810332404,"connected_time":3201000000000,"state":"active","ping":37},{"user_id":227,"name":"Camo Leaf","steam_id":76561197999456575,"connected_time":267000000000,"state":"active","ping":58},{"user_id":194,"name":"Parapluie","steam_id":76561197971640301,"connected_time":1774000000000,"state":"active","ping":41},{"user_id":206,"name":"silicon based life form","steam_id":76561199127121346,"connected_time":883000000000,"state":"active","ping":55},{"user_id":201,"name":"WINDOWS 11","steam_id":76561198041918175,"connected_time":1090000000000,"state":"active","ping":59},{"user_id":224,"name":"Enxivty","steam_id":76561199465468399,"connected_time":424000000000,"state":"active","ping":106},{"user_id":184,"name":"Duke Fishlord","steam_id":76561198079928327,"connected_time":2768000000000,"state":"active","ping":77},{"user_id":200,"name":"DemoRobo FR-0","steam_id":76561198220732252,"connected_time":1241000000000,"state":"active","ping":56},{"user_id":202,"name":"tjlock","steam_id":76561198115451303,"connected_time":1084000000000,"state":"active","ping":44},{"user_id":203,"name":"DalekMario","steam_id":76561198880924948,"connected_time":1073000000000,"state":"active","ping":56},{"user_id":207,"name":"randompixel","steam_id":76561198003941207,"connected_time":823000000000,"state":"active","ping":57},{"user_id":209,"name":"Lokinn","steam_id":76561198127117580,"connected_time":793000000000,"state":"active","ping":67},{"user_id":210,"name":"Jimortal","steam_id":76561198342426856,"connected_time":765000000000,"state":"active","ping":56},{"user_id":213,"name":"bob the veggie","steam_id":76561198013956429,"connected_time":643000000000,"state":"active","ping":48},{"user_id":212,"name":"Crumpet Enthusiast","steam_id":76561198262991113,"connected_time":667000000000,"state":"active","ping":51},{"user_id":214,"name":"mt","steam_id":76561197961319303,"connected_time":643000000000,"state":"active","ping":60},{"user_id":215,"name":"CrabboStabbo","steam_id":76561198105660937,"connected_time":635000000000,"state":"active","ping":61},{"user_id":229,"name":"Krokinet","steam_id":76561198985877252,"connected_time":149000000000,"state":"active","ping":90},{"user_id":217,"name":"Derp","steam_id":76561198197901062,"connected_time":591000000000,"state":"active","ping":81},{"user_id":219,"name":"0","steam_id":76561198135140195,"connected_time":579000000000,"state":"active","ping":90},{"user_id":221,"name":"night addict","steam_id":76561198976720761,"connected_time":532000000000,"state":"active","ping":46},{"user_id":228,"name":"Lord Philip","steam_id":76561198277097779,"connected_time":264000000000,"state":"active","ping":71}]},{"server_id":22,"name":"Uncletopia | London | 6 | All Maps","name_short":"lon-6","host":"lon-1.uk.uncletopia.com","port":27065,"enabled":true,"region":"eu","cc":"gb","latitude":51.509865,"longitude":-0.118092,"reserved":0,"last_update":"0001-01-01T00:00:00Z","name_a2s":"Uncletopia | London | 6 | All Maps","protocol":17,"map":"cp_mountainlab","folder":"tf","game":"Team Fortress","app_id":440,"player_count":5,"max_players":24,"Bots":0,"server_type":"Dedicated","server_os":"Linux","password":true,"vac":true,"version":"7757534","steam_id":85568392924742830,"keywords":["cp","nocrits","nodmgspread","uncletopia"],"game_id":440,"stv_port":27066,"stv_name":"Uncletopia | London | 6 | All Maps | STV","players":[{"user_id":53,"name":"John FluidmasterBallwasher doe","steam_id":76561199006462039,"connected_time":210000000000,"state":"active","ping":67},{"user_id":54,"name":"AGamer75","steam_id":76561199045267748,"connected_time":73000000000,"state":"active","ping":316},{"user_id":45,"name":"Waterorange","steam_id":76561199467995794,"connected_time":1462000000000,"state":"active","ping":82},{"user_id":55,"name":"Tea guy","steam_id":76561198797847641,"connected_time":50000000000,"state":"active","ping":60},{"user_id":48,"name":"ashsbhop","steam_id":76561199155075476,"connected_time":654000000000,"state":"active","ping":90}]},{"server_id":40,"name":"Uncletopia | London | 7 | No Payload","name_short":"lon-7","host":"lon-1.uk.uncletopia.com","port":27075,"enabled":true,"region":"eu","cc":"gb","latitude":51.509865,"longitude":-0.118092,"reserved":0,"last_update":"0001-01-01T00:00:00Z","name_a2s":"Uncletopia | London | 7 | No Payload","protocol":17,"map":"koth_badlands","folder":"tf","game":"Team Fortress","app_id":440,"player_count":0,"max_players":24,"Bots":0,"server_type":"Dedicated","server_os":"Linux","password":true,"vac":true,"version":"7757534","steam_id":85568392924964314,"keywords":["cp","nocrits","nodmgspread","uncletopia"],"game_id":440,"stv_port":27076,"stv_name":"Uncletopia | London | 7 | No Payload | STV","players":null},{"server_id":41,"name":"Uncletopia | London | 8 | Community","name_short":"lon-8","host":"lon-1.uk.uncletopia.com","port":27085,"enabled":true,"region":"eu","cc":"gb","latitude":51.509865,"longitude":-0.118092,"reserved":0,"last_update":"0001-01-01T00:00:00Z","name_a2s":"Uncletopia | London | 8 | Community","protocol":17,"map":"workshop/koth_slaughter_rc1.ugc1712845210","folder":"tf","game":"Team Fortress","app_id":440,"player_count":0,"max_players":24,"Bots":0,"server_type":"Dedicated","server_os":"Linux","password":true,"vac":true,"version":"7757534","steam_id":85568392924964315,"keywords":["cp","nocrits","nodmgspread","uncletopia"],"game_id":440,"stv_port":27086,"stv_name":"Uncletopia | London | 8 | Community | STV","players":null},{"server_id":300,"name":"Uncletopia | Montr√©al | 1 | All Maps","name_short":"mtl-1","host":"mtl-1.ca.uncletopia.com","port":27015,"enabled":true,"region":"us-east","cc":"ca","latitude":45.50889,"longitude":-73.56167,"reserved":0,"last_update":"0001-01-01T00:00:00Z","name_a2s":"Uncletopia | Montr√©al | 1 | All Maps","protocol":17,"map":"pl_snowycoast","folder":"tf","game":"Team Fortress","app_id":440,"player_count":0,"max_players":24,"Bots":0,"server_type":"Dedicated","server_os":"Linux","password":true,"vac":true,"version":"7757534","steam_id":85568392924500087,"keywords":["nocrits","nodmgspread","payload","uncletopia"],"game_id":440,"stv_port":27016,"stv_name":"Uncletopia | Montr√©al | 1 | All Maps | STV","players":null},{"server_id":301,"name":"Uncletopia | Montr√©al | 2 | All Maps","name_short":"mtl-2","host":"mtl-1.ca.uncletopia.com","port":27025,"enabled":true,"region":"us-east","cc":"ca","latitude":45.50889,"longitude":-73.56167,"reserved":0,"last_update":"0001-01-01T00:00:00Z","name_a2s":"Uncletopia | Montr√©al | 2 | All Maps","protocol":17,"map":"pl_snowycoast","folder":"tf","game":"Team Fortress","app_id":440,"player_count":0,"max_players":24,"Bots":0,"server_type":"Dedicated","server_os":"Linux","password":true,"vac":true,"version":"7757534","steam_id":85568392924500088,"keywords":["nocrits","nodmgspread","payload","uncletopia"],"game_id":440,"stv_port":27026,"stv_name":"Uncletopia | Montr√©al | 2 | All Maps | STV","players":null},{"server_id":302,"name":"Uncletopia | Montr√©al | 3 | All Maps","name_short":"mtl-3","host":"mtl-1.ca.uncletopia.com","port":27035,"enabled":true,"region":"us-east","cc":"ca","latitude":45.50889,"longitude":-73.56167,"reserved":0,"last_update":"0001-01-01T00:00:00Z","name_a2s":"Uncletopia | Montr√©al | 3 | All Maps","protocol":17,"map":"cp_process_final","folder":"tf","game":"Team Fortress","app_id":440,"player_count":0,"max_players":24,"Bots":0,"server_type":"Dedicated","server_os":"Linux","password":true,"vac":true,"version":"7757534","steam_id":85568392924500089,"keywords":["cp","nocrits","nodmgspread","uncletopia"],"game_id":440,"stv_port":27036,"stv_name":"Uncletopia | Montr√©al | 3 | All Maps | STV","players":null},{"server_id":303,"name":"Uncletopia | Montr√©al | 4 | No Payload","name_short":"mtl-4","host":"mtl-1.ca.uncletopia.com","port":27045,"enabled":true,"region":"us-east","cc":"ca","latitude":45.50889,"longitude":-73.56167,"reserved":0,"last_update":"0001-01-01T00:00:00Z","name_a2s":"Uncletopia | Montr√©al | 4 | No Payload","protocol":17,"map":"pl_borneo","folder":"tf","game":"Team Fortress","app_id":440,"player_count":0,"max_players":24,"Bots":0,"server_type":"Dedicated","server_os":"Linux","password":true,"vac":true,"version":"7757534","steam_id":85568392924500090,"keywords":["nocrits","nodmgspread","payload","uncletopia"],"game_id":440,"stv_port":27046,"stv_name":"Uncletopia | Montr√©al | 4 | No Payload | STV","players":null},{"server_id":13,"name":"Uncletopia | New York City | 1 | All Maps","name_short":"nyc-1","host":"nyc-1.us.uncletopia.com","port":27015,"enabled":true,"region":"us-east","cc":"us","latitude":40.73061,"longitude":-73.93524,"reserved":0,"last_update":"0001-01-01T00:00:00Z","name_a2s":"Uncletopia | New York City | 1 | All Maps","protocol":17,"map":"pl_barnblitz","folder":"tf","game":"Team Fortress","app_id":440,"player_count":24,"max_players":24,"Bots":0,"server_type":"Dedicated","server_os":"Linux","password":true,"vac":true,"version":"7757534","steam_id":85568392924469993,"keywords":["nocrits","nodmgspread","payload","uncletopia"],"game_id":440,"stv_port":27016,"stv_name":"Uncletopia | New York City | 1 | All Maps | STV","players":[{"user_id":241,"name":"Joy #savetf2","steam_id":76561198073690173,"connected_time":1802000000000,"state":"active","ping":55},{"user_id":184,"name":"localization files","steam_id":76561197997139225,"connected_time":5109000000000,"state":"active","ping":46},{"user_id":254,"name":"The Rambler","steam_id":76561198109648603,"connected_time":753000000000,"state":"active","ping":89},{"user_id":260,"name":"JelloMotion","steam_id":76561198045892038,"connected_time":455000000000,"state":"active","ping":83},{"user_id":258,"name":"Kritzburgh","steam_id":76561198149466938,"connected_time":574000000000,"state":"active","ping":50},{"user_id":230,"name":"Bocchi the Rock","steam_id":76561198025668771,"connected_time":2732000000000,"state":"active","ping":146},{"user_id":256,"name":"the12xu","steam_id":76561198197086561,"connected_time":671000000000,"state":"active","ping":55},{"user_id":228,"name":"offensive rick and morty memes","steam_id":76561198367019006,"connected_time":2757000000000,"state":"active","ping":63},{"user_id":185,"name":"epitome","steam_id":76561198834412436,"connected_time":5102000000000,"state":"active","ping":59},{"user_id":261,"name":"Sergeant Joker #savetf2","steam_id":76561198854616604,"connected_time":444000000000,"state":"active","ping":59},{"user_id":262,"name":"ventus51701","steam_id":76561198207372741,"connected_time":439000000000,"state":"active","ping":44},{"user_id":243,"name":"Adnapeht","steam_id":76561198395949213,"connected_time":1784000000000,"state":"active","ping":147},{"user_id":252,"name":"Coffee with a Stranger","steam_id":76561198307422313,"connected_time":983000000000,"state":"active","ping":59},{"user_id":264,"name":"PadrePockets","steam_id":76561197993251606,"connected_time":324000000000,"state":"active","ping":61},{"user_id":253,"name":"Vem","steam_id":76561198117273112,"connected_time":756000000000,"state":"active","ping":71},{"user_id":251,"name":"Hunto","steam_id":76561198328052562,"connected_time":1093000000000,"state":"active","ping":102},{"user_id":263,"name":"CPUnit","steam_id":76561198162881878,"connected_time":421000000000,"state":"active","ping":117},{"user_id":223,"name":"fi_ji","steam_id":76561198126087725,"connected_time":2811000000000,"state":"active","ping":57},{"user_id":173,"name":"kamui","steam_id":76561198017539604,"connected_time":6026000000000,"state":"active","ping":82},{"user_id":257,"name":"Uncle Majic the Hip Hop Magicia","steam_id":76561198107924303,"connected_time":596000000000,"state":"active","ping":35},{"user_id":195,"name":"teatimesukka","steam_id":76561198978749594,"connected_time":4693000000000,"state":"active","ping":90},{"user_id":227,"name":"peggle fan","steam_id":76561198117181511,"connected_time":2770000000000,"state":"active","ping":69},{"user_id":232,"name":"Female Gamer","steam_id":76561199366482682,"connected_time":2610000000000,"state":"active","ping":118},{"user_id":245,"name":"Sabaman55","steam_id":76561198212267979,"connected_time":1775000000000,"state":"active","ping":62}]},{"server_id":14,"name":"Uncletopia | New York City | 2 | All Maps","name_short":"nyc-2","host":"nyc-1.us.uncletopia.com","port":27025,"enabled":true,"region":"us-east","cc":"us","latitude":40.73061,"longitude":-73.93524,"reserved":0,"last_update":"0001-01-01T00:00:00Z","name_a2s":"Uncletopia | New York City | 2 | All Maps","protocol":17,"map":"koth_viaduct","folder":"tf","game":"Team Fortress","app_id":440,"player_count":1,"max_players":24,"Bots":0,"server_type":"Dedicated","server_os":"Linux","password":true,"vac":true,"version":"7757534","steam_id":85568392924469994,"keywords":["cp","nocrits","nodmgspread","uncletopia"],"game_id":440,"stv_port":27026,"stv_name":"Uncletopia | New York City | 2 | All Maps | STV","players":[{"user_id":8,"name":"SaltyFaulty","steam_id":76561199017898392,"connected_time":836000000000,"state":"active","ping":55}]},{"server_id":15,"name":"Uncletopia | New York City | 3 | Stopwatch Beta","name_short":"nyc-3","host":"nyc-1.us.uncletopia.com","port":27035,"enabled":true,"region":"us-east","cc":"us","latitude":40.73061,"longitude":-73.93524,"reserved":0,"last_update":"0001-01-01T00:00:00Z","name_a2s":"Uncletopia | New York City | 3 | Stopwatch Beta","protocol":17,"map":"cp_mountainlab","folder":"tf","game":"Team Fortress","app_id":440,"player_count":0,"max_players":24,"Bots":0,"server_type":"Dedicated","server_os":"Linux","password":true,"vac":true,"version":"7757534","steam_id":85568392924742820,"keywords":["cp","nocrits","nodmgspread","uncletopia"],"game_id":440,"stv_port":27036,"stv_name":"Uncletopia | New York City | 3 | Stopwatch Beta | STV","players":null},{"server_id":16,"name":"Uncletopia | New York City | 4 | Community","name_short":"nyc-4","host":"nyc-1.us.uncletopia.com","port":27045,"enabled":true,"region":"us-east","cc":"us","latitude":40.73061,"longitude":-73.93524,"reserved":0,"last_update":"0001-01-01T00:00:00Z","name_a2s":"Uncletopia | New York City | 4 | Community","protocol":17,"map":"workshop/pl_corrode_rc2.ugc546577989","folder":"tf","game":"Team Fortress","app_id":440,"player_count":0,"max_players":24,"Bots":0,"server_type":"Dedicated","server_os":"Linux","password":true,"vac":true,"version":"7757534","steam_id":85568392924742821,"keywords":["nocrits","nodmgspread","payload","uncletopia"],"game_id":440,"stv_port":27046,"stv_name":"Uncletopia | New York City | 4 | Community | STV","players":null},{"server_id":142,"name":"Uncletopia | S√£o Paulo | 1 | All Maps","name_short":"sao-1","host":"sao-1.br.uncletopia.com","port":27015,"enabled":true,"region":"sa","cc":"br","latitude":-23.533773,"longitude":-46.62529,"reserved":0,"last_update":"0001-01-01T00:00:00Z","name_a2s":"Uncletopia | S√£o Paulo | 1 | All Maps","protocol":17,"map":"koth_lakeside_final","folder":"tf","game":"Team Fortress","app_id":440,"player_count":0,"max_players":24,"Bots":0,"server_type":"Dedicated","server_os":"Linux","password":true,"vac":true,"version":"7757534","steam_id":85568392924469996,"keywords":["cp","nocrits","nodmgspread","uncletopia"],"game_id":440,"stv_port":27016,"stv_name":"Uncletopia | S√£o Paulo | 1 | All Maps | STV","players":null},{"server_id":143,"name":"Uncletopia | S√£o Paulo | 2 | All Maps","name_short":"sao-2","host":"sao-2.br.uncletopia.com","port":27015,"enabled":true,"region":"sa","cc":"br","latitude":-23.533773,"longitude":-46.62529,"reserved":0,"last_update":"0001-01-01T00:00:00Z","name_a2s":"Uncletopia | S√£o Paulo | 2 | All Maps","protocol":17,"map":"cp_sunshine","folder":"tf","game":"Team Fortress","app_id":440,"player_count":0,"max_players":24,"Bots":0,"server_type":"Dedicated","server_os":"Linux","password":true,"vac":true,"version":"7757534","steam_id":85568392924485349,"keywords":["cp","nocrits","nodmgspread","uncletopia"],"game_id":440,"stv_port":27016,"stv_name":"Uncletopia | S√£o Paulo | 2 | All Maps | STV","players":null},{"server_id":7,"name":"Uncletopia | Seattle | 1 | All Maps","name_short":"sea-1","host":"sea-1.us.uncletopia.com","port":27015,"enabled":true,"region":"us-west","cc":"us","latitude":47.608013,"longitude":-122.33517,"reserved":0,"last_update":"0001-01-01T00:00:00Z","name_a2s":"Uncletopia | Seattle | 1 | All Maps","protocol":17,"map":"cp_steel","folder":"tf","game":"Team Fortress","app_id":440,"player_count":24,"max_players":24,"Bots":0,"server_type":"Dedicated","server_os":"Linux","password":true,"vac":true,"version":"7757534","steam_id":85568392924469997,"keywords":["cp","nocrits","nodmgspread","uncletopia"],"game_id":440,"stv_port":27016,"stv_name":"Uncletopia | Seattle | 1 | All Maps | STV","players":[{"user_id":227,"name":"dP | I'm in a Wookie Suit","steam_id":76561198083307644,"connected_time":3542000000000,"state":"active","ping":58},{"user_id":281,"name":"Stomp","steam_id":76561198167765748,"connected_time":358000000000,"state":"active","ping":75},{"user_id":228,"name":"Mignyanne :3","steam_id":76561198048754056,"connected_time":3541000000000,"state":"active","ping":60},{"user_id":277,"name":"COOL master_9","steam_id":76561198073041151,"connected_time":538000000000,"state":"active","ping":92},{"user_id":275,"name":"Strikerbolt","steam_id":76561199095622897,"connected_time":583000000000,"state":"active","ping":90},{"user_id":280,"name":"thunderous prophet","steam_id":76561198131166135,"connected_time":412000000000,"state":"active","ping":36},{"user_id":238,"name":"yup","steam_id":76561199190800520,"connected_time":3318000000000,"state":"active","ping":41},{"user_id":256,"name":"Banio Kaioie","steam_id":76561198153295874,"connected_time":2597000000000,"state":"active","ping":84},{"user_id":278,"name":"Indefiable","steam_id":76561198219238953,"connected_time":439000000000,"state":"active","ping":45},{"user_id":282,"name":"Seru","steam_id":76561199219827214,"connected_time":356000000000,"state":"active","ping":121},{"user_id":290,"name":"mikey | I'm Burning Bright!","steam_id":76561198985847893,"connected_time":225000000000,"state":"active","ping":105},{"user_id":283,"name":"times table","steam_id":76561198341452558,"connected_time":351000000000,"state":"active","ping":92},{"user_id":284,"name":"sauce cup","steam_id":76561198332989410,"connected_time":319000000000,"state":"active","ping":84},{"user_id":258,"name":"phoonwax","steam_id":76561198433114405,"connected_time":2386000000000,"state":"active","ping":80},{"user_id":259,"name":"Local","steam_id":76561198069537437,"connected_time":2187000000000,"state":"active","ping":85},{"user_id":285,"name":"Nebula she/her","steam_id":76561198094306627,"connected_time":316000000000,"state":"active","ping":77},{"user_id":206,"name":"Sloppy John (Extra Sauce)","steam_id":76561198359703432,"connected_time":6291000000000,"state":"active","ping":75},{"user_id":286,"name":"we did it mate","steam_id":76561199471434875,"connected_time":313000000000,"state":"active","ping":45},{"user_id":287,"name":"The Lonely Croc","steam_id":76561198123241396,"connected_time":313000000000,"state":"active","ping":86},{"user_id":261,"name":"Daz","steam_id":76561198041431938,"connected_time":1949000000000,"state":"active","ping":123},{"user_id":289,"name":"2manyman","steam_id":76561198067156972,"connected_time":274000000000,"state":"active","ping":138},{"user_id":235,"name":"The strongest ‚ë® ball","steam_id":76561198126760743,"connected_time":3474000000000,"state":"active","ping":61},{"user_id":267,"name":"BoX_hEaD101","steam_id":76561198200875467,"connected_time":1682000000000,"state":"active","ping":93},{"user_id":292,"name":"tize4PF","steam_id":76561198321217838,"connected_time":175000000000,"state":"active","ping":60}]},{"server_id":119,"name":"Uncletopia | Seattle | 2 | All Maps","name_short":"sea-2","host":"sea-1.us.uncletopia.com","port":27025,"enabled":true,"region":"us-west","cc":"us","latitude":47.608013,"longitude":-122.33517,"reserved":0,"last_update":"0001-01-01T00:00:00Z","name_a2s":"Uncletopia | Seattle | 2 | All Maps","protocol":17,"map":"pl_upward","folder":"tf","game":"Team Fortress","app_id":440,"player_count":0,"max_players":24,"Bots":0,"server_type":"Dedicated","server_os":"Linux","password":true,"vac":true,"version":"7757534","steam_id":85568392924469998,"keywords":["nocrits","nodmgspread","payload","uncletopia"],"game_id":440,"stv_port":27026,"stv_name":"Uncletopia | Seattle | 2 | All Maps | STV","players":null},{"server_id":406,"name":"Uncletopia | Seattle | 3 | Stopwatch Beta","name_short":"sea-3","host":"sea-1.us.uncletopia.com","port":27035,"enabled":true,"region":"us-west","cc":"us","latitude":47.608013,"longitude":-122.33517,"reserved":0,"last_update":"0001-01-01T00:00:00Z","name_a2s":"Uncletopia | Seattle | 3 | Stopwatch Beta","protocol":17,"map":"pl_barnblitz","folder":"tf","game":"Team Fortress","app_id":440,"player_count":0,"max_players":24,"Bots":0,"server_type":"Dedicated","server_os":"Linux","password":true,"vac":true,"version":"7757534","steam_id":85568392924515217,"keywords":["nocrits","nodmgspread","payload","uncletopia"],"game_id":440,"stv_port":27036,"stv_name":"Uncletopia | Seattle | 3 | Stopwatch Beta | STV","players":null},{"server_id":17,"name":"Uncletopia | San Francisco | 1 | All Maps","name_short":"sfo-1","host":"sfo-1.us.uncletopia.com","port":27015,"enabled":true,"region":"us-west","cc":"us","latitude":37.77397,"longitude":-122.4313,"reserved":0,"last_update":"0001-01-01T00:00:00Z","name_a2s":"Uncletopia | San Francisco | 1 | All Maps","protocol":17,"map":"pl_frontier_final","folder":"tf","game":"Team Fortress","app_id":440,"player_count":24,"max_players":24,"Bots":0,"server_type":"Dedicated","server_os":"Linux","password":true,"vac":true,"version":"7757534","steam_id":85568392924469999,"keywords":["nocrits","nodmgspread","payload","uncletopia"],"game_id":440,"stv_port":27016,"stv_name":"Uncletopia | San Francisco | 1 | All Maps | STV","players":[{"user_id":79,"name":"Saint!","steam_id":76561198150438871,"connected_time":2040000000000,"state":"active","ping":125},{"user_id":104,"name":"Bandit","steam_id":76561198008344745,"connected_time":196000000000,"state":"active","ping":93},{"user_id":90,"name":"Spy on cart","steam_id":76561198025466913,"connected_time":1151000000000,"state":"active","ping":45},{"user_id":87,"name":"Mirari","steam_id":76561198126889358,"connected_time":1326000000000,"state":"active","ping":133},{"user_id":100,"name":"Buswolley","steam_id":76561197995205571,"connected_time":453000000000,"state":"active","ping":45},{"user_id":88,"name":"AlvWhispery","steam_id":76561198850017423,"connected_time":1239000000000,"state":"active","ping":118},{"user_id":101,"name":"Ivy","steam_id":76561198208996573,"connected_time":428000000000,"state":"active","ping":68},{"user_id":103,"name":"I hate gamers","steam_id":76561198288743767,"connected_time":286000000000,"state":"active","ping":60},{"user_id":98,"name":"Fewseb","steam_id":76561198104808456,"connected_time":865000000000,"state":"active","ping":106},{"user_id":16,"name":"rustyorion","steam_id":76561198439186347,"connected_time":6197000000000,"state":"active","ping":72},{"user_id":105,"name":"Got Oil?","steam_id":76561199238964574,"connected_time":187000000000,"state":"active","ping":62},{"user_id":54,"name":"Cheeeeeeeen","steam_id":76561198986388085,"connected_time":4120000000000,"state":"active","ping":105},{"user_id":93,"name":"Triforce141","steam_id":76561198063896776,"connected_time":1059000000000,"state":"active","ping":75},{"user_id":37,"name":"Hmmm","steam_id":76561198387695047,"connected_time":4714000000000,"state":"active","ping":72},{"user_id":99,"name":"potty trained","steam_id":76561198141557766,"connected_time":709000000000,"state":"active","ping":120},{"user_id":107,"name":"Goldbug","steam_id":76561198025221202,"connected_time":92000000000,"state":"active","ping":50},{"user_id":108,"name":"vikiny14","steam_id":76561198857376180,"connected_time":56000000000,"state":"active","ping":223},{"user_id":65,"name":"swag","steam_id":76561198094615739,"connected_time":3444000000000,"state":"active","ping":85},{"user_id":109,"name":"coce man","steam_id":76561197991778316,"connected_time":51000000000,"state":"active","ping":61},{"user_id":110,"name":"DerMann","steam_id":76561198354781811,"connected_time":45000000000,"state":"active","ping":74},{"user_id":97,"name":"Li","steam_id":76561198165502205,"connected_time":906000000000,"state":"active","ping":115},{"user_id":111,"name":"Viktornator","steam_id":76561199004870930,"connected_time":43000000000,"state":"spawning","ping":210},{"user_id":112,"name":"kedar834","steam_id":76561199000549399,"connected_time":8000000000,"state":"spawning","ping":255},{"user_id":73,"name":"jinkies","steam_id":76561198199950729,"connected_time":2791000000000,"state":"active","ping":148}]},{"server_id":18,"name":"Uncletopia | San Francisco | 2 | All Maps","name_short":"sfo-2","host":"sfo-1.us.uncletopia.com","port":27025,"enabled":true,"region":"us-west","cc":"us","latitude":37.77397,"longitude":-122.4313,"reserved":0,"last_update":"0001-01-01T00:00:00Z","name_a2s":"Uncletopia | San Francisco | 2 | All Maps","protocol":17,"map":"pl_borneo","folder":"tf","game":"Team Fortress","app_id":440,"player_count":0,"max_players":24,"Bots":0,"server_type":"Dedicated","server_os":"Linux","password":true,"vac":true,"version":"7757534","steam_id":85568392924470000,"keywords":["nocrits","nodmgspread","payload","uncletopia"],"game_id":440,"stv_port":27026,"stv_name":"Uncletopia | San Francisco | 2 | All Maps | STV","players":null},{"server_id":19,"name":"Uncletopia | San Francisco | 3 | Stopwatch Beta","name_short":"sfo-3","host":"sfo-1.us.uncletopia.com","port":27035,"enabled":true,"region":"us-west","cc":"us","latitude":37.77397,"longitude":-122.4313,"reserved":0,"last_update":"0001-01-01T00:00:00Z","name_a2s":"Uncletopia | San Francisco | 3 | Stopwatch Beta","protocol":17,"map":"pl_borneo","folder":"tf","game":"Team Fortress","app_id":440,"player_count":0,"max_players":24,"Bots":0,"server_type":"Dedicated","server_os":"Linux","password":true,"vac":true,"version":"7757534","steam_id":85568392924742824,"keywords":["nocrits","nodmgspread","payload","uncletopia"],"game_id":440,"stv_port":27036,"stv_name":"Uncletopia | San Francisco | 3 | Stopwatch Beta | STV","players":null},{"server_id":20,"name":"Uncletopia | San Francisco | 4 | Community","name_short":"sfo-4","host":"sfo-1.us.uncletopia.com","port":27045,"enabled":true,"region":"us-west","cc":"us","latitude":37.77397,"longitude":-122.4313,"reserved":0,"last_update":"0001-01-01T00:00:00Z","name_a2s":"Uncletopia | San Francisco | 4 | Community","protocol":17,"map":"koth_highpass","folder":"tf","game":"Team Fortress","app_id":440,"player_count":0,"max_players":24,"Bots":0,"server_type":"Dedicated","server_os":"Linux","password":true,"vac":true,"version":"7757534","steam_id":85568392924742826,"keywords":["cp","nocrits","nodmgspread","uncletopia"],"game_id":440,"stv_port":27046,"stv_name":"Uncletopia | San Francisco | 4 | Community | STV","players":null},{"server_id":141,"name":"Uncletopia | Sydney | 1 | All Maps","name_short":"syd-1","host":"syd-1.au.uncletopia.com","port":27015,"enabled":true,"region":"au","cc":"au","latitude":-33.865143,"longitude":151.2099,"reserved":0,"last_update":"0001-01-01T00:00:00Z","name_a2s":"Uncletopia | Sydney | 1 | All Maps","protocol":17,"map":"cp_process_final","folder":"tf","game":"Team Fortress","app_id":440,"player_count":0,"max_players":24,"Bots":0,"server_type":"Dedicated","server_os":"Linux","password":true,"vac":true,"version":"7757534","steam_id":85568392924470001,"keywords":["cp","nocrits","nodmgspread","uncletopia"],"game_id":440,"stv_port":27016,"stv_name":"Uncletopia | Sydney | 1 | All Maps | STV","players":null},{"server_id":123,"name":"Uncletopia | Sydney | 2 | All Maps","name_short":"syd-2","host":"syd-1.au.uncletopia.com","port":27025,"enabled":true,"region":"au","cc":"au","latitude":-33.865143,"longitude":151.2099,"reserved":0,"last_update":"0001-01-01T00:00:00Z","name_a2s":"Uncletopia | Sydney | 2 | All Maps","protocol":17,"map":"koth_viaduct","folder":"tf","game":"Team Fortress","app_id":440,"player_count":0,"max_players":24,"Bots":0,"server_type":"Dedicated","server_os":"Linux","password":true,"vac":true,"version":"7757534","steam_id":85568392924470002,"keywords":["cp","nocrits","nodmgspread","uncletopia"],"game_id":440,"stv_port":27026,"stv_name":"Uncletopia | Sydney | 2 | All Maps | STV","players":null},{"server_id":395,"name":"Uncletopia | Sydney | 3 | All Maps","name_short":"syd-3","host":"syd-1.au.uncletopia.com","port":27035,"enabled":true,"region":"au","cc":"au","latitude":-33.865143,"longitude":151.2099,"reserved":0,"last_update":"0001-01-01T00:00:00Z","name_a2s":"Uncletopia | Sydney | 3 | All Maps","protocol":17,"map":"pl_upward","folder":"tf","game":"Team Fortress","app_id":440,"player_count":0,"max_players":24,"Bots":0,"server_type":"Dedicated","server_os":"Linux","password":true,"vac":true,"version":"7757534","steam_id":85568392925194467,"keywords":["nocrits","nodmgspread","payload","uncletopia"],"game_id":440,"stv_port":27036,"stv_name":"Uncletopia | Sydney | 3 | All Maps | STV","players":null},{"server_id":396,"name":"Uncletopia | Sydney | 4 | All Maps","name_short":"syd-4","host":"syd-1.au.uncletopia.com","port":27045,"enabled":true,"region":"au","cc":"au","latitude":-33.865143,"longitude":151.2099,"reserved":0,"last_update":"0001-01-01T00:00:00Z","name_a2s":"Uncletopia | Sydney | 4 | All Maps","protocol":17,"map":"koth_lakeside_final","folder":"tf","game":"Team Fortress","app_id":440,"player_count":0,"max_players":24,"Bots":0,"server_type":"Dedicated","server_os":"Linux","password":true,"vac":true,"version":"7757534","steam_id":85568392925397958,"keywords":["cp","nocrits","nodmgspread","uncletopia"],"game_id":440,"stv_port":27046,"stv_name":"Uncletopia | Sydney | 4 | All Maps | STV","players":null},{"server_id":58,"name":"Uncletopia | Sydney | 5 | Stopwatch Beta","name_short":"syd-5","host":"syd-1.au.uncletopia.com","port":27055,"enabled":true,"region":"au","cc":"au","latitude":-33.865143,"longitude":151.2099,"reserved":0,"last_update":"0001-01-01T00:00:00Z","name_a2s":"Uncletopia | Sydney | 5 | Stopwatch Beta","protocol":17,"map":"koth_highpass","folder":"tf","game":"Team Fortress","app_id":440,"player_count":0,"max_players":24,"Bots":0,"server_type":"Dedicated","server_os":"Linux","password":true,"vac":true,"version":"7757534","steam_id":85568392925397959,"keywords":["cp","nocrits","nodmgspread","uncletopia"],"game_id":440,"stv_port":27056,"stv_name":"Uncletopia | Sydney | 5 | Stopwatch Beta | STV","players":null},{"server_id":59,"name":"Uncletopia | Sydney | 6 | Community","name_short":"syd-6","host":"syd-1.au.uncletopia.com","port":27065,"enabled":true,"region":"au","cc":"au","latitude":-33.865143,"longitude":151.2099,"reserved":0,"last_update":"0001-01-01T00:00:00Z","name_a2s":"Uncletopia | Sydney | 6 | Community","protocol":17,"map":"cp_sunshine","folder":"tf","game":"Team Fortress","app_id":440,"player_count":0,"max_players":24,"Bots":0,"server_type":"Dedicated","server_os":"Linux","password":true,"vac":true,"version":"7757534","steam_id":85568392925397960,"keywords":["cp","nocrits","nodmgspread","uncletopia"],"game_id":440,"stv_port":27066,"stv_name":"Uncletopia | Sydney | 6 | Community | STV","players":null},{"server_id":49,"name":"Uncletopia | Warsaw | 1 | All Maps","name_short":"waw-1","host":"waw-1.pl.uncletopia.com","port":27015,"enabled":true,"region":"eu","cc":"pl","latitude":52.2297,"longitude":21.017532,"reserved":0,"last_update":"0001-01-01T00:00:00Z","name_a2s":"","protocol":0,"map":"","folder":"","game":"","app_id":0,"player_count":0,"max_players":0,"Bots":0,"server_type":"","server_os":"","password":false,"vac":false,"version":"","steam_id":0,"keywords":null,"game_id":0,"stv_port":0,"stv_name":"","players":null},{"server_id":50,"name":"Uncletopia | Warsaw | 2 | All Maps","name_short":"waw-2","host":"waw-1.pl.uncletopia.com","port":27025,"enabled":true,"region":"eu","cc":"pl","latitude":52.2297,"longitude":21.017532,"reserved":0,"last_update":"0001-01-01T00:00:00Z","name_a2s":"Uncletopia | Warsaw | 2 | All Maps","protocol":17,"map":"pl_frontier_final","folder":"tf","game":"Team Fortress","app_id":440,"player_count":0,"max_players":24,"Bots":0,"server_type":"Dedicated","server_os":"Linux","password":true,"vac":true,"version":"7757534","steam_id":85568392925397851,"keywords":["nocrits","nodmgspread","payload","uncletopia"],"game_id":440,"stv_port":27026,"stv_name":"Uncletopia | Warsaw | 2 | All Maps | STV","players":null},{"server_id":51,"name":"Uncletopia | Warsaw | 3 | All Maps","name_short":"waw-3","host":"waw-1.pl.uncletopia.com","port":27035,"enabled":true,"region":"eu","cc":"pl","latitude":52.2297,"longitude":21.017532,"reserved":0,"last_update":"0001-01-01T00:00:00Z","name_a2s":"Uncletopia | Warsaw | 3 | All Maps","protocol":17,"map":"pl_barnblitz","folder":"tf","game":"Team Fortress","app_id":440,"player_count":0,"max_players":24,"Bots":0,"server_type":"Dedicated","server_os":"Linux","password":true,"vac":true,"version":"7757534","steam_id":85568392925397852,"keywords":["nocrits","nodmgspread","payload","uncletopia"],"game_id":440,"stv_port":27036,"stv_name":"Uncletopia | Warsaw | 3 | All Maps | STV","players":null},{"server_id":52,"name":"Uncletopia | Warsaw | 4 | All Maps","name_short":"waw-4","host":"waw-1.pl.uncletopia.com","port":27045,"enabled":true,"region":"eu","cc":"pl","latitude":52.2297,"longitude":21.017532,"reserved":0,"last_update":"0001-01-01T00:00:00Z","name_a2s":"Uncletopia | Warsaw | 4 | All Maps","protocol":17,"map":"pl_snowycoast","folder":"tf","game":"Team Fortress","app_id":440,"player_count":0,"max_players":24,"Bots":0,"server_type":"Dedicated","server_os":"Linux","password":true,"vac":true,"version":"7757534","steam_id":85568392925397853,"keywords":["nocrits","nodmgspread","payload","uncletopia"],"game_id":440,"stv_port":27046,"stv_name":"Uncletopia | Warsaw | 4 | All Maps | STV","players":null},{"server_id":53,"name":"Uncletopia | Warsaw | 5 | Stopwatch Beta","name_short":"waw-5","host":"waw-1.pl.uncletopia.com","port":27055,"enabled":true,"region":"eu","cc":"pl","latitude":52.2297,"longitude":21.017532,"reserved":0,"last_update":"0001-01-01T00:00:00Z","name_a2s":"Uncletopia | Warsaw | 5 | Stopwatch Beta","protocol":17,"map":"pl_barnblitz","folder":"tf","game":"Team Fortress","app_id":440,"player_count":0,"max_players":24,"Bots":0,"server_type":"Dedicated","server_os":"Linux","password":true,"vac":true,"version":"7757534","steam_id":85568392925397854,"keywords":["nocrits","nodmgspread","payload","uncletopia"],"game_id":440,"stv_port":27056,"stv_name":"Uncletopia | Warsaw | 5 | Stopwatch Beta | STV","players":null},{"server_id":54,"name":"Uncletopia | Warsaw | 6 | Community","name_short":"waw-6","host":"waw-1.pl.uncletopia.com","port":27065,"enabled":true,"region":"eu","cc":"pl","latitude":52.2297,"longitude":21.017532,"reserved":0,"last_update":"0001-01-01T00:00:00Z","name_a2s":"Uncletopia | Warsaw | 6 | Community","protocol":17,"map":"workshop/cp_bruhstbowl_b5.ugc2878604990","folder":"tf","game":"Team Fortress","app_id":440,"player_count":0,"max_players":24,"Bots":0,"server_type":"Dedicated","server_os":"Linux","password":true,"vac":true,"version":"7757534","steam_id":85568392925397856,"keywords":["cp","nocrits","nodmgspread","uncletopia"],"game_id":440,"stv_port":27066,"stv_name":"Uncletopia | Warsaw | 6 | Community | STV","players":null}]}