{"status":true,"message":"","result":[{"server_id":9,"name":"Uncletopia | Atlanta | 1 | All Maps","name_short":"atl-1","host":"atl-1.us.uncletopia.com","port":27015,"enabled":true,"region":"us-east","cc":"us","latitude":33.753746,"longitude":-84.38633,"reserved":0,"last_update":"0001-01-01T00:00:00Z","name_a2s":"Uncletopia | Atlanta | 1 | All Maps","protocol":17,"map":"pl_badwater","folder":"tf","game":"Team Fortress","app_id":440,"player_count":20,"max_players":24,"Bots":0,"server_type":"Dedicated","server_os":"Linux","password":true,"vac":true,"version":"7695204","steam_id":85568392924469982,"keywords":["nocrits","nodmgspread","payload","uncletopia"],"game_id":440,"stv_port":27016,"stv_name":"Uncletopia | Atlanta | 1 | All Maps | STV","players":[{"user_id":617,"name":"breezewax","steam_id":76561198121702006,"connected_time":11000000000,"state":"active","ping":258},{"user_id":599,"name":"Anononomous Dumbo Octopus","steam_id":76561198252522394,"connected_time":1441000000000,"state":"active","ping":85},{"user_id":605,"name":"atlas","steam_id":76561198184893754,"connected_time":859000000000,"state":"active","ping":55},{"user_id":601,"name":"floofy","steam_id":76561198389769098,"connected_time":1115000000000,"state":"spawning","ping":178},{"user_id":580,"name":"chexo4","steam_id":76561198150532531,"connected_time":4662000000000,"state":"active","ping":46},{"user_id":242,"name":"ATL1 | eish","steam_id":76561198089463603,"connected_time":41274000000000,"state":"active","ping":100},{"user_id":596,"name":"Doober","steam_id":76561198056661095,"connected_time":2421000000000,"state":"active","ping":68},{"user_id":573,"name":"Zillers","steam_id":76561198095248744,"connected_time":5553000000000,"state":"active","ping":70},{"user_id":603,"name":"Bomb Squirtle‚Ñ¢","steam_id":76561197998931145,"connected_time":1006000000000,"state":"active","ping":85},{"user_id":602,"name":"Spinch","steam_id":76561198296224166,"connected_time":1092000000000,"state":"active","ping":52},{"user_id":259,"name":"joe lft","steam_id":76561198045781320,"connected_time":39954000000000,"state":"active","ping":77},{"user_id":556,"name":"David De Bergerac","steam_id":76561198010306294,"connected_time":9070000000000,"state":"active","ping":72},{"user_id":612,"name":"BLOOD !","steam_id":76561198004400850,"connected_time":370000000000,"state":"active","ping":75},{"user_id":613,"name":"Ryan Cranston","steam_id":76561198272658103,"connected_time":331000000000,"state":"active","ping":118},{"user_id":616,"name":"Brian D","steam_id":76561198074638559,"connected_time":197000000000,"state":"active","ping":69},{"user_id":614,"name":"womit","steam_id":76561198333675595,"connected_time":300000000000,"state":"active","ping":98},{"user_id":571,"name":"Intro Bonito","steam_id":76561198119478838,"connected_time":6377000000000,"state":"active","ping":60},{"user_id":607,"name":"Pizza Party","steam_id":76561198165730754,"connected_time":720000000000,"state":"active","ping":62},{"user_id":609,"name":"Chubmundo","steam_id":76561198132710768,"connected_time":680000000000,"state":"active","ping":48},{"user_id":610,"name":"Arrythmia","steam_id":76561198093748123,"connected_time":661000000000,"state":"active","ping":106}]},{"server_id":400,"name":"Uncletopia | Atlanta | 3 | All Maps","name_short":"atl-3","host":"atl-1.us.uncletopia.com","port":27035,"enabled":true,"region":"us-east","cc":"us","latitude":33.753746,"longitude":-84.38633,"reserved":0,"last_update":"0001-01-01T00:00:00Z","name_a2s":"Uncletopia | Atlanta | 3 | All Maps","protocol":17,"map":"cp_sunshine","folder":"tf","game":"Team Fortress","app_id":440,"player_count":0,"max_players":24,"Bots":0,"server_type":"Dedicated","server_os":"Linux","password":true,"vac":true,"version":"7695204","steam_id":85568392924515187,"keywords":["cp","nocrits","nodmgspread","uncletopia"],"game_id":440,"stv_port":27036,"stv_name":"Uncletopia | Atlanta | 3 | All Maps | STV","players":null},{"server_id":401,"name":"Uncletopia | Atlanta | 4 | No Payload","name_short":"atl-4","host":"atl-1.us.uncletopia.com","port":27045,"enabled":true,"region":"us-east","cc":"us","latitude":33.753746,"longitude":-84.38633,"reserved":0,"last_update":"0001-01-01T00:00:00Z","name_a2s":"Uncletopia | Atlanta | 4 | No Payload","protocol":17,"map":"cp_snakewater_final1","folder":"tf","game":"Team Fortress","app_id":440,"player_count":0,"max_players":24,"Bots":0,"server_type":"Dedicated","server_os":"Linux","password":true,"vac":true,"version":"7695204","steam_id":85568392924515188,"keywords":["cp","nocrits","nodmgspread","uncletopia"],"game_id":440,"stv_port":27046,"stv_name":"Uncletopia | Atlanta | 4 | No Payload | STV","players":null},{"server_id":2,"name":"Uncletopia | Chicago | 1 | All Maps","name_short":"chi-1","host":"chi-1.us.uncletopia.com","port":27015,"enabled":true,"region":"us-central","cc":"us","latitude":41.881832,"longitude":-87.62318,"reserved":0,"last_update":"0001-01-01T00:00:00Z","name_a2s":"Uncletopia | Chicago | 1 | All Maps","protocol":17,"map":"pl_pier","folder":"tf","game":"Team Fortress","app_id":440,"player_count":24,"max_players":24,"Bots":0,"server_type":"Dedicated","server_os":"Linux","password":true,"vac":true,"version":"7695204","steam_id":85568392924469984,"keywords":["nocrits","nodmgspread","payload","uncletopia"],"game_id":440,"stv_port":27016,"stv_name":"Uncletopia | Chicago | 1 | All Maps | STV","players":[{"user_id":881,"name":"p3pper","steam_id":76561198151674993,"connected_time":550000000000,"state":"active","ping":60},{"user_id":878,"name":"Coolyumu","steam_id":76561198004910333,"connected_time":675000000000,"state":"active","ping":59},{"user_id":894,"name":"Master17Gaming","steam_id":76561198145986516,"connected_time":2000000000,"state":"spawning","ping":98},{"user_id":836,"name":"Fanatical Goose","steam_id":76561198872850950,"connected_time":3250000000000,"state":"active","ping":97},{"user_id":868,"name":"I taunt after every kill","steam_id":76561198799288733,"connected_time":987000000000,"state":"active","ping":86},{"user_id":837,"name":"Miner2495","steam_id":76561198445904523,"connected_time":3071000000000,"state":"active","ping":60},{"user_id":869,"name":"NecroHash","steam_id":76561198158007618,"connected_time":926000000000,"state":"active","ping":73},{"user_id":893,"name":"jjtheboss314-live-","steam_id":76561199230397190,"connected_time":66000000000,"state":"active","ping":72},{"user_id":853,"name":"Whyamidoingthisaaaa","steam_id":76561199168837342,"connected_time":1961000000000,"state":"active","ping":61},{"user_id":882,"name":"EchoReplayz","steam_id":76561198229366892,"connected_time":535000000000,"state":"active","ping":41},{"user_id":852,"name":"DuckKey","steam_id":76561198904477889,"connected_time":2211000000000,"state":"active","ping":58},{"user_id":884,"name":"Don Trovolta","steam_id":76561198080492811,"connected_time":479000000000,"state":"active","ping":129},{"user_id":855,"name":"holy whiskers lets go sisters","steam_id":76561198100160865,"connected_time":1822000000000,"state":"active","ping":55},{"user_id":856,"name":"Underscore","steam_id":76561198374209415,"connected_time":1755000000000,"state":"active","ping":61},{"user_id":885,"name":"Phoenix","steam_id":76561197971265992,"connected_time":475000000000,"state":"active","ping":102},{"user_id":871,"name":"Non-Union Mexican Equivalent","steam_id":76561198013399809,"connected_time":848000000000,"state":"active","ping":100},{"user_id":886,"name":"Sqiddwr","steam_id":76561197998071622,"connected_time":453000000000,"state":"active","ping":78},{"user_id":774,"name":"√íw√ì","steam_id":76561197997304387,"connected_time":8912000000000,"state":"active","ping":74},{"user_id":873,"name":"scientist","steam_id":76561198043909391,"connected_time":737000000000,"state":"active","ping":71},{"user_id":874,"name":"FAZE BIG FARMA #FAZEUP","steam_id":76561198066120235,"connected_time":732000000000,"state":"active","ping":71},{"user_id":892,"name":"psy","steam_id":76561198013195018,"connected_time":229000000000,"state":"active","ping":81},{"user_id":889,"name":"for the king","steam_id":76561197973488858,"connected_time":385000000000,"state":"active","ping":58},{"user_id":877,"name":"Gigabars","steam_id":76561198119267479,"connected_time":725000000000,"state":"active","ping":66},{"user_id":880,"name":"defcon","steam_id":76561198100656328,"connected_time":642000000000,"state":"active","ping":72}]},{"server_id":106,"name":"Uncletopia | Chicago | 2 | All Maps","name_short":"chi-2","host":"chi-1.us.uncletopia.com","port":27025,"enabled":true,"region":"us-central","cc":"us","latitude":41.881832,"longitude":-87.62318,"reserved":0,"last_update":"0001-01-01T00:00:00Z","name_a2s":"Uncletopia | Chicago | 2 | All Maps","protocol":17,"map":"pl_goldrush","folder":"tf","game":"Team Fortress","app_id":440,"player_count":20,"max_players":24,"Bots":0,"server_type":"Dedicated","server_os":"Linux","password":true,"vac":true,"version":"7695204","steam_id":85568392924469985,"keywords":["nocrits","nodmgspread","payload","uncletopia"],"game_id":440,"stv_port":27026,"stv_name":"Uncletopia | Chicago | 2 | All Maps | STV","players":[{"user_id":612,"name":"PootisLife","steam_id":76561198074400568,"connected_time":5268000000000,"state":"active","ping":90},{"user_id":655,"name":"Rein","steam_id":76561198300340427,"connected_time":1501000000000,"state":"active","ping":58},{"user_id":653,"name":"Azrazel","steam_id":76561198821691005,"connected_time":1903000000000,"state":"active","ping":65},{"user_id":671,"name":"Benjamin Franklin","steam_id":76561198863803062,"connected_time":104000000000,"state":"active","ping":83},{"user_id":629,"name":"Lewis Gunn","steam_id":76561198095338274,"connected_time":4567000000000,"state":"active","ping":58},{"user_id":605,"name":"Fisherman","steam_id":76561198071026825,"connected_time":6111000000000,"state":"active","ping":63},{"user_id":658,"name":"Plain Toast","steam_id":76561198451580251,"connected_time":665000000000,"state":"active","ping":61},{"user_id":667,"name":"stall","steam_id":76561199152861652,"connected_time":157000000000,"state":"active","ping":65},{"user_id":621,"name":"Zogu","steam_id":76561198050292051,"connected_time":4904000000000,"state":"active","ping":141},{"user_id":608,"name":"Your Pal, Vegeta","steam_id":76561198064916816,"connected_time":5860000000000,"state":"active","ping":82},{"user_id":654,"name":"HobHob","steam_id":76561198145646314,"connected_time":1676000000000,"state":"active","ping":80},{"user_id":659,"name":"Stew Eater","steam_id":76561198978307159,"connected_time":660000000000,"state":"active","ping":62},{"user_id":669,"name":"Captain Innocuous","steam_id":76561197968982943,"connected_time":142000000000,"state":"active","ping":87},{"user_id":660,"name":"Bobby Ray","steam_id":76561198044131188,"connected_time":652000000000,"state":"active","ping":75},{"user_id":642,"name":"pukey","steam_id":76561198125961489,"connected_time":3102000000000,"state":"active","ping":66},{"user_id":647,"name":"scorn","steam_id":76561197966261919,"connected_time":2519000000000,"state":"active","ping":74},{"user_id":652,"name":"Censure","steam_id":76561198850891374,"connected_time":2113000000000,"state":"active","ping":62},{"user_id":662,"name":"Bim","steam_id":76561198155979811,"connected_time":600000000000,"state":"active","ping":61},{"user_id":664,"name":"anna","steam_id":76561197994492154,"connected_time":449000000000,"state":"active","ping":167},{"user_id":656,"name":"Bingus","steam_id":76561198144791538,"connected_time":1429000000000,"state":"active","ping":71}]},{"server_id":402,"name":"Uncletopia | Chicago | 3 | All Maps","name_short":"chi-3","host":"chi-1.us.uncletopia.com","port":27035,"enabled":true,"region":"us-central","cc":"us","latitude":41.881832,"longitude":-87.62318,"reserved":0,"last_update":"0001-01-01T00:00:00Z","name_a2s":"Uncletopia | Chicago | 3 | All Maps","protocol":17,"map":"cp_egypt_final","folder":"tf","game":"Team Fortress","app_id":440,"player_count":23,"max_players":24,"Bots":0,"server_type":"Dedicated","server_os":"Linux","password":true,"vac":true,"version":"7695204","steam_id":85568392924515191,"keywords":["cp","nocrits","nodmgspread","uncletopia"],"game_id":440,"stv_port":27036,"stv_name":"Uncletopia | Chicago | 3 | All Maps | STV","players":[{"user_id":695,"name":"¬°ayudame!","steam_id":76561198071421094,"connected_time":633000000000,"state":"active","ping":90},{"user_id":684,"name":"TheMadDoctor","steam_id":76561198846198407,"connected_time":1482000000000,"state":"active","ping":89},{"user_id":681,"name":"cosmet","steam_id":76561198114899953,"connected_time":1975000000000,"state":"active","ping":70},{"user_id":667,"name":"Maxxycat","steam_id":76561198194062681,"connected_time":2711000000000,"state":"active","ping":50},{"user_id":664,"name":"Den_Doofed","steam_id":76561198064418407,"connected_time":2832000000000,"state":"active","ping":88},{"user_id":690,"name":"Mad Elias","steam_id":76561198045869183,"connected_time":797000000000,"state":"active","ping":57},{"user_id":608,"name":"Blaze2.0","steam_id":76561199098688888,"connected_time":7287000000000,"state":"active","ping":98},{"user_id":697,"name":"a soul must somehow strive","steam_id":76561198096806703,"connected_time":411000000000,"state":"active","ping":72},{"user_id":692,"name":"Papa Squat","steam_id":76561198045011208,"connected_time":751000000000,"state":"active","ping":64},{"user_id":700,"name":"mr. wonderful","steam_id":76561198083175190,"connected_time":148000000000,"state":"active","ping":58},{"user_id":666,"name":"FluffiestTail (She/Her)","steam_id":76561198061209061,"connected_time":2725000000000,"state":"active","ping":97},{"user_id":668,"name":"Don william","steam_id":76561199066025998,"connected_time":2570000000000,"state":"active","ping":119},{"user_id":672,"name":"hommmbre","steam_id":76561199136512169,"connected_time":2509000000000,"state":"active","ping":110},{"user_id":653,"name":"discord boyfriend/moderator","steam_id":76561198045926594,"connected_time":4398000000000,"state":"active","ping":97},{"user_id":671,"name":"Aristotle Voulton","steam_id":76561198100174923,"connected_time":2516000000000,"state":"active","ping":136},{"user_id":640,"name":"Marc Antony","steam_id":76561198011366517,"connected_time":4969000000000,"state":"active","ping":59},{"user_id":673,"name":"s","steam_id":76561198026534525,"connected_time":2495000000000,"state":"active","ping":46},{"user_id":688,"name":"plutonium isotope","steam_id":76561198319442494,"connected_time":1386000000000,"state":"active","ping":95},{"user_id":674,"name":"Spike","steam_id":76561198141356571,"connected_time":2486000000000,"state":"active","ping":51},{"user_id":696,"name":"Do Moose go Moo?","steam_id":76561198073550620,"connected_time":493000000000,"state":"active","ping":44},{"user_id":675,"name":"Glass Joe","steam_id":76561198317365741,"connected_time":2437000000000,"state":"active","ping":60},{"user_id":677,"name":"Congolese Crusader","steam_id":76561198063850199,"connected_time":2424000000000,"state":"active","ping":74},{"user_id":649,"name":"snow worm","steam_id":76561198328256922,"connected_time":4541000000000,"state":"active","ping":46}]},{"server_id":403,"name":"Uncletopia | Chicago | 4 | All Maps","name_short":"chi-4","host":"chi-1.us.uncletopia.com","port":27045,"enabled":true,"region":"us-central","cc":"us","latitude":41.881832,"longitude":-87.62318,"reserved":0,"last_update":"0001-01-01T00:00:00Z","name_a2s":"Uncletopia | Chicago | 4 | All Maps","protocol":17,"map":"pl_snowycoast","folder":"tf","game":"Team Fortress","app_id":440,"player_count":0,"max_players":24,"Bots":0,"server_type":"Dedicated","server_os":"Linux","password":true,"vac":true,"version":"7695204","steam_id":85568392924515193,"keywords":["nocrits","nodmgspread","payload","uncletopia"],"game_id":440,"stv_port":27046,"stv_name":"Uncletopia | Chicago | 4 | All Maps | STV","players":null},{"server_id":36,"name":"Uncletopia | Chicago | 5 | All Maps","name_short":"chi-5","host":"chi-2.us.uncletopia.com","port":27015,"enabled":true,"region":"us-central","cc":"us","latitude":41.881832,"longitude":-87.62318,"reserved":0,"last_update":"0001-01-01T00:00:00Z","name_a2s":"Uncletopia | Chicago | 5 | All Maps","protocol":17,"map":"pl_coal_event","folder":"tf","game":"Team Fortress","app_id":440,"player_count":0,"max_players":24,"Bots":0,"server_type":"Dedicated","server_os":"Linux","password":true,"vac":true,"version":"7695204","steam_id":85568392924866362,"keywords":["nocrits","nodmgspread","payload","uncletopia"],"game_id":440,"stv_port":27016,"stv_name":"Uncletopia | Chicago | 5 | All Maps | STV","players":null},{"server_id":37,"name":"Uncletopia | Chicago | 6 | All Maps","name_short":"chi-6","host":"chi-2.us.uncletopia.com","port":27025,"enabled":true,"region":"us-central","cc":"us","latitude":41.881832,"longitude":-87.62318,"reserved":0,"last_update":"0001-01-01T00:00:00Z","name_a2s":"Uncletopia | Chicago | 6 | All Maps","protocol":17,"map":"cp_snakewater_final1","folder":"tf","game":"Team Fortress","app_id":440,"player_count":4,"max_players":24,"Bots":0,"server_type":"Dedicated","server_os":"Linux","password":true,"vac":true,"version":"7695204","steam_id":85568392924866363,"keywords":["cp","nocrits","nodmgspread","uncletopia"],"game_id":440,"stv_port":27026,"stv_name":"Uncletopia | Chicago | 6 | All Maps | STV","players":[{"user_id":397,"name":"human spinbotter with bow","steam_id":76561197979090955,"connected_time":153000000000,"state":"active","ping":92},{"user_id":338,"name":"QuarterAnnualLiposuction #SvTF2","steam_id":76561198119886429,"connected_time":6163000000000,"state":"active","ping":80},{"user_id":380,"name":"-_-","steam_id":76561197998911283,"connected_time":3061000000000,"state":"active","ping":55},{"user_id":359,"name":"That1ac","steam_id":76561199097667737,"connected_time":5267000000000,"state":"active","ping":79}]},{"server_id":38,"name":"Uncletopia | Chicago | 7 | No Payload","name_short":"chi-7","host":"chi-2.us.uncletopia.com","port":27035,"enabled":true,"region":"us-central","cc":"us","latitude":41.881832,"longitude":-87.62318,"reserved":0,"last_update":"0001-01-01T00:00:00Z","name_a2s":"Uncletopia | Chicago | 7 | No Payload","protocol":17,"map":"koth_harvest_final","folder":"tf","game":"Team Fortress","app_id":440,"player_count":0,"max_players":24,"Bots":0,"server_type":"Dedicated","server_os":"Linux","password":true,"vac":true,"version":"7695204","steam_id":85568392924866364,"keywords":["cp","nocrits","nodmgspread","uncletopia"],"game_id":440,"stv_port":27036,"stv_name":"Uncletopia | Chicago | 7 | No Payload | STV","players":null},{"server_id":39,"name":"Uncletopia | Chicago | 8 | Community","name_short":"chi-8","host":"chi-2.us.uncletopia.com","port":27045,"enabled":true,"region":"us-central","cc":"us","latitude":41.881832,"longitude":-87.62318,"reserved":0,"last_update":"0001-01-01T00:00:00Z","name_a2s":"Uncletopia | Chicago | 8 | Community","protocol":17,"map":"workshop/pl_vigil_rc9.ugc1266210012","folder":"tf","game":"Team Fortress","app_id":440,"player_count":0,"max_players":24,"Bots":0,"server_type":"Dedicated","server_os":"Linux","password":true,"vac":true,"version":"7695204","steam_id":85568392924866365,"keywords":["nocrits","nodmgspread","payload","uncletopia"],"game_id":440,"stv_port":27046,"stv_name":"Uncletopia | Chicago | 8 | Community | STV","players":null},{"server_id":8,"name":"Uncletopia | Dallas | 1 | All Maps","name_short":"dal-1","host":"dal-1.us.uncletopia.com","port":27015,"enabled":true,"region":"us-central","cc":"us","latitude":32.779167,"longitude":-96.80889,"reserved":0,"last_update":"0001-01-01T00:00:00Z","name_a2s":"Uncletopia | Dallas | 1 | All Maps","protocol":17,"map":"pl_pier","folder":"tf","game":"Team Fortress","app_id":440,"player_count":23,"max_players":24,"Bots":0,"server_type":"Dedicated","server_os":"Linux","password":true,"vac":true,"version":"7695204","steam_id":85568392924469986,"keywords":["nocrits","nodmgspread","payload","uncletopia"],"game_id":440,"stv_port":27016,"stv_name":"Uncletopia | Dallas | 1 | All Maps | STV","players":[{"user_id":929,"name":"Fermenting Kiwi","steam_id":76561198253303497,"connected_time":413000000000,"state":"active","ping":64},{"user_id":918,"name":"The Cloaker","steam_id":76561198155815824,"connected_time":2193000000000,"state":"active","ping":70},{"user_id":931,"name":"gregs leg","steam_id":76561199122470341,"connected_time":353000000000,"state":"active","ping":99},{"user_id":870,"name":"DUCKY PUPPET","steam_id":76561198030119710,"connected_time":7717000000000,"state":"active","ping":145},{"user_id":932,"name":"DSM-IVCE","steam_id":76561199438515797,"connected_time":345000000000,"state":"active","ping":112},{"user_id":933,"name":"lag","steam_id":76561197963872739,"connected_time":311000000000,"state":"active","ping":72},{"user_id":934,"name":"karbomb","steam_id":76561198120744480,"connected_time":209000000000,"state":"active","ping":46},{"user_id":856,"name":"Gh0stWithPants","steam_id":76561198890651619,"connected_time":9085000000000,"state":"active","ping":77},{"user_id":838,"name":"gallowsCalibrator","steam_id":76561198404707578,"connected_time":11600000000000,"state":"active","ping":74},{"user_id":873,"name":"MARIOPARTYDSFAN","steam_id":76561198872122117,"connected_time":7666000000000,"state":"active","ping":61},{"user_id":939,"name":"Queuetimeevent","steam_id":76561198079438423,"connected_time":8000000000,"state":"spawning","ping":58},{"user_id":857,"name":"The Krinkler","steam_id":76561198020308956,"connected_time":9038000000000,"state":"active","ping":61},{"user_id":874,"name":"Hamuktakali","steam_id":76561198039625579,"connected_time":7639000000000,"state":"active","ping":49},{"user_id":936,"name":"crumbles","steam_id":76561198168707036,"connected_time":181000000000,"state":"active","ping":90},{"user_id":927,"name":"raya","steam_id":76561198051504581,"connected_time":741000000000,"state":"active","ping":44},{"user_id":937,"name":"2008 wifi router","steam_id":76561198983838790,"connected_time":150000000000,"state":"active","ping":103},{"user_id":924,"name":"Gatling pea","steam_id":76561199202556158,"connected_time":1240000000000,"state":"active","ping":76},{"user_id":926,"name":"Veridian","steam_id":76561198096334078,"connected_time":1056000000000,"state":"active","ping":79},{"user_id":889,"name":"Soju","steam_id":76561198044130442,"connected_time":6034000000000,"state":"active","ping":48},{"user_id":921,"name":"primordialheath","steam_id":76561199386942638,"connected_time":1689000000000,"state":"active","ping":87},{"user_id":913,"name":"Waltuh Whitte","steam_id":76561198372798868,"connected_time":3154000000000,"state":"active","ping":127},{"user_id":938,"name":"Liquid Metal Slime from DQ9","steam_id":76561198061621275,"connected_time":150000000000,"state":"active","ping":79},{"user_id":822,"name":"Francis Gaming","steam_id":76561198295173122,"connected_time":12449000000000,"state":"active","ping":137}]},{"server_id":108,"name":"Uncletopia | Dallas | 2 | All Maps","name_short":"dal-2","host":"dal-1.us.uncletopia.com","port":27025,"enabled":true,"region":"us-central","cc":"us","latitude":32.779167,"longitude":-96.80889,"reserved":0,"last_update":"0001-01-01T00:00:00Z","name_a2s":"Uncletopia | Dallas | 2 | All Maps","protocol":17,"map":"cp_steel","folder":"tf","game":"Team Fortress","app_id":440,"player_count":23,"max_players":24,"Bots":0,"server_type":"Dedicated","server_os":"Linux","password":true,"vac":true,"version":"7695204","steam_id":85568392924469988,"keywords":["cp","nocrits","nodmgspread","uncletopia"],"game_id":440,"stv_port":27026,"stv_name":"Uncletopia | Dallas | 2 | All Maps | STV","players":[{"user_id":644,"name":"Strength!!","steam_id":76561198001241984,"connected_time":2815000000000,"state":"active","ping":105},{"user_id":626,"name":"Rampaging_Sheep","steam_id":76561198094927309,"connected_time":5029000000000,"state":"active","ping":85},{"user_id":624,"name":"amadeus","steam_id":76561198094855305,"connected_time":5038000000000,"state":"active","ping":80},{"user_id":642,"name":"Aaah....Refreshing water!","steam_id":76561198035698704,"connected_time":3225000000000,"state":"active","ping":96},{"user_id":667,"name":"Foul Beast","steam_id":76561198829717392,"connected_time":317000000000,"state":"active","ping":45},{"user_id":666,"name":"Duck","steam_id":76561199236708672,"connected_time":429000000000,"state":"active","ping":91},{"user_id":668,"name":"ultralisk52","steam_id":76561198051666604,"connected_time":273000000000,"state":"active","ping":78},{"user_id":662,"name":"_Pai","steam_id":76561198108196753,"connected_time":876000000000,"state":"active","ping":72},{"user_id":663,"name":"Libra","steam_id":76561198065563533,"connected_time":849000000000,"state":"active","ping":47},{"user_id":648,"name":"Stressmelo","steam_id":76561199204445185,"connected_time":2119000000000,"state":"active","ping":91},{"user_id":618,"name":"Gold Ghost","steam_id":76561199005805984,"connected_time":5273000000000,"state":"active","ping":42},{"user_id":664,"name":"oldestman","steam_id":76561199108815470,"connected_time":802000000000,"state":"active","ping":37},{"user_id":640,"name":"The Caretaker","steam_id":76561198125241411,"connected_time":3323000000000,"state":"active","ping":86},{"user_id":665,"name":"HarqObispal","steam_id":76561197963907351,"connected_time":728000000000,"state":"active","ping":79},{"user_id":643,"name":"the stallion","steam_id":76561198212242403,"connected_time":3068000000000,"state":"active","ping":105},{"user_id":538,"name":"Frank (beer 6)","steam_id":76561198126681511,"connected_time":14882000000000,"state":"active","ping":94},{"user_id":659,"name":"Soap","steam_id":76561198074619142,"connected_time":954000000000,"state":"active","ping":74},{"user_id":647,"name":"airbudenjoyer2012","steam_id":76561198150428763,"connected_time":2202000000000,"state":"active","ping":87},{"user_id":635,"name":"quidwad","steam_id":76561198041032599,"connected_time":3812000000000,"state":"active","ping":109},{"user_id":567,"name":"üëÅ sumixodic","steam_id":76561198090770710,"connected_time":11883000000000,"state":"active","ping":119},{"user_id":615,"name":"schizoplays","steam_id":76561199043827112,"connected_time":6369000000000,"state":"active","ping":80},{"user_id":637,"name":"brappy","steam_id":76561198024958319,"connected_time":3621000000000,"state":"active","ping":76},{"user_id":639,"name":"SN0W","steam_id":76561198153665468,"connected_time":3550000000000,"state":"active","ping":55}]},{"server_id":5,"name":"Uncletopia | Frankfurt | 1 | All Maps","name_short":"frk-1","host":"frk-1.de.uncletopia.com","port":27015,"enabled":true,"region":"eu","cc":"de","latitude":50.110924,"longitude":8.682127,"reserved":0,"last_update":"0001-01-01T00:00:00Z","name_a2s":"Uncletopia | Frankfurt | 1 | All Maps","protocol":17,"map":"koth_viaduct","folder":"tf","game":"Team Fortress","app_id":440,"player_count":0,"max_players":24,"Bots":0,"server_type":"Dedicated","server_os":"Linux","password":true,"vac":true,"version":"7695204","steam_id":85568392924469989,"keywords":["cp","nocrits","nodmgspread","uncletopia"],"game_id":440,"stv_port":0,"stv_name":"","players":null},{"server_id":110,"name":"Uncletopia | Frankfurt | 2 | All Maps","name_short":"frk-2","host":"frk-1.de.uncletopia.com","port":27025,"enabled":true,"region":"eu","cc":"de","latitude":50.110924,"longitude":8.682127,"reserved":0,"last_update":"0001-01-01T00:00:00Z","name_a2s":"Uncletopia | Frankfurt | 2 | All Maps","protocol":17,"map":"cp_altitude","folder":"tf","game":"Team Fortress","app_id":440,"player_count":0,"max_players":24,"Bots":0,"server_type":"Dedicated","server_os":"Linux","password":true,"vac":true,"version":"7695204","steam_id":85568392924469990,"keywords":["cp","nocrits","nodmgspread","uncletopia"],"game_id":440,"stv_port":0,"stv_name":"","players":null},{"server_id":308,"name":"Uncletopia | Frankfurt | 3 | All Maps","name_short":"frk-3","host":"frk-1.de.uncletopia.com","port":27035,"enabled":true,"region":"eu","cc":"de","latitude":50.110924,"longitude":8.682127,"reserved":0,"last_update":"0001-01-01T00:00:00Z","name_a2s":"Uncletopia | Frankfurt | 3 | All Maps","protocol":17,"map":"pl_badwater","folder":"tf","game":"Team Fortress","app_id":440,"player_count":0,"max_players":24,"Bots":0,"server_type":"Dedicated","server_os":"Linux","password":true,"vac":true,"version":"7695204","steam_id":85568392924504274,"keywords":["nocrits","nodmgspread","payload","uncletopia"],"game_id":440,"stv_port":0,"stv_name":"","players":null},{"server_id":309,"name":"Uncletopia | Frankfurt | 4 | All Maps","name_short":"frk-4","host":"frk-1.de.uncletopia.com","port":27045,"enabled":true,"region":"eu","cc":"de","latitude":50.110924,"longitude":8.682127,"reserved":0,"last_update":"0001-01-01T00:00:00Z","name_a2s":"Uncletopia | Frankfurt | 4 | All Maps","protocol":17,"map":"koth_highpass","folder":"tf","game":"Team Fortress","app_id":440,"player_count":0,"max_players":24,"Bots":0,"server_type":"Dedicated","server_os":"Linux","password":true,"vac":true,"version":"7695204","steam_id":85568392924504275,"keywords":["cp","nocrits","nodmgspread","uncletopia"],"game_id":440,"stv_port":0,"stv_name":"","players":null},{"server_id":310,"name":"Uncletopia | Frankfurt | 5 | All Maps","name_short":"frk-5","host":"frk-1.de.uncletopia.com","port":27055,"enabled":true,"region":"eu","cc":"de","latitude":50.110924,"longitude":8.682127,"reserved":0,"last_update":"0001-01-01T00:00:00Z","name_a2s":"Uncletopia | Frankfurt | 5 | All Maps","protocol":17,"map":"pl_pier","folder":"tf","game":"Team Fortress","app_id":440,"player_count":0,"max_players":24,"Bots":0,"server_type":"Dedicated","server_os":"Linux","password":true,"vac":true,"version":"7695204","steam_id":85568392924504277,"keywords":["nocrits","nodmgspread","payload","uncletopia"],"game_id":440,"stv_port":0,"stv_name":"","players":null},{"server_id":311,"name":"Uncletopia | Frankfurt | 6 | All Maps","name_short":"frk-6","host":"frk-1.de.uncletopia.com","port":27065,"enabled":true,"region":"eu","cc":"de","latitude":50.110924,"longitude":8.682127,"reserved":0,"last_update":"0001-01-01T00:00:00Z","name_a2s":"Uncletopia | Frankfurt | 6 | All Maps","protocol":17,"map":"pl_barnblitz","folder":"tf","game":"Team Fortress","app_id":440,"player_count":0,"max_players":24,"Bots":0,"server_type":"Dedicated","server_os":"Linux","password":true,"vac":true,"version":"7695204","steam_id":85568392924504278,"keywords":["nocrits","nodmgspread","payload","uncletopia"],"game_id":440,"stv_port":0,"stv_name":"","players":null},{"server_id":23,"name":"Uncletopia | Frankfurt | 7 | No Payload","name_short":"frk-7","host":"frk-1.de.uncletopia.com","port":27075,"enabled":true,"region":"eu","cc":"de","latitude":50.110924,"longitude":8.682127,"reserved":0,"last_update":"0001-01-01T00:00:00Z","name_a2s":"Uncletopia | Frankfurt | 7 | No Payload","protocol":17,"map":"pl_snowycoast","folder":"tf","game":"Team Fortress","app_id":440,"player_count":0,"max_players":24,"Bots":0,"server_type":"Dedicated","server_os":"Linux","password":true,"vac":true,"version":"7695204","steam_id":85568392924742827,"keywords":["nocrits","nodmgspread","payload","uncletopia"],"game_id":440,"stv_port":0,"stv_name":"","players":null},{"server_id":24,"name":"Uncletopia | Frankfurt | 8 | Community","name_short":"frk-8","host":"frk-1.de.uncletopia.com","port":27085,"enabled":true,"region":"eu","cc":"de","latitude":50.110924,"longitude":8.682127,"reserved":0,"last_update":"0001-01-01T00:00:00Z","name_a2s":"Uncletopia | Frankfurt | 8 | Community","protocol":17,"map":"koth_lakeside_final","folder":"tf","game":"Team Fortress","app_id":440,"player_count":0,"max_players":24,"Bots":0,"server_type":"Dedicated","server_os":"Linux","password":true,"vac":true,"version":"7695204","steam_id":85568392924742828,"keywords":["cp","nocrits","nodmgspread","uncletopia"],"game_id":440,"stv_port":0,"stv_name":"","players":null},{"server_id":202,"name":"Uncletopia | Hong Kong | 1 | All Maps","name_short":"hgk-1","host":"hgk-1.hk.uncletopia.com","port":27015,"enabled":true,"region":"asia","cc":"hk","latitude":22.302711,"longitude":114.177216,"reserved":0,"last_update":"0001-01-01T00:00:00Z","name_a2s":"Uncletopia | Hong Kong | 1 | All Maps","protocol":17,"map":"pl_badwater","folder":"tf","game":"Team Fortress","app_id":440,"player_count":24,"max_players":24,"Bots":0,"server_type":"Dedicated","server_os":"Linux","password":true,"vac":true,"version":"7695204","steam_id":85568392924494504,"keywords":["nocrits","nodmgspread","payload","uncletopia"],"game_id":440,"stv_port":27016,"stv_name":"Uncletopia | Hong Kong | 1 | All Maps | STV","players":[{"user_id":494,"name":"…îu·ó°‡∂û …ü∆®u·íê","steam_id":76561199031283970,"connected_time":1458000000000,"state":"active","ping":78},{"user_id":501,"name":"xPhid","steam_id":76561199080808930,"connected_time":1144000000000,"state":"active","ping":73},{"user_id":479,"name":"Lym0n","steam_id":76561199192420260,"connected_time":3432000000000,"state":"active","ping":112},{"user_id":360,"name":"big poo (training arc)","steam_id":76561199104552936,"connected_time":6068000000000,"state":"active","ping":70},{"user_id":480,"name":"can we get much higher","steam_id":76561199390507975,"connected_time":3352000000000,"state":"active","ping":47},{"user_id":187,"name":"wumao hunter","steam_id":76561197994194946,"connected_time":11117000000000,"state":"active","ping":98},{"user_id":484,"name":"godhood","steam_id":76561198412329672,"connected_time":2660000000000,"state":"active","ping":93},{"user_id":495,"name":"TechMaster12(F2P) #savetf2","steam_id":76561199244754236,"connected_time":1454000000000,"state":"active","ping":100},{"user_id":497,"name":"Lyds","steam_id":76561199005908018,"connected_time":1431000000000,"state":"active","ping":84},{"user_id":177,"name":"oppai „Åä„Å£„Å±„ÅÑ","steam_id":76561198008307645,"connected_time":11904000000000,"state":"active","ping":73},{"user_id":275,"name":"ArcticDolphin","steam_id":76561198203626319,"connected_time":7782000000000,"state":"active","ping":122},{"user_id":498,"name":"terrybl","steam_id":76561198055553140,"connected_time":1410000000000,"state":"active","ping":77},{"user_id":185,"name":"alan poe","steam_id":76561198230213828,"connected_time":11669000000000,"state":"active","ping":72},{"user_id":493,"name":"Talkk More","steam_id":76561198305424433,"connected_time":1747000000000,"state":"active","ping":100},{"user_id":502,"name":"cfop","steam_id":76561198850021147,"connected_time":676000000000,"state":"active","ping":83},{"user_id":504,"name":"idiot normie","steam_id":76561198397662124,"connected_time":368000000000,"state":"active","ping":71},{"user_id":489,"name":"Javariced","steam_id":76561198069402937,"connected_time":1956000000000,"state":"active","ping":77},{"user_id":491,"name":"FweiD","steam_id":76561198057003021,"connected_time":1886000000000,"state":"active","ping":115},{"user_id":500,"name":"Nimbus","steam_id":76561198877713016,"connected_time":1260000000000,"state":"active","ping":103},{"user_id":273,"name":"water tastes good","steam_id":76561199375947670,"connected_time":7793000000000,"state":"active","ping":70},{"user_id":194,"name":"UltraFat","steam_id":76561198253918132,"connected_time":10493000000000,"state":"active","ping":79},{"user_id":499,"name":"Fragiv","steam_id":76561198152364869,"connected_time":1408000000000,"state":"active","ping":89},{"user_id":436,"name":"AmieAmour","steam_id":76561198956469036,"connected_time":4461000000000,"state":"active","ping":91},{"user_id":202,"name":"2232","steam_id":76561198074339034,"connected_time":9402000000000,"state":"active","ping":77}]},{"server_id":1,"name":"Uncletopia | Los Angeles | 1 | All Maps","name_short":"lax-1","host":"lax-1.us.uncletopia.com","port":27015,"enabled":true,"region":"us-west","cc":"us","latitude":33.94279,"longitude":-118.41004,"reserved":0,"last_update":"0001-01-01T00:00:00Z","name_a2s":"Uncletopia | Los Angeles | 1 | All Maps","protocol":17,"map":"cp_sunshine","folder":"tf","game":"Team Fortress","app_id":440,"player_count":24,"max_players":24,"Bots":0,"server_type":"Dedicated","server_os":"Linux","password":true,"vac":true,"version":"7695204","steam_id":85568392924469991,"keywords":["cp","nocrits","nodmgspread","uncletopia"],"game_id":440,"stv_port":27016,"stv_name":"Uncletopia | Los Angeles | 1 | All Maps | STV","players":[{"user_id":376,"name":"yoshinoya","steam_id":76561198414300607,"connected_time":365000000000,"state":"active","ping":67},{"user_id":346,"name":"c49aa4","steam_id":76561199099537250,"connected_time":2677000000000,"state":"active","ping":52},{"user_id":375,"name":"Normal","steam_id":76561198025970990,"connected_time":382000000000,"state":"active","ping":57},{"user_id":366,"name":"TheChampagneOfMayonnaise","steam_id":76561197961107982,"connected_time":694000000000,"state":"active","ping":107},{"user_id":367,"name":"Th√∂ck","steam_id":76561198028135426,"connected_time":611000000000,"state":"active","ping":52},{"user_id":377,"name":"Mrangryface98","steam_id":76561198036776117,"connected_time":298000000000,"state":"active","ping":86},{"user_id":334,"name":"Noxus","steam_id":76561199009820852,"connected_time":3500000000000,"state":"active","ping":66},{"user_id":381,"name":"A Z U R E","steam_id":76561198799958027,"connected_time":140000000000,"state":"active","ping":71},{"user_id":355,"name":"Lord Nug Nug","steam_id":76561198105688657,"connected_time":1424000000000,"state":"active","ping":84},{"user_id":363,"name":"Mr. Yoshida","steam_id":76561198263829831,"connected_time":1028000000000,"state":"active","ping":65},{"user_id":298,"name":"Humus","steam_id":76561198175286355,"connected_time":7022000000000,"state":"active","ping":48},{"user_id":341,"name":"meet the gangster mario","steam_id":76561198133360797,"connected_time":3168000000000,"state":"active","ping":56},{"user_id":369,"name":"Box of Lizards","steam_id":76561199072219697,"connected_time":603000000000,"state":"active","ping":88},{"user_id":319,"name":"Silverman_Cam","steam_id":76561198936168937,"connected_time":5023000000000,"state":"active","ping":58},{"user_id":302,"name":"Super Mighty G","steam_id":76561198020932806,"connected_time":6934000000000,"state":"active","ping":49},{"user_id":318,"name":"a_10warthog5_56","steam_id":76561199388748730,"connected_time":5155000000000,"state":"active","ping":60},{"user_id":307,"name":"Schnitz","steam_id":76561198265484253,"connected_time":6839000000000,"state":"active","ping":52},{"user_id":340,"name":"JJP","steam_id":76561198032914094,"connected_time":3220000000000,"state":"active","ping":55},{"user_id":270,"name":"Blackcat","steam_id":76561199013406735,"connected_time":10384000000000,"state":"active","ping":55},{"user_id":379,"name":"Knives(ÊÇ™È≠î)","steam_id":76561198170169835,"connected_time":244000000000,"state":"active","ping":127},{"user_id":382,"name":"roln","steam_id":76561198041066271,"connected_time":138000000000,"state":"active","ping":77},{"user_id":380,"name":"super autism girl","steam_id":76561198008908085,"connected_time":224000000000,"state":"active","ping":36},{"user_id":349,"name":"Wso1123","steam_id":76561198048040111,"connected_time":2215000000000,"state":"active","ping":61},{"user_id":308,"name":"its not clear enough","steam_id":76561198858328080,"connected_time":6819000000000,"state":"active","ping":45}]},{"server_id":112,"name":"Uncletopia | Los Angeles | 2 | All Maps","name_short":"lax-2","host":"lax-1.us.uncletopia.com","port":27025,"enabled":true,"region":"us-west","cc":"us","latitude":33.94279,"longitude":-118.41004,"reserved":0,"last_update":"0001-01-01T00:00:00Z","name_a2s":"Uncletopia | Los Angeles | 2 | All Maps","protocol":17,"map":"koth_highpass","folder":"tf","game":"Team Fortress","app_id":440,"player_count":0,"max_players":24,"Bots":0,"server_type":"Dedicated","server_os":"Linux","password":true,"vac":true,"version":"7695204","steam_id":85568392924469992,"keywords":["cp","nocrits","nodmgspread","uncletopia"],"game_id":440,"stv_port":27026,"stv_name":"Uncletopia | Los Angeles | 2 | All Maps | STV","players":null},{"server_id":324,"name":"Uncletopia | Los Angeles | 3 | All Maps","name_short":"lax-3","host":"lax-1.us.uncletopia.com","port":27035,"enabled":true,"region":"us-west","cc":"us","latitude":33.94279,"longitude":-118.41004,"reserved":0,"last_update":"0001-01-01T00:00:00Z","name_a2s":"Uncletopia | Los Angeles | 3 | All Maps","protocol":17,"map":"cp_snakewater_final1","folder":"tf","game":"Team Fortress","app_id":440,"player_count":0,"max_players":24,"Bots":0,"server_type":"Dedicated","server_os":"Linux","password":true,"vac":true,"version":"7695204","steam_id":85568392924510198,"keywords":["cp","nocrits","nodmgspread","uncletopia"],"game_id":440,"stv_port":27036,"stv_name":"Uncletopia | Los Angeles | 3 | All Maps | STV","players":null},{"server_id":25,"name":"Uncletopia | Los Angeles | 4 | No Payload","name_short":"lax-4","host":"lax-1.us.uncletopia.com","port":27045,"enabled":true,"region":"us-west","cc":"us","latitude":33.94279,"longitude":-118.41004,"reserved":0,"last_update":"0001-01-01T00:00:00Z","name_a2s":"Uncletopia | Los Angeles | 4 | No Payload","protocol":17,"map":"cp_standin_final","folder":"tf","game":"Team Fortress","app_id":440,"player_count":0,"max_players":24,"Bots":0,"server_type":"Dedicated","server_os":"Linux","password":true,"vac":true,"version":"7695204","steam_id":85568392924510199,"keywords":["cp","nocrits","nodmgspread","uncletopia"],"game_id":440,"stv_port":27046,"stv_name":"Uncletopia | Los Angeles | 4 | No Payload | STV","players":null},{"server_id":11,"name":"Uncletopia | London | 1 | All Maps","name_short":"lon-1","host":"lon-1.uk.uncletopia.com","port":27015,"enabled":true,"region":"eu","cc":"gb","latitude":51.509865,"longitude":-0.118092,"reserved":0,"last_update":"0001-01-01T00:00:00Z","name_a2s":"Uncletopia | London | 1 | All Maps","protocol":17,"map":"pl_upward","folder":"tf","game":"Team Fortress","app_id":440,"player_count":0,"max_players":24,"Bots":0,"server_type":"Dedicated","server_os":"Linux","password":true,"vac":true,"version":"7695204","steam_id":85568392924367362,"keywords":["nocrits","nodmgspread","payload","uncletopia"],"game_id":440,"stv_port":0,"stv_name":"","players":null},{"server_id":114,"name":"Uncletopia | London | 2 | All Maps","name_short":"lon-2","host":"lon-1.uk.uncletopia.com","port":27025,"enabled":true,"region":"eu","cc":"gb","latitude":51.509865,"longitude":-0.118092,"reserved":0,"last_update":"0001-01-01T00:00:00Z","name_a2s":"Uncletopia | London | 2 | All Maps","protocol":17,"map":"cp_sunshine","folder":"tf","game":"Team Fortress","app_id":440,"player_count":0,"max_players":24,"Bots":0,"server_type":"Dedicated","server_os":"Linux","password":true,"vac":true,"version":"7695204","steam_id":85568392924470941,"keywords":["cp","nocrits","nodmgspread","uncletopia"],"game_id":440,"stv_port":0,"stv_name":"","players":null},{"server_id":320,"name":"Uncletopia | London | 3 | All Maps","name_short":"lon-3","host":"lon-1.uk.uncletopia.com","port":27035,"enabled":true,"region":"eu","cc":"gb","latitude":51.509865,"longitude":-0.118092,"reserved":0,"last_update":"0001-01-01T00:00:00Z","name_a2s":"Uncletopia | London | 3 | All Maps","protocol":17,"map":"pl_borneo","folder":"tf","game":"Team Fortress","app_id":440,"player_count":24,"max_players":24,"Bots":0,"server_type":"Dedicated","server_os":"Linux","password":true,"vac":true,"version":"7695204","steam_id":85568392924510192,"keywords":["nocrits","nodmgspread","payload","uncletopia"],"game_id":440,"stv_port":27036,"stv_name":"Uncletopia | London | 3 | All Maps | STV","players":[{"user_id":76,"name":"Flint","steam_id":76561197995920776,"connected_time":896000000000,"state":"active","ping":46},{"user_id":8,"name":"gunscout","steam_id":76561198531978435,"connected_time":6040000000000,"state":"active","ping":60},{"user_id":45,"name":"Jeg (the guy that ubers scouts)","steam_id":76561198405291408,"connected_time":3563000000000,"state":"active","ping":67},{"user_id":5,"name":"[kot.bob]","steam_id":76561198990993971,"connected_time":6047000000000,"state":"active","ping":121},{"user_id":6,"name":"Mengle","steam_id":76561198001953684,"connected_time":6045000000000,"state":"active","ping":127},{"user_id":71,"name":"CamieYT","steam_id":76561198124114740,"connected_time":1266000000000,"state":"active","ping":58},{"user_id":77,"name":"BarrackOmaha","steam_id":76561198027922724,"connected_time":882000000000,"state":"active","ping":73},{"user_id":39,"name":"Glocket","steam_id":76561198068460684,"connected_time":4569000000000,"state":"active","ping":63},{"user_id":52,"name":"rat performance","steam_id":76561198065854668,"connected_time":2964000000000,"state":"active","ping":40},{"user_id":54,"name":"Fred","steam_id":76561198107137362,"connected_time":2517000000000,"state":"active","ping":45},{"user_id":49,"name":"dartush","steam_id":76561198067506270,"connected_time":3304000000000,"state":"active","ping":78},{"user_id":68,"name":"Mankor","steam_id":76561198020439322,"connected_time":1533000000000,"state":"active","ping":60},{"user_id":50,"name":"ciliorkun18","steam_id":76561198228942500,"connected_time":3299000000000,"state":"active","ping":91},{"user_id":72,"name":"E1s","steam_id":76561198894958917,"connected_time":1256000000000,"state":"active","ping":54},{"user_id":51,"name":"Spageti","steam_id":76561198074122906,"connected_time":3225000000000,"state":"active","ping":81},{"user_id":83,"name":"Hussain_144","steam_id":76561198346029208,"connected_time":531000000000,"state":"active","ping":166},{"user_id":82,"name":"Rachugh","steam_id":76561199235852578,"connected_time":553000000000,"state":"active","ping":172},{"user_id":61,"name":"Economic crisis","steam_id":76561198063562843,"connected_time":1902000000000,"state":"active","ping":61},{"user_id":60,"name":"whimsmas.","steam_id":76561198878171763,"connected_time":2006000000000,"state":"active","ping":45},{"user_id":84,"name":"Source engine wizard","steam_id":76561199212653573,"connected_time":465000000000,"state":"active","ping":79},{"user_id":87,"name":"Troodon","steam_id":76561198223648788,"connected_time":207000000000,"state":"active","ping":109},{"user_id":80,"name":"Pardon","steam_id":76561198339157326,"connected_time":755000000000,"state":"active","ping":110},{"user_id":88,"name":"Mr. Pickles #SaveTF2","steam_id":76561199210183560,"connected_time":70000000000,"state":"active","ping":121},{"user_id":86,"name":"Urayuli","steam_id":76561198031573426,"connected_time":414000000000,"state":"active","ping":71}]},{"server_id":321,"name":"Uncletopia | London | 4 | All Maps","name_short":"lon-4","host":"lon-1.uk.uncletopia.com","port":27045,"enabled":true,"region":"eu","cc":"gb","latitude":51.509865,"longitude":-0.118092,"reserved":0,"last_update":"0001-01-01T00:00:00Z","name_a2s":"Uncletopia | London | 4 | All Maps","protocol":17,"map":"koth_viaduct","folder":"tf","game":"Team Fortress","app_id":440,"player_count":0,"max_players":24,"Bots":0,"server_type":"Dedicated","server_os":"Linux","password":true,"vac":true,"version":"7695204","steam_id":85568392924510193,"keywords":["cp","nocrits","nodmgspread","uncletopia"],"game_id":440,"stv_port":0,"stv_name":"","players":null},{"server_id":21,"name":"Uncletopia | London | 5 | All Maps","name_short":"lon-5","host":"lon-1.uk.uncletopia.com","port":27055,"enabled":true,"region":"eu","cc":"gb","latitude":51.509865,"longitude":-0.118092,"reserved":0,"last_update":"0001-01-01T00:00:00Z","name_a2s":"Uncletopia | London | 5 | All Maps","protocol":17,"map":"koth_cascade","folder":"tf","game":"Team Fortress","app_id":440,"player_count":0,"max_players":24,"Bots":0,"server_type":"Dedicated","server_os":"Linux","password":true,"vac":true,"version":"7695204","steam_id":85568392924742829,"keywords":["cp","nocrits","nodmgspread","uncletopia"],"game_id":440,"stv_port":0,"stv_name":"","players":null},{"server_id":22,"name":"Uncletopia | London | 6 | All Maps","name_short":"lon-6","host":"lon-1.uk.uncletopia.com","port":27065,"enabled":true,"region":"eu","cc":"gb","latitude":51.509865,"longitude":-0.118092,"reserved":0,"last_update":"0001-01-01T00:00:00Z","name_a2s":"Uncletopia | London | 6 | All Maps","protocol":17,"map":"pl_pier","folder":"tf","game":"Team Fortress","app_id":440,"player_count":0,"max_players":24,"Bots":0,"server_type":"Dedicated","server_os":"Linux","password":true,"vac":true,"version":"7695204","steam_id":85568392924742830,"keywords":["nocrits","nodmgspread","payload","uncletopia"],"game_id":440,"stv_port":0,"stv_name":"","players":null},{"server_id":40,"name":"Uncletopia | London | 7 | No Payload","name_short":"lon-7","host":"lon-1.uk.uncletopia.com","port":27075,"enabled":true,"region":"eu","cc":"gb","latitude":51.509865,"longitude":-0.118092,"reserved":0,"last_update":"0001-01-01T00:00:00Z","name_a2s":"Uncletopia | London | 7 | No Payload","protocol":17,"map":"cp_snakewater_final1","folder":"tf","game":"Team Fortress","app_id":440,"player_count":0,"max_players":24,"Bots":0,"server_type":"Dedicated","server_os":"Linux","password":true,"vac":true,"version":"7695204","steam_id":85568392924964314,"keywords":["cp","nocrits","nodmgspread","uncletopia"],"game_id":440,"stv_port":0,"stv_name":"","players":null},{"server_id":41,"name":"Uncletopia | London | 8 | Community","name_short":"lon-8","host":"lon-1.uk.uncletopia.com","port":27085,"enabled":true,"region":"eu","cc":"gb","latitude":51.509865,"longitude":-0.118092,"reserved":0,"last_update":"0001-01-01T00:00:00Z","name_a2s":"Uncletopia | London | 8 | Community","protocol":17,"map":"cp_dustbowl","folder":"tf","game":"Team Fortress","app_id":440,"player_count":0,"max_players":24,"Bots":0,"server_type":"Dedicated","server_os":"Linux","password":true,"vac":true,"version":"7695204","steam_id":85568392924964315,"keywords":["cp","nocrits","nodmgspread","uncletopia"],"game_id":440,"stv_port":0,"stv_name":"","players":null},{"server_id":300,"name":"Uncletopia | Montr√©al | 1 | All Maps","name_short":"mtl-1","host":"mtl-1.ca.uncletopia.com","port":27015,"enabled":true,"region":"us-east","cc":"ca","latitude":45.50889,"longitude":-73.56167,"reserved":0,"last_update":"0001-01-01T00:00:00Z","name_a2s":"Uncletopia | Montr√©al | 1 | All Maps","protocol":17,"map":"koth_cascade","folder":"tf","game":"Team Fortress","app_id":440,"player_count":0,"max_players":24,"Bots":0,"server_type":"Dedicated","server_os":"Linux","password":true,"vac":true,"version":"7695204","steam_id":85568392924500087,"keywords":["cp","nocrits","nodmgspread","uncletopia"],"game_id":440,"stv_port":27016,"stv_name":"Uncletopia | Montr√©al | 1 | All Maps | STV","players":null},{"server_id":301,"name":"Uncletopia | Montr√©al | 2 | All Maps","name_short":"mtl-2","host":"mtl-1.ca.uncletopia.com","port":27025,"enabled":true,"region":"us-east","cc":"ca","latitude":45.50889,"longitude":-73.56167,"reserved":0,"last_update":"0001-01-01T00:00:00Z","name_a2s":"Uncletopia | Montr√©al | 2 | All Maps","protocol":17,"map":"koth_cascade","folder":"tf","game":"Team Fortress","app_id":440,"player_count":0,"max_players":24,"Bots":0,"server_type":"Dedicated","server_os":"Linux","password":true,"vac":true,"version":"7695204","steam_id":85568392924500088,"keywords":["cp","nocrits","nodmgspread","uncletopia"],"game_id":440,"stv_port":27026,"stv_name":"Uncletopia | Montr√©al | 2 | All Maps | STV","players":null},{"server_id":302,"name":"Uncletopia | Montr√©al | 3 | All Maps","name_short":"mtl-3","host":"mtl-1.ca.uncletopia.com","port":27035,"enabled":true,"region":"us-east","cc":"ca","latitude":45.50889,"longitude":-73.56167,"reserved":0,"last_update":"0001-01-01T00:00:00Z","name_a2s":"Uncletopia | Montr√©al | 3 | All Maps","protocol":17,"map":"koth_viaduct","folder":"tf","game":"Team Fortress","app_id":440,"player_count":0,"max_players":24,"Bots":0,"server_type":"Dedicated","server_os":"Linux","password":true,"vac":true,"version":"7695204","steam_id":85568392924500089,"keywords":["cp","nocrits","nodmgspread","uncletopia"],"game_id":440,"stv_port":0,"stv_name":"","players":null},{"server_id":303,"name":"Uncletopia | Montr√©al | 4 | No Payload","name_short":"mtl-4","host":"mtl-1.ca.uncletopia.com","port":27045,"enabled":true,"region":"us-east","cc":"ca","latitude":45.50889,"longitude":-73.56167,"reserved":0,"last_update":"0001-01-01T00:00:00Z","name_a2s":"Uncletopia | Montr√©al | 4 | No Payload","protocol":17,"map":"koth_king","folder":"tf","game":"Team Fortress","app_id":440,"player_count":0,"max_players":24,"Bots":0,"server_type":"Dedicated","server_os":"Linux","password":true,"vac":true,"version":"7695204","steam_id":85568392924500090,"keywords":["cp","nocrits","nodmgspread","uncletopia"],"game_id":440,"stv_port":27046,"stv_name":"Uncletopia | Montr√©al | 4 | No Payload | STV","players":null},{"server_id":13,"name":"Uncletopia | New York City | 1 | All Maps","name_short":"nyc-1","host":"nyc-1.us.uncletopia.com","port":27015,"enabled":true,"region":"us-east","cc":"us","latitude":40.73061,"longitude":-73.93524,"reserved":0,"last_update":"0001-01-01T00:00:00Z","name_a2s":"Uncletopia | New York City | 1 | All Maps","protocol":17,"map":"cp_altitude","folder":"tf","game":"Team Fortress","app_id":440,"player_count":0,"max_players":24,"Bots":0,"server_type":"Dedicated","server_os":"Linux","password":true,"vac":true,"version":"7695204","steam_id":85568392924469993,"keywords":["cp","nocrits","nodmgspread","uncletopia"],"game_id":440,"stv_port":27016,"stv_name":"Uncletopia | New York City | 1 | All Maps | STV","players":null},{"server_id":14,"name":"Uncletopia | New York City | 2 | All Maps","name_short":"nyc-2","host":"nyc-1.us.uncletopia.com","port":27025,"enabled":true,"region":"us-east","cc":"us","latitude":40.73061,"longitude":-73.93524,"reserved":0,"last_update":"0001-01-01T00:00:00Z","name_a2s":"Uncletopia | New York City | 2 | All Maps","protocol":17,"map":"koth_highpass","folder":"tf","game":"Team Fortress","app_id":440,"player_count":0,"max_players":24,"Bots":0,"server_type":"Dedicated","server_os":"Linux","password":true,"vac":true,"version":"7695204","steam_id":85568392924469994,"keywords":["cp","nocrits","nodmgspread","uncletopia"],"game_id":440,"stv_port":27026,"stv_name":"Uncletopia | New York City | 2 | All Maps | STV","players":null},{"server_id":15,"name":"Uncletopia | New York City | 3 | All Maps","name_short":"nyc-3","host":"nyc-1.us.uncletopia.com","port":27035,"enabled":true,"region":"us-east","cc":"us","latitude":40.73061,"longitude":-73.93524,"reserved":0,"last_update":"0001-01-01T00:00:00Z","name_a2s":"Uncletopia | New York City | 3 | All Maps","protocol":17,"map":"koth_cascade","folder":"tf","game":"Team Fortress","app_id":440,"player_count":0,"max_players":24,"Bots":0,"server_type":"Dedicated","server_os":"Linux","password":true,"vac":true,"version":"7695204","steam_id":85568392924742820,"keywords":["cp","nocrits","nodmgspread","uncletopia"],"game_id":440,"stv_port":27036,"stv_name":"Uncletopia | New York City | 3 | All Maps | STV","players":null},{"server_id":16,"name":"Uncletopia | New York City | 4 | Community","name_short":"nyc-4","host":"nyc-1.us.uncletopia.com","port":27045,"enabled":true,"region":"us-east","cc":"us","latitude":40.73061,"longitude":-73.93524,"reserved":0,"last_update":"0001-01-01T00:00:00Z","name_a2s":"Uncletopia | New York City | 4 | Community","protocol":17,"map":"workshop/koth_ashville_final.ugc2130459942","folder":"tf","game":"Team Fortress","app_id":440,"player_count":0,"max_players":24,"Bots":0,"server_type":"Dedicated","server_os":"Linux","password":true,"vac":true,"version":"7695204","steam_id":85568392924742821,"keywords":["cp","nocrits","nodmgspread","uncletopia"],"game_id":440,"stv_port":27046,"stv_name":"Uncletopia | New York City | 4 | Community | STV","players":null},{"server_id":142,"name":"Uncletopia | S√£o Paulo | 1 | All Maps","name_short":"sao-1","host":"sao-1.br.uncletopia.com","port":27015,"enabled":true,"region":"sa","cc":"br","latitude":-23.533773,"longitude":-46.62529,"reserved":0,"last_update":"0001-01-01T00:00:00Z","name_a2s":"Uncletopia | S√£o Paulo | 1 | All Maps","protocol":17,"map":"koth_highpass","folder":"tf","game":"Team Fortress","app_id":440,"player_count":0,"max_players":24,"Bots":0,"server_type":"Dedicated","server_os":"Linux","password":true,"vac":true,"version":"7695204","steam_id":85568392924469996,"keywords":["cp","nocrits","nodmgspread","uncletopia"],"game_id":440,"stv_port":27016,"stv_name":"Uncletopia | S√£o Paulo | 1 | All Maps | STV","players":null},{"server_id":143,"name":"Uncletopia | S√£o Paulo | 2 | All Maps","name_short":"sao-2","host":"sao-2.br.uncletopia.com","port":27015,"enabled":true,"region":"sa","cc":"br","latitude":-23.533773,"longitude":-46.62529,"reserved":0,"last_update":"0001-01-01T00:00:00Z","name_a2s":"Uncletopia | S√£o Paulo | 2 | All Maps","protocol":17,"map":"koth_cascade","folder":"tf","game":"Team Fortress","app_id":440,"player_count":0,"max_players":24,"Bots":0,"server_type":"Dedicated","server_os":"Linux","password":true,"vac":true,"version":"7695204","steam_id":85568392924485349,"keywords":["cp","nocrits","nodmgspread","uncletopia"],"game_id":440,"stv_port":27016,"stv_name":"Uncletopia | S√£o Paulo | 2 | All Maps | STV","players":null},{"server_id":7,"name":"Uncletopia | Seattle | 1 | All Maps","name_short":"sea-1","host":"sea-1.us.uncletopia.com","port":27015,"enabled":true,"region":"us-west","cc":"us","latitude":47.608013,"longitude":-122.33517,"reserved":0,"last_update":"0001-01-01T00:00:00Z","name_a2s":"Uncletopia | Seattle | 1 | All Maps","protocol":17,"map":"pl_pier","folder":"tf","game":"Team Fortress","app_id":440,"player_count":19,"max_players":24,"Bots":0,"server_type":"Dedicated","server_os":"Linux","password":true,"vac":true,"version":"7695204","steam_id":85568392924469997,"keywords":["nocrits","nodmgspread","payload","uncletopia"],"game_id":440,"stv_port":27016,"stv_name":"Uncletopia | Seattle | 1 | All Maps | STV","players":[{"user_id":560,"name":"Xylemon","steam_id":76561197965297420,"connected_time":1142000000000,"state":"active","ping":59},{"user_id":473,"name":"An Old Lady","steam_id":76561198047480318,"connected_time":8747000000000,"state":"active","ping":83},{"user_id":539,"name":"goldhed","steam_id":76561198051751133,"connected_time":4021000000000,"state":"active","ping":53},{"user_id":535,"name":"Spaghetti Cat","steam_id":76561198027168510,"connected_time":4686000000000,"state":"active","ping":61},{"user_id":561,"name":"s4lmon","steam_id":76561198055882807,"connected_time":1129000000000,"state":"active","ping":48},{"user_id":562,"name":"House","steam_id":76561198308405663,"connected_time":1061000000000,"state":"active","ping":52},{"user_id":565,"name":"kenZino","steam_id":76561197967971192,"connected_time":918000000000,"state":"active","ping":47},{"user_id":523,"name":"IzzyHoP","steam_id":76561197995927883,"connected_time":5030000000000,"state":"active","ping":54},{"user_id":548,"name":"Closed.","steam_id":76561198212598967,"connected_time":1932000000000,"state":"active","ping":73},{"user_id":566,"name":"Chap","steam_id":76561198294226443,"connected_time":829000000000,"state":"active","ping":88},{"user_id":559,"name":"Blackbeard","steam_id":76561198046952265,"connected_time":1188000000000,"state":"active","ping":46},{"user_id":533,"name":"rat gets the cheese","steam_id":76561198031234032,"connected_time":4712000000000,"state":"active","ping":93},{"user_id":568,"name":"Pneumo.","steam_id":76561197987911883,"connected_time":698000000000,"state":"active","ping":54},{"user_id":569,"name":"-Kind of A BIG DEAL-","steam_id":76561198050239324,"connected_time":668000000000,"state":"active","ping":41},{"user_id":570,"name":"Saint Laurent Don","steam_id":76561198116820706,"connected_time":663000000000,"state":"active","ping":75},{"user_id":538,"name":"Shah","steam_id":76561198047508851,"connected_time":4208000000000,"state":"active","ping":38},{"user_id":571,"name":"loyaldandan0764","steam_id":76561199231020424,"connected_time":661000000000,"state":"active","ping":131},{"user_id":572,"name":"Google","steam_id":76561198857237473,"connected_time":654000000000,"state":"active","ping":45},{"user_id":573,"name":"yolginmo","steam_id":76561198157985901,"connected_time":636000000000,"state":"active","ping":46}]},{"server_id":119,"name":"Uncletopia | Seattle | 2 | All Maps","name_short":"sea-2","host":"sea-1.us.uncletopia.com","port":27025,"enabled":true,"region":"us-west","cc":"us","latitude":47.608013,"longitude":-122.33517,"reserved":0,"last_update":"0001-01-01T00:00:00Z","name_a2s":"Uncletopia | Seattle | 2 | All Maps","protocol":17,"map":"koth_cascade","folder":"tf","game":"Team Fortress","app_id":440,"player_count":0,"max_players":24,"Bots":0,"server_type":"Dedicated","server_os":"Linux","password":true,"vac":true,"version":"7695204","steam_id":85568392924469998,"keywords":["cp","nocrits","nodmgspread","uncletopia"],"game_id":440,"stv_port":27026,"stv_name":"Uncletopia | Seattle | 2 | All Maps | STV","players":null},{"server_id":17,"name":"Uncletopia | San Francisco | 1 | All Maps","name_short":"sfo-1","host":"sfo-1.us.uncletopia.com","port":27015,"enabled":true,"region":"us-west","cc":"us","latitude":37.77397,"longitude":-122.4313,"reserved":0,"last_update":"0001-01-01T00:00:00Z","name_a2s":"Uncletopia | San Francisco | 1 | All Maps","protocol":17,"map":"pl_pier","folder":"tf","game":"Team Fortress","app_id":440,"player_count":20,"max_players":24,"Bots":0,"server_type":"Dedicated","server_os":"Linux","password":true,"vac":true,"version":"7695204","steam_id":85568392924469999,"keywords":["nocrits","nodmgspread","payload","uncletopia"],"game_id":440,"stv_port":27016,"stv_name":"Uncletopia | San Francisco | 1 | All Maps | STV","players":[{"user_id":297,"name":"minors dni","steam_id":76561198110142386,"connected_time":2673000000000,"state":"active","ping":46},{"user_id":328,"name":"Raian","steam_id":76561199138048671,"connected_time":73000000000,"state":"active","ping":48},{"user_id":319,"name":"oil","steam_id":76561198099980149,"connected_time":1340000000000,"state":"active","ping":59},{"user_id":143,"name":"perc 10","steam_id":76561198116471653,"connected_time":12797000000000,"state":"active","ping":53},{"user_id":329,"name":"CrackedSanity","steam_id":76561198279841251,"connected_time":6000000000,"state":"spawning","ping":60},{"user_id":325,"name":"chimplicity","steam_id":76561198012097062,"connected_time":477000000000,"state":"active","ping":65},{"user_id":286,"name":"Kenpachi","steam_id":76561198803824764,"connected_time":3292000000000,"state":"active","ping":84},{"user_id":330,"name":"o2","steam_id":76561199262570913,"connected_time":0,"state":"connecting","ping":0},{"user_id":299,"name":"SolarusD","steam_id":76561198029279861,"connected_time":2580000000000,"state":"active","ping":46},{"user_id":298,"name":"Red","steam_id":76561198037346199,"connected_time":2663000000000,"state":"active","ping":105},{"user_id":300,"name":"Merry Matches_ lfp demo","steam_id":76561198048925904,"connected_time":2466000000000,"state":"active","ping":71},{"user_id":301,"name":"Lily Thorn","steam_id":76561198305488625,"connected_time":2443000000000,"state":"active","ping":70},{"user_id":321,"name":"Scribble Scrabble","steam_id":76561199251957693,"connected_time":1170000000000,"state":"active","ping":91},{"user_id":318,"name":"Steve","steam_id":76561198352805460,"connected_time":1589000000000,"state":"active","ping":73},{"user_id":306,"name":"[S]Mr. X [No Monitor]","steam_id":76561197963746035,"connected_time":2284000000000,"state":"active","ping":90},{"user_id":309,"name":"„Çø„Ç±„Ç∑","steam_id":76561198052397636,"connected_time":2258000000000,"state":"active","ping":111},{"user_id":310,"name":"Artistic","steam_id":76561198118159566,"connected_time":2246000000000,"state":"active","ping":70},{"user_id":312,"name":"Baiden","steam_id":76561199123136659,"connected_time":2186000000000,"state":"active","ping":74},{"user_id":322,"name":"Some Dough","steam_id":76561198003827633,"connected_time":1145000000000,"state":"active","ping":42},{"user_id":327,"name":"Honda CR-V","steam_id":76561197981239654,"connected_time":148000000000,"state":"active","ping":64}]},{"server_id":18,"name":"Uncletopia | San Francisco | 2 | All Maps","name_short":"sfo-2","host":"sfo-1.us.uncletopia.com","port":27025,"enabled":true,"region":"us-west","cc":"us","latitude":37.77397,"longitude":-122.4313,"reserved":0,"last_update":"0001-01-01T00:00:00Z","name_a2s":"Uncletopia | San Francisco | 2 | All Maps","protocol":17,"map":"pl_snowycoast","folder":"tf","game":"Team Fortress","app_id":440,"player_count":24,"max_players":24,"Bots":0,"server_type":"Dedicated","server_os":"Linux","password":true,"vac":true,"version":"7695204","steam_id":85568392924470000,"keywords":["nocrits","nodmgspread","payload","uncletopia"],"game_id":440,"stv_port":27026,"stv_name":"Uncletopia | San Francisco | 2 | All Maps | STV","players":[{"user_id":626,"name":"Omyxtile","steam_id":76561198268731918,"connected_time":671000000000,"state":"active","ping":60},{"user_id":621,"name":"sheepstar34","steam_id":76561198344343340,"connected_time":1026000000000,"state":"active","ping":45},{"user_id":628,"name":"Brother Maghdoobi","steam_id":76561198081474695,"connected_time":597000000000,"state":"active","ping":67},{"user_id":629,"name":"Sad Sapling","steam_id":76561198075612150,"connected_time":564000000000,"state":"active","ping":57},{"user_id":630,"name":"AGTCO Texas","steam_id":76561198053276976,"connected_time":470000000000,"state":"active","ping":68},{"user_id":636,"name":"bad to the bone skull","steam_id":76561198256554654,"connected_time":337000000000,"state":"active","ping":67},{"user_id":637,"name":"NeoN‚Ñ¢","steam_id":76561198117608366,"connected_time":256000000000,"state":"active","ping":90},{"user_id":536,"name":"R5-D4","steam_id":76561198025196439,"connected_time":4516000000000,"state":"active","ping":72},{"user_id":555,"name":"gerg","steam_id":76561197997127387,"connected_time":3156000000000,"state":"active","ping":57},{"user_id":632,"name":"dumbass","steam_id":76561198410957728,"connected_time":408000000000,"state":"active","ping":90},{"user_id":633,"name":"god's sleepiest puppygirl","steam_id":76561198128164970,"connected_time":402000000000,"state":"active","ping":59},{"user_id":580,"name":"social distance warrior","steam_id":76561198128992994,"connected_time":2501000000000,"state":"active","ping":62},{"user_id":600,"name":"I'm sorry in advance","steam_id":76561198087380785,"connected_time":2098000000000,"state":"active","ping":57},{"user_id":594,"name":"Chiaki Nanami","steam_id":76561198164782653,"connected_time":2308000000000,"state":"active","ping":128},{"user_id":623,"name":"Timebomb2134","steam_id":76561199065629825,"connected_time":887000000000,"state":"active","ping":66},{"user_id":634,"name":"tsunshine","steam_id":76561199245670274,"connected_time":389000000000,"state":"active","ping":60},{"user_id":557,"name":"cakeebot","steam_id":76561198425995095,"connected_time":3117000000000,"state":"active","ping":74},{"user_id":635,"name":"Teacup Richie","steam_id":76561198957971115,"connected_time":340000000000,"state":"active","ping":69},{"user_id":624,"name":"Lord Veemo","steam_id":76561199157464043,"connected_time":880000000000,"state":"active","ping":52},{"user_id":638,"name":"Cornsauce","steam_id":76561198085007342,"connected_time":252000000000,"state":"active","ping":61},{"user_id":639,"name":"slan","steam_id":76561198136541876,"connected_time":239000000000,"state":"active","ping":103},{"user_id":640,"name":"Jessica (16 yo girl) xoxo","steam_id":76561198073699764,"connected_time":211000000000,"state":"active","ping":65},{"user_id":641,"name":"Satori Komeiji","steam_id":76561198158211423,"connected_time":135000000000,"state":"active","ping":54},{"user_id":642,"name":"mudunit","steam_id":76561198811544015,"connected_time":5000000000,"state":"spawning","ping":84}]},{"server_id":19,"name":"Uncletopia | San Francisco | 3 | No Payload","name_short":"sfo-3","host":"sfo-1.us.uncletopia.com","port":27035,"enabled":true,"region":"us-west","cc":"us","latitude":37.77397,"longitude":-122.4313,"reserved":0,"last_update":"0001-01-01T00:00:00Z","name_a2s":"Uncletopia | San Francisco | 3 | No Payload","protocol":17,"map":"cp_freight_final1","folder":"tf","game":"Team Fortress","app_id":440,"player_count":0,"max_players":24,"Bots":0,"server_type":"Dedicated","server_os":"Linux","password":true,"vac":true,"version":"7695204","steam_id":85568392924742824,"keywords":["cp","nocrits","nodmgspread","uncletopia"],"game_id":440,"stv_port":27036,"stv_name":"Uncletopia | San Francisco | 3 | No Payload | STV","players":null},{"server_id":20,"name":"Uncletopia | San Francisco | 4 | Community","name_short":"sfo-4","host":"sfo-1.us.uncletopia.com","port":27045,"enabled":true,"region":"us-west","cc":"us","latitude":37.77397,"longitude":-122.4313,"reserved":0,"last_update":"0001-01-01T00:00:00Z","name_a2s":"Uncletopia | San Francisco | 4 | Community","protocol":17,"map":"koth_highpass","folder":"tf","game":"Team Fortress","app_id":440,"player_count":0,"max_players":24,"Bots":0,"server_type":"Dedicated","server_os":"Linux","password":true,"vac":true,"version":"7695204","steam_id":85568392924742826,"keywords":["cp","nocrits","nodmgspread","uncletopia"],"game_id":440,"stv_port":0,"stv_name":"","players":null},{"server_id":141,"name":"Uncletopia | Sydney | 1 | All Maps","name_short":"syd-1","host":"syd-1.au.uncletopia.com","port":27015,"enabled":true,"region":"au","cc":"au","latitude":-33.865143,"longitude":151.2099,"reserved":0,"last_update":"0001-01-01T00:00:00Z","name_a2s":"Uncletopia | Sydney | 1 | All Maps","protocol":17,"map":"pl_frontier_final","folder":"tf","game":"Team Fortress","app_id":440,"player_count":14,"max_players":24,"Bots":0,"server_type":"Dedicated","server_os":"Linux","password":true,"vac":true,"version":"7695204","steam_id":85568392924470001,"keywords":["nocrits","nodmgspread","payload","uncletopia"],"game_id":440,"stv_port":27016,"stv_name":"Uncletopia | Sydney | 1 | All Maps | STV","players":[{"user_id":477,"name":"Dualshock4 Gamer","steam_id":76561198152210509,"connected_time":148000000000,"state":"active","ping":81},{"user_id":470,"name":"Gingin","steam_id":76561198211000643,"connected_time":727000000000,"state":"active","ping":54},{"user_id":442,"name":"bill","steam_id":76561198066726621,"connected_time":2886000000000,"state":"active","ping":69},{"user_id":407,"name":"DJ","steam_id":76561198070691724,"connected_time":4714000000000,"state":"active","ping":103},{"user_id":461,"name":"Dingleburied","steam_id":76561198039845750,"connected_time":1177000000000,"state":"active","ping":78},{"user_id":446,"name":"BaconUndies","steam_id":76561198281809824,"connected_time":2280000000000,"state":"active","ping":119},{"user_id":417,"name":"sat_","steam_id":76561198170693338,"connected_time":4187000000000,"state":"active","ping":78},{"user_id":443,"name":"Top Ramen","steam_id":76561198028969833,"connected_time":2755000000000,"state":"active","ping":87},{"user_id":457,"name":"Homebrand Chronic","steam_id":76561198941549137,"connected_time":1358000000000,"state":"active","ping":84},{"user_id":436,"name":"¬≤","steam_id":76561198071436574,"connected_time":3134000000000,"state":"active","ping":142},{"user_id":475,"name":"jrg","steam_id":76561197997362731,"connected_time":420000000000,"state":"active","ping":37},{"user_id":463,"name":"Empr","steam_id":76561198024387396,"connected_time":1015000000000,"state":"spawning","ping":87},{"user_id":473,"name":"Sy 4","steam_id":76561198879862702,"connected_time":437000000000,"state":"active","ping":71},{"user_id":464,"name":"haze","steam_id":76561198364434717,"connected_time":964000000000,"state":"active","ping":57}]},{"server_id":123,"name":"Uncletopia | Sydney | 2 | All Maps","name_short":"syd-2","host":"syd-1.au.uncletopia.com","port":27025,"enabled":true,"region":"au","cc":"au","latitude":-33.865143,"longitude":151.2099,"reserved":0,"last_update":"0001-01-01T00:00:00Z","name_a2s":"Uncletopia | Sydney | 2 | All Maps","protocol":17,"map":"pl_barnblitz","folder":"tf","game":"Team Fortress","app_id":440,"player_count":21,"max_players":24,"Bots":0,"server_type":"Dedicated","server_os":"Linux","password":true,"vac":true,"version":"7695204","steam_id":85568392924470002,"keywords":["nocrits","nodmgspread","payload","uncletopia"],"game_id":440,"stv_port":27026,"stv_name":"Uncletopia | Sydney | 2 | All Maps | STV","players":[{"user_id":83,"name":"HazDaddySlim","steam_id":76561198140262325,"connected_time":363000000000,"state":"active","ping":54},{"user_id":84,"name":"‡∏∏bifcheg","steam_id":76561198319806610,"connected_time":318000000000,"state":"active","ping":62},{"user_id":73,"name":"Taliban member","steam_id":76561198964787160,"connected_time":919000000000,"state":"active","ping":65},{"user_id":80,"name":"Parachuting_Parakeet","steam_id":76561198049986399,"connected_time":384000000000,"state":"active","ping":58},{"user_id":71,"name":"blicky","steam_id":76561198029829077,"connected_time":1021000000000,"state":"active","ping":91},{"user_id":85,"name":"ice_freeze101","steam_id":76561198060902496,"connected_time":315000000000,"state":"active","ping":43},{"user_id":46,"name":"syd :3","steam_id":76561199057568663,"connected_time":2531000000000,"state":"active","ping":59},{"user_id":79,"name":"Xodohtro","steam_id":76561197986660525,"connected_time":421000000000,"state":"active","ping":72},{"user_id":86,"name":"BNOR SOOP","steam_id":76561198082918640,"connected_time":303000000000,"state":"active","ping":46},{"user_id":77,"name":"Dingo","steam_id":76561198315774295,"connected_time":684000000000,"state":"active","ping":64},{"user_id":82,"name":"ChezMate","steam_id":76561198011571250,"connected_time":381000000000,"state":"active","ping":50},{"user_id":78,"name":"obfusc","steam_id":76561199388029472,"connected_time":586000000000,"state":"active","ping":65},{"user_id":88,"name":"clout","steam_id":76561198073310502,"connected_time":6000000000,"state":"spawning","ping":89},{"user_id":55,"name":"Diavolo Diablo","steam_id":76561198166295333,"connected_time":2361000000000,"state":"active","ping":163},{"user_id":47,"name":"sereni7y","steam_id":76561198135060872,"connected_time":2524000000000,"state":"active","ping":46},{"user_id":68,"name":"DelHasMangoes/yt","steam_id":76561198047183797,"connected_time":1751000000000,"state":"active","ping":83},{"user_id":72,"name":"On My Way to Smooch You, I Am","steam_id":76561198041713339,"connected_time":974000000000,"state":"active","ping":75},{"user_id":62,"name":"J''''","steam_id":76561198047565137,"connected_time":2176000000000,"state":"active","ping":64},{"user_id":56,"name":"i like balls","steam_id":76561199010558927,"connected_time":2359000000000,"state":"active","ping":173},{"user_id":67,"name":"krandlez` (Any/All)","steam_id":76561198044839726,"connected_time":1846000000000,"state":"active","ping":41},{"user_id":70,"name":"tim88435","steam_id":76561198089653987,"connected_time":1106000000000,"state":"active","ping":50}]},{"server_id":395,"name":"Uncletopia | Sydney | 3 | All Maps","name_short":"syd-3","host":"syd-1.au.uncletopia.com","port":27035,"enabled":true,"region":"au","cc":"au","latitude":-33.865143,"longitude":151.2099,"reserved":0,"last_update":"0001-01-01T00:00:00Z","name_a2s":"Uncletopia | Sydney | 3 | All Maps","protocol":17,"map":"koth_harvest_final","folder":"tf","game":"Team Fortress","app_id":440,"player_count":6,"max_players":24,"Bots":0,"server_type":"Dedicated","server_os":"Linux","password":true,"vac":true,"version":"7695204","steam_id":85568392925194467,"keywords":["cp","nocrits","nodmgspread","uncletopia"],"game_id":440,"stv_port":27036,"stv_name":"Uncletopia | Sydney | 3 | All Maps | STV","players":[{"user_id":204,"name":"SilverPenguin","steam_id":76561199025744213,"connected_time":218000000000,"state":"active","ping":90},{"user_id":191,"name":"Jamie2Cool","steam_id":76561198155695809,"connected_time":2134000000000,"state":"active","ping":71},{"user_id":192,"name":"Pak'n'Save","steam_id":76561199199754055,"connected_time":1955000000000,"state":"active","ping":61},{"user_id":205,"name":"Mission","steam_id":76561199218935728,"connected_time":185000000000,"state":"active","ping":62},{"user_id":198,"name":"Nep Nya!","steam_id":76561198303367754,"connected_time":1566000000000,"state":"active","ping":74},{"user_id":199,"name":"MikkyD","steam_id":76561198043452962,"connected_time":1281000000000,"state":"active","ping":74}]},{"server_id":396,"name":"Uncletopia | Sydney | 4 | All Maps","name_short":"syd-4","host":"syd-1.au.uncletopia.com","port":27045,"enabled":true,"region":"au","cc":"au","latitude":-33.865143,"longitude":151.2099,"reserved":0,"last_update":"0001-01-01T00:00:00Z","name_a2s":"Uncletopia | Sydney | 4 | All Maps","protocol":17,"map":"pl_barnblitz","folder":"tf","game":"Team Fortress","app_id":440,"player_count":0,"max_players":24,"Bots":0,"server_type":"Dedicated","server_os":"Linux","password":true,"vac":true,"version":"7695204","steam_id":85568392925397958,"keywords":["nocrits","nodmgspread","payload","uncletopia"],"game_id":440,"stv_port":27046,"stv_name":"Uncletopia | Sydney | 4 | All Maps | STV","players":null},{"server_id":58,"name":"Uncletopia | Sydney | 5 | No Payload","name_short":"syd-5","host":"syd-1.au.uncletopia.com","port":27055,"enabled":true,"region":"au","cc":"au","latitude":-33.865143,"longitude":151.2099,"reserved":0,"last_update":"0001-01-01T00:00:00Z","name_a2s":"Uncletopia | Sydney | 5 | No Payload","protocol":17,"map":"koth_viaduct","folder":"tf","game":"Team Fortress","app_id":440,"player_count":1,"max_players":24,"Bots":0,"server_type":"Dedicated","server_os":"Linux","password":true,"vac":true,"version":"7695204","steam_id":85568392925397959,"keywords":["cp","nocrits","nodmgspread","uncletopia"],"game_id":440,"stv_port":0,"stv_name":"","players":[{"user_id":9,"name":"Branko","steam_id":76561199262196710,"connected_time":234000000000,"state":"active","ping":35}]},{"server_id":59,"name":"Uncletopia | Sydney | 6 | Community","name_short":"syd-6","host":"syd-1.au.uncletopia.com","port":27065,"enabled":true,"region":"au","cc":"au","latitude":-33.865143,"longitude":151.2099,"reserved":0,"last_update":"0001-01-01T00:00:00Z","name_a2s":"Uncletopia | Sydney | 6 | Community","protocol":17,"map":"workshop/koth_bagel_rc5.ugc2514036946","folder":"tf","game":"Team Fortress","app_id":440,"player_count":0,"max_players":24,"Bots":0,"server_type":"Dedicated","server_os":"Linux","password":true,"vac":true,"version":"7695204","steam_id":85568392925397960,"keywords":["cp","nocrits","nodmgspread","uncletopia"],"game_id":440,"stv_port":27066,"stv_name":"Uncletopia | Sydney | 6 | Community | STV","players":null},{"server_id":49,"name":"Uncletopia | Warsaw | 1 | All Maps","name_short":"waw-1","host":"waw-1.pl.uncletopia.com","port":27015,"enabled":true,"region":"eu","cc":"pl","latitude":52.2297,"longitude":21.017532,"reserved":0,"last_update":"0001-01-01T00:00:00Z","name_a2s":"Uncletopia | Warsaw | 1 | All Maps","protocol":17,"map":"pl_frontier_final","folder":"tf","game":"Team Fortress","app_id":440,"player_count":0,"max_players":24,"Bots":0,"server_type":"Dedicated","server_os":"Linux","password":true,"vac":true,"version":"7695204","steam_id":85568392925397850,"keywords":["nocrits","nodmgspread","payload","uncletopia"],"game_id":440,"stv_port":0,"stv_name":"","players":null},{"server_id":50,"name":"Uncletopia | Warsaw | 2 | All Maps","name_short":"waw-2","host":"waw-1.pl.uncletopia.com","port":27025,"enabled":true,"region":"eu","cc":"pl","latitude":52.2297,"longitude":21.017532,"reserved":0,"last_update":"0001-01-01T00:00:00Z","name_a2s":"Uncletopia | Warsaw | 2 | All Maps","protocol":17,"map":"cp_snakewater_final1","folder":"tf","game":"Team Fortress","app_id":440,"player_count":4,"max_players":24,"Bots":0,"server_type":"Dedicated","server_os":"Linux","password":true,"vac":true,"version":"7695204","steam_id":85568392925397851,"keywords":["cp","nocrits","nodmgspread","uncletopia"],"game_id":440,"stv_port":0,"stv_name":"","players":[{"user_id":2,"name":"Act","steam_id":76561198733648612,"connected_time":699000000000,"state":"active","ping":45},{"user_id":4,"name":"sheytain01","steam_id":76561198120738825,"connected_time":598000000000,"state":"active","ping":108},{"user_id":5,"name":"Diego.Puerto.2007","steam_id":76561198846610729,"connected_time":387000000000,"state":"active","ping":169},{"user_id":6,"name":"scott steiners strongest warrio","steam_id":76561198148888622,"connected_time":366000000000,"state":"active","ping":89}]},{"server_id":51,"name":"Uncletopia | Warsaw | 3 | All Maps","name_short":"waw-3","host":"waw-1.pl.uncletopia.com","port":27035,"enabled":true,"region":"eu","cc":"pl","latitude":52.2297,"longitude":21.017532,"reserved":0,"last_update":"0001-01-01T00:00:00Z","name_a2s":"Uncletopia | Warsaw | 3 | All Maps","protocol":17,"map":"pl_barnblitz","folder":"tf","game":"Team Fortress","app_id":440,"player_count":0,"max_players":24,"Bots":0,"server_type":"Dedicated","server_os":"Linux","password":true,"vac":true,"version":"7695204","steam_id":85568392925397852,"keywords":["nocrits","nodmgspread","payload","uncletopia"],"game_id":440,"stv_port":0,"stv_name":"","players":null},{"server_id":52,"name":"Uncletopia | Warsaw | 4 | All Maps","name_short":"waw-4","host":"waw-1.pl.uncletopia.com","port":27045,"enabled":true,"region":"eu","cc":"pl","latitude":52.2297,"longitude":21.017532,"reserved":0,"last_update":"0001-01-01T00:00:00Z","name_a2s":"Uncletopia | Warsaw | 4 | All Maps","protocol":17,"map":"cp_altitude","folder":"tf","game":"Team Fortress","app_id":440,"player_count":0,"max_players":24,"Bots":0,"server_type":"Dedicated","server_os":"Linux","password":true,"vac":true,"version":"7695204","steam_id":85568392925397853,"keywords":["cp","nocrits","nodmgspread","uncletopia"],"game_id":440,"stv_port":0,"stv_name":"","players":null},{"server_id":53,"name":"Uncletopia | Warsaw | 5 | No Payload","name_short":"waw-5","host":"waw-1.pl.uncletopia.com","port":27055,"enabled":true,"region":"eu","cc":"pl","latitude":52.2297,"longitude":21.017532,"reserved":0,"last_update":"0001-01-01T00:00:00Z","name_a2s":"Uncletopia | Warsaw | 5 | No Payload","protocol":17,"map":"pl_badwater","folder":"tf","game":"Team Fortress","app_id":440,"player_count":0,"max_players":24,"Bots":0,"server_type":"Dedicated","server_os":"Linux","password":true,"vac":true,"version":"7695204","steam_id":85568392925397854,"keywords":["nocrits","nodmgspread","payload","uncletopia"],"game_id":440,"stv_port":0,"stv_name":"","players":null},{"server_id":54,"name":"Uncletopia | Warsaw | 6 | Community","name_short":"waw-6","host":"waw-1.pl.uncletopia.com","port":27065,"enabled":true,"region":"eu","cc":"pl","latitude":52.2297,"longitude":21.017532,"reserved":0,"last_update":"0001-01-01T00:00:00Z","name_a2s":"Uncletopia | Warsaw | 6 | Community","protocol":17,"map":"pl_barnblitz","folder":"tf","game":"Team Fortress","app_id":440,"player_count":0,"max_players":24,"Bots":0,"server_type":"Dedicated","server_os":"Linux","password":true,"vac":true,"version":"7695204","steam_id":85568392925397856,"keywords":["nocrits","nodmgspread","payload","uncletopia"],"game_id":440,"stv_port":0,"stv_name":"","players":null}]}