{"status":true,"message":"","result":[{"server_id":9,"name":"Uncletopia | Atlanta | 1 | All Maps","name_short":"atl-1","host":"atl-1.us.uncletopia.com","port":27015,"enabled":true,"region":"us-east","cc":"us","latitude":33.753746,"longitude":-84.38633,"reserved":0,"last_update":"0001-01-01T00:00:00Z","name_a2s":"Uncletopia | Atlanta | 1 | All Maps","protocol":17,"map":"pl_frontier_final","folder":"tf","game":"Team Fortress","app_id":440,"player_count":24,"max_players":24,"Bots":0,"server_type":"Dedicated","server_os":"Linux","password":true,"vac":true,"version":"7757534","steam_id":85568392924469982,"keywords":["nocrits","nodmgspread","payload","uncletopia"],"game_id":440,"stv_port":27016,"stv_name":"Uncletopia | Atlanta | 1 | All Maps | STV","players":[{"user_id":481,"name":"ganjaluvr420","steam_id":76561198048882285,"connected_time":706000000000,"state":"active","ping":60},{"user_id":394,"name":"Thotimus Begonimus","steam_id":76561197970275938,"connected_time":3508000000000,"state":"active","ping":38},{"user_id":406,"name":"ferretgamer","steam_id":76561198880523320,"connected_time":2745000000000,"state":"active","ping":85},{"user_id":435,"name":"Brown_Dream","steam_id":76561198975766145,"connected_time":1997000000000,"state":"active","ping":83},{"user_id":479,"name":"MELT MY EYEZ SEE YOUR FUTURE","steam_id":76561198397009880,"connected_time":862000000000,"state":"active","ping":49},{"user_id":466,"name":"Red","steam_id":76561198031865869,"connected_time":1147000000000,"state":"active","ping":62},{"user_id":467,"name":"Mug Moment Gaming","steam_id":76561198233098136,"connected_time":1109000000000,"state":"active","ping":87},{"user_id":468,"name":"rlty","steam_id":76561198009395055,"connected_time":1100000000000,"state":"active","ping":61},{"user_id":398,"name":"Fletcher","steam_id":76561198317846538,"connected_time":3193000000000,"state":"active","ping":74},{"user_id":434,"name":"NeutrinoCarrot","steam_id":76561199064279851,"connected_time":2000000000000,"state":"active","ping":63},{"user_id":482,"name":"shephield","steam_id":76561197965111567,"connected_time":354000000000,"state":"active","ping":59},{"user_id":388,"name":"Kaluka","steam_id":76561198036861445,"connected_time":3589000000000,"state":"active","ping":65},{"user_id":400,"name":"GatorAIDS","steam_id":76561198043220092,"connected_time":2970000000000,"state":"active","ping":69},{"user_id":389,"name":"REBELLION TRAITOR","steam_id":76561198059500571,"connected_time":3575000000000,"state":"active","ping":61},{"user_id":478,"name":"Devilkid","steam_id":76561199082474364,"connected_time":882000000000,"state":"active","ping":344},{"user_id":402,"name":"Dirt Man Dan","steam_id":76561198071586519,"connected_time":2945000000000,"state":"active","ping":94},{"user_id":418,"name":"Florida man","steam_id":76561198074743971,"connected_time":2225000000000,"state":"active","ping":60},{"user_id":395,"name":"Pork Soda","steam_id":76561198119575082,"connected_time":3497000000000,"state":"active","ping":83},{"user_id":419,"name":"catrinaisahuman","steam_id":76561198281355729,"connected_time":2224000000000,"state":"active","ping":82},{"user_id":393,"name":"mata","steam_id":76561198083884120,"connected_time":3550000000000,"state":"active","ping":78},{"user_id":472,"name":"Plato the Battle Philosopher","steam_id":76561198000299187,"connected_time":1052000000000,"state":"active","ping":74},{"user_id":464,"name":"34235465768798","steam_id":76561198872433183,"connected_time":1172000000000,"state":"active","ping":103},{"user_id":410,"name":"TheTruthOfTheCessationOfDukkha","steam_id":76561198214370515,"connected_time":2482000000000,"state":"active","ping":70},{"user_id":427,"name":"Ghost","steam_id":76561198110914180,"connected_time":2099000000000,"state":"active","ping":175}]},{"server_id":400,"name":"Uncletopia | Atlanta | 3 | Community","name_short":"atl-3","host":"atl-1.us.uncletopia.com","port":27035,"enabled":true,"region":"us-east","cc":"us","latitude":33.753746,"longitude":-84.38633,"reserved":0,"last_update":"0001-01-01T00:00:00Z","name_a2s":"Uncletopia | Atlanta | 3 | Community","protocol":17,"map":"workshop/cp_kalinka_rc6a.ugc1272700588","folder":"tf","game":"Team Fortress","app_id":440,"player_count":0,"max_players":24,"Bots":0,"server_type":"Dedicated","server_os":"Linux","password":true,"vac":true,"version":"7757534","steam_id":85568392924515187,"keywords":["cp","nocrits","nodmgspread","uncletopia"],"game_id":440,"stv_port":27036,"stv_name":"Uncletopia | Atlanta | 3 | Community | STV","players":null},{"server_id":401,"name":"Uncletopia | Atlanta | 4 | No Payload","name_short":"atl-4","host":"atl-1.us.uncletopia.com","port":27045,"enabled":true,"region":"us-east","cc":"us","latitude":33.753746,"longitude":-84.38633,"reserved":0,"last_update":"0001-01-01T00:00:00Z","name_a2s":"","protocol":0,"map":"","folder":"","game":"","app_id":0,"player_count":0,"max_players":0,"Bots":0,"server_type":"","server_os":"","password":false,"vac":false,"version":"","steam_id":0,"keywords":null,"game_id":0,"stv_port":0,"stv_name":"","players":null},{"server_id":2,"name":"Uncletopia | Chicago | 1 | All Maps","name_short":"chi-1","host":"chi-1.us.uncletopia.com","port":27015,"enabled":true,"region":"us-central","cc":"us","latitude":41.881832,"longitude":-87.62318,"reserved":0,"last_update":"0001-01-01T00:00:00Z","name_a2s":"Uncletopia | Chicago | 1 | All Maps","protocol":17,"map":"cp_sunshine","folder":"tf","game":"Team Fortress","app_id":440,"player_count":24,"max_players":24,"Bots":0,"server_type":"Dedicated","server_os":"Linux","password":true,"vac":true,"version":"7757534","steam_id":85568392924469984,"keywords":["cp","nocrits","nodmgspread","uncletopia"],"game_id":440,"stv_port":27016,"stv_name":"Uncletopia | Chicago | 1 | All Maps | STV","players":[{"user_id":115,"name":"Joe Grumbo","steam_id":76561198048485190,"connected_time":259000000000,"state":"active","ping":81},{"user_id":117,"name":"Ñ","steam_id":76561198079416360,"connected_time":146000000000,"state":"active","ping":71},{"user_id":82,"name":"ccortner","steam_id":76561198080762808,"connected_time":1881000000000,"state":"active","ping":77},{"user_id":83,"name":"Cheese4Everyone","steam_id":76561198022333985,"connected_time":1869000000000,"state":"active","ping":64},{"user_id":110,"name":"FemboyNate","steam_id":76561198146636410,"connected_time":389000000000,"state":"active","ping":103},{"user_id":25,"name":"Printified","steam_id":76561198063534010,"connected_time":4954000000000,"state":"active","ping":75},{"user_id":78,"name":"LegendaryMister151","steam_id":76561198064890524,"connected_time":2138000000000,"state":"active","ping":86},{"user_id":27,"name":"RaddahRaddah","steam_id":76561198194462829,"connected_time":4915000000000,"state":"active","ping":58},{"user_id":99,"name":"sentientpieceoftoast(they/them)","steam_id":76561199032992123,"connected_time":1264000000000,"state":"active","ping":77},{"user_id":93,"name":"Slugma","steam_id":76561198048544669,"connected_time":1454000000000,"state":"active","ping":153},{"user_id":116,"name":"B)","steam_id":76561198093921290,"connected_time":225000000000,"state":"active","ping":53},{"user_id":32,"name":"Hsepirn","steam_id":76561198152395431,"connected_time":4712000000000,"state":"active","ping":110},{"user_id":112,"name":"Cocksneed Fartin","steam_id":76561198126675787,"connected_time":349000000000,"state":"active","ping":75},{"user_id":118,"name":"Mixomin","steam_id":76561198295061570,"connected_time":54000000000,"state":"active","ping":64},{"user_id":114,"name":"Fox","steam_id":76561198063507627,"connected_time":334000000000,"state":"active","ping":66},{"user_id":98,"name":"sleepychungus45","steam_id":76561198215559840,"connected_time":1296000000000,"state":"active","ping":62},{"user_id":109,"name":"TheGrassMan (He/Him)","steam_id":76561198118984048,"connected_time":578000000000,"state":"active","ping":57},{"user_id":90,"name":"APOTATO","steam_id":76561198118199858,"connected_time":1502000000000,"state":"active","ping":90},{"user_id":94,"name":"Gabinator32","steam_id":76561198872467183,"connected_time":1436000000000,"state":"active","ping":46},{"user_id":84,"name":"A Gas Salesman!","steam_id":76561198081877626,"connected_time":1864000000000,"state":"active","ping":65},{"user_id":69,"name":"tapewyrm","steam_id":76561198072632696,"connected_time":2575000000000,"state":"active","ping":78},{"user_id":74,"name":"Candy Sparkles","steam_id":76561198126871264,"connected_time":2510000000000,"state":"active","ping":84},{"user_id":48,"name":"Phil Collins","steam_id":76561198068868644,"connected_time":4440000000000,"state":"active","ping":102},{"user_id":85,"name":"Cheetose Intolerant","steam_id":76561198013399809,"connected_time":1700000000000,"state":"active","ping":81}]},{"server_id":106,"name":"Uncletopia | Chicago | 2 | All Maps","name_short":"chi-2","host":"chi-1.us.uncletopia.com","port":27025,"enabled":true,"region":"us-central","cc":"us","latitude":41.881832,"longitude":-87.62318,"reserved":0,"last_update":"0001-01-01T00:00:00Z","name_a2s":"Uncletopia | Chicago | 2 | All Maps","protocol":17,"map":"koth_viaduct","folder":"tf","game":"Team Fortress","app_id":440,"player_count":16,"max_players":24,"Bots":0,"server_type":"Dedicated","server_os":"Linux","password":true,"vac":true,"version":"7757534","steam_id":85568392924469985,"keywords":["cp","nocrits","nodmgspread","uncletopia"],"game_id":440,"stv_port":27026,"stv_name":"Uncletopia | Chicago | 2 | All Maps | STV","players":[{"user_id":11,"name":"plank","steam_id":76561198133608972,"connected_time":677000000000,"state":"active","ping":62},{"user_id":12,"name":"DaHubs901","steam_id":76561198113212049,"connected_time":646000000000,"state":"active","ping":78},{"user_id":13,"name":"A Puppy","steam_id":76561198828184456,"connected_time":595000000000,"state":"active","ping":55},{"user_id":14,"name":"jorjor wells","steam_id":76561199073429082,"connected_time":419000000000,"state":"active","ping":61},{"user_id":15,"name":"affixated","steam_id":76561198028162378,"connected_time":295000000000,"state":"active","ping":88},{"user_id":16,"name":"grandma","steam_id":76561198203789568,"connected_time":131000000000,"state":"active","ping":63},{"user_id":17,"name":"mynameisatif1","steam_id":76561199062993493,"connected_time":120000000000,"state":"active","ping":85},{"user_id":18,"name":"_Lusty_","steam_id":76561198876948142,"connected_time":110000000000,"state":"active","ping":60},{"user_id":19,"name":"peach cobbler","steam_id":76561199238923581,"connected_time":105000000000,"state":"active","ping":321},{"user_id":20,"name":"Dazed","steam_id":76561198167096734,"connected_time":64000000000,"state":"active","ping":88},{"user_id":21,"name":"SirCleric","steam_id":76561198353556457,"connected_time":24000000000,"state":"active","ping":398},{"user_id":22,"name":"Dino Aids","steam_id":76561199204984924,"connected_time":22000000000,"state":"active","ping":59},{"user_id":23,"name":"cubansandwicheater99","steam_id":76561198087570794,"connected_time":20000000000,"state":"active","ping":46},{"user_id":24,"name":"Griffin","steam_id":76561198159339442,"connected_time":19000000000,"state":"spawning","ping":68},{"user_id":25,"name":"yeeye","steam_id":76561198094306054,"connected_time":11000000000,"state":"spawning","ping":85},{"user_id":26,"name":"nurp","steam_id":76561198071687616,"connected_time":3000000000,"state":"spawning","ping":58}]},{"server_id":402,"name":"Uncletopia | Chicago | 3 | All Maps","name_short":"chi-3","host":"chi-1.us.uncletopia.com","port":27035,"enabled":true,"region":"us-central","cc":"us","latitude":41.881832,"longitude":-87.62318,"reserved":0,"last_update":"0001-01-01T00:00:00Z","name_a2s":"Uncletopia | Chicago | 3 | All Maps","protocol":17,"map":"koth_highpass","folder":"tf","game":"Team Fortress","app_id":440,"player_count":24,"max_players":24,"Bots":0,"server_type":"Dedicated","server_os":"Linux","password":true,"vac":true,"version":"7757534","steam_id":85568392924515191,"keywords":["cp","nocrits","nodmgspread","uncletopia"],"game_id":440,"stv_port":27036,"stv_name":"Uncletopia | Chicago | 3 | All Maps | STV","players":[{"user_id":51,"name":"Elizabeth truss","steam_id":76561198058250979,"connected_time":635000000000,"state":"active","ping":82},{"user_id":35,"name":"MonkyBoo","steam_id":76561198304371716,"connected_time":1238000000000,"state":"active","ping":72},{"user_id":36,"name":"Draconic Ballad","steam_id":76561198027191515,"connected_time":1230000000000,"state":"active","ping":48},{"user_id":53,"name":"OceanMan1997","steam_id":76561198840230320,"connected_time":476000000000,"state":"active","ping":66},{"user_id":39,"name":"daemon","steam_id":76561198001541433,"connected_time":995000000000,"state":"active","ping":60},{"user_id":40,"name":"Yayifications","steam_id":76561198066227208,"connected_time":953000000000,"state":"active","ping":60},{"user_id":37,"name":"PeopleOrderOurPatties","steam_id":76561198323144922,"connected_time":1230000000000,"state":"active","ping":58},{"user_id":54,"name":"Tezcatlipoca","steam_id":76561198010708247,"connected_time":205000000000,"state":"active","ping":65},{"user_id":41,"name":"chickenman400","steam_id":76561198304265800,"connected_time":946000000000,"state":"active","ping":78},{"user_id":15,"name":"maxresdefault","steam_id":76561198185980055,"connected_time":2225000000000,"state":"active","ping":61},{"user_id":55,"name":"Leoirye","steam_id":76561198193785469,"connected_time":164000000000,"state":"active","ping":52},{"user_id":45,"name":"Decimus","steam_id":76561198341781527,"connected_time":793000000000,"state":"active","ping":84},{"user_id":18,"name":"CPUnit","steam_id":76561198162881878,"connected_time":2050000000000,"state":"active","ping":67},{"user_id":32,"name":"Rockgraham101","steam_id":76561198171740458,"connected_time":1429000000000,"state":"active","ping":71},{"user_id":56,"name":"Pyro410","steam_id":76561199241277109,"connected_time":145000000000,"state":"active","ping":65},{"user_id":47,"name":"Trox","steam_id":76561198263581464,"connected_time":734000000000,"state":"active","ping":87},{"user_id":48,"name":"quiexofficial","steam_id":76561199209372829,"connected_time":730000000000,"state":"active","ping":148},{"user_id":23,"name":"The Dead Weight","steam_id":76561198056694098,"connected_time":1956000000000,"state":"active","ping":76},{"user_id":25,"name":"James","steam_id":76561198081313916,"connected_time":1917000000000,"state":"active","ping":72},{"user_id":31,"name":"ApertureCity","steam_id":76561198004153607,"connected_time":1619000000000,"state":"active","ping":80},{"user_id":49,"name":"Sup m8","steam_id":76561198081659121,"connected_time":717000000000,"state":"active","ping":63},{"user_id":28,"name":"can't","steam_id":76561198090531755,"connected_time":1675000000000,"state":"active","ping":71},{"user_id":50,"name":"Karma's Camera","steam_id":76561198059385185,"connected_time":715000000000,"state":"active","ping":79},{"user_id":33,"name":"horace","steam_id":76561198035613413,"connected_time":1425000000000,"state":"active","ping":78}]},{"server_id":403,"name":"Uncletopia | Chicago | 4 | All Maps","name_short":"chi-4","host":"chi-1.us.uncletopia.com","port":27045,"enabled":true,"region":"us-central","cc":"us","latitude":41.881832,"longitude":-87.62318,"reserved":0,"last_update":"0001-01-01T00:00:00Z","name_a2s":"Uncletopia | Chicago | 4 | All Maps","protocol":17,"map":"pl_barnblitz","folder":"tf","game":"Team Fortress","app_id":440,"player_count":24,"max_players":24,"Bots":0,"server_type":"Dedicated","server_os":"Linux","password":true,"vac":true,"version":"7757534","steam_id":85568392924515193,"keywords":["nocrits","nodmgspread","payload","uncletopia"],"game_id":440,"stv_port":27046,"stv_name":"Uncletopia | Chicago | 4 | All Maps | STV","players":[{"user_id":187,"name":"noah","steam_id":76561198173310157,"connected_time":1387000000000,"state":"active","ping":67},{"user_id":160,"name":"Toastie","steam_id":76561198246760934,"connected_time":3132000000000,"state":"active","ping":49},{"user_id":193,"name":"The Caretaker","steam_id":76561198125241411,"connected_time":1072000000000,"state":"active","ping":104},{"user_id":201,"name":"Sprinklingmydoughnut","steam_id":76561198168009092,"connected_time":471000000000,"state":"active","ping":79},{"user_id":171,"name":"Stock Medic","steam_id":76561198065479730,"connected_time":2672000000000,"state":"active","ping":45},{"user_id":150,"name":"Cusven","steam_id":76561198319658526,"connected_time":3558000000000,"state":"active","ping":64},{"user_id":188,"name":"BigDeac","steam_id":76561198091237274,"connected_time":1379000000000,"state":"active","ping":69},{"user_id":198,"name":"Foxtrot Lima Echo Xray","steam_id":76561198041427264,"connected_time":657000000000,"state":"active","ping":60},{"user_id":199,"name":"Dio main","steam_id":76561198202340834,"connected_time":604000000000,"state":"active","ping":74},{"user_id":145,"name":"Nespreco","steam_id":76561198252035336,"connected_time":4010000000000,"state":"active","ping":74},{"user_id":189,"name":"RaPids","steam_id":76561198082496100,"connected_time":1368000000000,"state":"active","ping":78},{"user_id":141,"name":"Bozanimal","steam_id":76561198044096897,"connected_time":4080000000000,"state":"active","ping":62},{"user_id":183,"name":"Deimos","steam_id":76561199002318574,"connected_time":1996000000000,"state":"active","ping":100},{"user_id":194,"name":"-W3E- grim10465","steam_id":76561198045698581,"connected_time":1023000000000,"state":"active","ping":56},{"user_id":195,"name":"Biscuits","steam_id":76561198278677660,"connected_time":1017000000000,"state":"active","ping":76},{"user_id":182,"name":"John Dungus (the real one)","steam_id":76561198049191027,"connected_time":2088000000000,"state":"active","ping":57},{"user_id":200,"name":"MLG BOOTMAN","steam_id":76561198234179320,"connected_time":600000000000,"state":"active","ping":80},{"user_id":173,"name":"Coup de Grass","steam_id":76561198011643226,"connected_time":2544000000000,"state":"active","ping":60},{"user_id":179,"name":"bird","steam_id":76561199144340440,"connected_time":2238000000000,"state":"active","ping":66},{"user_id":157,"name":"Can we get much dumber?(jack)","steam_id":76561198044762365,"connected_time":3235000000000,"state":"active","ping":50},{"user_id":169,"name":"Moonflower ✦","steam_id":76561198191782483,"connected_time":2693000000000,"state":"active","ping":83},{"user_id":96,"name":"goblino","steam_id":76561198068260422,"connected_time":7556000000000,"state":"active","ping":50},{"user_id":174,"name":"La Chancla","steam_id":76561198971528917,"connected_time":2478000000000,"state":"active","ping":65},{"user_id":192,"name":"Missing Minus","steam_id":76561198120822928,"connected_time":1262000000000,"state":"active","ping":60}]},{"server_id":36,"name":"Uncletopia | Chicago | 5 | All Maps","name_short":"chi-5","host":"chi-2.us.uncletopia.com","port":27015,"enabled":true,"region":"us-central","cc":"us","latitude":41.881832,"longitude":-87.62318,"reserved":0,"last_update":"0001-01-01T00:00:00Z","name_a2s":"Uncletopia | Chicago | 5 | All Maps","protocol":17,"map":"koth_cascade","folder":"tf","game":"Team Fortress","app_id":440,"player_count":0,"max_players":24,"Bots":0,"server_type":"Dedicated","server_os":"Linux","password":true,"vac":true,"version":"7757534","steam_id":85568392924866362,"keywords":["cp","nocrits","nodmgspread","uncletopia"],"game_id":440,"stv_port":27016,"stv_name":"Uncletopia | Chicago | 5 | All Maps | STV","players":null},{"server_id":37,"name":"Uncletopia | Chicago | 6 | All Maps","name_short":"chi-6","host":"chi-2.us.uncletopia.com","port":27025,"enabled":true,"region":"us-central","cc":"us","latitude":41.881832,"longitude":-87.62318,"reserved":0,"last_update":"0001-01-01T00:00:00Z","name_a2s":"Uncletopia | Chicago | 6 | All Maps","protocol":17,"map":"koth_cascade","folder":"tf","game":"Team Fortress","app_id":440,"player_count":0,"max_players":24,"Bots":0,"server_type":"Dedicated","server_os":"Linux","password":true,"vac":true,"version":"7757534","steam_id":85568392924866363,"keywords":["cp","nocrits","nodmgspread","uncletopia"],"game_id":440,"stv_port":27026,"stv_name":"Uncletopia | Chicago | 6 | All Maps | STV","players":null},{"server_id":38,"name":"Uncletopia | Chicago | 7 | Stopwatch Beta","name_short":"chi-7","host":"chi-2.us.uncletopia.com","port":27035,"enabled":true,"region":"us-central","cc":"us","latitude":41.881832,"longitude":-87.62318,"reserved":0,"last_update":"0001-01-01T00:00:00Z","name_a2s":"Uncletopia | Chicago | 7 | Stopwatch Beta","protocol":17,"map":"pl_upward","folder":"tf","game":"Team Fortress","app_id":440,"player_count":0,"max_players":24,"Bots":0,"server_type":"Dedicated","server_os":"Linux","password":true,"vac":true,"version":"7757534","steam_id":85568392924866364,"keywords":["nocrits","nodmgspread","payload","uncletopia"],"game_id":440,"stv_port":27036,"stv_name":"Uncletopia | Chicago | 7 | Stopwatch Beta | STV","players":null},{"server_id":39,"name":"Uncletopia | Chicago | 8 | Community","name_short":"chi-8","host":"chi-2.us.uncletopia.com","port":27045,"enabled":true,"region":"us-central","cc":"us","latitude":41.881832,"longitude":-87.62318,"reserved":0,"last_update":"0001-01-01T00:00:00Z","name_a2s":"Uncletopia | Chicago | 8 | Community","protocol":17,"map":"pl_barnblitz","folder":"tf","game":"Team Fortress","app_id":440,"player_count":0,"max_players":24,"Bots":0,"server_type":"Dedicated","server_os":"Linux","password":true,"vac":true,"version":"7757534","steam_id":85568392924866365,"keywords":["nocrits","nodmgspread","payload","uncletopia"],"game_id":440,"stv_port":27046,"stv_name":"Uncletopia | Chicago | 8 | Community | STV","players":null},{"server_id":8,"name":"Uncletopia | Dallas | 1 | All Maps","name_short":"dal-1","host":"dal-1.us.uncletopia.com","port":27015,"enabled":true,"region":"us-central","cc":"us","latitude":32.779167,"longitude":-96.80889,"reserved":0,"last_update":"0001-01-01T00:00:00Z","name_a2s":"Uncletopia | Dallas | 1 | All Maps","protocol":17,"map":"koth_cascade","folder":"tf","game":"Team Fortress","app_id":440,"player_count":1,"max_players":24,"Bots":0,"server_type":"Dedicated","server_os":"Linux","password":true,"vac":true,"version":"7757534","steam_id":85568392924469986,"keywords":["cp","nocrits","nodmgspread","uncletopia"],"game_id":440,"stv_port":27016,"stv_name":"Uncletopia | Dallas | 1 | All Maps | STV","players":[{"user_id":17,"name":"Heavy is best girl","steam_id":76561199129350925,"connected_time":30000000000,"state":"active","ping":94}]},{"server_id":108,"name":"Uncletopia | Dallas | 2 | All Maps","name_short":"dal-2","host":"dal-1.us.uncletopia.com","port":27025,"enabled":true,"region":"us-central","cc":"us","latitude":32.779167,"longitude":-96.80889,"reserved":0,"last_update":"0001-01-01T00:00:00Z","name_a2s":"Uncletopia | Dallas | 2 | All Maps","protocol":17,"map":"koth_highpass","folder":"tf","game":"Team Fortress","app_id":440,"player_count":0,"max_players":24,"Bots":0,"server_type":"Dedicated","server_os":"Linux","password":true,"vac":true,"version":"7757534","steam_id":85568392924469988,"keywords":["cp","nocrits","nodmgspread","uncletopia"],"game_id":440,"stv_port":27026,"stv_name":"Uncletopia | Dallas | 2 | All Maps | STV","players":null},{"server_id":5,"name":"Uncletopia | Frankfurt | 1 | All Maps","name_short":"frk-1","host":"frk-1.de.uncletopia.com","port":27015,"enabled":true,"region":"eu","cc":"de","latitude":50.110924,"longitude":8.682127,"reserved":0,"last_update":"0001-01-01T00:00:00Z","name_a2s":"Uncletopia | Frankfurt | 1 | All Maps","protocol":17,"map":"pl_pier","folder":"tf","game":"Team Fortress","app_id":440,"player_count":24,"max_players":24,"Bots":0,"server_type":"Dedicated","server_os":"Linux","password":true,"vac":true,"version":"7757534","steam_id":85568392924469989,"keywords":["nocrits","nodmgspread","payload","uncletopia"],"game_id":440,"stv_port":27016,"stv_name":"Uncletopia | Frankfurt | 1 | All Maps | STV","players":[{"user_id":520,"name":"Germanium_Ge","steam_id":76561198130561775,"connected_time":1884000000000,"state":"active","ping":55},{"user_id":474,"name":"Yatsuzume","steam_id":76561198059762108,"connected_time":6329000000000,"state":"active","ping":46},{"user_id":524,"name":"Oreo456","steam_id":76561199120695703,"connected_time":803000000000,"state":"active","ping":40},{"user_id":494,"name":"Carrot Arc","steam_id":76561198164957006,"connected_time":3659000000000,"state":"active","ping":86},{"user_id":525,"name":"MYASSTRO","steam_id":76561198046513151,"connected_time":697000000000,"state":"active","ping":91},{"user_id":512,"name":"Moss","steam_id":76561199084162765,"connected_time":2885000000000,"state":"active","ping":67},{"user_id":513,"name":"Pico","steam_id":76561198063552545,"connected_time":2749000000000,"state":"active","ping":100},{"user_id":526,"name":"kbbq","steam_id":76561198346638308,"connected_time":679000000000,"state":"active","ping":55},{"user_id":467,"name":"Carry Krypl","steam_id":76561198136938121,"connected_time":6861000000000,"state":"active","ping":56},{"user_id":536,"name":"GogsCrunchyNuts","steam_id":76561198150599213,"connected_time":363000000000,"state":"active","ping":101},{"user_id":528,"name":"cl","steam_id":76561199436640904,"connected_time":656000000000,"state":"active","ping":75},{"user_id":503,"name":"After8","steam_id":76561198090750865,"connected_time":3137000000000,"state":"active","ping":60},{"user_id":537,"name":"autistic luigi","steam_id":76561199218285040,"connected_time":132000000000,"state":"active","ping":71},{"user_id":535,"name":"Fridge","steam_id":76561198071665589,"connected_time":406000000000,"state":"active","ping":96},{"user_id":530,"name":"Jaunedice","steam_id":76561198171063246,"connected_time":573000000000,"state":"active","ping":72},{"user_id":521,"name":"naleksi","steam_id":76561198018391055,"connected_time":1250000000000,"state":"active","ping":109},{"user_id":514,"name":"Cathedra","steam_id":76561198430227030,"connected_time":2559000000000,"state":"active","ping":50},{"user_id":539,"name":"Chris","steam_id":76561198018626828,"connected_time":92000000000,"state":"active","ping":59},{"user_id":531,"name":"zak","steam_id":76561197998895428,"connected_time":568000000000,"state":"active","ping":59},{"user_id":538,"name":"Tlad2","steam_id":76561198854897667,"connected_time":126000000000,"state":"active","ping":77},{"user_id":484,"name":"Jeeworth","steam_id":76561198797972504,"connected_time":4696000000000,"state":"active","ping":79},{"user_id":508,"name":"usagi","steam_id":76561198083867904,"connected_time":3073000000000,"state":"active","ping":61},{"user_id":533,"name":"Deacon Dracul","steam_id":76561198046880663,"connected_time":497000000000,"state":"active","ping":108},{"user_id":511,"name":"Ederbiener","steam_id":76561198201899018,"connected_time":2974000000000,"state":"active","ping":67}]},{"server_id":110,"name":"Uncletopia | Frankfurt | 2 | All Maps","name_short":"frk-2","host":"frk-1.de.uncletopia.com","port":27025,"enabled":true,"region":"eu","cc":"de","latitude":50.110924,"longitude":8.682127,"reserved":0,"last_update":"0001-01-01T00:00:00Z","name_a2s":"Uncletopia | Frankfurt | 2 | All Maps","protocol":17,"map":"koth_harvest_final","folder":"tf","game":"Team Fortress","app_id":440,"player_count":22,"max_players":24,"Bots":0,"server_type":"Dedicated","server_os":"Linux","password":true,"vac":true,"version":"7757534","steam_id":85568392924469990,"keywords":["cp","nocrits","nodmgspread","uncletopia"],"game_id":440,"stv_port":27026,"stv_name":"Uncletopia | Frankfurt | 2 | All Maps | STV","players":[{"user_id":148,"name":"Fpaoullis","steam_id":76561198897866131,"connected_time":122000000000,"state":"active","ping":96},{"user_id":89,"name":"Suetolog","steam_id":76561199053090212,"connected_time":4318000000000,"state":"active","ping":55},{"user_id":141,"name":"Prison Mike","steam_id":76561198014221596,"connected_time":531000000000,"state":"active","ping":74},{"user_id":100,"name":"plugwalk™","steam_id":76561198048250715,"connected_time":3339000000000,"state":"active","ping":45},{"user_id":17,"name":"Balls","steam_id":76561198086400484,"connected_time":9789000000000,"state":"active","ping":78},{"user_id":98,"name":"pizzi","steam_id":76561198133085347,"connected_time":3752000000000,"state":"active","ping":59},{"user_id":147,"name":"dddd","steam_id":76561198120894372,"connected_time":171000000000,"state":"active","ping":108},{"user_id":150,"name":"Dooble donk man look at me donk","steam_id":76561198225523596,"connected_time":27000000000,"state":"spawning","ping":81},{"user_id":151,"name":"gjhkgfkjfh","steam_id":76561198031181349,"connected_time":12000000000,"state":"active","ping":91},{"user_id":140,"name":"MAKENTAKEN","steam_id":76561199127359587,"connected_time":577000000000,"state":"active","ping":87},{"user_id":119,"name":"Metta","steam_id":76561199129903286,"connected_time":2510000000000,"state":"active","ping":60},{"user_id":145,"name":"PizzaPete123","steam_id":76561198089478290,"connected_time":254000000000,"state":"active","ping":51},{"user_id":113,"name":"Pronton","steam_id":76561198082502910,"connected_time":2844000000000,"state":"active","ping":50},{"user_id":123,"name":"Tre3","steam_id":76561198054795379,"connected_time":2387000000000,"state":"active","ping":53},{"user_id":104,"name":"alex.difoux","steam_id":76561198370369778,"connected_time":3073000000000,"state":"active","ping":69},{"user_id":116,"name":"Fat Pigeon","steam_id":76561198817940142,"connected_time":2574000000000,"state":"active","ping":45},{"user_id":142,"name":"Dedu","steam_id":76561198132191324,"connected_time":314000000000,"state":"active","ping":52},{"user_id":138,"name":"Gearless","steam_id":76561198362367074,"connected_time":690000000000,"state":"active","ping":66},{"user_id":139,"name":"Mao Zedong","steam_id":76561198347020945,"connected_time":634000000000,"state":"active","ping":78},{"user_id":146,"name":"Nithle","steam_id":76561198025372740,"connected_time":245000000000,"state":"active","ping":74},{"user_id":125,"name":"Daniele Antox","steam_id":76561198323879930,"connected_time":1940000000000,"state":"active","ping":58},{"user_id":82,"name":"Adrenaline","steam_id":76561197970852048,"connected_time":4794000000000,"state":"active","ping":59}]},{"server_id":308,"name":"Uncletopia | Frankfurt | 3 | All Maps","name_short":"frk-3","host":"frk-1.de.uncletopia.com","port":27035,"enabled":true,"region":"eu","cc":"de","latitude":50.110924,"longitude":8.682127,"reserved":0,"last_update":"0001-01-01T00:00:00Z","name_a2s":"Uncletopia | Frankfurt | 3 | All Maps","protocol":17,"map":"cp_badlands","folder":"tf","game":"Team Fortress","app_id":440,"player_count":24,"max_players":24,"Bots":0,"server_type":"Dedicated","server_os":"Linux","password":true,"vac":true,"version":"7757534","steam_id":85568392924504274,"keywords":["cp","nocrits","nodmgspread","uncletopia"],"game_id":440,"stv_port":27036,"stv_name":"Uncletopia | Frankfurt | 3 | All Maps | STV","players":[{"user_id":300,"name":"Garden Freeman","steam_id":76561199073314677,"connected_time":1818000000000,"state":"active","ping":68},{"user_id":336,"name":"HOI","steam_id":76561198061182117,"connected_time":194000000000,"state":"active","ping":62},{"user_id":328,"name":"VibeCheck","steam_id":76561198425961218,"connected_time":572000000000,"state":"active","ping":106},{"user_id":182,"name":"Arcader","steam_id":76561198109860110,"connected_time":10092000000000,"state":"active","ping":59},{"user_id":303,"name":"Megasecret","steam_id":76561198055378025,"connected_time":1594000000000,"state":"active","ping":93},{"user_id":324,"name":"sleepy toad","steam_id":76561198032150922,"connected_time":629000000000,"state":"active","ping":58},{"user_id":295,"name":"Mr. Dick™","steam_id":76561198047309044,"connected_time":2425000000000,"state":"active","ping":143},{"user_id":301,"name":"tealoverr.190","steam_id":76561199028497703,"connected_time":1783000000000,"state":"active","ping":99},{"user_id":302,"name":"King Tong","steam_id":76561199037038148,"connected_time":1667000000000,"state":"active","ping":76},{"user_id":325,"name":"Azardouz","steam_id":76561198017176806,"connected_time":612000000000,"state":"active","ping":63},{"user_id":306,"name":"Minetaur","steam_id":76561198325874076,"connected_time":1438000000000,"state":"active","ping":71},{"user_id":326,"name":"Wsupp","steam_id":76561198826654763,"connected_time":612000000000,"state":"active","ping":61},{"user_id":327,"name":"Hamburger77","steam_id":76561198004553646,"connected_time":582000000000,"state":"active","ping":184},{"user_id":335,"name":"hourglass","steam_id":76561198166613799,"connected_time":238000000000,"state":"active","ping":77},{"user_id":317,"name":"Poodle","steam_id":76561198015483504,"connected_time":899000000000,"state":"active","ping":74},{"user_id":315,"name":"yyny","steam_id":76561198066287297,"connected_time":1140000000000,"state":"active","ping":55},{"user_id":287,"name":"sisto majesto","steam_id":76561198073532776,"connected_time":3169000000000,"state":"active","ping":98},{"user_id":337,"name":"justpixels","steam_id":76561198143717568,"connected_time":42000000000,"state":"spawning","ping":106},{"user_id":338,"name":"harrison","steam_id":76561198990132243,"connected_time":29000000000,"state":"spawning","ping":63},{"user_id":331,"name":"jhonny el sins","steam_id":76561198982787752,"connected_time":438000000000,"state":"active","ping":55},{"user_id":321,"name":"Sakurayashiki","steam_id":76561198004388514,"connected_time":704000000000,"state":"active","ping":87},{"user_id":322,"name":"Bottom of the barrel terrorist","steam_id":76561198929386604,"connected_time":702000000000,"state":"active","ping":88},{"user_id":323,"name":"gxoul","steam_id":76561199091006994,"connected_time":698000000000,"state":"active","ping":72},{"user_id":332,"name":"Caskye","steam_id":76561198165430888,"connected_time":381000000000,"state":"active","ping":73}]},{"server_id":309,"name":"Uncletopia | Frankfurt | 4 | All Maps","name_short":"frk-4","host":"frk-1.de.uncletopia.com","port":27045,"enabled":true,"region":"eu","cc":"de","latitude":50.110924,"longitude":8.682127,"reserved":0,"last_update":"0001-01-01T00:00:00Z","name_a2s":"Uncletopia | Frankfurt | 4 | All Maps","protocol":17,"map":"pl_swiftwater_final1","folder":"tf","game":"Team Fortress","app_id":440,"player_count":24,"max_players":24,"Bots":0,"server_type":"Dedicated","server_os":"Linux","password":true,"vac":true,"version":"7757534","steam_id":85568392924504275,"keywords":["nocrits","nodmgspread","payload","uncletopia"],"game_id":440,"stv_port":27046,"stv_name":"Uncletopia | Frankfurt | 4 | All Maps | STV","players":[{"user_id":212,"name":"VZS","steam_id":76561198133050665,"connected_time":537000000000,"state":"active","ping":60},{"user_id":188,"name":"Valoxi","steam_id":76561197995042938,"connected_time":2021000000000,"state":"active","ping":69},{"user_id":216,"name":"Michael Brecker","steam_id":76561198106684566,"connected_time":0,"state":"spawning","ping":48},{"user_id":211,"name":"$nØw","steam_id":76561198238781028,"connected_time":569000000000,"state":"active","ping":104},{"user_id":180,"name":"☣Strale☣","steam_id":76561198026578820,"connected_time":2286000000000,"state":"active","ping":64},{"user_id":214,"name":"bob0rutin","steam_id":76561198010760312,"connected_time":247000000000,"state":"active","ping":79},{"user_id":196,"name":"Mad_Scientist","steam_id":76561198121431854,"connected_time":1392000000000,"state":"active","ping":47},{"user_id":213,"name":"JJ","steam_id":76561197997582019,"connected_time":437000000000,"state":"active","ping":56},{"user_id":177,"name":"lvl. 50 honkler","steam_id":76561198061688660,"connected_time":2509000000000,"state":"active","ping":101},{"user_id":200,"name":"teddyswk","steam_id":76561198404939571,"connected_time":1023000000000,"state":"active","ping":99},{"user_id":201,"name":"ShiftyJaffa","steam_id":76561197993541888,"connected_time":1021000000000,"state":"active","ping":51},{"user_id":203,"name":"Swedde","steam_id":76561198297296440,"connected_time":845000000000,"state":"active","ping":77},{"user_id":215,"name":"Kamini","steam_id":76561199406532818,"connected_time":77000000000,"state":"active","ping":79},{"user_id":182,"name":"Refre35","steam_id":76561198971840738,"connected_time":2271000000000,"state":"active","ping":67},{"user_id":181,"name":"shadow wizard money gang","steam_id":76561198875472890,"connected_time":2279000000000,"state":"active","ping":75},{"user_id":190,"name":"Ela?","steam_id":76561198382598509,"connected_time":1991000000000,"state":"active","ping":60},{"user_id":88,"name":"人 ØАААØ人","steam_id":76561198944032480,"connected_time":8353000000000,"state":"active","ping":80},{"user_id":205,"name":"Veritasket","steam_id":76561198090074093,"connected_time":782000000000,"state":"active","ping":58},{"user_id":185,"name":"Mr.Weis","steam_id":76561198115443579,"connected_time":2217000000000,"state":"active","ping":63},{"user_id":206,"name":"Aqua188","steam_id":76561198817772963,"connected_time":732000000000,"state":"active","ping":97},{"user_id":207,"name":"Choruptian","steam_id":76561198017686366,"connected_time":720000000000,"state":"active","ping":60},{"user_id":208,"name":"mind goblin 1","steam_id":76561198013873239,"connected_time":718000000000,"state":"active","ping":83},{"user_id":209,"name":"triangle","steam_id":76561198046838168,"connected_time":712000000000,"state":"active","ping":52},{"user_id":210,"name":"smell_my_cheese","steam_id":76561198008517427,"connected_time":712000000000,"state":"active","ping":69}]},{"server_id":310,"name":"Uncletopia | Frankfurt | 5 | All Maps","name_short":"frk-5","host":"frk-1.de.uncletopia.com","port":27055,"enabled":true,"region":"eu","cc":"de","latitude":50.110924,"longitude":8.682127,"reserved":0,"last_update":"0001-01-01T00:00:00Z","name_a2s":"Uncletopia | Frankfurt | 5 | All Maps","protocol":17,"map":"pl_upward","folder":"tf","game":"Team Fortress","app_id":440,"player_count":0,"max_players":24,"Bots":0,"server_type":"Dedicated","server_os":"Linux","password":true,"vac":true,"version":"7757534","steam_id":85568392924504277,"keywords":["nocrits","nodmgspread","payload","uncletopia"],"game_id":440,"stv_port":27056,"stv_name":"Uncletopia | Frankfurt | 5 | All Maps | STV","players":null},{"server_id":311,"name":"Uncletopia | Frankfurt | 6 | All Maps","name_short":"frk-6","host":"frk-1.de.uncletopia.com","port":27065,"enabled":true,"region":"eu","cc":"de","latitude":50.110924,"longitude":8.682127,"reserved":0,"last_update":"0001-01-01T00:00:00Z","name_a2s":"Uncletopia | Frankfurt | 6 | All Maps","protocol":17,"map":"pl_upward","folder":"tf","game":"Team Fortress","app_id":440,"player_count":24,"max_players":24,"Bots":0,"server_type":"Dedicated","server_os":"Linux","password":true,"vac":true,"version":"7757534","steam_id":85568392924504278,"keywords":["nocrits","nodmgspread","payload","uncletopia"],"game_id":440,"stv_port":27066,"stv_name":"Uncletopia | Frankfurt | 6 | All Maps | STV","players":[{"user_id":312,"name":"Tarkus","steam_id":76561198115938777,"connected_time":5331000000000,"state":"active","ping":101},{"user_id":374,"name":"the slinger man (real) (really ","steam_id":76561198353096483,"connected_time":548000000000,"state":"active","ping":56},{"user_id":375,"name":"miss paulings bitch","steam_id":76561199403298146,"connected_time":538000000000,"state":"active","ping":80},{"user_id":372,"name":"ArikMor","steam_id":76561199124472513,"connected_time":1155000000000,"state":"active","ping":120},{"user_id":276,"name":"Paintbrush","steam_id":76561198119987705,"connected_time":6940000000000,"state":"active","ping":54},{"user_id":376,"name":"mrtrollmo","steam_id":76561199175588467,"connected_time":524000000000,"state":"active","ping":82},{"user_id":298,"name":"Welder","steam_id":76561198355300561,"connected_time":5977000000000,"state":"active","ping":70},{"user_id":386,"name":"guiseppe","steam_id":76561198046129681,"connected_time":188000000000,"state":"active","ping":91},{"user_id":295,"name":"vik vaughn","steam_id":76561198059782462,"connected_time":6067000000000,"state":"active","ping":59},{"user_id":383,"name":"redindy","steam_id":76561198070154445,"connected_time":355000000000,"state":"active","ping":169},{"user_id":382,"name":"SynthBox3","steam_id":76561199094075745,"connected_time":389000000000,"state":"active","ping":147},{"user_id":384,"name":"vi hava en usel regering","steam_id":76561198037978654,"connected_time":331000000000,"state":"active","ping":71},{"user_id":353,"name":"the joy of recycling","steam_id":76561198415564349,"connected_time":2391000000000,"state":"active","ping":60},{"user_id":379,"name":"Acanda","steam_id":76561198123246537,"connected_time":434000000000,"state":"active","ping":56},{"user_id":359,"name":"desnot","steam_id":76561198862581894,"connected_time":1959000000000,"state":"active","ping":73},{"user_id":364,"name":"joni","steam_id":76561198048957139,"connected_time":1572000000000,"state":"active","ping":49},{"user_id":366,"name":"FTH","steam_id":76561198066287815,"connected_time":1463000000000,"state":"active","ping":121},{"user_id":387,"name":"poliakov.noam","steam_id":76561199259322961,"connected_time":177000000000,"state":"active","ping":107},{"user_id":367,"name":"☞LaZe☜","steam_id":76561198202191400,"connected_time":1463000000000,"state":"active","ping":68},{"user_id":274,"name":"TJ1212","steam_id":76561199013575313,"connected_time":7041000000000,"state":"active","ping":82},{"user_id":380,"name":"stinkyeseses","steam_id":76561198402218127,"connected_time":425000000000,"state":"active","ping":93},{"user_id":371,"name":"NIKITA","steam_id":76561197992927989,"connected_time":1188000000000,"state":"active","ping":97},{"user_id":315,"name":"meriones","steam_id":76561198034234373,"connected_time":5220000000000,"state":"active","ping":56},{"user_id":385,"name":"R3inis","steam_id":76561199030393569,"connected_time":282000000000,"state":"active","ping":80}]},{"server_id":23,"name":"Uncletopia | Frankfurt | 7 | Stopwatch Beta","name_short":"frk-7","host":"frk-1.de.uncletopia.com","port":27075,"enabled":true,"region":"eu","cc":"de","latitude":50.110924,"longitude":8.682127,"reserved":0,"last_update":"0001-01-01T00:00:00Z","name_a2s":"Uncletopia | Frankfurt | 7 | Stopwatch Beta","protocol":17,"map":"workshop/koth_product_final.ugc454272353","folder":"tf","game":"Team Fortress","app_id":440,"player_count":1,"max_players":24,"Bots":0,"server_type":"Dedicated","server_os":"Linux","password":true,"vac":true,"version":"7757534","steam_id":85568392924742827,"keywords":["cp","nocrits","nodmgspread","uncletopia"],"game_id":440,"stv_port":27076,"stv_name":"Uncletopia | Frankfurt | 7 | Stopwatch Beta | STV","players":[{"user_id":10,"name":"nep-nep","steam_id":76561198303149838,"connected_time":353000000000,"state":"active","ping":38}]},{"server_id":24,"name":"Uncletopia | Frankfurt | 8 | Community","name_short":"frk-8","host":"frk-1.de.uncletopia.com","port":27085,"enabled":true,"region":"eu","cc":"de","latitude":50.110924,"longitude":8.682127,"reserved":0,"last_update":"0001-01-01T00:00:00Z","name_a2s":"Uncletopia | Frankfurt | 8 | Community","protocol":17,"map":"workshop/cp_caldera_rc2.ugc2834196889","folder":"tf","game":"Team Fortress","app_id":440,"player_count":0,"max_players":24,"Bots":0,"server_type":"Dedicated","server_os":"Linux","password":true,"vac":true,"version":"7757534","steam_id":85568392924742828,"keywords":["cp","nocrits","nodmgspread","uncletopia"],"game_id":440,"stv_port":27086,"stv_name":"Uncletopia | Frankfurt | 8 | Community | STV","players":null},{"server_id":202,"name":"Uncletopia | Hong Kong | 1 | All Maps","name_short":"hgk-1","host":"hgk-1.hk.uncletopia.com","port":27015,"enabled":true,"region":"asia","cc":"hk","latitude":22.302711,"longitude":114.177216,"reserved":0,"last_update":"0001-01-01T00:00:00Z","name_a2s":"Uncletopia | Hong Kong | 1 | All Maps","protocol":17,"map":"koth_viaduct","folder":"tf","game":"Team Fortress","app_id":440,"player_count":0,"max_players":24,"Bots":0,"server_type":"Dedicated","server_os":"Linux","password":true,"vac":true,"version":"7757534","steam_id":85568392924494504,"keywords":["cp","nocrits","nodmgspread","uncletopia"],"game_id":440,"stv_port":27016,"stv_name":"Uncletopia | Hong Kong | 1 | All Maps | STV","players":null},{"server_id":1,"name":"Uncletopia | Los Angeles | 1 | All Maps","name_short":"lax-1","host":"lax-1.us.uncletopia.com","port":27015,"enabled":true,"region":"us-west","cc":"us","latitude":33.94279,"longitude":-118.41004,"reserved":0,"last_update":"0001-01-01T00:00:00Z","name_a2s":"Uncletopia | Los Angeles | 1 | All Maps","protocol":17,"map":"koth_lakeside_final","folder":"tf","game":"Team Fortress","app_id":440,"player_count":0,"max_players":24,"Bots":0,"server_type":"Dedicated","server_os":"Linux","password":true,"vac":true,"version":"7757534","steam_id":85568392924469991,"keywords":["cp","nocrits","nodmgspread","uncletopia"],"game_id":440,"stv_port":27016,"stv_name":"Uncletopia | Los Angeles | 1 | All Maps | STV","players":null},{"server_id":112,"name":"Uncletopia | Los Angeles | 2 | All Maps","name_short":"lax-2","host":"lax-1.us.uncletopia.com","port":27025,"enabled":true,"region":"us-west","cc":"us","latitude":33.94279,"longitude":-118.41004,"reserved":0,"last_update":"0001-01-01T00:00:00Z","name_a2s":"Uncletopia | Los Angeles | 2 | All Maps","protocol":17,"map":"koth_cascade","folder":"tf","game":"Team Fortress","app_id":440,"player_count":0,"max_players":24,"Bots":0,"server_type":"Dedicated","server_os":"Linux","password":true,"vac":true,"version":"7757534","steam_id":85568392924469992,"keywords":["cp","nocrits","nodmgspread","uncletopia"],"game_id":440,"stv_port":27026,"stv_name":"Uncletopia | Los Angeles | 2 | All Maps | STV","players":null},{"server_id":324,"name":"Uncletopia | Los Angeles | 3 | All Maps","name_short":"lax-3","host":"lax-1.us.uncletopia.com","port":27035,"enabled":true,"region":"us-west","cc":"us","latitude":33.94279,"longitude":-118.41004,"reserved":0,"last_update":"0001-01-01T00:00:00Z","name_a2s":"Uncletopia | Los Angeles | 3 | All Maps","protocol":17,"map":"pl_snowycoast","folder":"tf","game":"Team Fortress","app_id":440,"player_count":0,"max_players":24,"Bots":0,"server_type":"Dedicated","server_os":"Linux","password":true,"vac":true,"version":"7757534","steam_id":85568392924510198,"keywords":["nocrits","nodmgspread","payload","uncletopia"],"game_id":440,"stv_port":27036,"stv_name":"Uncletopia | Los Angeles | 3 | All Maps | STV","players":null},{"server_id":25,"name":"Uncletopia | Los Angeles | 4 | Stopwatch Beta","name_short":"lax-4","host":"lax-1.us.uncletopia.com","port":27045,"enabled":true,"region":"us-west","cc":"us","latitude":33.94279,"longitude":-118.41004,"reserved":0,"last_update":"0001-01-01T00:00:00Z","name_a2s":"Uncletopia | Los Angeles | 4 | Stopwatch Beta","protocol":17,"map":"pl_frontier_final","folder":"tf","game":"Team Fortress","app_id":440,"player_count":0,"max_players":24,"Bots":0,"server_type":"Dedicated","server_os":"Linux","password":true,"vac":true,"version":"7757534","steam_id":85568392924510199,"keywords":["nocrits","nodmgspread","payload","uncletopia"],"game_id":440,"stv_port":27046,"stv_name":"Uncletopia | Los Angeles | 4 | Stopwatch Beta | STV","players":null},{"server_id":11,"name":"Uncletopia | London | 1 | All Maps","name_short":"lon-1","host":"lon-1.uk.uncletopia.com","port":27015,"enabled":true,"region":"eu","cc":"gb","latitude":51.509865,"longitude":-0.118092,"reserved":0,"last_update":"0001-01-01T00:00:00Z","name_a2s":"Uncletopia | London | 1 | All Maps","protocol":17,"map":"pl_snowycoast","folder":"tf","game":"Team Fortress","app_id":440,"player_count":24,"max_players":24,"Bots":0,"server_type":"Dedicated","server_os":"Linux","password":true,"vac":true,"version":"7757534","steam_id":85568392924367362,"keywords":["nocrits","nodmgspread","payload","uncletopia"],"game_id":440,"stv_port":27016,"stv_name":"Uncletopia | London | 1 | All Maps | STV","players":[{"user_id":506,"name":"get crunk or whatever","steam_id":76561198239265962,"connected_time":5089000000000,"state":"active","ping":67},{"user_id":543,"name":"zoD","steam_id":76561198373626104,"connected_time":1721000000000,"state":"active","ping":85},{"user_id":556,"name":"lulu","steam_id":76561199147764133,"connected_time":415000000000,"state":"active","ping":76},{"user_id":550,"name":"trite","steam_id":76561197983765323,"connected_time":736000000000,"state":"active","ping":49},{"user_id":536,"name":"Moja jaja šlajdraju","steam_id":76561198280390098,"connected_time":2599000000000,"state":"active","ping":84},{"user_id":533,"name":"Purps","steam_id":76561198053886680,"connected_time":3640000000000,"state":"active","ping":42},{"user_id":557,"name":"wicked","steam_id":76561198164376035,"connected_time":398000000000,"state":"active","ping":75},{"user_id":554,"name":"silicon based life form","steam_id":76561199127121346,"connected_time":492000000000,"state":"active","ping":55},{"user_id":560,"name":"Pain","steam_id":76561198106997949,"connected_time":163000000000,"state":"active","ping":75},{"user_id":520,"name":"Silent Person","steam_id":76561198107763537,"connected_time":4556000000000,"state":"active","ping":77},{"user_id":553,"name":"Slazaa","steam_id":76561197993252446,"connected_time":522000000000,"state":"active","ping":55},{"user_id":555,"name":"Insain Bolt!","steam_id":76561198025687726,"connected_time":445000000000,"state":"active","ping":71},{"user_id":545,"name":"astra","steam_id":76561198042980579,"connected_time":952000000000,"state":"active","ping":72},{"user_id":561,"name":"jovi_","steam_id":76561198449280552,"connected_time":119000000000,"state":"active","ping":51},{"user_id":549,"name":"Aperture","steam_id":76561198080764989,"connected_time":796000000000,"state":"active","ping":57},{"user_id":562,"name":"✪ J","steam_id":76561198094911581,"connected_time":103000000000,"state":"active","ping":51},{"user_id":541,"name":"scantron","steam_id":76561199103959197,"connected_time":2139000000000,"state":"active","ping":100},{"user_id":539,"name":"Dr. Funkenstein","steam_id":76561197977816210,"connected_time":2237000000000,"state":"active","ping":58},{"user_id":544,"name":"ciliorkun18","steam_id":76561198228942500,"connected_time":1465000000000,"state":"active","ping":94},{"user_id":535,"name":"Funny mann with a shootgun","steam_id":76561199017872113,"connected_time":3131000000000,"state":"active","ping":60},{"user_id":558,"name":"Ged","steam_id":76561198079288943,"connected_time":348000000000,"state":"active","ping":159},{"user_id":542,"name":"RoboMeld","steam_id":76561199146150092,"connected_time":1913000000000,"state":"active","ping":91},{"user_id":559,"name":"hud_saytext_time 0","steam_id":76561198010327228,"connected_time":309000000000,"state":"active","ping":65},{"user_id":546,"name":"re","steam_id":76561198202816899,"connected_time":952000000000,"state":"active","ping":39}]},{"server_id":114,"name":"Uncletopia | London | 2 | All Maps","name_short":"lon-2","host":"lon-1.uk.uncletopia.com","port":27025,"enabled":true,"region":"eu","cc":"gb","latitude":51.509865,"longitude":-0.118092,"reserved":0,"last_update":"0001-01-01T00:00:00Z","name_a2s":"Uncletopia | London | 2 | All Maps","protocol":17,"map":"pl_upward","folder":"tf","game":"Team Fortress","app_id":440,"player_count":16,"max_players":24,"Bots":0,"server_type":"Dedicated","server_os":"Linux","password":true,"vac":true,"version":"7757534","steam_id":85568392924470941,"keywords":["nocrits","nodmgspread","payload","uncletopia"],"game_id":440,"stv_port":27026,"stv_name":"Uncletopia | London | 2 | All Maps | STV","players":[{"user_id":221,"name":"Talent","steam_id":76561198153880354,"connected_time":1673000000000,"state":"active","ping":50},{"user_id":248,"name":"flora","steam_id":76561197994492154,"connected_time":358000000000,"state":"active","ping":81},{"user_id":252,"name":"d-_-b","steam_id":76561199069470978,"connected_time":23000000000,"state":"active","ping":139},{"user_id":233,"name":"Banehallow","steam_id":76561198020385353,"connected_time":1255000000000,"state":"active","ping":66},{"user_id":246,"name":"Uncle Terry","steam_id":76561198396415736,"connected_time":430000000000,"state":"active","ping":56},{"user_id":182,"name":"New","steam_id":76561198402195911,"connected_time":4884000000000,"state":"active","ping":129},{"user_id":238,"name":"homeinvasion$","steam_id":76561199111905021,"connected_time":984000000000,"state":"active","ping":104},{"user_id":211,"name":"JESUSis myDRUG","steam_id":76561198064847881,"connected_time":2973000000000,"state":"active","ping":59},{"user_id":147,"name":"Bloofred","steam_id":76561198111778052,"connected_time":6542000000000,"state":"active","ping":56},{"user_id":251,"name":"boo!","steam_id":76561198444424053,"connected_time":134000000000,"state":"active","ping":80},{"user_id":239,"name":"arcSolver","steam_id":76561198212013944,"connected_time":980000000000,"state":"active","ping":50},{"user_id":245,"name":"Paper plane Mike","steam_id":76561198367921934,"connected_time":440000000000,"state":"active","ping":57},{"user_id":250,"name":"Peanuts Wilbury","steam_id":76561198399905493,"connected_time":188000000000,"state":"active","ping":63},{"user_id":243,"name":"Spageti","steam_id":76561198074122906,"connected_time":692000000000,"state":"active","ping":89},{"user_id":216,"name":"Harpenden, Harpenden, Harpenden","steam_id":76561198118138546,"connected_time":2367000000000,"state":"active","ping":38},{"user_id":247,"name":"KFC Enjoyer","steam_id":76561198840259819,"connected_time":421000000000,"state":"active","ping":55}]},{"server_id":320,"name":"Uncletopia | London | 3 | All Maps","name_short":"lon-3","host":"lon-1.uk.uncletopia.com","port":27035,"enabled":true,"region":"eu","cc":"gb","latitude":51.509865,"longitude":-0.118092,"reserved":0,"last_update":"0001-01-01T00:00:00Z","name_a2s":"Uncletopia | London | 3 | All Maps","protocol":17,"map":"pl_frontier_final","folder":"tf","game":"Team Fortress","app_id":440,"player_count":24,"max_players":24,"Bots":0,"server_type":"Dedicated","server_os":"Linux","password":true,"vac":true,"version":"7757534","steam_id":85568392924510192,"keywords":["nocrits","nodmgspread","payload","uncletopia"],"game_id":440,"stv_port":27036,"stv_name":"Uncletopia | London | 3 | All Maps | STV","players":[{"user_id":596,"name":"Pomson collector guy","steam_id":76561198990438917,"connected_time":3827000000000,"state":"active","ping":68},{"user_id":626,"name":"Miton","steam_id":76561197970323209,"connected_time":616000000000,"state":"active","ping":90},{"user_id":578,"name":"JohnTraveltime","steam_id":76561199244281754,"connected_time":4117000000000,"state":"active","ping":78},{"user_id":579,"name":"Cosmetic brain","steam_id":76561198055936410,"connected_time":4116000000000,"state":"active","ping":79},{"user_id":607,"name":"playing while wearing crocs.","steam_id":76561198139404261,"connected_time":2569000000000,"state":"active","ping":42},{"user_id":635,"name":"Pungkrockaren","steam_id":76561198050214002,"connected_time":51000000000,"state":"active","ping":57},{"user_id":621,"name":"Accident","steam_id":76561198115160396,"connected_time":1014000000000,"state":"active","ping":80},{"user_id":594,"name":"TheEventGuy","steam_id":76561197972797744,"connected_time":3857000000000,"state":"active","ping":74},{"user_id":604,"name":"Jeg","steam_id":76561198405291408,"connected_time":2723000000000,"state":"active","ping":72},{"user_id":634,"name":"mudman","steam_id":76561198079420187,"connected_time":88000000000,"state":"active","ping":136},{"user_id":612,"name":"LurkkiBoy","steam_id":76561198049936676,"connected_time":1843000000000,"state":"active","ping":124},{"user_id":630,"name":"Dmitrii.Alexandrovich","steam_id":76561199386822589,"connected_time":248000000000,"state":"active","ping":80},{"user_id":597,"name":"Dodoshka","steam_id":76561198093464840,"connected_time":3770000000000,"state":"active","ping":97},{"user_id":620,"name":":)","steam_id":76561198103988618,"connected_time":1037000000000,"state":"active","ping":61},{"user_id":593,"name":"Velma","steam_id":76561198047359132,"connected_time":3872000000000,"state":"active","ping":73},{"user_id":608,"name":"Deva Path","steam_id":76561198085763542,"connected_time":2393000000000,"state":"active","ping":91},{"user_id":595,"name":"Ducc","steam_id":76561198030677425,"connected_time":3846000000000,"state":"active","ping":61},{"user_id":631,"name":"arty","steam_id":76561198007971021,"connected_time":184000000000,"state":"active","ping":93},{"user_id":601,"name":"MorVill","steam_id":76561198809859945,"connected_time":3004000000000,"state":"active","ping":50},{"user_id":632,"name":"Smarties McFlurry","steam_id":76561198196259989,"connected_time":168000000000,"state":"active","ping":51},{"user_id":633,"name":"Merciz","steam_id":76561197971808715,"connected_time":158000000000,"state":"active","ping":98},{"user_id":611,"name":"Sgreff","steam_id":76561198036304365,"connected_time":1955000000000,"state":"active","ping":46},{"user_id":616,"name":"Estrogen Overdoser","steam_id":76561199030306982,"connected_time":1203000000000,"state":"active","ping":67},{"user_id":629,"name":"Mr. Caesar","steam_id":76561198166329161,"connected_time":395000000000,"state":"active","ping":56}]},{"server_id":321,"name":"Uncletopia | London | 4 | All Maps","name_short":"lon-4","host":"lon-1.uk.uncletopia.com","port":27045,"enabled":true,"region":"eu","cc":"gb","latitude":51.509865,"longitude":-0.118092,"reserved":0,"last_update":"0001-01-01T00:00:00Z","name_a2s":"Uncletopia | London | 4 | All Maps","protocol":17,"map":"pl_badwater","folder":"tf","game":"Team Fortress","app_id":440,"player_count":22,"max_players":24,"Bots":0,"server_type":"Dedicated","server_os":"Linux","password":true,"vac":true,"version":"7757534","steam_id":85568392924510193,"keywords":["nocrits","nodmgspread","payload","uncletopia"],"game_id":440,"stv_port":27046,"stv_name":"Uncletopia | London | 4 | All Maps | STV","players":[{"user_id":43,"name":"Tomato188","steam_id":76561198292926885,"connected_time":2609000000000,"state":"active","ping":52},{"user_id":44,"name":"Derp","steam_id":76561198197901062,"connected_time":2607000000000,"state":"active","ping":56},{"user_id":49,"name":"Cypher","steam_id":76561199023619899,"connected_time":1995000000000,"state":"active","ping":57},{"user_id":50,"name":"3L","steam_id":76561198007208996,"connected_time":1852000000000,"state":"active","ping":47},{"user_id":76,"name":"EvilHoneyBadger","steam_id":76561198118775370,"connected_time":472000000000,"state":"active","ping":118},{"user_id":67,"name":"Repays","steam_id":76561198082993000,"connected_time":1234000000000,"state":"active","ping":44},{"user_id":69,"name":"Le Nain","steam_id":76561198050638632,"connected_time":1143000000000,"state":"active","ping":55},{"user_id":84,"name":"blue","steam_id":76561198216200092,"connected_time":270000000000,"state":"active","ping":45},{"user_id":79,"name":"noire","steam_id":76561198426604784,"connected_time":341000000000,"state":"active","ping":49},{"user_id":88,"name":"Craig Crusade","steam_id":76561199225918086,"connected_time":6000000000,"state":"spawning","ping":45},{"user_id":66,"name":"Owl","steam_id":76561198248266580,"connected_time":1288000000000,"state":"active","ping":67},{"user_id":75,"name":"PantaloonSoiler","steam_id":76561198157903792,"connected_time":542000000000,"state":"active","ping":128},{"user_id":80,"name":"dotdotdot","steam_id":76561198057628751,"connected_time":337000000000,"state":"active","ping":60},{"user_id":28,"name":"johncenx","steam_id":76561198366703672,"connected_time":2976000000000,"state":"active","ping":73},{"user_id":60,"name":"VolcanicArts","steam_id":76561198063453246,"connected_time":1455000000000,"state":"active","ping":52},{"user_id":86,"name":"2 metric tons of loam topsoil","steam_id":76561199083249137,"connected_time":190000000000,"state":"active","ping":51},{"user_id":81,"name":"Mercury","steam_id":76561198148379456,"connected_time":334000000000,"state":"active","ping":84},{"user_id":33,"name":"isha","steam_id":76561199041566425,"connected_time":2887000000000,"state":"active","ping":62},{"user_id":34,"name":"d u k k i","steam_id":76561198071807437,"connected_time":2840000000000,"state":"active","ping":77},{"user_id":82,"name":"Egor Pomidor","steam_id":76561199175688390,"connected_time":312000000000,"state":"active","ping":82},{"user_id":74,"name":"Maranhadas","steam_id":76561198152856761,"connected_time":565000000000,"state":"active","ping":154},{"user_id":40,"name":"Walter Griffin","steam_id":76561199415989636,"connected_time":2730000000000,"state":"active","ping":110}]},{"server_id":21,"name":"Uncletopia | London | 5 | All Maps","name_short":"lon-5","host":"lon-1.uk.uncletopia.com","port":27055,"enabled":true,"region":"eu","cc":"gb","latitude":51.509865,"longitude":-0.118092,"reserved":0,"last_update":"0001-01-01T00:00:00Z","name_a2s":"Uncletopia | London | 5 | All Maps","protocol":17,"map":"plr_bananabay","folder":"tf","game":"Team Fortress","app_id":440,"player_count":19,"max_players":24,"Bots":0,"server_type":"Dedicated","server_os":"Linux","password":true,"vac":true,"version":"7757534","steam_id":85568392924742829,"keywords":["nocrits","nodmgspread","payload","uncletopia"],"game_id":440,"stv_port":27056,"stv_name":"Uncletopia | London | 5 | All Maps | STV","players":[{"user_id":274,"name":"Swagger64","steam_id":76561198158347026,"connected_time":1694000000000,"state":"active","ping":98},{"user_id":298,"name":"harrydec","steam_id":76561198063498873,"connected_time":376000000000,"state":"active","ping":58},{"user_id":299,"name":"pezza","steam_id":76561197995173247,"connected_time":369000000000,"state":"active","ping":58},{"user_id":252,"name":"decriminalise goblins","steam_id":76561198048257605,"connected_time":2659000000000,"state":"active","ping":47},{"user_id":290,"name":"mike","steam_id":76561199195695390,"connected_time":778000000000,"state":"active","ping":58},{"user_id":258,"name":"Jbcdu87","steam_id":76561198010695917,"connected_time":2255000000000,"state":"active","ping":47},{"user_id":303,"name":"Eyy_Cucasi","steam_id":76561198271767632,"connected_time":45000000000,"state":"active","ping":91},{"user_id":305,"name":"Lukas","steam_id":76561198009118452,"connected_time":1000000000,"state":"spawning","ping":28},{"user_id":291,"name":"AWildTamim","steam_id":76561198048060652,"connected_time":750000000000,"state":"active","ping":37},{"user_id":300,"name":"earl","steam_id":76561199004370870,"connected_time":366000000000,"state":"active","ping":66},{"user_id":257,"name":"eelkir","steam_id":76561198024922946,"connected_time":2533000000000,"state":"active","ping":49},{"user_id":277,"name":"SuperflameGP","steam_id":76561198256506294,"connected_time":1614000000000,"state":"active","ping":54},{"user_id":263,"name":"Dedeil","steam_id":76561198254839532,"connected_time":1980000000000,"state":"active","ping":49},{"user_id":301,"name":"loveless","steam_id":76561198142256651,"connected_time":298000000000,"state":"active","ping":78},{"user_id":254,"name":"weaselmeister","steam_id":76561199059841173,"connected_time":2640000000000,"state":"active","ping":46},{"user_id":304,"name":"ran is running","steam_id":76561199443185667,"connected_time":44000000000,"state":"active","ping":137},{"user_id":276,"name":"Ass Clappicus","steam_id":76561198851157897,"connected_time":1681000000000,"state":"active","ping":60},{"user_id":289,"name":"Arcex","steam_id":76561198869864117,"connected_time":794000000000,"state":"active","ping":83},{"user_id":294,"name":"Danube501","steam_id":76561198143222686,"connected_time":728000000000,"state":"active","ping":105}]},{"server_id":22,"name":"Uncletopia | London | 6 | All Maps","name_short":"lon-6","host":"lon-1.uk.uncletopia.com","port":27065,"enabled":true,"region":"eu","cc":"gb","latitude":51.509865,"longitude":-0.118092,"reserved":0,"last_update":"0001-01-01T00:00:00Z","name_a2s":"Uncletopia | London | 6 | All Maps","protocol":17,"map":"pl_upward","folder":"tf","game":"Team Fortress","app_id":440,"player_count":24,"max_players":24,"Bots":0,"server_type":"Dedicated","server_os":"Linux","password":true,"vac":true,"version":"7757534","steam_id":85568392924742830,"keywords":["nocrits","nodmgspread","payload","uncletopia"],"game_id":440,"stv_port":27066,"stv_name":"Uncletopia | London | 6 | All Maps | STV","players":[{"user_id":53,"name":"John FluidmasterBallwasher doe","steam_id":76561199006462039,"connected_time":4134000000000,"state":"active","ping":87},{"user_id":106,"name":"Joseph Stalin","steam_id":76561198033199746,"connected_time":221000000000,"state":"active","ping":51},{"user_id":101,"name":"garry","steam_id":76561198019078145,"connected_time":869000000000,"state":"active","ping":83},{"user_id":108,"name":"Penis Contortionist","steam_id":76561198073663784,"connected_time":118000000000,"state":"active","ping":40},{"user_id":107,"name":"Sergeant Cock","steam_id":76561198075539799,"connected_time":141000000000,"state":"active","ping":47},{"user_id":94,"name":"Miles","steam_id":76561198084891833,"connected_time":1189000000000,"state":"active","ping":46},{"user_id":91,"name":"•stepbro•","steam_id":76561198119607160,"connected_time":1562000000000,"state":"active","ping":71},{"user_id":86,"name":"Negromancer","steam_id":76561198065912877,"connected_time":1792000000000,"state":"active","ping":87},{"user_id":100,"name":"Noob_with_source","steam_id":76561198870362103,"connected_time":989000000000,"state":"active","ping":56},{"user_id":105,"name":"PotatoBob","steam_id":76561199192517531,"connected_time":385000000000,"state":"active","ping":58},{"user_id":61,"name":"Hexagon","steam_id":76561198151205758,"connected_time":3704000000000,"state":"active","ping":63},{"user_id":62,"name":"Mr. Mundy","steam_id":76561198132008918,"connected_time":3699000000000,"state":"active","ping":81},{"user_id":96,"name":"EGirlGang","steam_id":76561198257435792,"connected_time":1058000000000,"state":"active","ping":78},{"user_id":92,"name":"lawrencefishdom","steam_id":76561199190918059,"connected_time":1533000000000,"state":"active","ping":56},{"user_id":87,"name":".quickfast.","steam_id":76561199438900919,"connected_time":1778000000000,"state":"active","ping":41},{"user_id":109,"name":"NotNecessary","steam_id":76561199451938365,"connected_time":92000000000,"state":"active","ping":60},{"user_id":67,"name":"Svilar","steam_id":76561198828348612,"connected_time":3591000000000,"state":"active","ping":97},{"user_id":69,"name":"Shlongulator","steam_id":76561198149779201,"connected_time":3511000000000,"state":"active","ping":56},{"user_id":71,"name":"YourDoom","steam_id":76561198080790857,"connected_time":3458000000000,"state":"active","ping":45},{"user_id":102,"name":"Zippo","steam_id":76561198056773656,"connected_time":869000000000,"state":"active","ping":75},{"user_id":110,"name":"Zerfesh","steam_id":76561198117534358,"connected_time":92000000000,"state":"spawning","ping":88},{"user_id":111,"name":"gibb (official)","steam_id":76561198074097655,"connected_time":78000000000,"state":"active","ping":35},{"user_id":90,"name":"engineer gaming","steam_id":76561198334042273,"connected_time":1667000000000,"state":"active","ping":90},{"user_id":99,"name":"Udinese Dion","steam_id":76561198067931573,"connected_time":1024000000000,"state":"active","ping":57}]},{"server_id":40,"name":"Uncletopia | London | 7 | No Payload","name_short":"lon-7","host":"lon-1.uk.uncletopia.com","port":27075,"enabled":true,"region":"eu","cc":"gb","latitude":51.509865,"longitude":-0.118092,"reserved":0,"last_update":"0001-01-01T00:00:00Z","name_a2s":"Uncletopia | London | 7 | No Payload","protocol":17,"map":"koth_badlands","folder":"tf","game":"Team Fortress","app_id":440,"player_count":8,"max_players":24,"Bots":0,"server_type":"Dedicated","server_os":"Linux","password":true,"vac":true,"version":"7757534","steam_id":85568392924964314,"keywords":["cp","nocrits","nodmgspread","uncletopia"],"game_id":440,"stv_port":27076,"stv_name":"Uncletopia | London | 7 | No Payload | STV","players":[{"user_id":213,"name":"GezmeRR TF2","steam_id":76561198043814532,"connected_time":763000000000,"state":"active","ping":60},{"user_id":207,"name":"Lord","steam_id":76561198065021271,"connected_time":1250000000000,"state":"active","ping":70},{"user_id":208,"name":"Lord Commissar Drac","steam_id":76561198030371218,"connected_time":1247000000000,"state":"active","ping":74},{"user_id":209,"name":"DragonXneoN","steam_id":76561198005974781,"connected_time":1229000000000,"state":"active","ping":84},{"user_id":210,"name":"[hoodie]","steam_id":76561198105408624,"connected_time":1204000000000,"state":"active","ping":181},{"user_id":211,"name":"Danse","steam_id":76561198065545203,"connected_time":1175000000000,"state":"active","ping":71},{"user_id":212,"name":"Thorpho","steam_id":76561198157173867,"connected_time":1160000000000,"state":"active","ping":30},{"user_id":215,"name":"MrBombi","steam_id":76561198976101317,"connected_time":55000000000,"state":"active","ping":77}]},{"server_id":41,"name":"Uncletopia | London | 8 | Community","name_short":"lon-8","host":"lon-1.uk.uncletopia.com","port":27085,"enabled":true,"region":"eu","cc":"gb","latitude":51.509865,"longitude":-0.118092,"reserved":0,"last_update":"0001-01-01T00:00:00Z","name_a2s":"Uncletopia | London | 8 | Community","protocol":17,"map":"workshop/koth_slaughter_rc1.ugc1712845210","folder":"tf","game":"Team Fortress","app_id":440,"player_count":0,"max_players":24,"Bots":0,"server_type":"Dedicated","server_os":"Linux","password":true,"vac":true,"version":"7757534","steam_id":85568392924964315,"keywords":["cp","nocrits","nodmgspread","uncletopia"],"game_id":440,"stv_port":27086,"stv_name":"Uncletopia | London | 8 | Community | STV","players":null},{"server_id":300,"name":"Uncletopia | Montréal | 1 | All Maps","name_short":"mtl-1","host":"mtl-1.ca.uncletopia.com","port":27015,"enabled":true,"region":"us-east","cc":"ca","latitude":45.50889,"longitude":-73.56167,"reserved":0,"last_update":"0001-01-01T00:00:00Z","name_a2s":"Uncletopia | Montréal | 1 | All Maps","protocol":17,"map":"pl_upward","folder":"tf","game":"Team Fortress","app_id":440,"player_count":0,"max_players":24,"Bots":0,"server_type":"Dedicated","server_os":"Linux","password":true,"vac":true,"version":"7757534","steam_id":85568392924500087,"keywords":["nocrits","nodmgspread","payload","uncletopia"],"game_id":440,"stv_port":27016,"stv_name":"Uncletopia | Montréal | 1 | All Maps | STV","players":null},{"server_id":301,"name":"Uncletopia | Montréal | 2 | All Maps","name_short":"mtl-2","host":"mtl-1.ca.uncletopia.com","port":27025,"enabled":true,"region":"us-east","cc":"ca","latitude":45.50889,"longitude":-73.56167,"reserved":0,"last_update":"0001-01-01T00:00:00Z","name_a2s":"Uncletopia | Montréal | 2 | All Maps","protocol":17,"map":"pl_snowycoast","folder":"tf","game":"Team Fortress","app_id":440,"player_count":0,"max_players":24,"Bots":0,"server_type":"Dedicated","server_os":"Linux","password":true,"vac":true,"version":"7757534","steam_id":85568392924500088,"keywords":["nocrits","nodmgspread","payload","uncletopia"],"game_id":440,"stv_port":27026,"stv_name":"Uncletopia | Montréal | 2 | All Maps | STV","players":null},{"server_id":302,"name":"Uncletopia | Montréal | 3 | All Maps","name_short":"mtl-3","host":"mtl-1.ca.uncletopia.com","port":27035,"enabled":true,"region":"us-east","cc":"ca","latitude":45.50889,"longitude":-73.56167,"reserved":0,"last_update":"0001-01-01T00:00:00Z","name_a2s":"Uncletopia | Montréal | 3 | All Maps","protocol":17,"map":"cp_process_final","folder":"tf","game":"Team Fortress","app_id":440,"player_count":0,"max_players":24,"Bots":0,"server_type":"Dedicated","server_os":"Linux","password":true,"vac":true,"version":"7757534","steam_id":85568392924500089,"keywords":["cp","nocrits","nodmgspread","uncletopia"],"game_id":440,"stv_port":27036,"stv_name":"Uncletopia | Montréal | 3 | All Maps | STV","players":null},{"server_id":303,"name":"Uncletopia | Montréal | 4 | No Payload","name_short":"mtl-4","host":"mtl-1.ca.uncletopia.com","port":27045,"enabled":true,"region":"us-east","cc":"ca","latitude":45.50889,"longitude":-73.56167,"reserved":0,"last_update":"0001-01-01T00:00:00Z","name_a2s":"Uncletopia | Montréal | 4 | No Payload","protocol":17,"map":"pl_borneo","folder":"tf","game":"Team Fortress","app_id":440,"player_count":0,"max_players":24,"Bots":0,"server_type":"Dedicated","server_os":"Linux","password":true,"vac":true,"version":"7757534","steam_id":85568392924500090,"keywords":["nocrits","nodmgspread","payload","uncletopia"],"game_id":440,"stv_port":27046,"stv_name":"Uncletopia | Montréal | 4 | No Payload | STV","players":null},{"server_id":13,"name":"Uncletopia | New York City | 1 | All Maps","name_short":"nyc-1","host":"nyc-1.us.uncletopia.com","port":27015,"enabled":true,"region":"us-east","cc":"us","latitude":40.73061,"longitude":-73.93524,"reserved":0,"last_update":"0001-01-01T00:00:00Z","name_a2s":"Uncletopia | New York City | 1 | All Maps","protocol":17,"map":"pl_swiftwater_final1","folder":"tf","game":"Team Fortress","app_id":440,"player_count":24,"max_players":24,"Bots":0,"server_type":"Dedicated","server_os":"Linux","password":true,"vac":true,"version":"7757534","steam_id":85568392924469993,"keywords":["nocrits","nodmgspread","payload","uncletopia"],"game_id":440,"stv_port":27016,"stv_name":"Uncletopia | New York City | 1 | All Maps | STV","players":[{"user_id":300,"name":"Henry Mitchell Cakebread","steam_id":76561198269073721,"connected_time":895000000000,"state":"active","ping":73},{"user_id":184,"name":"localization files","steam_id":76561197997139225,"connected_time":9025000000000,"state":"active","ping":44},{"user_id":254,"name":"The Rambler","steam_id":76561198109648603,"connected_time":4669000000000,"state":"active","ping":82},{"user_id":302,"name":"Ginger Jesus","steam_id":76561198052386458,"connected_time":872000000000,"state":"active","ping":46},{"user_id":291,"name":"Cyndi","steam_id":76561198049565564,"connected_time":1956000000000,"state":"active","ping":69},{"user_id":295,"name":"Tasteepizzapie!!!","steam_id":76561198076074855,"connected_time":1534000000000,"state":"active","ping":83},{"user_id":309,"name":"Recursive Gamer","steam_id":76561198042102952,"connected_time":567000000000,"state":"active","ping":88},{"user_id":310,"name":"Cassini","steam_id":76561198318526294,"connected_time":478000000000,"state":"active","ping":54},{"user_id":304,"name":"reanimator","steam_id":76561198085830470,"connected_time":785000000000,"state":"active","ping":49},{"user_id":305,"name":"Fregler","steam_id":76561198236563848,"connected_time":762000000000,"state":"active","ping":60},{"user_id":286,"name":"Silberman","steam_id":76561199061086990,"connected_time":2045000000000,"state":"active","ping":153},{"user_id":276,"name":"Spirit","steam_id":76561199069322627,"connected_time":2542000000000,"state":"active","ping":69},{"user_id":308,"name":"terrapieseven","steam_id":76561198072062415,"connected_time":651000000000,"state":"active","ping":58},{"user_id":299,"name":"Nuts","steam_id":76561198066494938,"connected_time":1225000000000,"state":"active","ping":54},{"user_id":306,"name":"Rotarius","steam_id":76561198109893506,"connected_time":740000000000,"state":"active","ping":135},{"user_id":307,"name":"nut","steam_id":76561198395577807,"connected_time":720000000000,"state":"active","ping":35},{"user_id":296,"name":"a table","steam_id":76561198158461279,"connected_time":1386000000000,"state":"active","ping":70},{"user_id":294,"name":"MangaTiddies","steam_id":76561198880438872,"connected_time":1743000000000,"state":"active","ping":135},{"user_id":287,"name":"Robo","steam_id":76561198058317490,"connected_time":2038000000000,"state":"active","ping":78},{"user_id":267,"name":"willferrellfan117","steam_id":76561198331027373,"connected_time":3721000000000,"state":"active","ping":79},{"user_id":288,"name":"Karrot","steam_id":76561198058970903,"connected_time":2023000000000,"state":"active","ping":84},{"user_id":289,"name":"Otium and Negotium","steam_id":76561198167894050,"connected_time":2016000000000,"state":"active","ping":88},{"user_id":290,"name":"Peto Griffon","steam_id":76561198090908514,"connected_time":2011000000000,"state":"active","ping":93},{"user_id":272,"name":"4 Itchy Tasty","steam_id":76561198009869383,"connected_time":3336000000000,"state":"active","ping":76}]},{"server_id":14,"name":"Uncletopia | New York City | 2 | All Maps","name_short":"nyc-2","host":"nyc-1.us.uncletopia.com","port":27025,"enabled":true,"region":"us-east","cc":"us","latitude":40.73061,"longitude":-73.93524,"reserved":0,"last_update":"0001-01-01T00:00:00Z","name_a2s":"Uncletopia | New York City | 2 | All Maps","protocol":17,"map":"pl_badwater","folder":"tf","game":"Team Fortress","app_id":440,"player_count":24,"max_players":24,"Bots":0,"server_type":"Dedicated","server_os":"Linux","password":true,"vac":true,"version":"7757534","steam_id":85568392924469994,"keywords":["nocrits","nodmgspread","payload","uncletopia"],"game_id":440,"stv_port":27026,"stv_name":"Uncletopia | New York City | 2 | All Maps | STV","players":[{"user_id":15,"name":"Marshall","steam_id":76561198042570322,"connected_time":3154000000000,"state":"active","ping":75},{"user_id":68,"name":"uzr","steam_id":76561198799343084,"connected_time":56000000000,"state":"active","ping":117},{"user_id":56,"name":"adil","steam_id":76561198197047443,"connected_time":544000000000,"state":"active","ping":74},{"user_id":21,"name":"Clomker tf2","steam_id":76561199080609910,"connected_time":2859000000000,"state":"active","ping":46},{"user_id":60,"name":"basalt","steam_id":76561199173989941,"connected_time":301000000000,"state":"active","ping":80},{"user_id":23,"name":"El_Jackso","steam_id":76561198126121555,"connected_time":2820000000000,"state":"active","ping":68},{"user_id":61,"name":"ognoob3000","steam_id":76561199105856641,"connected_time":285000000000,"state":"active","ping":65},{"user_id":24,"name":"Sickmind33","steam_id":76561198036248611,"connected_time":2815000000000,"state":"active","ping":74},{"user_id":62,"name":"Coffee with a Stranger","steam_id":76561198307422313,"connected_time":239000000000,"state":"active","ping":59},{"user_id":30,"name":"Mask","steam_id":76561198877649728,"connected_time":2589000000000,"state":"active","ping":141},{"user_id":67,"name":"-Enter Name Here-","steam_id":76561198040358938,"connected_time":102000000000,"state":"active","ping":81},{"user_id":58,"name":"Draconis","steam_id":76561198151381256,"connected_time":424000000000,"state":"active","ping":73},{"user_id":57,"name":"Swifgz","steam_id":76561198162875756,"connected_time":473000000000,"state":"active","ping":48},{"user_id":35,"name":"maArk","steam_id":76561198200380143,"connected_time":2373000000000,"state":"active","ping":142},{"user_id":64,"name":"Cj Lightning","steam_id":76561198044265072,"connected_time":222000000000,"state":"active","ping":64},{"user_id":37,"name":"Deal yo","steam_id":76561198282395338,"connected_time":2286000000000,"state":"active","ping":60},{"user_id":65,"name":"Praxis","steam_id":76561197960794303,"connected_time":210000000000,"state":"active","ping":146},{"user_id":52,"name":"faxxy","steam_id":76561198079621240,"connected_time":1241000000000,"state":"active","ping":82},{"user_id":66,"name":"Cursed mario","steam_id":76561198971168093,"connected_time":174000000000,"state":"active","ping":153},{"user_id":53,"name":"Quansen","steam_id":76561198151594550,"connected_time":1220000000000,"state":"active","ping":65},{"user_id":46,"name":"ItJustGetsWorse","steam_id":76561198078385108,"connected_time":1831000000000,"state":"active","ping":60},{"user_id":47,"name":"vastrobotmax","steam_id":76561198417110724,"connected_time":1754000000000,"state":"active","ping":71},{"user_id":49,"name":"Thurricane","steam_id":76561198410724666,"connected_time":1688000000000,"state":"active","ping":53},{"user_id":55,"name":"David De Bergerac","steam_id":76561198010306294,"connected_time":641000000000,"state":"active","ping":83}]},{"server_id":15,"name":"Uncletopia | New York City | 3 | Stopwatch Beta","name_short":"nyc-3","host":"nyc-1.us.uncletopia.com","port":27035,"enabled":true,"region":"us-east","cc":"us","latitude":40.73061,"longitude":-73.93524,"reserved":0,"last_update":"0001-01-01T00:00:00Z","name_a2s":"Uncletopia | New York City | 3 | Stopwatch Beta","protocol":17,"map":"cp_mountainlab","folder":"tf","game":"Team Fortress","app_id":440,"player_count":0,"max_players":24,"Bots":0,"server_type":"Dedicated","server_os":"Linux","password":true,"vac":true,"version":"7757534","steam_id":85568392924742820,"keywords":["cp","nocrits","nodmgspread","uncletopia"],"game_id":440,"stv_port":27036,"stv_name":"Uncletopia | New York City | 3 | Stopwatch Beta | STV","players":null},{"server_id":16,"name":"Uncletopia | New York City | 4 | Community","name_short":"nyc-4","host":"nyc-1.us.uncletopia.com","port":27045,"enabled":true,"region":"us-east","cc":"us","latitude":40.73061,"longitude":-73.93524,"reserved":0,"last_update":"0001-01-01T00:00:00Z","name_a2s":"Uncletopia | New York City | 4 | Community","protocol":17,"map":"workshop/cp_hazyfort_rc6.ugc1365963729","folder":"tf","game":"Team Fortress","app_id":440,"player_count":0,"max_players":24,"Bots":0,"server_type":"Dedicated","server_os":"Linux","password":true,"vac":true,"version":"7757534","steam_id":85568392924742821,"keywords":["cp","nocrits","nodmgspread","uncletopia"],"game_id":440,"stv_port":27046,"stv_name":"Uncletopia | New York City | 4 | Community | STV","players":null},{"server_id":142,"name":"Uncletopia | São Paulo | 1 | All Maps","name_short":"sao-1","host":"sao-1.br.uncletopia.com","port":27015,"enabled":true,"region":"sa","cc":"br","latitude":-23.533773,"longitude":-46.62529,"reserved":0,"last_update":"0001-01-01T00:00:00Z","name_a2s":"Uncletopia | São Paulo | 1 | All Maps","protocol":17,"map":"koth_lakeside_final","folder":"tf","game":"Team Fortress","app_id":440,"player_count":0,"max_players":24,"Bots":0,"server_type":"Dedicated","server_os":"Linux","password":true,"vac":true,"version":"7757534","steam_id":85568392924469996,"keywords":["cp","nocrits","nodmgspread","uncletopia"],"game_id":440,"stv_port":27016,"stv_name":"Uncletopia | São Paulo | 1 | All Maps | STV","players":null},{"server_id":143,"name":"Uncletopia | São Paulo | 2 | All Maps","name_short":"sao-2","host":"sao-2.br.uncletopia.com","port":27015,"enabled":true,"region":"sa","cc":"br","latitude":-23.533773,"longitude":-46.62529,"reserved":0,"last_update":"0001-01-01T00:00:00Z","name_a2s":"Uncletopia | São Paulo | 2 | All Maps","protocol":17,"map":"cp_sunshine","folder":"tf","game":"Team Fortress","app_id":440,"player_count":0,"max_players":24,"Bots":0,"server_type":"Dedicated","server_os":"Linux","password":true,"vac":true,"version":"7757534","steam_id":85568392924485349,"keywords":["cp","nocrits","nodmgspread","uncletopia"],"game_id":440,"stv_port":27016,"stv_name":"Uncletopia | São Paulo | 2 | All Maps | STV","players":null},{"server_id":7,"name":"Uncletopia | Seattle | 1 | All Maps","name_short":"sea-1","host":"sea-1.us.uncletopia.com","port":27015,"enabled":true,"region":"us-west","cc":"us","latitude":47.608013,"longitude":-122.33517,"reserved":0,"last_update":"0001-01-01T00:00:00Z","name_a2s":"Uncletopia | Seattle | 1 | All Maps","protocol":17,"map":"pl_swiftwater_final1","folder":"tf","game":"Team Fortress","app_id":440,"player_count":24,"max_players":24,"Bots":0,"server_type":"Dedicated","server_os":"Linux","password":true,"vac":true,"version":"7757534","steam_id":85568392924469997,"keywords":["nocrits","nodmgspread","payload","uncletopia"],"game_id":440,"stv_port":27016,"stv_name":"Uncletopia | Seattle | 1 | All Maps | STV","players":[{"user_id":317,"name":"Dargoos","steam_id":76561198366212046,"connected_time":2209000000000,"state":"active","ping":70},{"user_id":321,"name":"King Thadius","steam_id":76561198066128205,"connected_time":1961000000000,"state":"active","ping":77},{"user_id":228,"name":"Mignyanne :3","steam_id":76561198048754056,"connected_time":7442000000000,"state":"active","ping":64},{"user_id":277,"name":"COOL master_9","steam_id":76561198073041151,"connected_time":4439000000000,"state":"active","ping":99},{"user_id":346,"name":"Sloppy John (Extra Sauce)","steam_id":76561198359703432,"connected_time":73000000000,"state":"active","ping":78},{"user_id":280,"name":"thunderous prophet","steam_id":76561198131166135,"connected_time":4313000000000,"state":"active","ping":36},{"user_id":344,"name":"pizzaguy4","steam_id":76561198058821622,"connected_time":191000000000,"state":"active","ping":89},{"user_id":342,"name":"DoppelGanger","steam_id":76561199212465291,"connected_time":474000000000,"state":"active","ping":128},{"user_id":341,"name":"xXx1337ChimkinNugGaymer420xXx","steam_id":76561198149063013,"connected_time":614000000000,"state":"active","ping":108},{"user_id":325,"name":"crow","steam_id":76561198046802071,"connected_time":1715000000000,"state":"active","ping":108},{"user_id":332,"name":"ORANGE","steam_id":76561198000401769,"connected_time":1312000000000,"state":"active","ping":54},{"user_id":283,"name":"times table","steam_id":76561198341452558,"connected_time":4251000000000,"state":"active","ping":97},{"user_id":333,"name":"Dr. Karl, the AUS Science Guy","steam_id":76561198031278747,"connected_time":986000000000,"state":"active","ping":47},{"user_id":327,"name":"hippiepriestburnout","steam_id":76561198067221017,"connected_time":1684000000000,"state":"active","ping":51},{"user_id":343,"name":"Raniel Dicciardo","steam_id":76561198053859538,"connected_time":267000000000,"state":"active","ping":82},{"user_id":336,"name":"Florist","steam_id":76561198009121060,"connected_time":896000000000,"state":"active","ping":46},{"user_id":312,"name":"〣dust〣 -she/her-","steam_id":76561198045218909,"connected_time":2668000000000,"state":"active","ping":42},{"user_id":334,"name":"Klone","steam_id":76561198854485605,"connected_time":914000000000,"state":"active","ping":122},{"user_id":323,"name":"lukamine","steam_id":76561198166827208,"connected_time":1927000000000,"state":"active","ping":52},{"user_id":261,"name":"Daz","steam_id":76561198041431938,"connected_time":5850000000000,"state":"active","ping":123},{"user_id":339,"name":"48","steam_id":76561198894676484,"connected_time":666000000000,"state":"active","ping":80},{"user_id":235,"name":"The strongest ⑨ ball","steam_id":76561198126760743,"connected_time":7375000000000,"state":"active","ping":61},{"user_id":337,"name":"Nobuunga","steam_id":76561198100614981,"connected_time":876000000000,"state":"active","ping":54},{"user_id":300,"name":"LX-24","steam_id":76561198016168993,"connected_time":3259000000000,"state":"active","ping":110}]},{"server_id":119,"name":"Uncletopia | Seattle | 2 | All Maps","name_short":"sea-2","host":"sea-1.us.uncletopia.com","port":27025,"enabled":true,"region":"us-west","cc":"us","latitude":47.608013,"longitude":-122.33517,"reserved":0,"last_update":"0001-01-01T00:00:00Z","name_a2s":"Uncletopia | Seattle | 2 | All Maps","protocol":17,"map":"pl_snowycoast","folder":"tf","game":"Team Fortress","app_id":440,"player_count":5,"max_players":24,"Bots":0,"server_type":"Dedicated","server_os":"Linux","password":true,"vac":true,"version":"7757534","steam_id":85568392924469998,"keywords":["nocrits","nodmgspread","payload","uncletopia"],"game_id":440,"stv_port":27026,"stv_name":"Uncletopia | Seattle | 2 | All Maps | STV","players":[{"user_id":24,"name":"shiftshock01","steam_id":76561199049488870,"connected_time":815000000000,"state":"active","ping":55},{"user_id":21,"name":"Silver","steam_id":76561199122489909,"connected_time":1490000000000,"state":"active","ping":96},{"user_id":26,"name":"Grave Shifter15","steam_id":76561198036381323,"connected_time":494000000000,"state":"active","ping":78},{"user_id":27,"name":"kaeru","steam_id":76561198043789098,"connected_time":346000000000,"state":"active","ping":61},{"user_id":30,"name":"o o o o o o o o o","steam_id":76561197993757506,"connected_time":22000000000,"state":"spawning","ping":65}]},{"server_id":406,"name":"Uncletopia | Seattle | 3 | Stopwatch Beta","name_short":"sea-3","host":"sea-1.us.uncletopia.com","port":27035,"enabled":true,"region":"us-west","cc":"us","latitude":47.608013,"longitude":-122.33517,"reserved":0,"last_update":"0001-01-01T00:00:00Z","name_a2s":"Uncletopia | Seattle | 3 | Stopwatch Beta","protocol":17,"map":"pl_barnblitz","folder":"tf","game":"Team Fortress","app_id":440,"player_count":0,"max_players":24,"Bots":0,"server_type":"Dedicated","server_os":"Linux","password":true,"vac":true,"version":"7757534","steam_id":85568392924515217,"keywords":["nocrits","nodmgspread","payload","uncletopia"],"game_id":440,"stv_port":27036,"stv_name":"Uncletopia | Seattle | 3 | Stopwatch Beta | STV","players":null},{"server_id":17,"name":"Uncletopia | San Francisco | 1 | All Maps","name_short":"sfo-1","host":"sfo-1.us.uncletopia.com","port":27015,"enabled":true,"region":"us-west","cc":"us","latitude":37.77397,"longitude":-122.4313,"reserved":0,"last_update":"0001-01-01T00:00:00Z","name_a2s":"Uncletopia | San Francisco | 1 | All Maps","protocol":17,"map":"cp_altitude","folder":"tf","game":"Team Fortress","app_id":440,"player_count":24,"max_players":24,"Bots":0,"server_type":"Dedicated","server_os":"Linux","password":true,"vac":true,"version":"7757534","steam_id":85568392924469999,"keywords":["cp","nocrits","nodmgspread","uncletopia"],"game_id":440,"stv_port":27016,"stv_name":"Uncletopia | San Francisco | 1 | All Maps | STV","players":[{"user_id":116,"name":"A Man Named Pancho","steam_id":76561197984895522,"connected_time":3718000000000,"state":"active","ping":48},{"user_id":170,"name":"Freeza","steam_id":76561198050341005,"connected_time":376000000000,"state":"active","ping":32},{"user_id":175,"name":"well i'll be","steam_id":76561198272092906,"connected_time":46000000000,"state":"spawning","ping":71},{"user_id":129,"name":"mumbles","steam_id":76561197994528974,"connected_time":2761000000000,"state":"active","ping":91},{"user_id":100,"name":"Buswolley","steam_id":76561197995205571,"connected_time":4368000000000,"state":"active","ping":54},{"user_id":155,"name":"cookiegenius2398.r2","steam_id":76561198970759258,"connected_time":1267000000000,"state":"active","ping":40},{"user_id":131,"name":"Gull","steam_id":76561198161560332,"connected_time":2732000000000,"state":"active","ping":71},{"user_id":156,"name":"Loogus","steam_id":76561198811561721,"connected_time":1262000000000,"state":"active","ping":70},{"user_id":173,"name":"Guwop","steam_id":76561197970425737,"connected_time":215000000000,"state":"active","ping":100},{"user_id":137,"name":"Mr. Mystical Perfection","steam_id":76561198036444997,"connected_time":2627000000000,"state":"active","ping":60},{"user_id":174,"name":"Ellis","steam_id":76561198993634489,"connected_time":115000000000,"state":"active","ping":56},{"user_id":54,"name":"Cheeeeeeeen","steam_id":76561198986388085,"connected_time":8036000000000,"state":"active","ping":106},{"user_id":163,"name":"clammy egg","steam_id":76561198151876384,"connected_time":1060000000000,"state":"active","ping":77},{"user_id":162,"name":"Vortiger","steam_id":76561198275813176,"connected_time":1115000000000,"state":"active","ping":55},{"user_id":139,"name":"Paul","steam_id":76561197996285195,"connected_time":2540000000000,"state":"active","ping":71},{"user_id":157,"name":"Local","steam_id":76561198069537437,"connected_time":1257000000000,"state":"active","ping":52},{"user_id":168,"name":"MORE BOUNCE TO THE OUNCE","steam_id":76561198243399336,"connected_time":594000000000,"state":"active","ping":68},{"user_id":142,"name":"toodles","steam_id":76561198025463883,"connected_time":2390000000000,"state":"active","ping":69},{"user_id":176,"name":"Ghostlysmith","steam_id":76561198998893929,"connected_time":7000000000,"state":"spawning","ping":110},{"user_id":143,"name":"Milotic","steam_id":76561198047995713,"connected_time":2172000000000,"state":"active","ping":73},{"user_id":166,"name":"siah","steam_id":76561198051881047,"connected_time":971000000000,"state":"active","ping":91},{"user_id":114,"name":"Grizzly","steam_id":76561198176174371,"connected_time":3847000000000,"state":"active","ping":68},{"user_id":169,"name":"FedSmoker","steam_id":76561198255854081,"connected_time":487000000000,"state":"active","ping":75},{"user_id":172,"name":"O bez","steam_id":76561198841579939,"connected_time":279000000000,"state":"active","ping":69}]},{"server_id":18,"name":"Uncletopia | San Francisco | 2 | All Maps","name_short":"sfo-2","host":"sfo-1.us.uncletopia.com","port":27025,"enabled":true,"region":"us-west","cc":"us","latitude":37.77397,"longitude":-122.4313,"reserved":0,"last_update":"0001-01-01T00:00:00Z","name_a2s":"Uncletopia | San Francisco | 2 | All Maps","protocol":17,"map":"pl_borneo","folder":"tf","game":"Team Fortress","app_id":440,"player_count":0,"max_players":24,"Bots":0,"server_type":"Dedicated","server_os":"Linux","password":true,"vac":true,"version":"7757534","steam_id":85568392924470000,"keywords":["nocrits","nodmgspread","payload","uncletopia"],"game_id":440,"stv_port":27026,"stv_name":"Uncletopia | San Francisco | 2 | All Maps | STV","players":null},{"server_id":19,"name":"Uncletopia | San Francisco | 3 | Stopwatch Beta","name_short":"sfo-3","host":"sfo-1.us.uncletopia.com","port":27035,"enabled":true,"region":"us-west","cc":"us","latitude":37.77397,"longitude":-122.4313,"reserved":0,"last_update":"0001-01-01T00:00:00Z","name_a2s":"Uncletopia | San Francisco | 3 | Stopwatch Beta","protocol":17,"map":"pl_borneo","folder":"tf","game":"Team Fortress","app_id":440,"player_count":0,"max_players":24,"Bots":0,"server_type":"Dedicated","server_os":"Linux","password":true,"vac":true,"version":"7757534","steam_id":85568392924742824,"keywords":["nocrits","nodmgspread","payload","uncletopia"],"game_id":440,"stv_port":27036,"stv_name":"Uncletopia | San Francisco | 3 | Stopwatch Beta | STV","players":null},{"server_id":20,"name":"Uncletopia | San Francisco | 4 | Community","name_short":"sfo-4","host":"sfo-1.us.uncletopia.com","port":27045,"enabled":true,"region":"us-west","cc":"us","latitude":37.77397,"longitude":-122.4313,"reserved":0,"last_update":"0001-01-01T00:00:00Z","name_a2s":"Uncletopia | San Francisco | 4 | Community","protocol":17,"map":"koth_highpass","folder":"tf","game":"Team Fortress","app_id":440,"player_count":0,"max_players":24,"Bots":0,"server_type":"Dedicated","server_os":"Linux","password":true,"vac":true,"version":"7757534","steam_id":85568392924742826,"keywords":["cp","nocrits","nodmgspread","uncletopia"],"game_id":440,"stv_port":27046,"stv_name":"Uncletopia | San Francisco | 4 | Community | STV","players":null},{"server_id":141,"name":"Uncletopia | Sydney | 1 | All Maps","name_short":"syd-1","host":"syd-1.au.uncletopia.com","port":27015,"enabled":true,"region":"au","cc":"au","latitude":-33.865143,"longitude":151.2099,"reserved":0,"last_update":"0001-01-01T00:00:00Z","name_a2s":"Uncletopia | Sydney | 1 | All Maps","protocol":17,"map":"cp_process_final","folder":"tf","game":"Team Fortress","app_id":440,"player_count":0,"max_players":24,"Bots":0,"server_type":"Dedicated","server_os":"Linux","password":true,"vac":true,"version":"7757534","steam_id":85568392924470001,"keywords":["cp","nocrits","nodmgspread","uncletopia"],"game_id":440,"stv_port":27016,"stv_name":"Uncletopia | Sydney | 1 | All Maps | STV","players":null},{"server_id":123,"name":"Uncletopia | Sydney | 2 | All Maps","name_short":"syd-2","host":"syd-1.au.uncletopia.com","port":27025,"enabled":true,"region":"au","cc":"au","latitude":-33.865143,"longitude":151.2099,"reserved":0,"last_update":"0001-01-01T00:00:00Z","name_a2s":"Uncletopia | Sydney | 2 | All Maps","protocol":17,"map":"koth_viaduct","folder":"tf","game":"Team Fortress","app_id":440,"player_count":0,"max_players":24,"Bots":0,"server_type":"Dedicated","server_os":"Linux","password":true,"vac":true,"version":"7757534","steam_id":85568392924470002,"keywords":["cp","nocrits","nodmgspread","uncletopia"],"game_id":440,"stv_port":27026,"stv_name":"Uncletopia | Sydney | 2 | All Maps | STV","players":null},{"server_id":395,"name":"Uncletopia | Sydney | 3 | All Maps","name_short":"syd-3","host":"syd-1.au.uncletopia.com","port":27035,"enabled":true,"region":"au","cc":"au","latitude":-33.865143,"longitude":151.2099,"reserved":0,"last_update":"0001-01-01T00:00:00Z","name_a2s":"Uncletopia | Sydney | 3 | All Maps","protocol":17,"map":"pl_upward","folder":"tf","game":"Team Fortress","app_id":440,"player_count":0,"max_players":24,"Bots":0,"server_type":"Dedicated","server_os":"Linux","password":true,"vac":true,"version":"7757534","steam_id":85568392925194467,"keywords":["nocrits","nodmgspread","payload","uncletopia"],"game_id":440,"stv_port":27036,"stv_name":"Uncletopia | Sydney | 3 | All Maps | STV","players":null},{"server_id":396,"name":"Uncletopia | Sydney | 4 | All Maps","name_short":"syd-4","host":"syd-1.au.uncletopia.com","port":27045,"enabled":true,"region":"au","cc":"au","latitude":-33.865143,"longitude":151.2099,"reserved":0,"last_update":"0001-01-01T00:00:00Z","name_a2s":"Uncletopia | Sydney | 4 | All Maps","protocol":17,"map":"koth_lakeside_final","folder":"tf","game":"Team Fortress","app_id":440,"player_count":0,"max_players":24,"Bots":0,"server_type":"Dedicated","server_os":"Linux","password":true,"vac":true,"version":"7757534","steam_id":85568392925397958,"keywords":["cp","nocrits","nodmgspread","uncletopia"],"game_id":440,"stv_port":27046,"stv_name":"Uncletopia | Sydney | 4 | All Maps | STV","players":null},{"server_id":58,"name":"Uncletopia | Sydney | 5 | Stopwatch Beta","name_short":"syd-5","host":"syd-1.au.uncletopia.com","port":27055,"enabled":true,"region":"au","cc":"au","latitude":-33.865143,"longitude":151.2099,"reserved":0,"last_update":"0001-01-01T00:00:00Z","name_a2s":"Uncletopia | Sydney | 5 | Stopwatch Beta","protocol":17,"map":"koth_highpass","folder":"tf","game":"Team Fortress","app_id":440,"player_count":0,"max_players":24,"Bots":0,"server_type":"Dedicated","server_os":"Linux","password":true,"vac":true,"version":"7757534","steam_id":85568392925397959,"keywords":["cp","nocrits","nodmgspread","uncletopia"],"game_id":440,"stv_port":27056,"stv_name":"Uncletopia | Sydney | 5 | Stopwatch Beta | STV","players":null},{"server_id":59,"name":"Uncletopia | Sydney | 6 | Community","name_short":"syd-6","host":"syd-1.au.uncletopia.com","port":27065,"enabled":true,"region":"au","cc":"au","latitude":-33.865143,"longitude":151.2099,"reserved":0,"last_update":"0001-01-01T00:00:00Z","name_a2s":"Uncletopia | Sydney | 6 | Community","protocol":17,"map":"cp_sunshine","folder":"tf","game":"Team Fortress","app_id":440,"player_count":0,"max_players":24,"Bots":0,"server_type":"Dedicated","server_os":"Linux","password":true,"vac":true,"version":"7757534","steam_id":85568392925397960,"keywords":["cp","nocrits","nodmgspread","uncletopia"],"game_id":440,"stv_port":27066,"stv_name":"Uncletopia | Sydney | 6 | Community | STV","players":null},{"server_id":49,"name":"Uncletopia | Warsaw | 1 | All Maps","name_short":"waw-1","host":"waw-1.pl.uncletopia.com","port":27015,"enabled":true,"region":"eu","cc":"pl","latitude":52.2297,"longitude":21.017532,"reserved":0,"last_update":"0001-01-01T00:00:00Z","name_a2s":"","protocol":0,"map":"","folder":"","game":"","app_id":0,"player_count":0,"max_players":0,"Bots":0,"server_type":"","server_os":"","password":false,"vac":false,"version":"","steam_id":0,"keywords":null,"game_id":0,"stv_port":0,"stv_name":"","players":null},{"server_id":50,"name":"Uncletopia | Warsaw | 2 | All Maps","name_short":"waw-2","host":"waw-1.pl.uncletopia.com","port":27025,"enabled":true,"region":"eu","cc":"pl","latitude":52.2297,"longitude":21.017532,"reserved":0,"last_update":"0001-01-01T00:00:00Z","name_a2s":"Uncletopia | Warsaw | 2 | All Maps","protocol":17,"map":"cp_process_final","folder":"tf","game":"Team Fortress","app_id":440,"player_count":0,"max_players":24,"Bots":0,"server_type":"Dedicated","server_os":"Linux","password":true,"vac":true,"version":"7757534","steam_id":85568392925397851,"keywords":["cp","nocrits","nodmgspread","uncletopia"],"game_id":440,"stv_port":27026,"stv_name":"Uncletopia | Warsaw | 2 | All Maps | STV","players":null},{"server_id":51,"name":"Uncletopia | Warsaw | 3 | All Maps","name_short":"waw-3","host":"waw-1.pl.uncletopia.com","port":27035,"enabled":true,"region":"eu","cc":"pl","latitude":52.2297,"longitude":21.017532,"reserved":0,"last_update":"0001-01-01T00:00:00Z","name_a2s":"Uncletopia | Warsaw | 3 | All Maps","protocol":17,"map":"koth_lakeside_final","folder":"tf","game":"Team Fortress","app_id":440,"player_count":0,"max_players":24,"Bots":0,"server_type":"Dedicated","server_os":"Linux","password":true,"vac":true,"version":"7757534","steam_id":85568392925397852,"keywords":["cp","nocrits","nodmgspread","uncletopia"],"game_id":440,"stv_port":27036,"stv_name":"Uncletopia | Warsaw | 3 | All Maps | STV","players":null},{"server_id":52,"name":"Uncletopia | Warsaw | 4 | All Maps","name_short":"waw-4","host":"waw-1.pl.uncletopia.com","port":27045,"enabled":true,"region":"eu","cc":"pl","latitude":52.2297,"longitude":21.017532,"reserved":0,"last_update":"0001-01-01T00:00:00Z","name_a2s":"Uncletopia | Warsaw | 4 | All Maps","protocol":17,"map":"pl_upward","folder":"tf","game":"Team Fortress","app_id":440,"player_count":4,"max_players":24,"Bots":0,"server_type":"Dedicated","server_os":"Linux","password":true,"vac":true,"version":"7757534","steam_id":85568392925397853,"keywords":["nocrits","nodmgspread","payload","uncletopia"],"game_id":440,"stv_port":27046,"stv_name":"Uncletopia | Warsaw | 4 | All Maps | STV","players":[{"user_id":4,"name":"cohcohmilke","steam_id":76561198124857170,"connected_time":2325000000000,"state":"active","ping":95},{"user_id":10,"name":"Ninjaworrier10","steam_id":76561198143531687,"connected_time":26000000000,"state":"spawning","ping":65},{"user_id":6,"name":"Callum","steam_id":76561198353996351,"connected_time":2224000000000,"state":"active","ping":85},{"user_id":8,"name":"ShellyPlains19","steam_id":76561198917578392,"connected_time":1661000000000,"state":"active","ping":82}]},{"server_id":53,"name":"Uncletopia | Warsaw | 5 | Stopwatch Beta","name_short":"waw-5","host":"waw-1.pl.uncletopia.com","port":27055,"enabled":true,"region":"eu","cc":"pl","latitude":52.2297,"longitude":21.017532,"reserved":0,"last_update":"0001-01-01T00:00:00Z","name_a2s":"Uncletopia | Warsaw | 5 | Stopwatch Beta","protocol":17,"map":"pl_barnblitz","folder":"tf","game":"Team Fortress","app_id":440,"player_count":0,"max_players":24,"Bots":0,"server_type":"Dedicated","server_os":"Linux","password":true,"vac":true,"version":"7757534","steam_id":85568392925397854,"keywords":["nocrits","nodmgspread","payload","uncletopia"],"game_id":440,"stv_port":27056,"stv_name":"Uncletopia | Warsaw | 5 | Stopwatch Beta | STV","players":null},{"server_id":54,"name":"Uncletopia | Warsaw | 6 | Community","name_short":"waw-6","host":"waw-1.pl.uncletopia.com","port":27065,"enabled":true,"region":"eu","cc":"pl","latitude":52.2297,"longitude":21.017532,"reserved":0,"last_update":"0001-01-01T00:00:00Z","name_a2s":"Uncletopia | Warsaw | 6 | Community","protocol":17,"map":"workshop/cp_bruhstbowl_b5.ugc2878604990","folder":"tf","game":"Team Fortress","app_id":440,"player_count":0,"max_players":24,"Bots":0,"server_type":"Dedicated","server_os":"Linux","password":true,"vac":true,"version":"7757534","steam_id":85568392925397856,"keywords":["cp","nocrits","nodmgspread","uncletopia"],"game_id":440,"stv_port":27066,"stv_name":"Uncletopia | Warsaw | 6 | Community | STV","players":null}]}