{"status":true,"message":"","result":[{"server_id":9,"name":"Uncletopia | Atlanta | 1 | All Maps","name_short":"atl-1","host":"atl-1.us.uncletopia.com","port":27015,"enabled":true,"region":"us-east","cc":"us","latitude":33.753746,"longitude":-84.38633,"reserved":0,"last_update":"0001-01-01T00:00:00Z","name_a2s":"Uncletopia | Atlanta | 1 | All Maps","protocol":17,"map":"cp_mountainlab","folder":"tf","game":"Team Fortress","app_id":440,"player_count":20,"max_players":24,"Bots":0,"server_type":"Dedicated","server_os":"Linux","password":true,"vac":true,"version":"7932396","steam_id":85568392924469982,"keywords":["cp","nocrits","nodmgspread","uncletopia"],"game_id":440,"stv_port":27016,"stv_name":"Uncletopia | Atlanta | 1 | All Maps | STV","players":[{"user_id":1447,"name":"NeonBean","steam_id":76561198088335827,"connected_time":566000000000,"state":"active","ping":114},{"user_id":1380,"name":"Robo Boss","steam_id":76561199067098696,"connected_time":3274000000000,"state":"active","ping":87},{"user_id":1446,"name":"chesterwnimitz","steam_id":76561198062664377,"connected_time":583000000000,"state":"active","ping":99},{"user_id":1457,"name":"HanakoToast","steam_id":76561198045233131,"connected_time":167000000000,"state":"active","ping":139},{"user_id":1438,"name":"OgOrpheus","steam_id":76561199233440093,"connected_time":879000000000,"state":"active","ping":98},{"user_id":1334,"name":"your neighbour's garden gnome","steam_id":76561199037050183,"connected_time":4320000000000,"state":"active","ping":107},{"user_id":1454,"name":"Herb Cat","steam_id":76561198976418238,"connected_time":306000000000,"state":"active","ping":92},{"user_id":1389,"name":"MagikarpEX","steam_id":76561198166172279,"connected_time":2150000000000,"state":"active","ping":90},{"user_id":1420,"name":"AudaCD","steam_id":76561198202775853,"connected_time":1168000000000,"state":"active","ping":100},{"user_id":1443,"name":"venomew2","steam_id":76561198327081077,"connected_time":654000000000,"state":"active","ping":111},{"user_id":1444,"name":"Techo","steam_id":76561199169405285,"connected_time":651000000000,"state":"active","ping":148},{"user_id":1459,"name":"CAR BATTERY","steam_id":76561199122915452,"connected_time":44000000000,"state":"active","ping":261},{"user_id":1453,"name":"M1K3 :)","steam_id":76561198072217407,"connected_time":425000000000,"state":"active","ping":72},{"user_id":1433,"name":"Bedside table, on the kangaroo","steam_id":76561198044277932,"connected_time":1005000000000,"state":"active","ping":62},{"user_id":1456,"name":"Mickey","steam_id":76561197976868960,"connected_time":251000000000,"state":"active","ping":180},{"user_id":1435,"name":"BON6 R1P5","steam_id":76561199187170139,"connected_time":999000000000,"state":"active","ping":75},{"user_id":1449,"name":"ATL","steam_id":76561198431196926,"connected_time":554000000000,"state":"active","ping":97},{"user_id":1450,"name":"Mitchacho74","steam_id":76561198087986935,"connected_time":554000000000,"state":"active","ping":106},{"user_id":1417,"name":"Zoro01","steam_id":76561198407989540,"connected_time":1304000000000,"state":"active","ping":134},{"user_id":1431,"name":"xXThegamer88Xx","steam_id":76561199161362967,"connected_time":1070000000000,"state":"active","ping":151}]},{"server_id":104,"name":"Uncletopia | Atlanta | 2 | All Maps","name_short":"atl-2","host":"atl-1.us.uncletopia.com","port":27025,"enabled":true,"region":"us-east","cc":"us","latitude":33.753746,"longitude":-84.38633,"reserved":0,"last_update":"0001-01-01T00:00:00Z","name_a2s":"Uncletopia | Atlanta | 2 | All Maps","protocol":17,"map":"cp_dustbowl","folder":"tf","game":"Team Fortress","app_id":440,"player_count":0,"max_players":24,"Bots":0,"server_type":"Dedicated","server_os":"Linux","password":true,"vac":true,"version":"7932396","steam_id":85568392924469983,"keywords":["cp","nocrits","nodmgspread","uncletopia"],"game_id":440,"stv_port":27026,"stv_name":"Uncletopia | Atlanta | 2 | All Maps | STV","players":null},{"server_id":400,"name":"Uncletopia | Atlanta | 3 | Community","name_short":"atl-3","host":"atl-1.us.uncletopia.com","port":27035,"enabled":true,"region":"us-east","cc":"us","latitude":33.753746,"longitude":-84.38633,"reserved":0,"last_update":"0001-01-01T00:00:00Z","name_a2s":"Uncletopia | Atlanta | 3 | Community","protocol":17,"map":"workshop/cp_caldera_rc2.ugc2834196889","folder":"tf","game":"Team Fortress","app_id":440,"player_count":3,"max_players":24,"Bots":0,"server_type":"Dedicated","server_os":"Linux","password":true,"vac":true,"version":"7932396","steam_id":85568392924515187,"keywords":["cp","nocrits","nodmgspread","uncletopia"],"game_id":440,"stv_port":27036,"stv_name":"Uncletopia | Atlanta | 3 | Community | STV","players":[{"user_id":17,"name":"boneboy88","steam_id":76561199231079499,"connected_time":1206000000000,"state":"active","ping":75},{"user_id":18,"name":"festivized rat","steam_id":76561198055969492,"connected_time":1201000000000,"state":"active","ping":59},{"user_id":20,"name":"breb","steam_id":76561199270306521,"connected_time":1049000000000,"state":"active","ping":60}]},{"server_id":401,"name":"Uncletopia | Atlanta | 4 | No Payload","name_short":"atl-4","host":"atl-1.us.uncletopia.com","port":27045,"enabled":true,"region":"us-east","cc":"us","latitude":33.753746,"longitude":-84.38633,"reserved":0,"last_update":"0001-01-01T00:00:00Z","name_a2s":"","protocol":0,"map":"","folder":"","game":"","app_id":0,"player_count":0,"max_players":0,"Bots":0,"server_type":"","server_os":"","password":false,"vac":false,"version":"","steam_id":0,"keywords":null,"game_id":0,"stv_port":0,"stv_name":"","players":null},{"server_id":2,"name":"Uncletopia | Chicago | 1 | All Maps","name_short":"chi-1","host":"chi-1.us.uncletopia.com","port":27015,"enabled":true,"region":"us-central","cc":"us","latitude":41.881832,"longitude":-87.62318,"reserved":0,"last_update":"0001-01-01T00:00:00Z","name_a2s":"Uncletopia | Chicago | 1 | All Maps","protocol":17,"map":"pl_upward","folder":"tf","game":"Team Fortress","app_id":440,"player_count":24,"max_players":24,"Bots":0,"server_type":"Dedicated","server_os":"Linux","password":true,"vac":true,"version":"7932396","steam_id":85568392924469984,"keywords":["nocrits","nodmgspread","payload","uncletopia"],"game_id":440,"stv_port":27016,"stv_name":"Uncletopia | Chicago | 1 | All Maps | STV","players":[{"user_id":691,"name":"lpk","steam_id":76561198025478698,"connected_time":446000000000,"state":"active","ping":42},{"user_id":537,"name":"Kero","steam_id":76561198343231436,"connected_time":13673000000000,"state":"active","ping":60},{"user_id":672,"name":"Lucky","steam_id":76561198418262145,"connected_time":2787000000000,"state":"active","ping":124},{"user_id":612,"name":"lil Klonex ‚ù§","steam_id":76561198061550694,"connected_time":6043000000000,"state":"active","ping":93},{"user_id":707,"name":"gus","steam_id":76561198209316492,"connected_time":47000000000,"state":"active","ping":84},{"user_id":665,"name":"Pixel","steam_id":76561198129243055,"connected_time":3006000000000,"state":"active","ping":57},{"user_id":688,"name":"Fraudulent Tuna","steam_id":76561197972268728,"connected_time":838000000000,"state":"active","ping":65},{"user_id":594,"name":"Filthy Acts at Reasonable Price","steam_id":76561198354615890,"connected_time":6948000000000,"state":"active","ping":57},{"user_id":620,"name":"Noodle","steam_id":76561198040872617,"connected_time":5713000000000,"state":"active","ping":104},{"user_id":694,"name":"bron jame","steam_id":76561198202195792,"connected_time":271000000000,"state":"active","ping":58},{"user_id":597,"name":"TobyTurner32","steam_id":76561198018801418,"connected_time":6763000000000,"state":"active","ping":94},{"user_id":687,"name":"IRS Spec Ops","steam_id":76561198129148160,"connected_time":1077000000000,"state":"active","ping":73},{"user_id":692,"name":"Omni-S","steam_id":76561198082396372,"connected_time":406000000000,"state":"active","ping":74},{"user_id":689,"name":"Zoot \"Loud but Dead\"","steam_id":76561198121944243,"connected_time":636000000000,"state":"active","ping":75},{"user_id":646,"name":"Mobius","steam_id":76561199121973450,"connected_time":5342000000000,"state":"active","ping":80},{"user_id":661,"name":"paetho YT (new vid!)","steam_id":76561198152690003,"connected_time":3842000000000,"state":"active","ping":59},{"user_id":647,"name":"TheRealMud","steam_id":76561198138312993,"connected_time":5340000000000,"state":"active","ping":72},{"user_id":706,"name":"john tavolta from pulp fiction","steam_id":76561199487373269,"connected_time":88000000000,"state":"active","ping":64},{"user_id":617,"name":"Waddlehi","steam_id":76561198072553840,"connected_time":5743000000000,"state":"active","ping":63},{"user_id":697,"name":"\u003c3Elise\u003c3","steam_id":76561198146435005,"connected_time":223000000000,"state":"active","ping":85},{"user_id":655,"name":"Jabawakai","steam_id":76561198088881254,"connected_time":4393000000000,"state":"active","ping":55},{"user_id":709,"name":"Gwenhael","steam_id":76561198274337125,"connected_time":8000000000,"state":"active","ping":151},{"user_id":680,"name":"Bodhi","steam_id":76561198103230995,"connected_time":1919000000000,"state":"active","ping":78},{"user_id":683,"name":"loser","steam_id":76561198259380127,"connected_time":1916000000000,"state":"active","ping":60}]},{"server_id":106,"name":"Uncletopia | Chicago | 2 | All Maps","name_short":"chi-2","host":"chi-1.us.uncletopia.com","port":27025,"enabled":true,"region":"us-central","cc":"us","latitude":41.881832,"longitude":-87.62318,"reserved":0,"last_update":"0001-01-01T00:00:00Z","name_a2s":"Uncletopia | Chicago | 2 | All Maps","protocol":17,"map":"pl_swiftwater_final1","folder":"tf","game":"Team Fortress","app_id":440,"player_count":24,"max_players":24,"Bots":0,"server_type":"Dedicated","server_os":"Linux","password":true,"vac":true,"version":"7932396","steam_id":85568392924469985,"keywords":["nocrits","nodmgspread","payload","uncletopia"],"game_id":440,"stv_port":27026,"stv_name":"Uncletopia | Chicago | 2 | All Maps | STV","players":[{"user_id":700,"name":"mastercoms","steam_id":76561198046110893,"connected_time":438000000000,"state":"active","ping":60},{"user_id":682,"name":"‚ô• kiss me! ‚ô•","steam_id":76561198014557455,"connected_time":1309000000000,"state":"active","ping":60},{"user_id":704,"name":"soupy","steam_id":76561197974283797,"connected_time":267000000000,"state":"active","ping":43},{"user_id":698,"name":"feel alive","steam_id":76561198173047169,"connected_time":505000000000,"state":"active","ping":57},{"user_id":670,"name":"Dr. Dick","steam_id":76561198138011922,"connected_time":1891000000000,"state":"active","ping":77},{"user_id":695,"name":"Kasimir","steam_id":76561198013840333,"connected_time":753000000000,"state":"active","ping":95},{"user_id":671,"name":"SiltyStar85","steam_id":76561198309175923,"connected_time":1885000000000,"state":"active","ping":89},{"user_id":699,"name":"Captain","steam_id":76561198003428369,"connected_time":496000000000,"state":"active","ping":110},{"user_id":559,"name":"D4NMAR","steam_id":76561198056453091,"connected_time":11255000000000,"state":"active","ping":46},{"user_id":701,"name":"DragonHunter994","steam_id":76561199076203907,"connected_time":421000000000,"state":"active","ping":93},{"user_id":672,"name":"Amoxicilina","steam_id":76561198168486429,"connected_time":1873000000000,"state":"active","ping":118},{"user_id":687,"name":"NerdyEnforcement","steam_id":76561198437710820,"connected_time":1252000000000,"state":"active","ping":58},{"user_id":632,"name":"Meme Foreskin II","steam_id":76561198028157625,"connected_time":4780000000000,"state":"active","ping":86},{"user_id":692,"name":"Moe Fugga","steam_id":76561198102044366,"connected_time":804000000000,"state":"active","ping":68},{"user_id":702,"name":"Icarus the legend","steam_id":76561199013250091,"connected_time":417000000000,"state":"active","ping":75},{"user_id":685,"name":"c00kie","steam_id":76561198418178297,"connected_time":1290000000000,"state":"active","ping":46},{"user_id":703,"name":"5mech","steam_id":76561198979167520,"connected_time":338000000000,"state":"active","ping":56},{"user_id":675,"name":"Jynx_the_Rabbit","steam_id":76561199066752227,"connected_time":1803000000000,"state":"active","ping":124},{"user_id":680,"name":"Axel Beoulve","steam_id":76561198126511231,"connected_time":1481000000000,"state":"active","ping":129},{"user_id":693,"name":"konachouinard","steam_id":76561199131169864,"connected_time":793000000000,"state":"active","ping":114},{"user_id":686,"name":"Hippocrates","steam_id":76561198080670382,"connected_time":1269000000000,"state":"active","ping":69},{"user_id":688,"name":"Failsafe","steam_id":76561198062010203,"connected_time":1238000000000,"state":"active","ping":62},{"user_id":626,"name":"countlesschromosome","steam_id":76561197972601902,"connected_time":6178000000000,"state":"active","ping":86},{"user_id":697,"name":"Wang of Wall St","steam_id":76561198047460598,"connected_time":748000000000,"state":"active","ping":78}]},{"server_id":402,"name":"Uncletopia | Chicago | 3 | All Maps","name_short":"chi-3","host":"chi-1.us.uncletopia.com","port":27035,"enabled":true,"region":"us-central","cc":"us","latitude":41.881832,"longitude":-87.62318,"reserved":0,"last_update":"0001-01-01T00:00:00Z","name_a2s":"Uncletopia | Chicago | 3 | All Maps","protocol":17,"map":"pl_swiftwater_final1","folder":"tf","game":"Team Fortress","app_id":440,"player_count":24,"max_players":24,"Bots":0,"server_type":"Dedicated","server_os":"Linux","password":true,"vac":true,"version":"7932396","steam_id":85568392924515191,"keywords":["nocrits","nodmgspread","payload","uncletopia"],"game_id":440,"stv_port":27036,"stv_name":"Uncletopia | Chicago | 3 | All Maps | STV","players":[{"user_id":428,"name":"saas","steam_id":76561198061868020,"connected_time":1906000000000,"state":"active","ping":150},{"user_id":453,"name":"AJTarcza","steam_id":76561198070800190,"connected_time":69000000000,"state":"active","ping":78},{"user_id":441,"name":"Isotope","steam_id":76561199480883504,"connected_time":643000000000,"state":"active","ping":56},{"user_id":443,"name":"isaiah","steam_id":76561197962607364,"connected_time":633000000000,"state":"active","ping":74},{"user_id":435,"name":"OddSlaush","steam_id":76561198043898488,"connected_time":1214000000000,"state":"active","ping":104},{"user_id":442,"name":"mcdoubble","steam_id":76561198089126832,"connected_time":643000000000,"state":"active","ping":84},{"user_id":447,"name":"Dewick","steam_id":76561198178526673,"connected_time":448000000000,"state":"active","ping":94},{"user_id":422,"name":"im going to bite your arm","steam_id":76561198030291655,"connected_time":2443000000000,"state":"active","ping":48},{"user_id":449,"name":"Bread","steam_id":76561198251896612,"connected_time":326000000000,"state":"active","ping":44},{"user_id":406,"name":"Ringo x Seiran","steam_id":76561198357437908,"connected_time":3489000000000,"state":"active","ping":62},{"user_id":383,"name":"Wizard Raccoon","steam_id":76561198072562591,"connected_time":6548000000000,"state":"active","ping":88},{"user_id":425,"name":"noop","steam_id":76561198201259645,"connected_time":2398000000000,"state":"active","ping":87},{"user_id":416,"name":"soos","steam_id":76561198079416036,"connected_time":3037000000000,"state":"active","ping":46},{"user_id":427,"name":"Aeonspassed","steam_id":76561198014016451,"connected_time":2119000000000,"state":"active","ping":53},{"user_id":440,"name":"SadVeggie","steam_id":76561198163430099,"connected_time":885000000000,"state":"active","ping":111},{"user_id":444,"name":"mr_angry_guy","steam_id":76561199365643094,"connected_time":610000000000,"state":"active","ping":170},{"user_id":450,"name":"Flowers","steam_id":76561198031669899,"connected_time":187000000000,"state":"active","ping":83},{"user_id":445,"name":"dyyd7706","steam_id":76561199230461523,"connected_time":562000000000,"state":"active","ping":88},{"user_id":434,"name":"Corpse01","steam_id":76561198153671643,"connected_time":1315000000000,"state":"active","ping":68},{"user_id":451,"name":"minerkid2004","steam_id":76561198044262827,"connected_time":172000000000,"state":"active","ping":99},{"user_id":448,"name":"Jo","steam_id":76561198060447015,"connected_time":444000000000,"state":"active","ping":74},{"user_id":415,"name":"sees","steam_id":76561198249206656,"connected_time":3092000000000,"state":"active","ping":65},{"user_id":420,"name":"Meerkat","steam_id":76561199245435539,"connected_time":2514000000000,"state":"active","ping":98},{"user_id":452,"name":"Kyle H. McCloud","steam_id":76561198025050432,"connected_time":155000000000,"state":"active","ping":91}]},{"server_id":403,"name":"Uncletopia | Chicago | 4 | All Maps","name_short":"chi-4","host":"chi-1.us.uncletopia.com","port":27045,"enabled":true,"region":"us-central","cc":"us","latitude":41.881832,"longitude":-87.62318,"reserved":0,"last_update":"0001-01-01T00:00:00Z","name_a2s":"Uncletopia | Chicago | 4 | All Maps","protocol":17,"map":"pl_pier","folder":"tf","game":"Team Fortress","app_id":440,"player_count":24,"max_players":24,"Bots":0,"server_type":"Dedicated","server_os":"Linux","password":true,"vac":true,"version":"7932396","steam_id":85568392924515193,"keywords":["nocrits","nodmgspread","payload","uncletopia"],"game_id":440,"stv_port":27046,"stv_name":"Uncletopia | Chicago | 4 | All Maps | STV","players":[{"user_id":533,"name":"Ryan (B4L)","steam_id":76561198049800876,"connected_time":970000000000,"state":"active","ping":68},{"user_id":475,"name":"his flatulence","steam_id":76561198799404824,"connected_time":6175000000000,"state":"active","ping":70},{"user_id":532,"name":"The Pan Man From Slavic Land","steam_id":76561198401875841,"connected_time":984000000000,"state":"active","ping":53},{"user_id":523,"name":"dicksnip","steam_id":76561198356515396,"connected_time":1571000000000,"state":"active","ping":73},{"user_id":559,"name":"aversa","steam_id":76561198840460101,"connected_time":128000000000,"state":"active","ping":61},{"user_id":547,"name":"Sariff","steam_id":76561198136446352,"connected_time":691000000000,"state":"active","ping":58},{"user_id":536,"name":"Blitzy","steam_id":76561198149472890,"connected_time":910000000000,"state":"active","ping":74},{"user_id":537,"name":"frank","steam_id":76561198137777483,"connected_time":904000000000,"state":"active","ping":68},{"user_id":520,"name":"JACK BRUNO","steam_id":76561198027957690,"connected_time":1920000000000,"state":"active","ping":104},{"user_id":538,"name":"üÖúüÖîüÖîüÖöüÖ¢üÖ£üÖî\ufffd\ufffd\ufffd","steam_id":76561197999748343,"connected_time":901000000000,"state":"active","ping":66},{"user_id":497,"name":"RND_03","steam_id":76561199487995678,"connected_time":4196000000000,"state":"active","ping":59},{"user_id":558,"name":"Dad 2","steam_id":76561198138546187,"connected_time":282000000000,"state":"active","ping":76},{"user_id":526,"name":"Pancakes","steam_id":76561198097983190,"connected_time":1346000000000,"state":"active","ping":69},{"user_id":539,"name":"Bandit","steam_id":76561198285889962,"connected_time":901000000000,"state":"active","ping":85},{"user_id":393,"name":"Edgy McEdgeison","steam_id":76561198047845399,"connected_time":8154000000000,"state":"active","ping":108},{"user_id":540,"name":"trailmix","steam_id":76561198205008345,"connected_time":868000000000,"state":"active","ping":117},{"user_id":524,"name":"s","steam_id":76561198868600487,"connected_time":1567000000000,"state":"active","ping":109},{"user_id":556,"name":"Mastervandeisel","steam_id":76561198906089530,"connected_time":430000000000,"state":"active","ping":133},{"user_id":541,"name":"msay","steam_id":76561198170888029,"connected_time":867000000000,"state":"active","ping":92},{"user_id":502,"name":"Crimson","steam_id":76561198129326627,"connected_time":3724000000000,"state":"active","ping":82},{"user_id":542,"name":"Hers","steam_id":76561199001140397,"connected_time":856000000000,"state":"active","ping":101},{"user_id":560,"name":"ChefBev","steam_id":76561198189448113,"connected_time":58000000000,"state":"active","ping":63},{"user_id":561,"name":"Horrizan","steam_id":76561197965028480,"connected_time":37000000000,"state":"active","ping":91},{"user_id":472,"name":"POL","steam_id":76561198365759320,"connected_time":6301000000000,"state":"active","ping":163}]},{"server_id":36,"name":"Uncletopia | Chicago | 5 | All Maps","name_short":"chi-5","host":"chi-2.us.uncletopia.com","port":27015,"enabled":true,"region":"us-central","cc":"us","latitude":41.881832,"longitude":-87.62318,"reserved":0,"last_update":"0001-01-01T00:00:00Z","name_a2s":"Uncletopia | Chicago | 5 | All Maps","protocol":17,"map":"koth_king","folder":"tf","game":"Team Fortress","app_id":440,"player_count":20,"max_players":24,"Bots":0,"server_type":"Dedicated","server_os":"Linux","password":true,"vac":true,"version":"7932396","steam_id":85568392924866362,"keywords":["cp","nocrits","nodmgspread","uncletopia"],"game_id":440,"stv_port":27016,"stv_name":"Uncletopia | Chicago | 5 | All Maps | STV","players":[{"user_id":200,"name":"ATL1 | SparkStorm","steam_id":76561198095817025,"connected_time":3885000000000,"state":"active","ping":50},{"user_id":236,"name":"Cwiishe","steam_id":76561199482943969,"connected_time":474000000000,"state":"active","ping":67},{"user_id":232,"name":"Angry Ginger","steam_id":76561198256929349,"connected_time":633000000000,"state":"active","ping":53},{"user_id":191,"name":"¬øskitt1eS?","steam_id":76561198330093211,"connected_time":4042000000000,"state":"active","ping":63},{"user_id":179,"name":"how to fly?","steam_id":76561198064255155,"connected_time":4560000000000,"state":"active","ping":63},{"user_id":237,"name":"Load Lord","steam_id":76561197962831078,"connected_time":424000000000,"state":"active","ping":62},{"user_id":239,"name":".mp3","steam_id":76561198070710025,"connected_time":227000000000,"state":"active","ping":80},{"user_id":240,"name":"ShadowBolt","steam_id":76561198061610985,"connected_time":217000000000,"state":"active","ping":109},{"user_id":227,"name":"Rein","steam_id":76561198300340427,"connected_time":1052000000000,"state":"active","ping":60},{"user_id":242,"name":"Wilfre M.","steam_id":76561198009275417,"connected_time":116000000000,"state":"active","ping":45},{"user_id":243,"name":"Spies in disguise","steam_id":76561198432759867,"connected_time":113000000000,"state":"active","ping":87},{"user_id":244,"name":"Soup Salad \u0026 Breadsticks","steam_id":76561198382572522,"connected_time":10000000000,"state":"active","ping":67},{"user_id":188,"name":"chaffy","steam_id":76561198021754567,"connected_time":4190000000000,"state":"active","ping":57},{"user_id":230,"name":"ATL1 | cola","steam_id":76561198374390458,"connected_time":668000000000,"state":"active","ping":67},{"user_id":176,"name":"Strange Festive Femboy","steam_id":76561198050385093,"connected_time":4785000000000,"state":"active","ping":86},{"user_id":217,"name":"Retrace","steam_id":76561198080620966,"connected_time":2329000000000,"state":"active","ping":84},{"user_id":207,"name":"ATL 1 | Save your wifi","steam_id":76561198286147372,"connected_time":3303000000000,"state":"active","ping":73},{"user_id":221,"name":"m yfrogs","steam_id":76561198371149432,"connected_time":2285000000000,"state":"active","ping":46},{"user_id":233,"name":"isucktoomuch****","steam_id":76561198075165369,"connected_time":632000000000,"state":"active","ping":115},{"user_id":199,"name":"lukas","steam_id":76561198172454407,"connected_time":3931000000000,"state":"active","ping":81}]},{"server_id":37,"name":"Uncletopia | Chicago | 6 | All Maps","name_short":"chi-6","host":"chi-2.us.uncletopia.com","port":27025,"enabled":true,"region":"us-central","cc":"us","latitude":41.881832,"longitude":-87.62318,"reserved":0,"last_update":"0001-01-01T00:00:00Z","name_a2s":"Uncletopia | Chicago | 6 | All Maps","protocol":17,"map":"pl_snowycoast","folder":"tf","game":"Team Fortress","app_id":440,"player_count":22,"max_players":24,"Bots":0,"server_type":"Dedicated","server_os":"Linux","password":true,"vac":true,"version":"7932396","steam_id":85568392924866363,"keywords":["nocrits","nodmgspread","payload","uncletopia"],"game_id":440,"stv_port":27026,"stv_name":"Uncletopia | Chicago | 6 | All Maps | STV","players":[{"user_id":258,"name":"LORD CANTI","steam_id":76561198254479725,"connected_time":965000000000,"state":"active","ping":49},{"user_id":250,"name":"Preacher","steam_id":76561198022215764,"connected_time":1937000000000,"state":"active","ping":71},{"user_id":259,"name":"Tenshioki","steam_id":76561198034285458,"connected_time":85000000000,"state":"spawning","ping":121},{"user_id":256,"name":"sfoster","steam_id":76561197993895857,"connected_time":1179000000000,"state":"active","ping":87},{"user_id":253,"name":"meow","steam_id":76561198055626638,"connected_time":1700000000000,"state":"active","ping":87},{"user_id":241,"name":"bog","steam_id":76561198086008437,"connected_time":2673000000000,"state":"active","ping":69},{"user_id":246,"name":"OldRavensFan","steam_id":76561198043919562,"connected_time":2179000000000,"state":"active","ping":68},{"user_id":170,"name":"Ducky","steam_id":76561198158624190,"connected_time":8634000000000,"state":"active","ping":54},{"user_id":235,"name":"E P H E M E R A L","steam_id":76561198128614882,"connected_time":3171000000000,"state":"active","ping":86},{"user_id":188,"name":"the dishtv1605","steam_id":76561198061284371,"connected_time":7079000000000,"state":"active","ping":61},{"user_id":243,"name":"silver","steam_id":76561198081906712,"connected_time":2191000000000,"state":"active","ping":40},{"user_id":262,"name":"2L84U","steam_id":76561198079176017,"connected_time":23000000000,"state":"spawning","ping":75},{"user_id":239,"name":"Piogre","steam_id":76561198006182258,"connected_time":2955000000000,"state":"active","ping":55},{"user_id":257,"name":"IsaacJon03","steam_id":76561199246649735,"connected_time":1170000000000,"state":"active","ping":114},{"user_id":254,"name":"hatsune miku","steam_id":76561199445009981,"connected_time":1284000000000,"state":"active","ping":103},{"user_id":237,"name":"Philly","steam_id":76561198085004599,"connected_time":3159000000000,"state":"active","ping":70},{"user_id":242,"name":"BigDeac","steam_id":76561198091237274,"connected_time":2536000000000,"state":"active","ping":59},{"user_id":249,"name":"wise","steam_id":76561198030066204,"connected_time":2080000000000,"state":"active","ping":54},{"user_id":252,"name":"Cambonieboo","steam_id":76561198139174433,"connected_time":1850000000000,"state":"active","ping":92},{"user_id":240,"name":"marcie","steam_id":76561198170642407,"connected_time":2871000000000,"state":"active","ping":67},{"user_id":228,"name":"BlancaLamb","steam_id":76561198025646073,"connected_time":4259000000000,"state":"active","ping":86},{"user_id":245,"name":"just call me joe","steam_id":76561198043911582,"connected_time":2190000000000,"state":"active","ping":63}]},{"server_id":38,"name":"Uncletopia | Chicago | 7 | Stopwatch Beta","name_short":"chi-7","host":"chi-2.us.uncletopia.com","port":27035,"enabled":true,"region":"us-central","cc":"us","latitude":41.881832,"longitude":-87.62318,"reserved":0,"last_update":"0001-01-01T00:00:00Z","name_a2s":"Uncletopia | Chicago | 7 | Stopwatch Beta","protocol":17,"map":"pl_borneo","folder":"tf","game":"Team Fortress","app_id":440,"player_count":0,"max_players":24,"Bots":0,"server_type":"Dedicated","server_os":"Linux","password":true,"vac":true,"version":"7932396","steam_id":85568392924866364,"keywords":["nocrits","nodmgspread","payload","uncletopia"],"game_id":440,"stv_port":27036,"stv_name":"Uncletopia | Chicago | 7 | Stopwatch Beta | STV","players":null},{"server_id":39,"name":"Uncletopia | Chicago | 8 | Community","name_short":"chi-8","host":"chi-2.us.uncletopia.com","port":27045,"enabled":true,"region":"us-central","cc":"us","latitude":41.881832,"longitude":-87.62318,"reserved":0,"last_update":"0001-01-01T00:00:00Z","name_a2s":"Uncletopia | Chicago | 8 | Community","protocol":17,"map":"workshop/koth_product_final.ugc454272353","folder":"tf","game":"Team Fortress","app_id":440,"player_count":0,"max_players":24,"Bots":0,"server_type":"Dedicated","server_os":"Linux","password":true,"vac":true,"version":"7932396","steam_id":85568392924866365,"keywords":["cp","nocrits","nodmgspread","uncletopia"],"game_id":440,"stv_port":27046,"stv_name":"Uncletopia | Chicago | 8 | Community | STV","players":null},{"server_id":8,"name":"Uncletopia | Dallas | 1 | All Maps","name_short":"dal-1","host":"dal-1.us.uncletopia.com","port":27015,"enabled":true,"region":"us-central","cc":"us","latitude":32.779167,"longitude":-96.80889,"reserved":0,"last_update":"0001-01-01T00:00:00Z","name_a2s":"Uncletopia | Dallas | 1 | All Maps","protocol":17,"map":"pl_badwater","folder":"tf","game":"Team Fortress","app_id":440,"player_count":19,"max_players":24,"Bots":0,"server_type":"Dedicated","server_os":"Linux","password":true,"vac":true,"version":"7932396","steam_id":85568392924469986,"keywords":["nocrits","nodmgspread","payload","uncletopia"],"game_id":440,"stv_port":27016,"stv_name":"Uncletopia | Dallas | 1 | All Maps | STV","players":[{"user_id":656,"name":"frozenwasanokmovie","steam_id":76561198157407952,"connected_time":77000000000,"state":"active","ping":76},{"user_id":655,"name":"Pindog","steam_id":76561197961597161,"connected_time":118000000000,"state":"active","ping":115},{"user_id":617,"name":"captain red","steam_id":76561198191587983,"connected_time":3569000000000,"state":"active","ping":75},{"user_id":659,"name":"Cold shoulder","steam_id":76561198453824178,"connected_time":18000000000,"state":"active","ping":132},{"user_id":657,"name":"boojerz","steam_id":76561197964249672,"connected_time":44000000000,"state":"active","ping":84},{"user_id":653,"name":"marvxpensiv3","steam_id":76561199020502894,"connected_time":1419000000000,"state":"active","ping":134},{"user_id":660,"name":"Legit_Jaxer","steam_id":76561198172234053,"connected_time":9000000000,"state":"spawning","ping":79},{"user_id":614,"name":"Fightin Cow","steam_id":76561198080941486,"connected_time":3806000000000,"state":"active","ping":55},{"user_id":583,"name":"sailaser","steam_id":76561198035752229,"connected_time":7267000000000,"state":"active","ping":86},{"user_id":650,"name":"okiwdokie","steam_id":76561199469477157,"connected_time":1579000000000,"state":"active","ping":36},{"user_id":625,"name":"Sup m8","steam_id":76561198081659121,"connected_time":3376000000000,"state":"active","ping":45},{"user_id":635,"name":"SKW14","steam_id":76561198215425735,"connected_time":2595000000000,"state":"active","ping":74},{"user_id":649,"name":"cypherzero","steam_id":76561199182960322,"connected_time":1678000000000,"state":"active","ping":53},{"user_id":621,"name":"Moonman327","steam_id":76561197992616059,"connected_time":3532000000000,"state":"active","ping":75},{"user_id":654,"name":"fudge lord","steam_id":76561198118318422,"connected_time":156000000000,"state":"active","ping":85},{"user_id":626,"name":"Snoogs","steam_id":76561198444880931,"connected_time":3185000000000,"state":"active","ping":87},{"user_id":611,"name":"Colonel Salt","steam_id":76561198207009563,"connected_time":3940000000000,"state":"active","ping":54},{"user_id":646,"name":"Sparse","steam_id":76561198865084441,"connected_time":2085000000000,"state":"active","ping":51},{"user_id":647,"name":"small meth pouch","steam_id":76561198130412963,"connected_time":2078000000000,"state":"active","ping":64}]},{"server_id":108,"name":"Uncletopia | Dallas | 2 | All Maps","name_short":"dal-2","host":"dal-1.us.uncletopia.com","port":27025,"enabled":true,"region":"us-central","cc":"us","latitude":32.779167,"longitude":-96.80889,"reserved":0,"last_update":"0001-01-01T00:00:00Z","name_a2s":"Uncletopia | Dallas | 2 | All Maps","protocol":17,"map":"cp_steel","folder":"tf","game":"Team Fortress","app_id":440,"player_count":24,"max_players":24,"Bots":0,"server_type":"Dedicated","server_os":"Linux","password":true,"vac":true,"version":"7932396","steam_id":85568392924469988,"keywords":["cp","nocrits","nodmgspread","uncletopia"],"game_id":440,"stv_port":27026,"stv_name":"Uncletopia | Dallas | 2 | All Maps | STV","players":[{"user_id":367,"name":"Analogous","steam_id":76561198242842394,"connected_time":1000000000000,"state":"active","ping":51},{"user_id":330,"name":"Super Mario","steam_id":76561199005805984,"connected_time":3398000000000,"state":"active","ping":40},{"user_id":328,"name":"jandajanda","steam_id":76561198235722476,"connected_time":3540000000000,"state":"active","ping":64},{"user_id":372,"name":"regular_consuelo","steam_id":76561198327831852,"connected_time":747000000000,"state":"active","ping":93},{"user_id":365,"name":"Woozy","steam_id":76561198008220735,"connected_time":1441000000000,"state":"active","ping":89},{"user_id":374,"name":"ChicoTopic","steam_id":76561198327083342,"connected_time":453000000000,"state":"active","ping":44},{"user_id":304,"name":"sly","steam_id":76561198139240845,"connected_time":5026000000000,"state":"active","ping":86},{"user_id":351,"name":"Manic","steam_id":76561198128149670,"connected_time":2165000000000,"state":"active","ping":44},{"user_id":358,"name":"Noid","steam_id":76561198227804500,"connected_time":1758000000000,"state":"active","ping":85},{"user_id":317,"name":"DJPEANUTBUTTER","steam_id":76561198043862737,"connected_time":4156000000000,"state":"active","ping":75},{"user_id":366,"name":"irritable vowel syndrome","steam_id":76561198117033273,"connected_time":1403000000000,"state":"active","ping":166},{"user_id":352,"name":"pigfarmer.gov","steam_id":76561199071167548,"connected_time":2132000000000,"state":"active","ping":85},{"user_id":288,"name":"Agent Bowtie","steam_id":76561198175839279,"connected_time":6297000000000,"state":"active","ping":60},{"user_id":373,"name":"the smiling zombie","steam_id":76561199246231090,"connected_time":552000000000,"state":"active","ping":80},{"user_id":338,"name":"Holp","steam_id":76561199019186848,"connected_time":3276000000000,"state":"active","ping":80},{"user_id":375,"name":"Doodle Bug","steam_id":76561198799287095,"connected_time":292000000000,"state":"active","ping":53},{"user_id":353,"name":"J21","steam_id":76561198066590783,"connected_time":2106000000000,"state":"active","ping":92},{"user_id":361,"name":"Shadmage","steam_id":76561198312008132,"connected_time":1646000000000,"state":"active","ping":89},{"user_id":301,"name":"Apetometrist","steam_id":76561198045391635,"connected_time":5544000000000,"state":"active","ping":86},{"user_id":362,"name":"Crow","steam_id":76561198146419439,"connected_time":1610000000000,"state":"active","ping":85},{"user_id":369,"name":"emerge","steam_id":76561198186882891,"connected_time":957000000000,"state":"active","ping":84},{"user_id":376,"name":"678-999-8212","steam_id":76561198084260378,"connected_time":18000000000,"state":"spawning","ping":29},{"user_id":363,"name":"glowskull","steam_id":76561198013650292,"connected_time":1610000000000,"state":"active","ping":107},{"user_id":370,"name":"Antifa Supersoldier","steam_id":76561198141816516,"connected_time":890000000000,"state":"active","ping":45}]},{"server_id":5,"name":"Uncletopia | Frankfurt | 1 | All Maps","name_short":"frk-1","host":"frk-1.de.uncletopia.com","port":27015,"enabled":true,"region":"eu","cc":"de","latitude":50.110924,"longitude":8.682127,"reserved":0,"last_update":"0001-01-01T00:00:00Z","name_a2s":"Uncletopia | Frankfurt | 1 | All Maps","protocol":17,"map":"cp_mountainlab","folder":"tf","game":"Team Fortress","app_id":440,"player_count":0,"max_players":24,"Bots":0,"server_type":"Dedicated","server_os":"Linux","password":true,"vac":true,"version":"7932396","steam_id":85568392924469989,"keywords":["cp","nocrits","nodmgspread","uncletopia"],"game_id":440,"stv_port":27016,"stv_name":"Uncletopia | Frankfurt | 1 | All Maps | STV","players":null},{"server_id":110,"name":"Uncletopia | Frankfurt | 2 | All Maps","name_short":"frk-2","host":"frk-1.de.uncletopia.com","port":27025,"enabled":true,"region":"eu","cc":"de","latitude":50.110924,"longitude":8.682127,"reserved":0,"last_update":"0001-01-01T00:00:00Z","name_a2s":"Uncletopia | Frankfurt | 2 | All Maps","protocol":17,"map":"cp_snakewater_final1","folder":"tf","game":"Team Fortress","app_id":440,"player_count":0,"max_players":24,"Bots":0,"server_type":"Dedicated","server_os":"Linux","password":true,"vac":true,"version":"7932396","steam_id":85568392924469990,"keywords":["cp","nocrits","nodmgspread","uncletopia"],"game_id":440,"stv_port":27026,"stv_name":"Uncletopia | Frankfurt | 2 | All Maps | STV","players":null},{"server_id":308,"name":"Uncletopia | Frankfurt | 3 | All Maps","name_short":"frk-3","host":"frk-1.de.uncletopia.com","port":27035,"enabled":true,"region":"eu","cc":"de","latitude":50.110924,"longitude":8.682127,"reserved":0,"last_update":"0001-01-01T00:00:00Z","name_a2s":"Uncletopia | Frankfurt | 3 | All Maps","protocol":17,"map":"cp_mountainlab","folder":"tf","game":"Team Fortress","app_id":440,"player_count":0,"max_players":24,"Bots":0,"server_type":"Dedicated","server_os":"Linux","password":true,"vac":true,"version":"7932396","steam_id":85568392924504274,"keywords":["cp","nocrits","nodmgspread","uncletopia"],"game_id":440,"stv_port":27036,"stv_name":"Uncletopia | Frankfurt | 3 | All Maps | STV","players":null},{"server_id":309,"name":"Uncletopia | Frankfurt | 4 | All Maps","name_short":"frk-4","host":"frk-1.de.uncletopia.com","port":27045,"enabled":true,"region":"eu","cc":"de","latitude":50.110924,"longitude":8.682127,"reserved":0,"last_update":"0001-01-01T00:00:00Z","name_a2s":"Uncletopia | Frankfurt | 4 | All Maps","protocol":17,"map":"koth_lakeside_final","folder":"tf","game":"Team Fortress","app_id":440,"player_count":0,"max_players":24,"Bots":0,"server_type":"Dedicated","server_os":"Linux","password":true,"vac":true,"version":"7932396","steam_id":85568392924504275,"keywords":["cp","nocrits","nodmgspread","uncletopia"],"game_id":440,"stv_port":27046,"stv_name":"Uncletopia | Frankfurt | 4 | All Maps | STV","players":null},{"server_id":310,"name":"Uncletopia | Frankfurt | 5 | All Maps","name_short":"frk-5","host":"frk-1.de.uncletopia.com","port":27055,"enabled":true,"region":"eu","cc":"de","latitude":50.110924,"longitude":8.682127,"reserved":0,"last_update":"0001-01-01T00:00:00Z","name_a2s":"Uncletopia | Frankfurt | 5 | All Maps","protocol":17,"map":"koth_viaduct","folder":"tf","game":"Team Fortress","app_id":440,"player_count":0,"max_players":24,"Bots":0,"server_type":"Dedicated","server_os":"Linux","password":true,"vac":true,"version":"7932396","steam_id":85568392924504277,"keywords":["cp","nocrits","nodmgspread","uncletopia"],"game_id":440,"stv_port":27056,"stv_name":"Uncletopia | Frankfurt | 5 | All Maps | STV","players":null},{"server_id":311,"name":"Uncletopia | Frankfurt | 6 | All Maps","name_short":"frk-6","host":"frk-1.de.uncletopia.com","port":27065,"enabled":true,"region":"eu","cc":"de","latitude":50.110924,"longitude":8.682127,"reserved":0,"last_update":"0001-01-01T00:00:00Z","name_a2s":"Uncletopia | Frankfurt | 6 | All Maps","protocol":17,"map":"koth_highpass","folder":"tf","game":"Team Fortress","app_id":440,"player_count":0,"max_players":24,"Bots":0,"server_type":"Dedicated","server_os":"Linux","password":true,"vac":true,"version":"7932396","steam_id":85568392924504278,"keywords":["cp","nocrits","nodmgspread","uncletopia"],"game_id":440,"stv_port":27066,"stv_name":"Uncletopia | Frankfurt | 6 | All Maps | STV","players":null},{"server_id":23,"name":"Uncletopia | Frankfurt | 7 | Stopwatch Beta","name_short":"frk-7","host":"frk-1.de.uncletopia.com","port":27075,"enabled":true,"region":"eu","cc":"de","latitude":50.110924,"longitude":8.682127,"reserved":0,"last_update":"0001-01-01T00:00:00Z","name_a2s":"Uncletopia | Frankfurt | 7 | Stopwatch Beta","protocol":17,"map":"pl_snowycoast","folder":"tf","game":"Team Fortress","app_id":440,"player_count":0,"max_players":24,"Bots":0,"server_type":"Dedicated","server_os":"Linux","password":true,"vac":true,"version":"7932396","steam_id":85568392924742827,"keywords":["nocrits","nodmgspread","payload","uncletopia"],"game_id":440,"stv_port":27076,"stv_name":"Uncletopia | Frankfurt | 7 | Stopwatch Beta | STV","players":null},{"server_id":24,"name":"Uncletopia | Frankfurt | 8 | Community","name_short":"frk-8","host":"frk-1.de.uncletopia.com","port":27085,"enabled":true,"region":"eu","cc":"de","latitude":50.110924,"longitude":8.682127,"reserved":0,"last_update":"0001-01-01T00:00:00Z","name_a2s":"Uncletopia | Frankfurt | 8 | Community","protocol":17,"map":"workshop/pl_highwood_b13.ugc1769496557","folder":"tf","game":"Team Fortress","app_id":440,"player_count":0,"max_players":24,"Bots":0,"server_type":"Dedicated","server_os":"Linux","password":true,"vac":true,"version":"7932396","steam_id":85568392924742828,"keywords":["nocrits","nodmgspread","payload","uncletopia"],"game_id":440,"stv_port":27086,"stv_name":"Uncletopia | Frankfurt | 8 | Community | STV","players":null},{"server_id":202,"name":"Uncletopia | Hong Kong | 1 | All Maps","name_short":"hgk-1","host":"hgk-1.hk.uncletopia.com","port":27015,"enabled":true,"region":"asia","cc":"hk","latitude":22.302711,"longitude":114.177216,"reserved":0,"last_update":"0001-01-01T00:00:00Z","name_a2s":"Uncletopia | Hong Kong | 1 | All Maps","protocol":17,"map":"cp_sunshine","folder":"tf","game":"Team Fortress","app_id":440,"player_count":0,"max_players":24,"Bots":0,"server_type":"Dedicated","server_os":"Linux","password":true,"vac":true,"version":"7932396","steam_id":85568392924494504,"keywords":["cp","nocrits","nodmgspread","uncletopia"],"game_id":440,"stv_port":27016,"stv_name":"Uncletopia | Hong Kong | 1 | All Maps | STV","players":null},{"server_id":1,"name":"Uncletopia | Los Angeles | 1 | All Maps","name_short":"lax-1","host":"lax-1.us.uncletopia.com","port":27015,"enabled":true,"region":"us-west","cc":"us","latitude":33.94279,"longitude":-118.41004,"reserved":0,"last_update":"0001-01-01T00:00:00Z","name_a2s":"Uncletopia | Los Angeles | 1 | All Maps","protocol":17,"map":"pl_upward","folder":"tf","game":"Team Fortress","app_id":440,"player_count":24,"max_players":24,"Bots":0,"server_type":"Dedicated","server_os":"Linux","password":true,"vac":true,"version":"7932396","steam_id":85568392924469991,"keywords":["nocrits","nodmgspread","payload","uncletopia"],"game_id":440,"stv_port":27016,"stv_name":"Uncletopia | Los Angeles | 1 | All Maps | STV","players":[{"user_id":244,"name":"golia","steam_id":76561198000264266,"connected_time":1041000000000,"state":"active","ping":65},{"user_id":257,"name":"Heatseeker","steam_id":76561198084093538,"connected_time":429000000000,"state":"active","ping":83},{"user_id":212,"name":"NexFrost","steam_id":76561197985774837,"connected_time":3126000000000,"state":"active","ping":68},{"user_id":248,"name":"kr1tsurf3r","steam_id":76561198076402476,"connected_time":889000000000,"state":"active","ping":65},{"user_id":256,"name":"James","steam_id":76561198077251918,"connected_time":448000000000,"state":"active","ping":56},{"user_id":197,"name":"Mr. Blubber","steam_id":76561198338906916,"connected_time":3506000000000,"state":"active","ping":52},{"user_id":246,"name":"Dr. Zoidburg","steam_id":76561198174593497,"connected_time":934000000000,"state":"active","ping":94},{"user_id":220,"name":"TheRealChizz","steam_id":76561198016055769,"connected_time":2638000000000,"state":"active","ping":64},{"user_id":221,"name":"a_relaxed_anti","steam_id":76561199310144043,"connected_time":2633000000000,"state":"active","ping":65},{"user_id":222,"name":"chicken","steam_id":76561198196998007,"connected_time":2629000000000,"state":"active","ping":99},{"user_id":208,"name":"Lumberjane37 (birthday time!!)","steam_id":76561198014841793,"connected_time":3277000000000,"state":"active","ping":60},{"user_id":232,"name":"Igrium","steam_id":76561198119549811,"connected_time":1549000000000,"state":"active","ping":67},{"user_id":258,"name":"JohnGamer421","steam_id":76561199488553277,"connected_time":337000000000,"state":"active","ping":48},{"user_id":228,"name":"ketsu","steam_id":76561197966171554,"connected_time":2250000000000,"state":"active","ping":171},{"user_id":213,"name":"samvaluez","steam_id":76561199213743808,"connected_time":3118000000000,"state":"active","ping":68},{"user_id":254,"name":"Hunter","steam_id":76561198050617754,"connected_time":464000000000,"state":"active","ping":68},{"user_id":238,"name":"burdllomu (no vac/buy lollichop","steam_id":76561199142477846,"connected_time":1303000000000,"state":"active","ping":86},{"user_id":242,"name":"VegetarianPanda","steam_id":76561198399628691,"connected_time":1146000000000,"state":"active","ping":48},{"user_id":217,"name":"Silver","steam_id":76561198043770709,"connected_time":2940000000000,"state":"active","ping":69},{"user_id":216,"name":"Taco+Taco=Burrito","steam_id":76561198063128663,"connected_time":3000000000000,"state":"active","ping":49},{"user_id":218,"name":"usedhalfcart","steam_id":76561198072621852,"connected_time":2830000000000,"state":"active","ping":73},{"user_id":164,"name":"Lonlily","steam_id":76561198130418647,"connected_time":6713000000000,"state":"active","ping":61},{"user_id":251,"name":"Gnarly Bones Real","steam_id":76561198175628151,"connected_time":589000000000,"state":"active","ping":100},{"user_id":255,"name":"Miro","steam_id":76561198936412406,"connected_time":464000000000,"state":"active","ping":129}]},{"server_id":112,"name":"Uncletopia | Los Angeles | 2 | All Maps","name_short":"lax-2","host":"lax-1.us.uncletopia.com","port":27025,"enabled":true,"region":"us-west","cc":"us","latitude":33.94279,"longitude":-118.41004,"reserved":0,"last_update":"0001-01-01T00:00:00Z","name_a2s":"Uncletopia | Los Angeles | 2 | All Maps","protocol":17,"map":"pl_snowycoast","folder":"tf","game":"Team Fortress","app_id":440,"player_count":20,"max_players":24,"Bots":0,"server_type":"Dedicated","server_os":"Linux","password":true,"vac":true,"version":"7932396","steam_id":85568392924469992,"keywords":["nocrits","nodmgspread","payload","uncletopia"],"game_id":440,"stv_port":27026,"stv_name":"Uncletopia | Los Angeles | 2 | All Maps | STV","players":[{"user_id":53,"name":"ForAPessimistImPrettyOptimistic","steam_id":76561198170128009,"connected_time":1323000000000,"state":"spawning","ping":110},{"user_id":65,"name":"Kai","steam_id":76561197972261210,"connected_time":471000000000,"state":"spawning","ping":195},{"user_id":62,"name":"S","steam_id":76561198141817197,"connected_time":674000000000,"state":"spawning","ping":65},{"user_id":26,"name":"schlarpc","steam_id":76561198007700826,"connected_time":2537000000000,"state":"spawning","ping":65},{"user_id":28,"name":"thedeadlyamoeba","steam_id":76561198040810178,"connected_time":2510000000000,"state":"spawning","ping":47},{"user_id":29,"name":"Paranoid_Manatee","steam_id":76561198068623572,"connected_time":2505000000000,"state":"spawning","ping":58},{"user_id":30,"name":"walrooos","steam_id":76561198024521839,"connected_time":2366000000000,"state":"spawning","ping":61},{"user_id":37,"name":"elephant thumb","steam_id":76561198118859752,"connected_time":2076000000000,"state":"spawning","ping":64},{"user_id":71,"name":"Timewaves","steam_id":76561198000186054,"connected_time":51000000000,"state":"spawning","ping":56},{"user_id":59,"name":"mu","steam_id":76561197997530228,"connected_time":945000000000,"state":"spawning","ping":90},{"user_id":40,"name":"Schnitz","steam_id":76561198265484253,"connected_time":1839000000000,"state":"spawning","ping":80},{"user_id":70,"name":"Skarp129","steam_id":76561198108679057,"connected_time":189000000000,"state":"spawning","ping":74},{"user_id":56,"name":"jeff_fan","steam_id":76561198086420687,"connected_time":1081000000000,"state":"spawning","ping":89},{"user_id":60,"name":"help","steam_id":76561198044689625,"connected_time":859000000000,"state":"spawning","ping":90},{"user_id":42,"name":"Hadn69","steam_id":76561198047885348,"connected_time":1785000000000,"state":"spawning","ping":75},{"user_id":69,"name":"Dungeon Diver","steam_id":76561199379489615,"connected_time":220000000000,"state":"spawning","ping":156},{"user_id":44,"name":"crumbles","steam_id":76561198168707036,"connected_time":1548000000000,"state":"spawning","ping":76},{"user_id":68,"name":"DrWilloughby","steam_id":76561198095260357,"connected_time":245000000000,"state":"spawning","ping":71},{"user_id":51,"name":"gretchling","steam_id":76561198046111695,"connected_time":1363000000000,"state":"spawning","ping":98},{"user_id":58,"name":"Albatross","steam_id":76561198146303459,"connected_time":1079000000000,"state":"spawning","ping":41}]},{"server_id":324,"name":"Uncletopia | Los Angeles | 3 | All Maps","name_short":"lax-3","host":"lax-1.us.uncletopia.com","port":27035,"enabled":true,"region":"us-west","cc":"us","latitude":33.94279,"longitude":-118.41004,"reserved":0,"last_update":"0001-01-01T00:00:00Z","name_a2s":"Uncletopia | Los Angeles | 3 | All Maps","protocol":17,"map":"pl_badwater","folder":"tf","game":"Team Fortress","app_id":440,"player_count":24,"max_players":24,"Bots":0,"server_type":"Dedicated","server_os":"Linux","password":true,"vac":true,"version":"7932396","steam_id":85568392924510198,"keywords":["nocrits","nodmgspread","payload","uncletopia"],"game_id":440,"stv_port":27036,"stv_name":"Uncletopia | Los Angeles | 3 | All Maps | STV","players":[{"user_id":542,"name":"A UsedNom","steam_id":76561198402832756,"connected_time":3209000000000,"state":"active","ping":47},{"user_id":531,"name":"Pez","steam_id":76561199197778137,"connected_time":4533000000000,"state":"active","ping":68},{"user_id":544,"name":"It's a Doggydog World","steam_id":76561198018232414,"connected_time":3187000000000,"state":"active","ping":71},{"user_id":540,"name":"Kung fu Mungus","steam_id":76561198069281556,"connected_time":3832000000000,"state":"active","ping":87},{"user_id":558,"name":"FiddyFoMike","steam_id":76561198057072581,"connected_time":2287000000000,"state":"active","ping":55},{"user_id":574,"name":"Dennis","steam_id":76561198090531755,"connected_time":1242000000000,"state":"active","ping":75},{"user_id":537,"name":"WesyUWU (The mini crit pig)","steam_id":76561198069188177,"connected_time":4366000000000,"state":"active","ping":78},{"user_id":543,"name":"Diesel","steam_id":76561198448815852,"connected_time":3208000000000,"state":"active","ping":61},{"user_id":565,"name":"RainboomCrash","steam_id":76561198065612273,"connected_time":1564000000000,"state":"active","ping":69},{"user_id":477,"name":"..flop","steam_id":76561197989058876,"connected_time":9575000000000,"state":"active","ping":72},{"user_id":570,"name":"frostedflakes99","steam_id":76561199049292578,"connected_time":1355000000000,"state":"active","ping":55},{"user_id":577,"name":"Dullahan","steam_id":76561198119668908,"connected_time":440000000000,"state":"active","ping":57},{"user_id":576,"name":"vera","steam_id":76561198318851246,"connected_time":1021000000000,"state":"active","ping":52},{"user_id":567,"name":"give me ur osrs gold","steam_id":76561197997990613,"connected_time":1422000000000,"state":"active","ping":62},{"user_id":541,"name":"HUMBY","steam_id":76561198065045867,"connected_time":3226000000000,"state":"active","ping":100},{"user_id":524,"name":"Ralph Kramden (Slim Charles)","steam_id":76561197981687895,"connected_time":5113000000000,"state":"active","ping":62},{"user_id":553,"name":"FAKE uncletopia server","steam_id":76561198065662025,"connected_time":2747000000000,"state":"active","ping":60},{"user_id":437,"name":"Cinnifox","steam_id":76561198068773971,"connected_time":11496000000000,"state":"active","ping":84},{"user_id":572,"name":"mrthugpug1732","steam_id":76561198881200768,"connected_time":1281000000000,"state":"active","ping":56},{"user_id":554,"name":"Jimmy","steam_id":76561198857959855,"connected_time":2599000000000,"state":"active","ping":51},{"user_id":393,"name":"BrightOrangeMango","steam_id":76561198023144607,"connected_time":13596000000000,"state":"active","ping":66},{"user_id":573,"name":"Fractured_Mango","steam_id":76561199013113268,"connected_time":1260000000000,"state":"active","ping":72},{"user_id":528,"name":"donutdagger","steam_id":76561199203048300,"connected_time":4622000000000,"state":"active","ping":67},{"user_id":557,"name":"Soulsted","steam_id":76561198048889257,"connected_time":2449000000000,"state":"active","ping":109}]},{"server_id":25,"name":"Uncletopia | Los Angeles | 4 | Stopwatch Beta","name_short":"lax-4","host":"lax-1.us.uncletopia.com","port":27045,"enabled":true,"region":"us-west","cc":"us","latitude":33.94279,"longitude":-118.41004,"reserved":0,"last_update":"0001-01-01T00:00:00Z","name_a2s":"Uncletopia | Los Angeles | 4 | Stopwatch Beta","protocol":17,"map":"workshop/pl_summercoast_rc8e.ugc1761528829","folder":"tf","game":"Team Fortress","app_id":440,"player_count":0,"max_players":24,"Bots":0,"server_type":"Dedicated","server_os":"Linux","password":true,"vac":true,"version":"7932396","steam_id":85568392924510199,"keywords":["nocrits","nodmgspread","payload","uncletopia"],"game_id":440,"stv_port":27046,"stv_name":"Uncletopia | Los Angeles | 4 | Stopwatch Beta | STV","players":null},{"server_id":11,"name":"Uncletopia | London | 1 | All Maps","name_short":"lon-1","host":"lon-1.uk.uncletopia.com","port":27015,"enabled":true,"region":"eu","cc":"gb","latitude":51.509865,"longitude":-0.118092,"reserved":0,"last_update":"0001-01-01T00:00:00Z","name_a2s":"Uncletopia | London | 1 | All Maps","protocol":17,"map":"cp_gullywash_final1","folder":"tf","game":"Team Fortress","app_id":440,"player_count":22,"max_players":24,"Bots":0,"server_type":"Dedicated","server_os":"Linux","password":true,"vac":true,"version":"7932396","steam_id":85568392924367362,"keywords":["cp","nocrits","nodmgspread","uncletopia"],"game_id":440,"stv_port":27016,"stv_name":"Uncletopia | London | 1 | All Maps | STV","players":[{"user_id":1010,"name":"SirSangoor","steam_id":76561198044462559,"connected_time":3280000000000,"state":"active","ping":119},{"user_id":1046,"name":"yuck","steam_id":76561197987249568,"connected_time":782000000000,"state":"active","ping":105},{"user_id":1016,"name":"dansal","steam_id":76561197997042510,"connected_time":2903000000000,"state":"active","ping":162},{"user_id":1048,"name":"Gwishin","steam_id":76561198257158275,"connected_time":706000000000,"state":"active","ping":151},{"user_id":1056,"name":"Not Today","steam_id":76561199149546596,"connected_time":130000000000,"state":"active","ping":69},{"user_id":1049,"name":"Qdarks","steam_id":76561198013391340,"connected_time":702000000000,"state":"active","ping":130},{"user_id":1050,"name":"GoblinGaming","steam_id":76561198360395476,"connected_time":655000000000,"state":"active","ping":39},{"user_id":1008,"name":"noided","steam_id":76561199480942903,"connected_time":3676000000000,"state":"active","ping":75},{"user_id":978,"name":"volkiano","steam_id":76561198319802031,"connected_time":5162000000000,"state":"active","ping":47},{"user_id":985,"name":"nicotine deprived brain","steam_id":76561198129828715,"connected_time":4713000000000,"state":"active","ping":65},{"user_id":1055,"name":"Coconut James","steam_id":76561198081770619,"connected_time":202000000000,"state":"active","ping":122},{"user_id":1051,"name":"regimiro","steam_id":76561198120457008,"connected_time":627000000000,"state":"active","ping":55},{"user_id":972,"name":"Barb√Ätrou","steam_id":76561199439141531,"connected_time":5450000000000,"state":"active","ping":58},{"user_id":1052,"name":"supershyguy147","steam_id":76561199208965131,"connected_time":546000000000,"state":"active","ping":170},{"user_id":1028,"name":":P","steam_id":76561198106399430,"connected_time":2480000000000,"state":"active","ping":35},{"user_id":997,"name":"aight","steam_id":76561198174474613,"connected_time":3971000000000,"state":"active","ping":40},{"user_id":961,"name":"Xanshi","steam_id":76561198152392309,"connected_time":5818000000000,"state":"active","ping":45},{"user_id":1031,"name":"Doctor Marijuana","steam_id":76561198288289879,"connected_time":2390000000000,"state":"active","ping":47},{"user_id":1057,"name":"SuperBob103","steam_id":76561199175360012,"connected_time":85000000000,"state":"active","ping":46},{"user_id":1054,"name":"Argon","steam_id":76561199254804349,"connected_time":439000000000,"state":"active","ping":183},{"user_id":1018,"name":"AmssoBador Spacelot","steam_id":76561197993444617,"connected_time":2888000000000,"state":"active","ping":79},{"user_id":999,"name":"paradigmatic shift","steam_id":76561197988802856,"connected_time":3951000000000,"state":"active","ping":74}]},{"server_id":114,"name":"Uncletopia | London | 2 | All Maps","name_short":"lon-2","host":"lon-1.uk.uncletopia.com","port":27025,"enabled":true,"region":"eu","cc":"gb","latitude":51.509865,"longitude":-0.118092,"reserved":0,"last_update":"0001-01-01T00:00:00Z","name_a2s":"Uncletopia | London | 2 | All Maps","protocol":17,"map":"cp_mountainlab","folder":"tf","game":"Team Fortress","app_id":440,"player_count":0,"max_players":24,"Bots":0,"server_type":"Dedicated","server_os":"Linux","password":true,"vac":true,"version":"7932396","steam_id":85568392924470941,"keywords":["cp","nocrits","nodmgspread","uncletopia"],"game_id":440,"stv_port":27026,"stv_name":"Uncletopia | London | 2 | All Maps | STV","players":null},{"server_id":320,"name":"Uncletopia | London | 3 | All Maps","name_short":"lon-3","host":"lon-1.uk.uncletopia.com","port":27035,"enabled":true,"region":"eu","cc":"gb","latitude":51.509865,"longitude":-0.118092,"reserved":0,"last_update":"0001-01-01T00:00:00Z","name_a2s":"Uncletopia | London | 3 | All Maps","protocol":17,"map":"cp_snakewater_final1","folder":"tf","game":"Team Fortress","app_id":440,"player_count":0,"max_players":24,"Bots":0,"server_type":"Dedicated","server_os":"Linux","password":true,"vac":true,"version":"7932396","steam_id":85568392924510192,"keywords":["cp","nocrits","nodmgspread","uncletopia"],"game_id":440,"stv_port":27036,"stv_name":"Uncletopia | London | 3 | All Maps | STV","players":null},{"server_id":321,"name":"Uncletopia | London | 4 | All Maps","name_short":"lon-4","host":"lon-1.uk.uncletopia.com","port":27045,"enabled":true,"region":"eu","cc":"gb","latitude":51.509865,"longitude":-0.118092,"reserved":0,"last_update":"0001-01-01T00:00:00Z","name_a2s":"Uncletopia | London | 4 | All Maps","protocol":17,"map":"pl_borneo","folder":"tf","game":"Team Fortress","app_id":440,"player_count":0,"max_players":24,"Bots":0,"server_type":"Dedicated","server_os":"Linux","password":true,"vac":true,"version":"7932396","steam_id":85568392924510193,"keywords":["nocrits","nodmgspread","payload","uncletopia"],"game_id":440,"stv_port":27046,"stv_name":"Uncletopia | London | 4 | All Maps | STV","players":null},{"server_id":21,"name":"Uncletopia | London | 5 | All Maps","name_short":"lon-5","host":"lon-1.uk.uncletopia.com","port":27055,"enabled":true,"region":"eu","cc":"gb","latitude":51.509865,"longitude":-0.118092,"reserved":0,"last_update":"0001-01-01T00:00:00Z","name_a2s":"Uncletopia | London | 5 | All Maps","protocol":17,"map":"pl_upward","folder":"tf","game":"Team Fortress","app_id":440,"player_count":0,"max_players":24,"Bots":0,"server_type":"Dedicated","server_os":"Linux","password":true,"vac":true,"version":"7932396","steam_id":85568392924742829,"keywords":["nocrits","nodmgspread","payload","uncletopia"],"game_id":440,"stv_port":27056,"stv_name":"Uncletopia | London | 5 | All Maps | STV","players":null},{"server_id":22,"name":"Uncletopia | London | 6 | All Maps","name_short":"lon-6","host":"lon-1.uk.uncletopia.com","port":27065,"enabled":true,"region":"eu","cc":"gb","latitude":51.509865,"longitude":-0.118092,"reserved":0,"last_update":"0001-01-01T00:00:00Z","name_a2s":"Uncletopia | London | 6 | All Maps","protocol":17,"map":"koth_viaduct","folder":"tf","game":"Team Fortress","app_id":440,"player_count":0,"max_players":24,"Bots":0,"server_type":"Dedicated","server_os":"Linux","password":true,"vac":true,"version":"7932396","steam_id":85568392924742830,"keywords":["cp","nocrits","nodmgspread","uncletopia"],"game_id":440,"stv_port":27066,"stv_name":"Uncletopia | London | 6 | All Maps | STV","players":null},{"server_id":40,"name":"Uncletopia | London | 7 | No Payload","name_short":"lon-7","host":"lon-1.uk.uncletopia.com","port":27075,"enabled":true,"region":"eu","cc":"gb","latitude":51.509865,"longitude":-0.118092,"reserved":0,"last_update":"0001-01-01T00:00:00Z","name_a2s":"Uncletopia | London | 7 | No Payload","protocol":17,"map":"cp_sunshine","folder":"tf","game":"Team Fortress","app_id":440,"player_count":0,"max_players":24,"Bots":0,"server_type":"Dedicated","server_os":"Linux","password":true,"vac":true,"version":"7932396","steam_id":85568392924964314,"keywords":["cp","nocrits","nodmgspread","uncletopia"],"game_id":440,"stv_port":27076,"stv_name":"Uncletopia | London | 7 | No Payload | STV","players":null},{"server_id":41,"name":"Uncletopia | London | 8 | Community","name_short":"lon-8","host":"lon-1.uk.uncletopia.com","port":27085,"enabled":true,"region":"eu","cc":"gb","latitude":51.509865,"longitude":-0.118092,"reserved":0,"last_update":"0001-01-01T00:00:00Z","name_a2s":"Uncletopia | London | 8 | Community","protocol":17,"map":"workshop/pl_boundary_final1.ugc456799153","folder":"tf","game":"Team Fortress","app_id":440,"player_count":0,"max_players":24,"Bots":0,"server_type":"Dedicated","server_os":"Linux","password":true,"vac":true,"version":"7932396","steam_id":85568392924964315,"keywords":["nocrits","nodmgspread","payload","uncletopia"],"game_id":440,"stv_port":27086,"stv_name":"Uncletopia | London | 8 | Community | STV","players":null},{"server_id":300,"name":"Uncletopia | Montr√©al | 1 | All Maps","name_short":"mtl-1","host":"mtl-1.ca.uncletopia.com","port":27015,"enabled":true,"region":"us-east","cc":"ca","latitude":45.50889,"longitude":-73.56167,"reserved":0,"last_update":"0001-01-01T00:00:00Z","name_a2s":"Uncletopia | Montr√©al | 1 | All Maps","protocol":17,"map":"pl_thundermountain","folder":"tf","game":"Team Fortress","app_id":440,"player_count":13,"max_players":24,"Bots":0,"server_type":"Dedicated","server_os":"Linux","password":true,"vac":true,"version":"7932396","steam_id":85568392924500087,"keywords":["nocrits","nodmgspread","payload","uncletopia"],"game_id":440,"stv_port":27016,"stv_name":"Uncletopia | Montr√©al | 1 | All Maps | STV","players":[{"user_id":100,"name":"WillieMakit","steam_id":76561197985391684,"connected_time":2630000000000,"state":"active","ping":137},{"user_id":122,"name":"TweetTweet17","steam_id":76561198994956859,"connected_time":1850000000000,"state":"active","ping":72},{"user_id":25,"name":"Pizza","steam_id":76561198118748364,"connected_time":8508000000000,"state":"active","ping":87},{"user_id":26,"name":"Makina","steam_id":76561198057475567,"connected_time":8505000000000,"state":"active","ping":84},{"user_id":103,"name":"Oneshot","steam_id":76561199061899768,"connected_time":2521000000000,"state":"active","ping":58},{"user_id":97,"name":"Disco Fever","steam_id":76561198069532215,"connected_time":3167000000000,"state":"active","ping":69},{"user_id":129,"name":"Pretentious Gunspy","steam_id":76561199241325005,"connected_time":171000000000,"state":"active","ping":167},{"user_id":119,"name":"b","steam_id":76561198118211523,"connected_time":2025000000000,"state":"active","ping":50},{"user_id":113,"name":"Snake Handler","steam_id":76561198027198306,"connected_time":2280000000000,"state":"active","ping":70},{"user_id":114,"name":"[BBC] Justario","steam_id":76561198016095410,"connected_time":2273000000000,"state":"active","ping":57},{"user_id":116,"name":"kashmiiR","steam_id":76561198123697209,"connected_time":2244000000000,"state":"active","ping":72},{"user_id":120,"name":"thumb","steam_id":76561198353762582,"connected_time":2019000000000,"state":"active","ping":143},{"user_id":124,"name":"CORGI.EXE","steam_id":76561198077093432,"connected_time":1365000000000,"state":"active","ping":54}]},{"server_id":301,"name":"Uncletopia | Montr√©al | 2 | All Maps","name_short":"mtl-2","host":"mtl-1.ca.uncletopia.com","port":27025,"enabled":true,"region":"us-east","cc":"ca","latitude":45.50889,"longitude":-73.56167,"reserved":0,"last_update":"0001-01-01T00:00:00Z","name_a2s":"Uncletopia | Montr√©al | 2 | All Maps","protocol":17,"map":"koth_lakeside_final","folder":"tf","game":"Team Fortress","app_id":440,"player_count":0,"max_players":24,"Bots":0,"server_type":"Dedicated","server_os":"Linux","password":true,"vac":true,"version":"7932396","steam_id":85568392924500088,"keywords":["cp","nocrits","nodmgspread","uncletopia"],"game_id":440,"stv_port":27026,"stv_name":"Uncletopia | Montr√©al | 2 | All Maps | STV","players":null},{"server_id":302,"name":"Uncletopia | Montr√©al | 3 | All Maps","name_short":"mtl-3","host":"mtl-1.ca.uncletopia.com","port":27035,"enabled":true,"region":"us-east","cc":"ca","latitude":45.50889,"longitude":-73.56167,"reserved":0,"last_update":"0001-01-01T00:00:00Z","name_a2s":"Uncletopia | Montr√©al | 3 | All Maps","protocol":17,"map":"cp_mountainlab","folder":"tf","game":"Team Fortress","app_id":440,"player_count":0,"max_players":24,"Bots":0,"server_type":"Dedicated","server_os":"Linux","password":true,"vac":true,"version":"7932396","steam_id":85568392924500089,"keywords":["cp","nocrits","nodmgspread","uncletopia"],"game_id":440,"stv_port":27036,"stv_name":"Uncletopia | Montr√©al | 3 | All Maps | STV","players":null},{"server_id":303,"name":"Uncletopia | Montr√©al | 4 | No Payload","name_short":"mtl-4","host":"mtl-1.ca.uncletopia.com","port":27045,"enabled":true,"region":"us-east","cc":"ca","latitude":45.50889,"longitude":-73.56167,"reserved":0,"last_update":"0001-01-01T00:00:00Z","name_a2s":"Uncletopia | Montr√©al | 4 | No Payload","protocol":17,"map":"cp_vanguard","folder":"tf","game":"Team Fortress","app_id":440,"player_count":0,"max_players":24,"Bots":0,"server_type":"Dedicated","server_os":"Linux","password":true,"vac":true,"version":"7932396","steam_id":85568392924500090,"keywords":["cp","nocrits","nodmgspread","uncletopia"],"game_id":440,"stv_port":27046,"stv_name":"Uncletopia | Montr√©al | 4 | No Payload | STV","players":null},{"server_id":13,"name":"Uncletopia | New York City | 1 | All Maps","name_short":"nyc-1","host":"nyc-1.us.uncletopia.com","port":27015,"enabled":true,"region":"us-east","cc":"us","latitude":40.73061,"longitude":-73.93524,"reserved":0,"last_update":"0001-01-01T00:00:00Z","name_a2s":"Uncletopia | New York City | 1 | All Maps","protocol":17,"map":"pl_frontier_final","folder":"tf","game":"Team Fortress","app_id":440,"player_count":24,"max_players":24,"Bots":0,"server_type":"Dedicated","server_os":"Linux","password":true,"vac":true,"version":"7932396","steam_id":85568392924469993,"keywords":["nocrits","nodmgspread","payload","uncletopia"],"game_id":440,"stv_port":27016,"stv_name":"Uncletopia | New York City | 1 | All Maps | STV","players":[{"user_id":272,"name":"Poop Enjoyer","steam_id":76561198090562293,"connected_time":1582000000000,"state":"active","ping":102},{"user_id":182,"name":"Periculosum PhD in Funny","steam_id":76561198123370914,"connected_time":10616000000000,"state":"active","ping":93},{"user_id":246,"name":"Dinosaur","steam_id":76561198854695804,"connected_time":3907000000000,"state":"active","ping":57},{"user_id":273,"name":"Nopaho","steam_id":76561198087571953,"connected_time":1570000000000,"state":"active","ping":126},{"user_id":278,"name":"Pingle","steam_id":76561198096221632,"connected_time":1436000000000,"state":"active","ping":67},{"user_id":247,"name":"totally not a pile of beans","steam_id":76561198119851931,"connected_time":3864000000000,"state":"active","ping":70},{"user_id":275,"name":"joe mama","steam_id":76561198083561382,"connected_time":1471000000000,"state":"active","ping":116},{"user_id":276,"name":"Girl [Huge Cock] trade.tf","steam_id":76561198276385778,"connected_time":1460000000000,"state":"active","ping":107},{"user_id":252,"name":"Tea Enthusiast","steam_id":76561198185583925,"connected_time":2965000000000,"state":"active","ping":40},{"user_id":241,"name":"Heropon","steam_id":76561198105224481,"connected_time":4952000000000,"state":"active","ping":64},{"user_id":248,"name":"Papy_rat","steam_id":76561198088207937,"connected_time":3861000000000,"state":"active","ping":71},{"user_id":279,"name":"chompsky honk","steam_id":76561198056742506,"connected_time":1427000000000,"state":"active","ping":45},{"user_id":285,"name":"Thingy","steam_id":76561198140161202,"connected_time":1326000000000,"state":"active","ping":72},{"user_id":293,"name":"pirate pete","steam_id":76561198151048590,"connected_time":1052000000000,"state":"active","ping":75},{"user_id":290,"name":"Avodrox","steam_id":76561198008913919,"connected_time":1187000000000,"state":"active","ping":106},{"user_id":254,"name":"Âí†ÊÄ°","steam_id":76561198147029746,"connected_time":2930000000000,"state":"active","ping":121},{"user_id":299,"name":"Michael Fettuccine","steam_id":76561198056953903,"connected_time":127000000000,"state":"active","ping":105},{"user_id":283,"name":"shploopie","steam_id":76561198264289810,"connected_time":1377000000000,"state":"active","ping":57},{"user_id":284,"name":"AbbyRoads","steam_id":76561198868564212,"connected_time":1368000000000,"state":"active","ping":74},{"user_id":294,"name":"Guil","steam_id":76561197993289176,"connected_time":886000000000,"state":"active","ping":67},{"user_id":288,"name":"T√ñZI","steam_id":76561198045268695,"connected_time":1209000000000,"state":"active","ping":96},{"user_id":235,"name":"Fishman_200","steam_id":76561198152455167,"connected_time":5203000000000,"state":"active","ping":63},{"user_id":300,"name":"zee","steam_id":76561197994492154,"connected_time":111000000000,"state":"active","ping":147}]},{"server_id":14,"name":"Uncletopia | New York City | 2 | All Maps","name_short":"nyc-2","host":"nyc-1.us.uncletopia.com","port":27025,"enabled":true,"region":"us-east","cc":"us","latitude":40.73061,"longitude":-73.93524,"reserved":0,"last_update":"0001-01-01T00:00:00Z","name_a2s":"Uncletopia | New York City | 2 | All Maps","protocol":17,"map":"pl_barnblitz","folder":"tf","game":"Team Fortress","app_id":440,"player_count":24,"max_players":24,"Bots":0,"server_type":"Dedicated","server_os":"Linux","password":true,"vac":true,"version":"7932396","steam_id":85568392924469994,"keywords":["nocrits","nodmgspread","payload","uncletopia"],"game_id":440,"stv_port":27026,"stv_name":"Uncletopia | New York City | 2 | All Maps | STV","players":[{"user_id":518,"name":"Wique","steam_id":76561198071217597,"connected_time":195000000000,"state":"active","ping":75},{"user_id":505,"name":"BTS | sat","steam_id":76561198084311006,"connected_time":748000000000,"state":"active","ping":70},{"user_id":176,"name":"aisu","steam_id":76561198043768507,"connected_time":27800000000000,"state":"active","ping":90},{"user_id":511,"name":"Mish","steam_id":76561198042287075,"connected_time":714000000000,"state":"active","ping":104},{"user_id":517,"name":"budderdude","steam_id":76561198108889926,"connected_time":201000000000,"state":"active","ping":71},{"user_id":507,"name":"Big ol' Willy Gaming","steam_id":76561198048545731,"connected_time":733000000000,"state":"active","ping":107},{"user_id":465,"name":"Perry The Platypus","steam_id":76561198187173970,"connected_time":4180000000000,"state":"active","ping":47},{"user_id":504,"name":"PluffyWuffy","steam_id":76561199386885244,"connected_time":769000000000,"state":"active","ping":64},{"user_id":501,"name":"Plutia","steam_id":76561197996787193,"connected_time":1526000000000,"state":"active","ping":71},{"user_id":477,"name":"PaD_Ding","steam_id":76561198831202965,"connected_time":3946000000000,"state":"active","ping":154},{"user_id":512,"name":"hatty","steam_id":76561198300727403,"connected_time":694000000000,"state":"active","ping":73},{"user_id":492,"name":"Guts","steam_id":76561198244702428,"connected_time":2798000000000,"state":"active","ping":127},{"user_id":502,"name":"Spimtav","steam_id":76561198058989464,"connected_time":1076000000000,"state":"active","ping":61},{"user_id":520,"name":"Prsm","steam_id":76561198053344995,"connected_time":148000000000,"state":"active","ping":42},{"user_id":521,"name":"Bush.exe","steam_id":76561198124385307,"connected_time":42000000000,"state":"spawning","ping":73},{"user_id":493,"name":"xLeoparrd","steam_id":76561198940657194,"connected_time":2774000000000,"state":"active","ping":87},{"user_id":494,"name":"Crisp","steam_id":76561198132644084,"connected_time":2731000000000,"state":"active","ping":55},{"user_id":500,"name":"Red Future","steam_id":76561198205420063,"connected_time":1613000000000,"state":"active","ping":83},{"user_id":486,"name":"Player","steam_id":76561199482290132,"connected_time":3471000000000,"state":"active","ping":51},{"user_id":499,"name":"aussie","steam_id":76561198374523099,"connected_time":1795000000000,"state":"active","ping":119},{"user_id":519,"name":"MichaelYangelo","steam_id":76561198063068959,"connected_time":190000000000,"state":"active","ping":110},{"user_id":513,"name":"indigo kid","steam_id":76561198203885895,"connected_time":686000000000,"state":"active","ping":61},{"user_id":514,"name":"Trash","steam_id":76561198358471281,"connected_time":681000000000,"state":"active","ping":55},{"user_id":424,"name":"Mario","steam_id":76561198321794277,"connected_time":7316000000000,"state":"active","ping":72}]},{"server_id":15,"name":"Uncletopia | New York City | 3 | Stopwatch Beta","name_short":"nyc-3","host":"nyc-1.us.uncletopia.com","port":27035,"enabled":true,"region":"us-east","cc":"us","latitude":40.73061,"longitude":-73.93524,"reserved":0,"last_update":"0001-01-01T00:00:00Z","name_a2s":"Uncletopia | New York City | 3 | Stopwatch Beta","protocol":17,"map":"workshop/pl_badwater_pro_v12.ugc2142942074","folder":"tf","game":"Team Fortress","app_id":440,"player_count":0,"max_players":24,"Bots":0,"server_type":"Dedicated","server_os":"Linux","password":true,"vac":true,"version":"7932396","steam_id":85568392924742820,"keywords":["nocrits","nodmgspread","payload","uncletopia"],"game_id":440,"stv_port":27036,"stv_name":"Uncletopia | New York City | 3 | Stopwatch Beta | STV","players":null},{"server_id":16,"name":"Uncletopia | New York City | 4 | Community","name_short":"nyc-4","host":"nyc-1.us.uncletopia.com","port":27045,"enabled":true,"region":"us-east","cc":"us","latitude":40.73061,"longitude":-73.93524,"reserved":0,"last_update":"0001-01-01T00:00:00Z","name_a2s":"Uncletopia | New York City | 4 | Community","protocol":17,"map":"workshop/koth_bagel_rc6.ugc2514036946","folder":"tf","game":"Team Fortress","app_id":440,"player_count":0,"max_players":24,"Bots":0,"server_type":"Dedicated","server_os":"Linux","password":true,"vac":true,"version":"7932396","steam_id":85568392924742821,"keywords":["cp","nocrits","nodmgspread","uncletopia"],"game_id":440,"stv_port":27046,"stv_name":"Uncletopia | New York City | 4 | Community | STV","players":null},{"server_id":142,"name":"Uncletopia | S√£o Paulo | 1 | All Maps","name_short":"sao-1","host":"sao-1.br.uncletopia.com","port":27015,"enabled":true,"region":"sa","cc":"br","latitude":-23.533773,"longitude":-46.62529,"reserved":0,"last_update":"0001-01-01T00:00:00Z","name_a2s":"Uncletopia | S√£o Paulo | 1 | All Maps","protocol":17,"map":"cp_dustbowl","folder":"tf","game":"Team Fortress","app_id":440,"player_count":0,"max_players":24,"Bots":0,"server_type":"Dedicated","server_os":"Linux","password":true,"vac":true,"version":"7932396","steam_id":85568392924469996,"keywords":["cp","nocrits","nodmgspread","uncletopia"],"game_id":440,"stv_port":27016,"stv_name":"Uncletopia | S√£o Paulo | 1 | All Maps | STV","players":null},{"server_id":143,"name":"Uncletopia | S√£o Paulo | 2 | All Maps","name_short":"sao-2","host":"sao-2.br.uncletopia.com","port":27015,"enabled":true,"region":"sa","cc":"br","latitude":-23.533773,"longitude":-46.62529,"reserved":0,"last_update":"0001-01-01T00:00:00Z","name_a2s":"Uncletopia | S√£o Paulo | 2 | All Maps","protocol":17,"map":"cp_altitude","folder":"tf","game":"Team Fortress","app_id":440,"player_count":0,"max_players":24,"Bots":0,"server_type":"Dedicated","server_os":"Linux","password":true,"vac":true,"version":"7932396","steam_id":85568392924485349,"keywords":["cp","nocrits","nodmgspread","uncletopia"],"game_id":440,"stv_port":27016,"stv_name":"Uncletopia | S√£o Paulo | 2 | All Maps | STV","players":null},{"server_id":7,"name":"Uncletopia | Seattle | 1 | All Maps","name_short":"sea-1","host":"sea-1.us.uncletopia.com","port":27015,"enabled":true,"region":"us-west","cc":"us","latitude":47.608013,"longitude":-122.33517,"reserved":0,"last_update":"0001-01-01T00:00:00Z","name_a2s":"Uncletopia | Seattle | 1 | All Maps","protocol":17,"map":"cp_foundry","folder":"tf","game":"Team Fortress","app_id":440,"player_count":20,"max_players":24,"Bots":0,"server_type":"Dedicated","server_os":"Linux","password":true,"vac":true,"version":"7932396","steam_id":85568392924469997,"keywords":["cp","nocrits","nodmgspread","uncletopia"],"game_id":440,"stv_port":27016,"stv_name":"Uncletopia | Seattle | 1 | All Maps | STV","players":[{"user_id":639,"name":"Crazy Hungarian","steam_id":76561198025498172,"connected_time":113000000000,"state":"active","ping":51},{"user_id":613,"name":"Wheaties","steam_id":76561198060909578,"connected_time":2431000000000,"state":"active","ping":59},{"user_id":616,"name":"Mignyanne :3","steam_id":76561198048754056,"connected_time":1909000000000,"state":"active","ping":60},{"user_id":640,"name":"THUD","steam_id":76561198009630323,"connected_time":75000000000,"state":"active","ping":47},{"user_id":626,"name":"Silly Shark","steam_id":76561198130714378,"connected_time":1491000000000,"state":"active","ping":68},{"user_id":531,"name":"lili","steam_id":76561199391478575,"connected_time":8786000000000,"state":"active","ping":56},{"user_id":632,"name":"Skabbety","steam_id":76561198168044257,"connected_time":784000000000,"state":"active","ping":44},{"user_id":633,"name":"MaDeuce","steam_id":76561198110732835,"connected_time":783000000000,"state":"active","ping":65},{"user_id":601,"name":"jayeskae","steam_id":76561198144220801,"connected_time":3191000000000,"state":"active","ping":49},{"user_id":634,"name":"Sniff","steam_id":76561198010270922,"connected_time":590000000000,"state":"active","ping":45},{"user_id":582,"name":"Loading...","steam_id":76561198075555396,"connected_time":5074000000000,"state":"active","ping":56},{"user_id":631,"name":"purple‚Ñ¢ | they/she","steam_id":76561198057459725,"connected_time":976000000000,"state":"active","ping":52},{"user_id":612,"name":"reymundo","steam_id":76561197989412830,"connected_time":2527000000000,"state":"active","ping":89},{"user_id":604,"name":"VerminKing","steam_id":76561198060887391,"connected_time":3134000000000,"state":"active","ping":62},{"user_id":637,"name":"fancyfreak","steam_id":76561198326466375,"connected_time":159000000000,"state":"active","ping":84},{"user_id":636,"name":"spenca","steam_id":76561198025371154,"connected_time":343000000000,"state":"active","ping":64},{"user_id":592,"name":"Nakasmacka","steam_id":76561198049787270,"connected_time":4019000000000,"state":"active","ping":34},{"user_id":629,"name":"Integral","steam_id":76561198158225481,"connected_time":1046000000000,"state":"active","ping":93},{"user_id":597,"name":"viciousbeatmaker","steam_id":76561198086876652,"connected_time":3216000000000,"state":"active","ping":85},{"user_id":638,"name":"rat gets the cheese","steam_id":76561198031234032,"connected_time":159000000000,"state":"active","ping":100}]},{"server_id":119,"name":"Uncletopia | Seattle | 2 | All Maps","name_short":"sea-2","host":"sea-1.us.uncletopia.com","port":27025,"enabled":true,"region":"us-west","cc":"us","latitude":47.608013,"longitude":-122.33517,"reserved":0,"last_update":"0001-01-01T00:00:00Z","name_a2s":"Uncletopia | Seattle | 2 | All Maps","protocol":17,"map":"pl_upward","folder":"tf","game":"Team Fortress","app_id":440,"player_count":23,"max_players":24,"Bots":0,"server_type":"Dedicated","server_os":"Linux","password":true,"vac":true,"version":"7932396","steam_id":85568392924469998,"keywords":["nocrits","nodmgspread","payload","uncletopia"],"game_id":440,"stv_port":27026,"stv_name":"Uncletopia | Seattle | 2 | All Maps | STV","players":[{"user_id":86,"name":"River Rat","steam_id":76561198116383976,"connected_time":6028000000000,"state":"active","ping":68},{"user_id":87,"name":"„ÄéHazon„Äè","steam_id":76561198119852107,"connected_time":6025000000000,"state":"active","ping":114},{"user_id":185,"name":"havarti gaming","steam_id":76561198069895678,"connected_time":427000000000,"state":"active","ping":70},{"user_id":142,"name":"HAT-WEARING‚Ñ¢ Maggot Gamer Cat","steam_id":76561197973992705,"connected_time":3012000000000,"state":"active","ping":73},{"user_id":183,"name":"AHHHHHHHHH","steam_id":76561198105392791,"connected_time":555000000000,"state":"active","ping":101},{"user_id":129,"name":"Cheezbeargur","steam_id":76561198164702899,"connected_time":3808000000000,"state":"active","ping":65},{"user_id":186,"name":"Deeply","steam_id":76561199000786530,"connected_time":404000000000,"state":"active","ping":80},{"user_id":139,"name":"lokm","steam_id":76561198030374238,"connected_time":3188000000000,"state":"active","ping":88},{"user_id":167,"name":"Kronos_Titan","steam_id":76561199091925123,"connected_time":1301000000000,"state":"active","ping":91},{"user_id":187,"name":"ms. anthrope","steam_id":76561198063533082,"connected_time":349000000000,"state":"active","ping":44},{"user_id":31,"name":"hosewater","steam_id":76561198023383126,"connected_time":9595000000000,"state":"active","ping":50},{"user_id":151,"name":"Kc","steam_id":76561198210734407,"connected_time":2443000000000,"state":"active","ping":107},{"user_id":155,"name":"Destroyer1004","steam_id":76561199367685913,"connected_time":1503000000000,"state":"active","ping":50},{"user_id":188,"name":"beware this man","steam_id":76561199241807676,"connected_time":341000000000,"state":"active","ping":41},{"user_id":162,"name":"General Fisticuffs","steam_id":76561198255721392,"connected_time":1341000000000,"state":"active","ping":113},{"user_id":163,"name":"Owl Of Delos","steam_id":76561198437116566,"connected_time":1340000000000,"state":"active","ping":56},{"user_id":189,"name":"no :)","steam_id":76561198028612613,"connected_time":318000000000,"state":"active","ping":49},{"user_id":173,"name":"wmjledger","steam_id":76561198443046861,"connected_time":1183000000000,"state":"active","ping":59},{"user_id":176,"name":"mooney","steam_id":76561199110622484,"connected_time":1069000000000,"state":"active","ping":62},{"user_id":157,"name":"Dreamzapp","steam_id":76561199084936632,"connected_time":1477000000000,"state":"active","ping":103},{"user_id":192,"name":"090-nsalih","steam_id":76561199467467873,"connected_time":104000000000,"state":"active","ping":173},{"user_id":179,"name":"@soexclusive12_","steam_id":76561198144909435,"connected_time":965000000000,"state":"active","ping":82},{"user_id":175,"name":"Sp00ky_","steam_id":76561198081425409,"connected_time":1156000000000,"state":"active","ping":61}]},{"server_id":406,"name":"Uncletopia | Seattle | 3 | Stopwatch Beta","name_short":"sea-3","host":"sea-1.us.uncletopia.com","port":27035,"enabled":true,"region":"us-west","cc":"us","latitude":47.608013,"longitude":-122.33517,"reserved":0,"last_update":"0001-01-01T00:00:00Z","name_a2s":"Uncletopia | Seattle | 3 | Stopwatch Beta","protocol":17,"map":"workshop/koth_product_final.ugc454272353","folder":"tf","game":"Team Fortress","app_id":440,"player_count":3,"max_players":24,"Bots":0,"server_type":"Dedicated","server_os":"Linux","password":true,"vac":true,"version":"7932396","steam_id":85568392924515217,"keywords":["cp","nocrits","nodmgspread","uncletopia"],"game_id":440,"stv_port":27036,"stv_name":"Uncletopia | Seattle | 3 | Stopwatch Beta | STV","players":[{"user_id":14,"name":"Gh0w0st","steam_id":76561199471261226,"connected_time":868000000000,"state":"active","ping":113},{"user_id":15,"name":"syl","steam_id":76561199465988748,"connected_time":840000000000,"state":"active","ping":124},{"user_id":17,"name":"bobletoob","steam_id":76561199184464900,"connected_time":32000000000,"state":"active","ping":85}]},{"server_id":17,"name":"Uncletopia | San Francisco | 1 | All Maps","name_short":"sfo-1","host":"sfo-1.us.uncletopia.com","port":27015,"enabled":true,"region":"us-west","cc":"us","latitude":37.77397,"longitude":-122.4313,"reserved":0,"last_update":"0001-01-01T00:00:00Z","name_a2s":"Uncletopia | San Francisco | 1 | All Maps","protocol":17,"map":"pl_pier","folder":"tf","game":"Team Fortress","app_id":440,"player_count":23,"max_players":24,"Bots":0,"server_type":"Dedicated","server_os":"Linux","password":true,"vac":true,"version":"7932396","steam_id":85568392924469999,"keywords":["nocrits","nodmgspread","payload","uncletopia"],"game_id":440,"stv_port":27016,"stv_name":"Uncletopia | San Francisco | 1 | All Maps | STV","players":[{"user_id":784,"name":"Throws Before BrosÛ†Ä°","steam_id":76561197992905530,"connected_time":5884000000000,"state":"active","ping":52},{"user_id":865,"name":"El G√ºey","steam_id":76561197970450546,"connected_time":573000000000,"state":"active","ping":73},{"user_id":793,"name":"breakfast","steam_id":76561198043712978,"connected_time":5292000000000,"state":"active","ping":78},{"user_id":866,"name":"valentine","steam_id":76561198083051843,"connected_time":555000000000,"state":"active","ping":61},{"user_id":824,"name":"momus","steam_id":76561198966979196,"connected_time":4102000000000,"state":"active","ping":60},{"user_id":857,"name":"u good dawg?","steam_id":76561198134309750,"connected_time":1789000000000,"state":"active","ping":127},{"user_id":867,"name":"dmax02040","steam_id":76561199428864090,"connected_time":490000000000,"state":"active","ping":115},{"user_id":843,"name":"Master17Gaming","steam_id":76561198145986516,"connected_time":2510000000000,"state":"active","ping":126},{"user_id":877,"name":"Arctem","steam_id":76561198012937871,"connected_time":250000000000,"state":"active","ping":104},{"user_id":862,"name":"oil","steam_id":76561198099980149,"connected_time":882000000000,"state":"active","ping":59},{"user_id":847,"name":"Zoarork25","steam_id":76561198373589711,"connected_time":2489000000000,"state":"active","ping":126},{"user_id":825,"name":"Landlord","steam_id":76561198987913057,"connected_time":4091000000000,"state":"active","ping":83},{"user_id":876,"name":"Phozumi","steam_id":76561198054068499,"connected_time":322000000000,"state":"active","ping":72},{"user_id":870,"name":"Paul Gaming","steam_id":76561198065538229,"connected_time":460000000000,"state":"active","ping":57},{"user_id":871,"name":"RaTtYc","steam_id":76561198954419354,"connected_time":452000000000,"state":"active","ping":74},{"user_id":872,"name":"bubbakane7","steam_id":76561199079142386,"connected_time":422000000000,"state":"active","ping":67},{"user_id":834,"name":"NEBULA","steam_id":76561198086878595,"connected_time":3392000000000,"state":"active","ping":54},{"user_id":873,"name":"Perfume Department","steam_id":76561198128299594,"connected_time":400000000000,"state":"active","ping":72},{"user_id":874,"name":"ShadowMan44","steam_id":76561198244924186,"connected_time":370000000000,"state":"active","ping":54},{"user_id":853,"name":"VicLoL","steam_id":76561198045580784,"connected_time":2266000000000,"state":"active","ping":67},{"user_id":854,"name":"Squishy","steam_id":76561198418729311,"connected_time":2261000000000,"state":"active","ping":84},{"user_id":850,"name":"chp22bluelions can HECKOFF","steam_id":76561198042735130,"connected_time":2419000000000,"state":"active","ping":78},{"user_id":839,"name":"jorts","steam_id":76561199041179985,"connected_time":3079000000000,"state":"active","ping":68}]},{"server_id":18,"name":"Uncletopia | San Francisco | 2 | All Maps","name_short":"sfo-2","host":"sfo-1.us.uncletopia.com","port":27025,"enabled":true,"region":"us-west","cc":"us","latitude":37.77397,"longitude":-122.4313,"reserved":0,"last_update":"0001-01-01T00:00:00Z","name_a2s":"Uncletopia | San Francisco | 2 | All Maps","protocol":17,"map":"pl_frontier_final","folder":"tf","game":"Team Fortress","app_id":440,"player_count":23,"max_players":24,"Bots":0,"server_type":"Dedicated","server_os":"Linux","password":true,"vac":true,"version":"7932396","steam_id":85568392924470000,"keywords":["nocrits","nodmgspread","payload","uncletopia"],"game_id":440,"stv_port":27026,"stv_name":"Uncletopia | San Francisco | 2 | All Maps | STV","players":[{"user_id":508,"name":"Joe Biden TF2","steam_id":76561198837570484,"connected_time":1039000000000,"state":"active","ping":57},{"user_id":507,"name":"PapaYeager","steam_id":76561198072314524,"connected_time":1041000000000,"state":"active","ping":111},{"user_id":493,"name":"Loashes","steam_id":76561198119608299,"connected_time":2126000000000,"state":"active","ping":100},{"user_id":502,"name":"Grungus","steam_id":76561198047700230,"connected_time":1796000000000,"state":"active","ping":48},{"user_id":509,"name":"Hatchitis","steam_id":76561198320346037,"connected_time":1029000000000,"state":"active","ping":61},{"user_id":480,"name":"GumZie","steam_id":76561198202584223,"connected_time":3312000000000,"state":"active","ping":53},{"user_id":492,"name":"Buckethead","steam_id":76561198210181296,"connected_time":2459000000000,"state":"active","ping":84},{"user_id":519,"name":"R5-D4","steam_id":76561198025196439,"connected_time":1000000000,"state":"spawning","ping":55},{"user_id":518,"name":"Dealer","steam_id":76561198801450794,"connected_time":182000000000,"state":"active","ping":105},{"user_id":498,"name":"Zorlovo","steam_id":76561198006443283,"connected_time":1971000000000,"state":"active","ping":94},{"user_id":481,"name":"aunt pat","steam_id":76561198001488041,"connected_time":3311000000000,"state":"active","ping":115},{"user_id":499,"name":"Color Drop","steam_id":76561198066651473,"connected_time":1969000000000,"state":"active","ping":55},{"user_id":500,"name":"what da dog doin","steam_id":76561198090573639,"connected_time":1969000000000,"state":"active","ping":60},{"user_id":476,"name":"Silvermace","steam_id":76561198090696843,"connected_time":3407000000000,"state":"active","ping":53},{"user_id":515,"name":"basilberry","steam_id":76561198145275937,"connected_time":834000000000,"state":"active","ping":102},{"user_id":517,"name":"CPTforever","steam_id":76561198237767198,"connected_time":214000000000,"state":"active","ping":46},{"user_id":465,"name":"Ice cream sandwich","steam_id":76561198172748357,"connected_time":3954000000000,"state":"active","ping":55},{"user_id":467,"name":"SQbuilder","steam_id":76561198076473375,"connected_time":3857000000000,"state":"active","ping":42},{"user_id":510,"name":"Vaude","steam_id":76561198369187511,"connected_time":1013000000000,"state":"active","ping":121},{"user_id":511,"name":"dead elf wagon","steam_id":76561198122303574,"connected_time":1013000000000,"state":"active","ping":82},{"user_id":484,"name":"Tommy da bird","steam_id":76561198136340711,"connected_time":3193000000000,"state":"active","ping":84},{"user_id":516,"name":"15 off applebee's gift card","steam_id":76561198035669814,"connected_time":454000000000,"state":"active","ping":96},{"user_id":491,"name":"Foohymaster2","steam_id":76561198050239992,"connected_time":2858000000000,"state":"active","ping":101}]},{"server_id":19,"name":"Uncletopia | San Francisco | 3 | Stopwatch Beta","name_short":"sfo-3","host":"sfo-1.us.uncletopia.com","port":27035,"enabled":true,"region":"us-west","cc":"us","latitude":37.77397,"longitude":-122.4313,"reserved":0,"last_update":"0001-01-01T00:00:00Z","name_a2s":"Uncletopia | San Francisco | 3 | Stopwatch Beta","protocol":17,"map":"workshop/koth_ashville_final.ugc2130459942","folder":"tf","game":"Team Fortress","app_id":440,"player_count":0,"max_players":24,"Bots":0,"server_type":"Dedicated","server_os":"Linux","password":true,"vac":true,"version":"7932396","steam_id":85568392924742824,"keywords":["cp","nocrits","nodmgspread","uncletopia"],"game_id":440,"stv_port":27036,"stv_name":"Uncletopia | San Francisco | 3 | Stopwatch Beta | STV","players":null},{"server_id":20,"name":"Uncletopia | San Francisco | 4 | Community","name_short":"sfo-4","host":"sfo-1.us.uncletopia.com","port":27045,"enabled":true,"region":"us-west","cc":"us","latitude":37.77397,"longitude":-122.4313,"reserved":0,"last_update":"0001-01-01T00:00:00Z","name_a2s":"Uncletopia | San Francisco | 4 | Community","protocol":17,"map":"workshop/pl_vigil_rc9.ugc1266210012","folder":"tf","game":"Team Fortress","app_id":440,"player_count":24,"max_players":24,"Bots":0,"server_type":"Dedicated","server_os":"Linux","password":true,"vac":true,"version":"7932396","steam_id":85568392924742826,"keywords":["nocrits","nodmgspread","payload","uncletopia"],"game_id":440,"stv_port":27046,"stv_name":"Uncletopia | San Francisco | 4 | Community | STV","players":[{"user_id":6,"name":"beeble!","steam_id":76561198219538525,"connected_time":9187000000000,"state":"active","ping":90},{"user_id":7,"name":"Tuba","steam_id":76561198209166329,"connected_time":9106000000000,"state":"active","ping":68},{"user_id":8,"name":"perc 10","steam_id":76561198116471653,"connected_time":9015000000000,"state":"active","ping":71},{"user_id":108,"name":"Garbage Lord","steam_id":76561198022094928,"connected_time":1863000000000,"state":"active","ping":49},{"user_id":111,"name":"moneymoneyganggang464","steam_id":76561199228490429,"connected_time":1773000000000,"state":"active","ping":94},{"user_id":126,"name":"chilis baby back ribs","steam_id":76561198813516435,"connected_time":177000000000,"state":"active","ping":47},{"user_id":84,"name":"AtomSQRRL","steam_id":76561199151951364,"connected_time":3650000000000,"state":"active","ping":58},{"user_id":122,"name":"moopmop","steam_id":76561198065224965,"connected_time":532000000000,"state":"active","ping":52},{"user_id":124,"name":"Doctor Bad Dragon","steam_id":76561198058773212,"connected_time":408000000000,"state":"active","ping":67},{"user_id":69,"name":"Van Tastic","steam_id":76561198063855523,"connected_time":4681000000000,"state":"active","ping":75},{"user_id":97,"name":"Victrok","steam_id":76561199441398791,"connected_time":3036000000000,"state":"active","ping":84},{"user_id":109,"name":"Man Man","steam_id":76561199068338634,"connected_time":1801000000000,"state":"active","ping":84},{"user_id":92,"name":"Mapachito Lindo","steam_id":76561198031359995,"connected_time":3439000000000,"state":"active","ping":65},{"user_id":103,"name":"postgres","steam_id":76561198011204750,"connected_time":2059000000000,"state":"active","ping":83},{"user_id":61,"name":"dairy delinquent","steam_id":76561198971552734,"connected_time":5332000000000,"state":"active","ping":44},{"user_id":127,"name":"Dr.LeatherPsycho","steam_id":76561198800480998,"connected_time":172000000000,"state":"active","ping":107},{"user_id":101,"name":"Tejo","steam_id":76561198200617911,"connected_time":2836000000000,"state":"active","ping":71},{"user_id":74,"name":"ScottGawGT","steam_id":76561198331008090,"connected_time":4342000000000,"state":"active","ping":73},{"user_id":113,"name":"SolarusD","steam_id":76561198029279861,"connected_time":1719000000000,"state":"active","ping":48},{"user_id":114,"name":"Jumpscare","steam_id":76561199093619982,"connected_time":1690000000000,"state":"active","ping":70},{"user_id":95,"name":"TheXayol","steam_id":76561199177408516,"connected_time":3342000000000,"state":"active","ping":105},{"user_id":99,"name":"crumblejon","steam_id":76561198111273302,"connected_time":2973000000000,"state":"active","ping":69},{"user_id":125,"name":"‚Ä∫ We Are You.j2","steam_id":76561197995242200,"connected_time":304000000000,"state":"active","ping":53}]},{"server_id":141,"name":"Uncletopia | Sydney | 1 | All Maps","name_short":"syd-1","host":"syd-1.au.uncletopia.com","port":27015,"enabled":true,"region":"au","cc":"au","latitude":-33.865143,"longitude":151.2099,"reserved":0,"last_update":"0001-01-01T00:00:00Z","name_a2s":"Uncletopia | Sydney | 1 | All Maps","protocol":17,"map":"koth_highpass","folder":"tf","game":"Team Fortress","app_id":440,"player_count":0,"max_players":24,"Bots":0,"server_type":"Dedicated","server_os":"Linux","password":true,"vac":true,"version":"7932396","steam_id":85568392924470001,"keywords":["cp","nocrits","nodmgspread","uncletopia"],"game_id":440,"stv_port":27016,"stv_name":"Uncletopia | Sydney | 1 | All Maps | STV","players":null},{"server_id":123,"name":"Uncletopia | Sydney | 2 | All Maps","name_short":"syd-2","host":"syd-1.au.uncletopia.com","port":27025,"enabled":true,"region":"au","cc":"au","latitude":-33.865143,"longitude":151.2099,"reserved":0,"last_update":"0001-01-01T00:00:00Z","name_a2s":"Uncletopia | Sydney | 2 | All Maps","protocol":17,"map":"pl_snowycoast","folder":"tf","game":"Team Fortress","app_id":440,"player_count":0,"max_players":24,"Bots":0,"server_type":"Dedicated","server_os":"Linux","password":true,"vac":true,"version":"7932396","steam_id":85568392924470002,"keywords":["nocrits","nodmgspread","payload","uncletopia"],"game_id":440,"stv_port":27026,"stv_name":"Uncletopia | Sydney | 2 | All Maps | STV","players":null},{"server_id":395,"name":"Uncletopia | Sydney | 3 | All Maps","name_short":"syd-3","host":"syd-1.au.uncletopia.com","port":27035,"enabled":true,"region":"au","cc":"au","latitude":-33.865143,"longitude":151.2099,"reserved":0,"last_update":"0001-01-01T00:00:00Z","name_a2s":"Uncletopia | Sydney | 3 | All Maps","protocol":17,"map":"koth_viaduct","folder":"tf","game":"Team Fortress","app_id":440,"player_count":0,"max_players":24,"Bots":0,"server_type":"Dedicated","server_os":"Linux","password":true,"vac":true,"version":"7932396","steam_id":85568392925194467,"keywords":["cp","nocrits","nodmgspread","uncletopia"],"game_id":440,"stv_port":27036,"stv_name":"Uncletopia | Sydney | 3 | All Maps | STV","players":null},{"server_id":396,"name":"Uncletopia | Sydney | 4 | All Maps","name_short":"syd-4","host":"syd-1.au.uncletopia.com","port":27045,"enabled":true,"region":"au","cc":"au","latitude":-33.865143,"longitude":151.2099,"reserved":0,"last_update":"0001-01-01T00:00:00Z","name_a2s":"Uncletopia | Sydney | 4 | All Maps","protocol":17,"map":"pl_pier","folder":"tf","game":"Team Fortress","app_id":440,"player_count":0,"max_players":24,"Bots":0,"server_type":"Dedicated","server_os":"Linux","password":true,"vac":true,"version":"7932396","steam_id":85568392925397958,"keywords":["nocrits","nodmgspread","payload","uncletopia"],"game_id":440,"stv_port":27046,"stv_name":"Uncletopia | Sydney | 4 | All Maps | STV","players":null},{"server_id":58,"name":"Uncletopia | Sydney | 5 | Stopwatch Beta","name_short":"syd-5","host":"syd-1.au.uncletopia.com","port":27055,"enabled":true,"region":"au","cc":"au","latitude":-33.865143,"longitude":151.2099,"reserved":0,"last_update":"0001-01-01T00:00:00Z","name_a2s":"Uncletopia | Sydney | 5 | Stopwatch Beta","protocol":17,"map":"pl_borneo","folder":"tf","game":"Team Fortress","app_id":440,"player_count":0,"max_players":24,"Bots":0,"server_type":"Dedicated","server_os":"Linux","password":true,"vac":true,"version":"7932396","steam_id":85568392925397959,"keywords":["nocrits","nodmgspread","payload","uncletopia"],"game_id":440,"stv_port":27056,"stv_name":"Uncletopia | Sydney | 5 | Stopwatch Beta | STV","players":null},{"server_id":59,"name":"Uncletopia | Sydney | 6 | Community","name_short":"syd-6","host":"syd-1.au.uncletopia.com","port":27065,"enabled":true,"region":"au","cc":"au","latitude":-33.865143,"longitude":151.2099,"reserved":0,"last_update":"0001-01-01T00:00:00Z","name_a2s":"Uncletopia | Sydney | 6 | Community","protocol":17,"map":"workshop/cp_kalinka_rc6a.ugc1272700588","folder":"tf","game":"Team Fortress","app_id":440,"player_count":0,"max_players":24,"Bots":0,"server_type":"Dedicated","server_os":"Linux","password":true,"vac":true,"version":"7932396","steam_id":85568392925397960,"keywords":["cp","nocrits","nodmgspread","uncletopia"],"game_id":440,"stv_port":27066,"stv_name":"Uncletopia | Sydney | 6 | Community | STV","players":null},{"server_id":49,"name":"Uncletopia | Warsaw | 1 | All Maps","name_short":"waw-1","host":"waw-1.pl.uncletopia.com","port":27015,"enabled":true,"region":"eu","cc":"pl","latitude":52.2297,"longitude":21.017532,"reserved":0,"last_update":"0001-01-01T00:00:00Z","name_a2s":"","protocol":0,"map":"","folder":"","game":"","app_id":0,"player_count":0,"max_players":0,"Bots":0,"server_type":"","server_os":"","password":false,"vac":false,"version":"","steam_id":0,"keywords":null,"game_id":0,"stv_port":0,"stv_name":"","players":null},{"server_id":50,"name":"Uncletopia | Warsaw | 2 | All Maps","name_short":"waw-2","host":"waw-1.pl.uncletopia.com","port":27025,"enabled":true,"region":"eu","cc":"pl","latitude":52.2297,"longitude":21.017532,"reserved":0,"last_update":"0001-01-01T00:00:00Z","name_a2s":"Uncletopia | Warsaw | 2 | All Maps","protocol":17,"map":"cp_process_final","folder":"tf","game":"Team Fortress","app_id":440,"player_count":0,"max_players":24,"Bots":0,"server_type":"Dedicated","server_os":"Linux","password":true,"vac":true,"version":"7932396","steam_id":85568392925397851,"keywords":["cp","nocrits","nodmgspread","uncletopia"],"game_id":440,"stv_port":27026,"stv_name":"Uncletopia | Warsaw | 2 | All Maps | STV","players":null},{"server_id":51,"name":"Uncletopia | Warsaw | 3 | All Maps","name_short":"waw-3","host":"waw-1.pl.uncletopia.com","port":27035,"enabled":true,"region":"eu","cc":"pl","latitude":52.2297,"longitude":21.017532,"reserved":0,"last_update":"0001-01-01T00:00:00Z","name_a2s":"Uncletopia | Warsaw | 3 | All Maps","protocol":17,"map":"koth_lakeside_final","folder":"tf","game":"Team Fortress","app_id":440,"player_count":0,"max_players":24,"Bots":0,"server_type":"Dedicated","server_os":"Linux","password":true,"vac":true,"version":"7932396","steam_id":85568392925397852,"keywords":["cp","nocrits","nodmgspread","uncletopia"],"game_id":440,"stv_port":27036,"stv_name":"Uncletopia | Warsaw | 3 | All Maps | STV","players":null},{"server_id":52,"name":"Uncletopia | Warsaw | 4 | All Maps","name_short":"waw-4","host":"waw-1.pl.uncletopia.com","port":27045,"enabled":true,"region":"eu","cc":"pl","latitude":52.2297,"longitude":21.017532,"reserved":0,"last_update":"0001-01-01T00:00:00Z","name_a2s":"Uncletopia | Warsaw | 4 | All Maps","protocol":17,"map":"koth_lakeside_final","folder":"tf","game":"Team Fortress","app_id":440,"player_count":0,"max_players":24,"Bots":0,"server_type":"Dedicated","server_os":"Linux","password":true,"vac":true,"version":"7932396","steam_id":85568392925397853,"keywords":["cp","nocrits","nodmgspread","uncletopia"],"game_id":440,"stv_port":27046,"stv_name":"Uncletopia | Warsaw | 4 | All Maps | STV","players":null},{"server_id":53,"name":"Uncletopia | Warsaw | 5 | Stopwatch Beta","name_short":"waw-5","host":"waw-1.pl.uncletopia.com","port":27055,"enabled":true,"region":"eu","cc":"pl","latitude":52.2297,"longitude":21.017532,"reserved":0,"last_update":"0001-01-01T00:00:00Z","name_a2s":"Uncletopia | Warsaw | 5 | Stopwatch Beta","protocol":17,"map":"koth_highpass","folder":"tf","game":"Team Fortress","app_id":440,"player_count":0,"max_players":24,"Bots":0,"server_type":"Dedicated","server_os":"Linux","password":true,"vac":true,"version":"7932396","steam_id":85568392925397854,"keywords":["cp","nocrits","nodmgspread","uncletopia"],"game_id":440,"stv_port":27056,"stv_name":"Uncletopia | Warsaw | 5 | Stopwatch Beta | STV","players":null},{"server_id":54,"name":"Uncletopia | Warsaw | 6 | Community","name_short":"waw-6","host":"waw-1.pl.uncletopia.com","port":27065,"enabled":true,"region":"eu","cc":"pl","latitude":52.2297,"longitude":21.017532,"reserved":0,"last_update":"0001-01-01T00:00:00Z","name_a2s":"Uncletopia | Warsaw | 6 | Community","protocol":17,"map":"workshop/koth_trenchfoot_b1a.ugc731436616","folder":"tf","game":"Team Fortress","app_id":440,"player_count":0,"max_players":24,"Bots":0,"server_type":"Dedicated","server_os":"Linux","password":true,"vac":true,"version":"7932396","steam_id":85568392925397856,"keywords":["cp","nocrits","nodmgspread","uncletopia"],"game_id":440,"stv_port":27066,"stv_name":"Uncletopia | Warsaw | 6 | Community | STV","players":null}]}