{"status":true,"message":"","result":[{"server_id":9,"name":"Uncletopia | Atlanta | 1 | All Maps","name_short":"atl-1","host":"atl-1.us.uncletopia.com","port":27015,"enabled":true,"region":"us-east","cc":"us","latitude":33.753746,"longitude":-84.38633,"reserved":0,"last_update":"0001-01-01T00:00:00Z","name_a2s":"Uncletopia | Atlanta | 1 | All Maps","protocol":17,"map":"cp_process_final","folder":"tf","game":"Team Fortress","app_id":440,"player_count":24,"max_players":24,"Bots":0,"server_type":"Dedicated","server_os":"Linux","password":true,"vac":true,"version":"7961495","steam_id":85568392924469982,"keywords":["cp","nocrits","nodmgspread","uncletopia"],"game_id":440,"stv_port":27016,"stv_name":"Uncletopia | Atlanta | 1 | All Maps | STV","players":[{"user_id":320,"name":"squaggles!","steam_id":76561197994995011,"connected_time":788000000000,"state":"active","ping":32},{"user_id":329,"name":"hill of the king","steam_id":76561198099491925,"connected_time":64000000000,"state":"active","ping":55},{"user_id":279,"name":"krabby","steam_id":76561199072773402,"connected_time":3059000000000,"state":"active","ping":63},{"user_id":281,"name":"HarryjusttHarry","steam_id":76561198982810452,"connected_time":3048000000000,"state":"active","ping":78},{"user_id":290,"name":"lynt","steam_id":76561198988333976,"connected_time":2592000000000,"state":"active","ping":45},{"user_id":311,"name":"Onyx","steam_id":76561198275349640,"connected_time":1355000000000,"state":"active","ping":74},{"user_id":195,"name":"Immoral Boi","steam_id":76561198069551646,"connected_time":9362000000000,"state":"active","ping":60},{"user_id":319,"name":"Pine","steam_id":76561198217320784,"connected_time":805000000000,"state":"active","ping":61},{"user_id":295,"name":"Artixes","steam_id":76561198379574232,"connected_time":2481000000000,"state":"active","ping":34},{"user_id":330,"name":"mayor of cool person city","steam_id":76561198048882285,"connected_time":49000000000,"state":"active","ping":62},{"user_id":254,"name":"Oxygen User","steam_id":76561199111975528,"connected_time":4811000000000,"state":"active","ping":58},{"user_id":328,"name":"a yummy meal","steam_id":76561198249206656,"connected_time":89000000000,"state":"active","ping":80},{"user_id":298,"name":"nested deep in the dirty dirty","steam_id":76561198142756572,"connected_time":2384000000000,"state":"active","ping":45},{"user_id":331,"name":"Tov","steam_id":76561198119732028,"connected_time":48000000000,"state":"active","ping":63},{"user_id":316,"name":"Sir. SparklyBottom","steam_id":76561198060675372,"connected_time":874000000000,"state":"active","ping":104},{"user_id":332,"name":"Weegee","steam_id":76561198140095755,"connected_time":19000000000,"state":"spawning","ping":102},{"user_id":317,"name":"Vol","steam_id":76561198990456207,"connected_time":860000000000,"state":"active","ping":78},{"user_id":323,"name":"KoKo_sg","steam_id":76561198018256909,"connected_time":332000000000,"state":"active","ping":114},{"user_id":203,"name":"Motreir","steam_id":76561198151717946,"connected_time":8355000000000,"state":"active","ping":81},{"user_id":241,"name":"Ashes!","steam_id":76561197998475441,"connected_time":5233000000000,"state":"active","ping":67},{"user_id":302,"name":"Obelisk","steam_id":76561198049416866,"connected_time":2059000000000,"state":"active","ping":48},{"user_id":305,"name":"ItchyThunder111","steam_id":76561199149907692,"connected_time":2005000000000,"state":"active","ping":105},{"user_id":310,"name":"Dr.Inkmix(femboy)","steam_id":76561198854070384,"connected_time":1624000000000,"state":"active","ping":395},{"user_id":292,"name":"Scrux","steam_id":76561198129763115,"connected_time":2572000000000,"state":"active","ping":89}]},{"server_id":104,"name":"Uncletopia | Atlanta | 2 | All Maps","name_short":"atl-2","host":"atl-1.us.uncletopia.com","port":27025,"enabled":true,"region":"us-east","cc":"us","latitude":33.753746,"longitude":-84.38633,"reserved":0,"last_update":"0001-01-01T00:00:00Z","name_a2s":"Uncletopia | Atlanta | 2 | All Maps","protocol":17,"map":"cp_snakewater_final1","folder":"tf","game":"Team Fortress","app_id":440,"player_count":19,"max_players":24,"Bots":0,"server_type":"Dedicated","server_os":"Linux","password":true,"vac":true,"version":"7961495","steam_id":85568392924469983,"keywords":["cp","nocrits","nodmgspread","uncletopia"],"game_id":440,"stv_port":27026,"stv_name":"Uncletopia | Atlanta | 2 | All Maps | STV","players":[{"user_id":33,"name":"Peengus","steam_id":76561199091953940,"connected_time":9296000000000,"state":"active","ping":61},{"user_id":197,"name":"josh","steam_id":76561198092176972,"connected_time":2153000000000,"state":"active","ping":75},{"user_id":100,"name":"atigdng","steam_id":76561199342154280,"connected_time":5061000000000,"state":"active","ping":52},{"user_id":200,"name":"caleb","steam_id":76561198119306966,"connected_time":2045000000000,"state":"active","ping":103},{"user_id":80,"name":"tack","steam_id":76561198408477421,"connected_time":6625000000000,"state":"active","ping":61},{"user_id":228,"name":"GnarlySheep","steam_id":76561198067288233,"connected_time":397000000000,"state":"active","ping":36},{"user_id":226,"name":"BigBubble42","steam_id":76561198136286123,"connected_time":452000000000,"state":"active","ping":40},{"user_id":180,"name":"pafijohn","steam_id":76561198002535190,"connected_time":3344000000000,"state":"active","ping":100},{"user_id":214,"name":"Big Ol Critties","steam_id":76561198054269834,"connected_time":906000000000,"state":"active","ping":63},{"user_id":219,"name":"aisu","steam_id":76561198043768507,"connected_time":650000000000,"state":"active","ping":83},{"user_id":223,"name":"danielarmvt","steam_id":76561198799723201,"connected_time":602000000000,"state":"active","ping":80},{"user_id":192,"name":"=)","steam_id":76561198089888094,"connected_time":2423000000000,"state":"active","ping":84},{"user_id":231,"name":"iHarvest","steam_id":76561198821639766,"connected_time":96000000000,"state":"active","ping":57},{"user_id":88,"name":"Lee?","steam_id":76561199060892634,"connected_time":5830000000000,"state":"active","ping":60},{"user_id":204,"name":"YoteDab McFapDab.jpg","steam_id":76561197984870380,"connected_time":1707000000000,"state":"active","ping":64},{"user_id":208,"name":"SHAUN!!!","steam_id":76561199234905923,"connected_time":1447000000000,"state":"active","ping":105},{"user_id":230,"name":"emeraldd gear","steam_id":76561199046192875,"connected_time":211000000000,"state":"active","ping":62},{"user_id":206,"name":"CAR_DRY","steam_id":76561198798584431,"connected_time":1557000000000,"state":"active","ping":85},{"user_id":222,"name":"Kduck","steam_id":76561198092171095,"connected_time":623000000000,"state":"active","ping":63}]},{"server_id":400,"name":"Uncletopia | Atlanta | 3 | Stopwatch","name_short":"atl-3","host":"atl-1.us.uncletopia.com","port":27035,"enabled":true,"region":"us-east","cc":"us","latitude":33.753746,"longitude":-84.38633,"reserved":0,"last_update":"0001-01-01T00:00:00Z","name_a2s":"Uncletopia | Atlanta | 3 | Stopwatch","protocol":17,"map":"workshop/koth_product_final.ugc454272353","folder":"tf","game":"Team Fortress","app_id":440,"player_count":0,"max_players":24,"Bots":0,"server_type":"Dedicated","server_os":"Linux","password":true,"vac":true,"version":"7961495","steam_id":85568392924515187,"keywords":["cp","nocrits","nodmgspread","uncletopia"],"game_id":440,"stv_port":27036,"stv_name":"Uncletopia | Atlanta | 3 | Stopwatch | STV","players":null},{"server_id":401,"name":"Uncletopia | Atlanta | 4 | Community","name_short":"atl-4","host":"atl-1.us.uncletopia.com","port":27045,"enabled":true,"region":"us-east","cc":"us","latitude":33.753746,"longitude":-84.38633,"reserved":0,"last_update":"0001-01-01T00:00:00Z","name_a2s":"Uncletopia | Atlanta | 4 | Community","protocol":17,"map":"workshop/cp_glassworks_rc7a.ugc454118349","folder":"tf","game":"Team Fortress","app_id":440,"player_count":0,"max_players":24,"Bots":0,"server_type":"Dedicated","server_os":"Linux","password":true,"vac":true,"version":"7961495","steam_id":85568392924515188,"keywords":["cp","nocrits","nodmgspread","uncletopia"],"game_id":440,"stv_port":27046,"stv_name":"Uncletopia | Atlanta | 4 | Community | STV","players":null},{"server_id":2,"name":"Uncletopia | Chicago | 1 | All Maps","name_short":"chi-1","host":"chi-1.us.uncletopia.com","port":27015,"enabled":true,"region":"us-central","cc":"us","latitude":41.881832,"longitude":-87.62318,"reserved":0,"last_update":"0001-01-01T00:00:00Z","name_a2s":"Uncletopia | Chicago | 1 | All Maps","protocol":17,"map":"pl_badwater","folder":"tf","game":"Team Fortress","app_id":440,"player_count":24,"max_players":24,"Bots":0,"server_type":"Dedicated","server_os":"Linux","password":true,"vac":true,"version":"7961495","steam_id":85568392924469984,"keywords":["nocrits","nodmgspread","payload","uncletopia"],"game_id":440,"stv_port":27016,"stv_name":"Uncletopia | Chicago | 1 | All Maps | STV","players":[{"user_id":310,"name":"Scum Knight | T.I.D.K.","steam_id":76561198282444763,"connected_time":897000000000,"state":"active","ping":60},{"user_id":257,"name":"None of that $9.99 bullshit","steam_id":76561198116169903,"connected_time":7130000000000,"state":"active","ping":49},{"user_id":244,"name":"Vorco","steam_id":76561197996937734,"connected_time":8372000000000,"state":"active","ping":62},{"user_id":306,"name":"SnoopPigeon","steam_id":76561198144363018,"connected_time":1020000000000,"state":"active","ping":63},{"user_id":314,"name":"darKnight | T.I.D.K.","steam_id":76561199012488416,"connected_time":507000000000,"state":"active","ping":164},{"user_id":288,"name":"Chadmander","steam_id":76561197974136337,"connected_time":4589000000000,"state":"active","ping":41},{"user_id":294,"name":"Siz","steam_id":76561198072962154,"connected_time":3047000000000,"state":"active","ping":65},{"user_id":249,"name":"Kitt(eh)  ‚àë:3","steam_id":76561198110858518,"connected_time":7728000000000,"state":"active","ping":62},{"user_id":315,"name":"rat eater","steam_id":76561199216874750,"connected_time":156000000000,"state":"active","ping":47},{"user_id":313,"name":"Tomathy","steam_id":76561198036378226,"connected_time":586000000000,"state":"active","ping":138},{"user_id":295,"name":"MillerWhite","steam_id":76561198076060357,"connected_time":3029000000000,"state":"active","ping":84},{"user_id":311,"name":"Gliglamesh","steam_id":76561198058221449,"connected_time":889000000000,"state":"active","ping":56},{"user_id":303,"name":"Comradical","steam_id":76561197990808285,"connected_time":1266000000000,"state":"active","ping":62},{"user_id":239,"name":"chen","steam_id":76561198064872330,"connected_time":8562000000000,"state":"active","ping":83},{"user_id":299,"name":"StretchySnail59","steam_id":76561198073535005,"connected_time":2467000000000,"state":"active","ping":50},{"user_id":285,"name":"green bean","steam_id":76561198113099204,"connected_time":4805000000000,"state":"active","ping":89},{"user_id":302,"name":"HAT-WEARING‚Ñ¢ Maggot Gamer Cat","steam_id":76561197973992705,"connected_time":1324000000000,"state":"active","ping":94},{"user_id":292,"name":"man of the hour","steam_id":76561198264601809,"connected_time":3062000000000,"state":"active","ping":54},{"user_id":308,"name":"Seek Grass","steam_id":76561198140934344,"connected_time":914000000000,"state":"active","ping":58},{"user_id":309,"name":"bobbybrown","steam_id":76561198193218282,"connected_time":907000000000,"state":"active","ping":61},{"user_id":289,"name":"Ninety","steam_id":76561198114257183,"connected_time":4515000000000,"state":"active","ping":57},{"user_id":284,"name":"Wayan","steam_id":76561198354695464,"connected_time":4830000000000,"state":"active","ping":65},{"user_id":304,"name":"Sha-Woompa","steam_id":76561199068063459,"connected_time":1140000000000,"state":"active","ping":57},{"user_id":272,"name":"Iceflame","steam_id":76561198067164658,"connected_time":5603000000000,"state":"active","ping":75}]},{"server_id":106,"name":"Uncletopia | Chicago | 2 | All Maps","name_short":"chi-2","host":"chi-1.us.uncletopia.com","port":27025,"enabled":true,"region":"us-central","cc":"us","latitude":41.881832,"longitude":-87.62318,"reserved":0,"last_update":"0001-01-01T00:00:00Z","name_a2s":"Uncletopia | Chicago | 2 | All Maps","protocol":17,"map":"pl_upward","folder":"tf","game":"Team Fortress","app_id":440,"player_count":24,"max_players":24,"Bots":0,"server_type":"Dedicated","server_os":"Linux","password":true,"vac":true,"version":"7961495","steam_id":85568392924469985,"keywords":["nocrits","nodmgspread","payload","uncletopia"],"game_id":440,"stv_port":27026,"stv_name":"Uncletopia | Chicago | 2 | All Maps | STV","players":[{"user_id":225,"name":"Reiner","steam_id":76561199201762178,"connected_time":481000000000,"state":"active","ping":61},{"user_id":130,"name":"rstrom","steam_id":76561197961225022,"connected_time":6537000000000,"state":"active","ping":66},{"user_id":216,"name":"Chaos","steam_id":76561199068325065,"connected_time":777000000000,"state":"active","ping":78},{"user_id":178,"name":"Swash","steam_id":76561197969421355,"connected_time":3420000000000,"state":"active","ping":59},{"user_id":194,"name":"Kartyac","steam_id":76561197991069005,"connected_time":2568000000000,"state":"active","ping":79},{"user_id":218,"name":"Cave Dweller","steam_id":76561198374825685,"connected_time":716000000000,"state":"active","ping":102},{"user_id":238,"name":"plutonium","steam_id":76561198319442494,"connected_time":36000000000,"state":"active","ping":100},{"user_id":236,"name":"harped","steam_id":76561199240419529,"connected_time":100000000000,"state":"active","ping":63},{"user_id":132,"name":"I'm a Fungi","steam_id":76561198061507741,"connected_time":6508000000000,"state":"active","ping":55},{"user_id":208,"name":"Kukri","steam_id":76561198142132522,"connected_time":1371000000000,"state":"active","ping":44},{"user_id":213,"name":"Allister","steam_id":76561197999823352,"connected_time":990000000000,"state":"active","ping":71},{"user_id":134,"name":"MedRed‚Ñ¢ #IATAH","steam_id":76561198002962970,"connected_time":6445000000000,"state":"active","ping":93},{"user_id":182,"name":"Dr. Bodacious","steam_id":76561199122205825,"connected_time":2919000000000,"state":"active","ping":68},{"user_id":234,"name":"Caribou","steam_id":76561197997211265,"connected_time":151000000000,"state":"active","ping":60},{"user_id":231,"name":"Koala Bear","steam_id":76561198118025990,"connected_time":189000000000,"state":"active","ping":76},{"user_id":205,"name":"hej","steam_id":76561197996366940,"connected_time":1685000000000,"state":"active","ping":60},{"user_id":233,"name":"DuckKey","steam_id":76561198904477889,"connected_time":154000000000,"state":"active","ping":59},{"user_id":223,"name":"4d4 civilnetworks.net","steam_id":76561198402360789,"connected_time":606000000000,"state":"active","ping":62},{"user_id":191,"name":"Lord Cutler Beckett","steam_id":76561198091356047,"connected_time":2653000000000,"state":"active","ping":49},{"user_id":239,"name":"Strangelove","steam_id":76561198353773611,"connected_time":26000000000,"state":"active","ping":83},{"user_id":200,"name":"Shrebbie","steam_id":76561198875230824,"connected_time":2021000000000,"state":"active","ping":91},{"user_id":227,"name":"SeanEee","steam_id":76561198217227232,"connected_time":437000000000,"state":"active","ping":53},{"user_id":152,"name":"No, this is Patrick","steam_id":76561198058776774,"connected_time":6026000000000,"state":"active","ping":59},{"user_id":202,"name":"Steak-Pocketer","steam_id":76561198277651410,"connected_time":1916000000000,"state":"active","ping":60}]},{"server_id":402,"name":"Uncletopia | Chicago | 3 | All Maps","name_short":"chi-3","host":"chi-1.us.uncletopia.com","port":27035,"enabled":true,"region":"us-central","cc":"us","latitude":41.881832,"longitude":-87.62318,"reserved":0,"last_update":"0001-01-01T00:00:00Z","name_a2s":"Uncletopia | Chicago | 3 | All Maps","protocol":17,"map":"cp_gravelpit","folder":"tf","game":"Team Fortress","app_id":440,"player_count":17,"max_players":24,"Bots":0,"server_type":"Dedicated","server_os":"Linux","password":true,"vac":true,"version":"7961495","steam_id":85568392924515191,"keywords":["cp","nocrits","nodmgspread","uncletopia"],"game_id":440,"stv_port":27036,"stv_name":"Uncletopia | Chicago | 3 | All Maps | STV","players":[{"user_id":161,"name":"Ryoko","steam_id":76561198084725087,"connected_time":3798000000000,"state":"active","ping":71},{"user_id":191,"name":"Null","steam_id":76561198062791227,"connected_time":1623000000000,"state":"active","ping":45},{"user_id":73,"name":"The World's Softest Sandwich","steam_id":76561198015577707,"connected_time":9508000000000,"state":"active","ping":80},{"user_id":102,"name":"Fresh Lychee","steam_id":76561198045399559,"connected_time":7393000000000,"state":"active","ping":55},{"user_id":203,"name":"crunch","steam_id":76561198058209703,"connected_time":156000000000,"state":"active","ping":42},{"user_id":196,"name":"monke12344","steam_id":76561199274757725,"connected_time":1147000000000,"state":"active","ping":42},{"user_id":171,"name":"RiceFarmer","steam_id":76561198869180993,"connected_time":2951000000000,"state":"active","ping":89},{"user_id":204,"name":"a Salty Individual","steam_id":76561197979951077,"connected_time":151000000000,"state":"active","ping":106},{"user_id":205,"name":"Asriel as it gets","steam_id":76561198249520876,"connected_time":119000000000,"state":"active","ping":57},{"user_id":209,"name":"SCP-049","steam_id":76561199086835032,"connected_time":94000000000,"state":"active","ping":95},{"user_id":175,"name":"Brotein","steam_id":76561198053743602,"connected_time":2844000000000,"state":"active","ping":45},{"user_id":208,"name":"(√î)√î)Wandering Singer(√î(√î)","steam_id":76561198126477141,"connected_time":101000000000,"state":"active","ping":59},{"user_id":186,"name":"SCALED TO ONE","steam_id":76561197995620232,"connected_time":2253000000000,"state":"active","ping":46},{"user_id":197,"name":"Bitter","steam_id":76561198146532457,"connected_time":621000000000,"state":"active","ping":63},{"user_id":195,"name":"tyreked1203","steam_id":76561199486461335,"connected_time":1422000000000,"state":"active","ping":56},{"user_id":135,"name":"The Idiot","steam_id":76561198049837377,"connected_time":5779000000000,"state":"active","ping":49},{"user_id":202,"name":"Dogvan","steam_id":76561198176708643,"connected_time":456000000000,"state":"active","ping":68}]},{"server_id":403,"name":"Uncletopia | Chicago | 4 | All Maps","name_short":"chi-4","host":"chi-1.us.uncletopia.com","port":27045,"enabled":true,"region":"us-central","cc":"us","latitude":41.881832,"longitude":-87.62318,"reserved":0,"last_update":"0001-01-01T00:00:00Z","name_a2s":"Uncletopia | Chicago | 4 | All Maps","protocol":17,"map":"cp_granary","folder":"tf","game":"Team Fortress","app_id":440,"player_count":24,"max_players":24,"Bots":0,"server_type":"Dedicated","server_os":"Linux","password":true,"vac":true,"version":"7961495","steam_id":85568392924515193,"keywords":["cp","nocrits","nodmgspread","uncletopia"],"game_id":440,"stv_port":27046,"stv_name":"Uncletopia | Chicago | 4 | All Maps | STV","players":[{"user_id":64,"name":"HOG         RIDER","steam_id":76561198040787741,"connected_time":86000000000,"state":"active","ping":53},{"user_id":52,"name":"Soda","steam_id":76561198219209367,"connected_time":381000000000,"state":"active","ping":58},{"user_id":53,"name":"The Glute Guardian","steam_id":76561198189330642,"connected_time":371000000000,"state":"active","ping":102},{"user_id":54,"name":"MangoMaster7834","steam_id":76561199231165397,"connected_time":368000000000,"state":"active","ping":85},{"user_id":19,"name":"Bones0010","steam_id":76561198096186958,"connected_time":2054000000000,"state":"active","ping":78},{"user_id":20,"name":"Sir.TopHats","steam_id":76561198267326839,"connected_time":2050000000000,"state":"active","ping":74},{"user_id":62,"name":"a baby","steam_id":76561198008662184,"connected_time":265000000000,"state":"active","ping":61},{"user_id":31,"name":"SafetyInstructor","steam_id":76561199195205705,"connected_time":1631000000000,"state":"active","ping":70},{"user_id":23,"name":"Mint Jelly","steam_id":76561197991286751,"connected_time":1876000000000,"state":"active","ping":70},{"user_id":48,"name":"ùíÜùíóùíäùíçArnoldGamingÔæ†","steam_id":76561198040140247,"connected_time":1169000000000,"state":"active","ping":74},{"user_id":63,"name":"Y Dough","steam_id":76561198003827633,"connected_time":223000000000,"state":"active","ping":76},{"user_id":60,"name":"GreatTimBones","steam_id":76561198409145748,"connected_time":327000000000,"state":"active","ping":61},{"user_id":51,"name":"Rukks","steam_id":76561197993918954,"connected_time":556000000000,"state":"active","ping":87},{"user_id":34,"name":"Dr.StrangeGlove","steam_id":76561198286114229,"connected_time":1589000000000,"state":"active","ping":107},{"user_id":50,"name":"guac","steam_id":76561198025481672,"connected_time":1013000000000,"state":"active","ping":66},{"user_id":56,"name":"ReubenSalsa","steam_id":76561198110060815,"connected_time":359000000000,"state":"active","ping":59},{"user_id":37,"name":"cheeser","steam_id":76561198281772700,"connected_time":1544000000000,"state":"active","ping":61},{"user_id":38,"name":"the Jorker","steam_id":76561198235414632,"connected_time":1539000000000,"state":"active","ping":85},{"user_id":39,"name":"asoingbob","steam_id":76561198032682990,"connected_time":1538000000000,"state":"active","ping":94},{"user_id":40,"name":"Pistol Engie Monday","steam_id":76561198409907417,"connected_time":1529000000000,"state":"active","ping":99},{"user_id":41,"name":"ApertureCity","steam_id":76561198004153607,"connected_time":1519000000000,"state":"active","ping":73},{"user_id":61,"name":"WiDam","steam_id":76561198005976631,"connected_time":325000000000,"state":"active","ping":86},{"user_id":57,"name":"Opie","steam_id":76561198058704365,"connected_time":356000000000,"state":"active","ping":57},{"user_id":58,"name":"JustAnotherHuman","steam_id":76561199018122924,"connected_time":347000000000,"state":"active","ping":73}]},{"server_id":36,"name":"Uncletopia | Chicago | 5 | All Maps","name_short":"chi-5","host":"chi-2.us.uncletopia.com","port":27015,"enabled":true,"region":"us-central","cc":"us","latitude":41.881832,"longitude":-87.62318,"reserved":0,"last_update":"0001-01-01T00:00:00Z","name_a2s":"Uncletopia | Chicago | 5 | All Maps","protocol":17,"map":"cp_dustbowl","folder":"tf","game":"Team Fortress","app_id":440,"player_count":24,"max_players":24,"Bots":0,"server_type":"Dedicated","server_os":"Linux","password":true,"vac":true,"version":"7961495","steam_id":85568392924866362,"keywords":["cp","nocrits","nodmgspread","uncletopia"],"game_id":440,"stv_port":27016,"stv_name":"Uncletopia | Chicago | 5 | All Maps | STV","players":[{"user_id":313,"name":"Dry Potato Chips","steam_id":76561198092669564,"connected_time":2381000000000,"state":"active","ping":147},{"user_id":354,"name":"mP","steam_id":76561198046459936,"connected_time":605000000000,"state":"active","ping":61},{"user_id":347,"name":"Hugs","steam_id":76561198214584133,"connected_time":1209000000000,"state":"active","ping":106},{"user_id":319,"name":"The Final Terminus","steam_id":76561197964985183,"connected_time":2321000000000,"state":"active","ping":60},{"user_id":323,"name":"Conkleoink","steam_id":76561198035020689,"connected_time":2280000000000,"state":"active","ping":69},{"user_id":316,"name":"Semyr","steam_id":76561198125655939,"connected_time":2340000000000,"state":"active","ping":65},{"user_id":339,"name":"ligma male","steam_id":76561198145320480,"connected_time":1692000000000,"state":"active","ping":96},{"user_id":233,"name":"dadgummit","steam_id":76561198005806915,"connected_time":8397000000000,"state":"active","ping":63},{"user_id":334,"name":"Capt.Swag","steam_id":76561198088340994,"connected_time":2136000000000,"state":"active","ping":64},{"user_id":353,"name":"Xzility","steam_id":76561199179623795,"connected_time":677000000000,"state":"active","ping":75},{"user_id":351,"name":"hxui3506","steam_id":76561199148162329,"connected_time":872000000000,"state":"active","ping":98},{"user_id":359,"name":"jg125","steam_id":76561198824953530,"connected_time":320000000000,"state":"active","ping":143},{"user_id":320,"name":"Michael Ceratops","steam_id":76561198084006103,"connected_time":2315000000000,"state":"active","ping":140},{"user_id":344,"name":"chok","steam_id":76561198242016100,"connected_time":1315000000000,"state":"active","ping":89},{"user_id":348,"name":"A_Malebolgia","steam_id":76561198097722818,"connected_time":1164000000000,"state":"active","ping":85},{"user_id":324,"name":"paddle gaming","steam_id":76561199250055131,"connected_time":2273000000000,"state":"active","ping":78},{"user_id":356,"name":"TheSnipersHat","steam_id":76561198057684066,"connected_time":597000000000,"state":"active","ping":58},{"user_id":360,"name":"1998 Volvo S70 T5","steam_id":76561198258615044,"connected_time":203000000000,"state":"active","ping":64},{"user_id":361,"name":"astrobob911","steam_id":76561199099110654,"connected_time":153000000000,"state":"active","ping":61},{"user_id":362,"name":"snoodles","steam_id":76561198313113513,"connected_time":128000000000,"state":"active","ping":53},{"user_id":311,"name":"fresco","steam_id":76561199101199477,"connected_time":3034000000000,"state":"active","ping":56},{"user_id":342,"name":"Chumster","steam_id":76561199120624891,"connected_time":1668000000000,"state":"active","ping":105},{"user_id":358,"name":"thecal","steam_id":76561198307893384,"connected_time":565000000000,"state":"active","ping":61},{"user_id":331,"name":"Natsuki the Scunt","steam_id":76561199175922684,"connected_time":2212000000000,"state":"active","ping":119}]},{"server_id":37,"name":"Uncletopia | Chicago | 6 | All Maps","name_short":"chi-6","host":"chi-2.us.uncletopia.com","port":27025,"enabled":true,"region":"us-central","cc":"us","latitude":41.881832,"longitude":-87.62318,"reserved":0,"last_update":"0001-01-01T00:00:00Z","name_a2s":"Uncletopia | Chicago | 6 | All Maps","protocol":17,"map":"pl_badwater","folder":"tf","game":"Team Fortress","app_id":440,"player_count":22,"max_players":24,"Bots":0,"server_type":"Dedicated","server_os":"Linux","password":true,"vac":true,"version":"7961495","steam_id":85568392924866363,"keywords":["nocrits","nodmgspread","payload","uncletopia"],"game_id":440,"stv_port":27026,"stv_name":"Uncletopia | Chicago | 6 | All Maps | STV","players":[{"user_id":406,"name":"Fancy Clown Sultan","steam_id":76561198447852406,"connected_time":5363000000000,"state":"active","ping":64},{"user_id":484,"name":"Rein","steam_id":76561198300340427,"connected_time":388000000000,"state":"active","ping":58},{"user_id":457,"name":"Yeti‚Ñ¢","steam_id":76561199151545966,"connected_time":2288000000000,"state":"active","ping":45},{"user_id":448,"name":"Young-OG","steam_id":76561198058800479,"connected_time":3054000000000,"state":"active","ping":74},{"user_id":487,"name":"Antonin Scalia","steam_id":76561198080687598,"connected_time":14000000000,"state":"spawning","ping":53},{"user_id":488,"name":"booze cruiser","steam_id":76561198203395648,"connected_time":6000000000,"state":"active","ping":125},{"user_id":469,"name":"MondoDong","steam_id":76561197991400109,"connected_time":764000000000,"state":"active","ping":48},{"user_id":470,"name":"Chezaus","steam_id":76561198317397837,"connected_time":752000000000,"state":"active","ping":60},{"user_id":463,"name":"_cza","steam_id":76561198079793576,"connected_time":1720000000000,"state":"active","ping":89},{"user_id":480,"name":"Meme Supreme","steam_id":76561198116265509,"connected_time":455000000000,"state":"active","ping":52},{"user_id":460,"name":"The Assistant Regional Manager","steam_id":76561199221484936,"connected_time":2044000000000,"state":"active","ping":105},{"user_id":489,"name":"asscastle 2","steam_id":76561198097330521,"connected_time":6000000000,"state":"spawning","ping":151},{"user_id":483,"name":"itsPanzerPanda","steam_id":76561199441946346,"connected_time":389000000000,"state":"active","ping":23},{"user_id":456,"name":"Gamering_funy","steam_id":76561199006503777,"connected_time":2311000000000,"state":"active","ping":49},{"user_id":472,"name":"baunter","steam_id":76561198024311871,"connected_time":701000000000,"state":"active","ping":90},{"user_id":455,"name":"wroh2801","steam_id":76561199103292218,"connected_time":2421000000000,"state":"active","ping":41},{"user_id":450,"name":"jp_pizza","steam_id":76561198308103061,"connected_time":2917000000000,"state":"active","ping":44},{"user_id":485,"name":"rhsiegetank","steam_id":76561198359829118,"connected_time":385000000000,"state":"active","ping":85},{"user_id":481,"name":"kpop idol","steam_id":76561198155517268,"connected_time":404000000000,"state":"active","ping":62},{"user_id":479,"name":"Kaypo","steam_id":76561198262420097,"connected_time":475000000000,"state":"active","ping":51},{"user_id":486,"name":"too deep for most to understand","steam_id":76561198022636144,"connected_time":241000000000,"state":"active","ping":52},{"user_id":444,"name":"Gorgon Freeman","steam_id":76561198000367036,"connected_time":3240000000000,"state":"active","ping":45}]},{"server_id":38,"name":"Uncletopia | Chicago | 7 | Stopwatch","name_short":"chi-7","host":"chi-2.us.uncletopia.com","port":27035,"enabled":true,"region":"us-central","cc":"us","latitude":41.881832,"longitude":-87.62318,"reserved":0,"last_update":"0001-01-01T00:00:00Z","name_a2s":"Uncletopia | Chicago | 7 | Stopwatch","protocol":17,"map":"pl_borneo","folder":"tf","game":"Team Fortress","app_id":440,"player_count":0,"max_players":24,"Bots":0,"server_type":"Dedicated","server_os":"Linux","password":true,"vac":true,"version":"7961495","steam_id":85568392924866364,"keywords":["nocrits","nodmgspread","payload","uncletopia"],"game_id":440,"stv_port":27036,"stv_name":"Uncletopia | Chicago | 7 | Stopwatch | STV","players":null},{"server_id":39,"name":"Uncletopia | Chicago | 8 | Community","name_short":"chi-8","host":"chi-2.us.uncletopia.com","port":27045,"enabled":true,"region":"us-central","cc":"us","latitude":41.881832,"longitude":-87.62318,"reserved":0,"last_update":"0001-01-01T00:00:00Z","name_a2s":"Uncletopia | Chicago | 8 | Community","protocol":17,"map":"workshop/koth_slaughter_rc1.ugc1712845210","folder":"tf","game":"Team Fortress","app_id":440,"player_count":0,"max_players":24,"Bots":0,"server_type":"Dedicated","server_os":"Linux","password":true,"vac":true,"version":"7961495","steam_id":85568392924866365,"keywords":["cp","nocrits","nodmgspread","uncletopia"],"game_id":440,"stv_port":27046,"stv_name":"Uncletopia | Chicago | 8 | Community | STV","players":null},{"server_id":8,"name":"Uncletopia | Dallas | 1 | All Maps","name_short":"dal-1","host":"dal-1.us.uncletopia.com","port":27015,"enabled":true,"region":"us-central","cc":"us","latitude":32.779167,"longitude":-96.80889,"reserved":0,"last_update":"0001-01-01T00:00:00Z","name_a2s":"Uncletopia | Dallas | 1 | All Maps","protocol":17,"map":"cp_gorge","folder":"tf","game":"Team Fortress","app_id":440,"player_count":24,"max_players":24,"Bots":0,"server_type":"Dedicated","server_os":"Linux","password":true,"vac":true,"version":"7961495","steam_id":85568392924469986,"keywords":["cp","nocrits","nodmgspread","uncletopia"],"game_id":440,"stv_port":27016,"stv_name":"Uncletopia | Dallas | 1 | All Maps | STV","players":[{"user_id":113,"name":"T. Bombadil","steam_id":76561198364152168,"connected_time":1510000000000,"state":"active","ping":124},{"user_id":95,"name":"andyiscolorless","steam_id":76561199239870921,"connected_time":2636000000000,"state":"active","ping":157},{"user_id":110,"name":"Tuvok Shakur","steam_id":76561198018875334,"connected_time":2268000000000,"state":"active","ping":56},{"user_id":131,"name":"Nixon Me, Dixon Me","steam_id":76561198126519537,"connected_time":593000000000,"state":"active","ping":88},{"user_id":135,"name":"Bigfoot ate my ass","steam_id":76561198071605190,"connected_time":219000000000,"state":"active","ping":61},{"user_id":134,"name":"ShapedSilver","steam_id":76561199073305310,"connected_time":408000000000,"state":"active","ping":67},{"user_id":129,"name":"L-","steam_id":76561198046074220,"connected_time":767000000000,"state":"active","ping":74},{"user_id":137,"name":"Born to :3 Forced to :)","steam_id":76561198083882597,"connected_time":77000000000,"state":"active","ping":44},{"user_id":69,"name":"Rowmaster","steam_id":76561198271659574,"connected_time":3717000000000,"state":"active","ping":120},{"user_id":138,"name":"Burnside Special","steam_id":76561198822221762,"connected_time":74000000000,"state":"active","ping":76},{"user_id":83,"name":"spacetoven","steam_id":76561198115821131,"connected_time":2970000000000,"state":"active","ping":89},{"user_id":136,"name":"Johno","steam_id":76561199231993886,"connected_time":212000000000,"state":"active","ping":75},{"user_id":109,"name":"DMM","steam_id":76561198065426171,"connected_time":2292000000000,"state":"active","ping":57},{"user_id":107,"name":"Katie XXII","steam_id":76561198135534297,"connected_time":2368000000000,"state":"active","ping":100},{"user_id":139,"name":"5ft Powerhouse","steam_id":76561198078040365,"connected_time":62000000000,"state":"spawning","ping":89},{"user_id":115,"name":"inshallah","steam_id":76561198165212575,"connected_time":1493000000000,"state":"active","ping":77},{"user_id":116,"name":"MiniatureTrumpet","steam_id":76561198807533157,"connected_time":1460000000000,"state":"active","ping":73},{"user_id":46,"name":"Lain","steam_id":76561198029303534,"connected_time":4639000000000,"state":"active","ping":61},{"user_id":106,"name":"King","steam_id":76561198039763676,"connected_time":2409000000000,"state":"active","ping":78},{"user_id":108,"name":"Interrobang","steam_id":76561198385044529,"connected_time":2354000000000,"state":"active","ping":128},{"user_id":124,"name":"TacoMan4Life","steam_id":76561198832562728,"connected_time":990000000000,"state":"active","ping":79},{"user_id":126,"name":"Pringles","steam_id":76561198170085170,"connected_time":916000000000,"state":"active","ping":75},{"user_id":133,"name":"Nixon's the One","steam_id":76561198046688278,"connected_time":563000000000,"state":"active","ping":48}]},{"server_id":108,"name":"Uncletopia | Dallas | 2 | All Maps","name_short":"dal-2","host":"dal-1.us.uncletopia.com","port":27025,"enabled":true,"region":"us-central","cc":"us","latitude":32.779167,"longitude":-96.80889,"reserved":0,"last_update":"0001-01-01T00:00:00Z","name_a2s":"Uncletopia | Dallas | 2 | All Maps","protocol":17,"map":"plr_bananabay","folder":"tf","game":"Team Fortress","app_id":440,"player_count":24,"max_players":24,"Bots":0,"server_type":"Dedicated","server_os":"Linux","password":true,"vac":true,"version":"7961495","steam_id":85568392924469988,"keywords":["nocrits","nodmgspread","payload","uncletopia"],"game_id":440,"stv_port":27026,"stv_name":"Uncletopia | Dallas | 2 | All Maps | STV","players":[{"user_id":140,"name":"beans","steam_id":76561199082781884,"connected_time":1816000000000,"state":"active","ping":35},{"user_id":156,"name":"(redacted)","steam_id":76561198836893308,"connected_time":52000000000,"state":"active","ping":80},{"user_id":87,"name":"‚ô• STEE ‚ô•","steam_id":76561198030495003,"connected_time":5432000000000,"state":"active","ping":62},{"user_id":106,"name":"CDBeans","steam_id":76561198046990367,"connected_time":4009000000000,"state":"active","ping":99},{"user_id":109,"name":"Zetta","steam_id":76561198045710113,"connected_time":3771000000000,"state":"active","ping":70},{"user_id":139,"name":"Pluto","steam_id":76561198012630802,"connected_time":1836000000000,"state":"active","ping":91},{"user_id":117,"name":"the","steam_id":76561198016826181,"connected_time":3380000000000,"state":"active","ping":82},{"user_id":131,"name":"Pupcubus","steam_id":76561198057986869,"connected_time":1968000000000,"state":"active","ping":66},{"user_id":150,"name":"Jovo","steam_id":76561197993265970,"connected_time":1095000000000,"state":"active","ping":98},{"user_id":137,"name":"MrSourLemmon","steam_id":76561199367994914,"connected_time":1886000000000,"state":"active","ping":49},{"user_id":153,"name":"Trapilicious","steam_id":76561198061430457,"connected_time":641000000000,"state":"active","ping":57},{"user_id":155,"name":"Western_dragon","steam_id":76561198130456105,"connected_time":88000000000,"state":"active","ping":79},{"user_id":114,"name":"Octomal800","steam_id":76561199453595616,"connected_time":3552000000000,"state":"active","ping":84},{"user_id":132,"name":"Cassie","steam_id":76561198972619900,"connected_time":1968000000000,"state":"active","ping":44},{"user_id":144,"name":"Alejandro","steam_id":76561197970051493,"connected_time":1503000000000,"state":"active","ping":125},{"user_id":118,"name":"matvey","steam_id":76561199404191412,"connected_time":3349000000000,"state":"active","ping":93},{"user_id":125,"name":"MilkyFrenchToast","steam_id":76561198099281433,"connected_time":2528000000000,"state":"active","ping":89},{"user_id":145,"name":"Vv","steam_id":76561199052196750,"connected_time":1422000000000,"state":"active","ping":48},{"user_id":142,"name":"SuperEvilPasta","steam_id":76561198078258907,"connected_time":1668000000000,"state":"active","ping":73},{"user_id":157,"name":"DonByan","steam_id":76561198319090131,"connected_time":17000000000,"state":"active","ping":61},{"user_id":135,"name":"Type Three Dabeetus","steam_id":76561198062710038,"connected_time":1918000000000,"state":"active","ping":71},{"user_id":146,"name":"itscajuntime","steam_id":76561198972790488,"connected_time":1390000000000,"state":"active","ping":85},{"user_id":141,"name":"dover","steam_id":76561198354292689,"connected_time":1732000000000,"state":"active","ping":43},{"user_id":152,"name":"Barress","steam_id":76561198011728743,"connected_time":807000000000,"state":"active","ping":80}]},{"server_id":404,"name":"Uncletopia | Dallas | 3 | All Maps","name_short":"dal-3","host":"dal-1.us.uncletopia.com","port":27035,"enabled":true,"region":"us-central","cc":"us","latitude":32.779167,"longitude":-96.80889,"reserved":0,"last_update":"0001-01-01T00:00:00Z","name_a2s":"Uncletopia | Dallas | 3 | All Maps","protocol":17,"map":"cp_sunshine","folder":"tf","game":"Team Fortress","app_id":440,"player_count":0,"max_players":24,"Bots":0,"server_type":"Dedicated","server_os":"Linux","password":true,"vac":true,"version":"7961495","steam_id":85568392924515219,"keywords":["cp","nocrits","nodmgspread","uncletopia"],"game_id":440,"stv_port":27036,"stv_name":"Uncletopia | Dallas | 3 | All Maps | STV","players":null},{"server_id":405,"name":"Uncletopia | Dallas | 4 | Community","name_short":"dal-4","host":"dal-1.us.uncletopia.com","port":27045,"enabled":true,"region":"us-central","cc":"us","latitude":32.779167,"longitude":-96.80889,"reserved":0,"last_update":"0001-01-01T00:00:00Z","name_a2s":"Uncletopia | Dallas | 4 | Community","protocol":17,"map":"workshop/koth_synthetic_rc6a.ugc1549817316","folder":"tf","game":"Team Fortress","app_id":440,"player_count":0,"max_players":24,"Bots":0,"server_type":"Dedicated","server_os":"Linux","password":true,"vac":true,"version":"7961495","steam_id":85568392924515220,"keywords":["cp","nocrits","nodmgspread","uncletopia"],"game_id":440,"stv_port":27046,"stv_name":"Uncletopia | Dallas | 4 | Community | STV","players":null},{"server_id":5,"name":"Uncletopia | Frankfurt | 1 | All Maps","name_short":"frk-1","host":"frk-1.de.uncletopia.com","port":27015,"enabled":true,"region":"eu","cc":"de","latitude":50.110924,"longitude":8.682127,"reserved":0,"last_update":"0001-01-01T00:00:00Z","name_a2s":"Uncletopia | Frankfurt | 1 | All Maps","protocol":17,"map":"pl_pier","folder":"tf","game":"Team Fortress","app_id":440,"player_count":24,"max_players":24,"Bots":0,"server_type":"Dedicated","server_os":"Linux","password":true,"vac":true,"version":"7961495","steam_id":85568392924469989,"keywords":["nocrits","nodmgspread","payload","uncletopia"],"game_id":440,"stv_port":27016,"stv_name":"Uncletopia | Frankfurt | 1 | All Maps | STV","players":[{"user_id":669,"name":"Lyon lover","steam_id":76561198326249290,"connected_time":106000000000,"state":"active","ping":45},{"user_id":644,"name":"The SPy","steam_id":76561198392505656,"connected_time":2753000000000,"state":"active","ping":44},{"user_id":656,"name":"Mr_Joergen","steam_id":76561198364713702,"connected_time":1486000000000,"state":"active","ping":52},{"user_id":653,"name":"Snoogs","steam_id":76561198444880931,"connected_time":1969000000000,"state":"active","ping":127},{"user_id":649,"name":"Towercat","steam_id":76561198013141793,"connected_time":2549000000000,"state":"active","ping":54},{"user_id":661,"name":"dfcv rftgvb ghtb","steam_id":76561198397764042,"connected_time":971000000000,"state":"active","ping":69},{"user_id":662,"name":"GoOutsideNerds","steam_id":76561198010662968,"connected_time":633000000000,"state":"active","ping":53},{"user_id":648,"name":"Liam","steam_id":76561198010346323,"connected_time":2593000000000,"state":"active","ping":53},{"user_id":670,"name":"zvekan","steam_id":76561198381101196,"connected_time":86000000000,"state":"active","ping":54},{"user_id":640,"name":"Swiss_Nostalgia","steam_id":76561199159896259,"connected_time":2974000000000,"state":"active","ping":56},{"user_id":671,"name":"Ici","steam_id":76561198053780659,"connected_time":64000000000,"state":"active","ping":65},{"user_id":655,"name":"Juanj4448","steam_id":76561199017163696,"connected_time":1488000000000,"state":"active","ping":68},{"user_id":664,"name":"RedTurtle","steam_id":76561199044470621,"connected_time":617000000000,"state":"active","ping":89},{"user_id":552,"name":"Unemployed Gaming","steam_id":76561198982674420,"connected_time":7663000000000,"state":"active","ping":64},{"user_id":666,"name":"MR BUBBLES","steam_id":76561198019005259,"connected_time":457000000000,"state":"active","ping":90},{"user_id":665,"name":"Rasec","steam_id":76561198352909289,"connected_time":493000000000,"state":"active","ping":77},{"user_id":672,"name":"Lewylow","steam_id":76561198005425686,"connected_time":47000000000,"state":"active","ping":73},{"user_id":645,"name":"r","steam_id":76561198239927434,"connected_time":2730000000000,"state":"active","ping":59},{"user_id":657,"name":"Doctor Mobius","steam_id":76561197971281806,"connected_time":1463000000000,"state":"active","ping":51},{"user_id":601,"name":"blazeeight","steam_id":76561198159456502,"connected_time":4824000000000,"state":"active","ping":84},{"user_id":667,"name":"yusef","steam_id":76561198108481078,"connected_time":454000000000,"state":"active","ping":116},{"user_id":651,"name":"habibi69","steam_id":76561198141989573,"connected_time":2402000000000,"state":"active","ping":71},{"user_id":659,"name":"–û–ª–µ–∫—Å—ñ–π | UA","steam_id":76561198802594676,"connected_time":1365000000000,"state":"active","ping":80},{"user_id":616,"name":"Volter","steam_id":76561198190304115,"connected_time":4294000000000,"state":"active","ping":75}]},{"server_id":110,"name":"Uncletopia | Frankfurt | 2 | All Maps","name_short":"frk-2","host":"frk-1.de.uncletopia.com","port":27025,"enabled":true,"region":"eu","cc":"de","latitude":50.110924,"longitude":8.682127,"reserved":0,"last_update":"0001-01-01T00:00:00Z","name_a2s":"Uncletopia | Frankfurt | 2 | All Maps","protocol":17,"map":"cp_process_final","folder":"tf","game":"Team Fortress","app_id":440,"player_count":24,"max_players":24,"Bots":0,"server_type":"Dedicated","server_os":"Linux","password":true,"vac":true,"version":"7961495","steam_id":85568392924469990,"keywords":["cp","nocrits","nodmgspread","uncletopia"],"game_id":440,"stv_port":27026,"stv_name":"Uncletopia | Frankfurt | 2 | All Maps | STV","players":[{"user_id":592,"name":"TheWinter","steam_id":76561198285640556,"connected_time":767000000000,"state":"active","ping":74},{"user_id":571,"name":"Vershal Smershal","steam_id":76561198116223995,"connected_time":1834000000000,"state":"active","ping":59},{"user_id":598,"name":"s3rg_","steam_id":76561198024043213,"connected_time":401000000000,"state":"active","ping":69},{"user_id":559,"name":"Kenjii.","steam_id":76561198064421549,"connected_time":2536000000000,"state":"active","ping":58},{"user_id":589,"name":"Metalizer","steam_id":76561198099595082,"connected_time":858000000000,"state":"active","ping":80},{"user_id":549,"name":"night.s","steam_id":76561198326287823,"connected_time":3565000000000,"state":"active","ping":78},{"user_id":520,"name":"totis","steam_id":76561198968410569,"connected_time":5516000000000,"state":"active","ping":89},{"user_id":595,"name":"Bobirulez","steam_id":76561198009125458,"connected_time":752000000000,"state":"active","ping":81},{"user_id":560,"name":"goop","steam_id":76561198190073005,"connected_time":2462000000000,"state":"active","ping":52},{"user_id":545,"name":"Fat Pigeon","steam_id":76561198817940142,"connected_time":3714000000000,"state":"active","ping":52},{"user_id":587,"name":"FistfulOfKittens","steam_id":76561198323611129,"connected_time":1002000000000,"state":"active","ping":55},{"user_id":588,"name":"KonG.- nedos—Çaje≈°.","steam_id":76561198039099650,"connected_time":959000000000,"state":"active","ping":46},{"user_id":555,"name":"Udinese Dion","steam_id":76561198067931573,"connected_time":3172000000000,"state":"active","ping":54},{"user_id":552,"name":"Mr_Pulse_","steam_id":76561198095001602,"connected_time":3542000000000,"state":"active","ping":93},{"user_id":495,"name":"gagalak","steam_id":76561198089979108,"connected_time":6967000000000,"state":"active","ping":120},{"user_id":590,"name":"Durin sein Vater","steam_id":76561198021246713,"connected_time":832000000000,"state":"active","ping":40},{"user_id":591,"name":"Pepegi","steam_id":76561198001230113,"connected_time":786000000000,"state":"active","ping":67},{"user_id":579,"name":"meow","steam_id":76561198087215038,"connected_time":1632000000000,"state":"active","ping":86},{"user_id":561,"name":"KnugenIV","steam_id":76561198127091993,"connected_time":2458000000000,"state":"active","ping":78},{"user_id":597,"name":"xavier","steam_id":76561198076494034,"connected_time":520000000000,"state":"active","ping":59},{"user_id":558,"name":"Just Navlis","steam_id":76561198090479609,"connected_time":2606000000000,"state":"active","ping":45},{"user_id":539,"name":"CiVillain","steam_id":76561198059617732,"connected_time":4196000000000,"state":"active","ping":61},{"user_id":594,"name":"Yo' Local NPC","steam_id":76561198129474001,"connected_time":766000000000,"state":"active","ping":65},{"user_id":573,"name":"‰∏ÄÈæôÈ©¨","steam_id":76561198364121077,"connected_time":1816000000000,"state":"active","ping":73}]},{"server_id":308,"name":"Uncletopia | Frankfurt | 3 | All Maps","name_short":"frk-3","host":"frk-1.de.uncletopia.com","port":27035,"enabled":true,"region":"eu","cc":"de","latitude":50.110924,"longitude":8.682127,"reserved":0,"last_update":"0001-01-01T00:00:00Z","name_a2s":"Uncletopia | Frankfurt | 3 | All Maps","protocol":17,"map":"cp_dustbowl","folder":"tf","game":"Team Fortress","app_id":440,"player_count":24,"max_players":24,"Bots":0,"server_type":"Dedicated","server_os":"Linux","password":true,"vac":true,"version":"7961495","steam_id":85568392924504274,"keywords":["cp","nocrits","nodmgspread","uncletopia"],"game_id":440,"stv_port":27036,"stv_name":"Uncletopia | Frankfurt | 3 | All Maps | STV","players":[{"user_id":367,"name":"Kristall_54","steam_id":76561199405759756,"connected_time":522000000000,"state":"active","ping":60},{"user_id":342,"name":"Arcan","steam_id":76561198179379718,"connected_time":2135000000000,"state":"active","ping":59},{"user_id":375,"name":"Leviticus Cornwall","steam_id":76561197993702685,"connected_time":257000000000,"state":"active","ping":60},{"user_id":382,"name":"0TS0 ‚úà I I","steam_id":76561198198821637,"connected_time":22000000000,"state":"spawning","ping":73},{"user_id":374,"name":"Kiki","steam_id":76561198145856866,"connected_time":286000000000,"state":"active","ping":57},{"user_id":314,"name":"Davido01","steam_id":76561198089406245,"connected_time":4318000000000,"state":"active","ping":50},{"user_id":339,"name":"Kes","steam_id":76561198095288832,"connected_time":2181000000000,"state":"active","ping":60},{"user_id":362,"name":"Drojdier","steam_id":76561198080789836,"connected_time":582000000000,"state":"active","ping":66},{"user_id":291,"name":"joachym","steam_id":76561198428579761,"connected_time":5542000000000,"state":"active","ping":52},{"user_id":327,"name":"Cheese Goblin","steam_id":76561198102366281,"connected_time":3300000000000,"state":"active","ping":55},{"user_id":338,"name":"Jam","steam_id":76561198010277932,"connected_time":2208000000000,"state":"active","ping":60},{"user_id":363,"name":"DEFENDOR62","steam_id":76561199386703896,"connected_time":566000000000,"state":"active","ping":56},{"user_id":354,"name":"10 Years in the joint","steam_id":76561198371280938,"connected_time":945000000000,"state":"active","ping":60},{"user_id":376,"name":"Enzyf","steam_id":76561198368720758,"connected_time":199000000000,"state":"active","ping":89},{"user_id":350,"name":"Siegmeyer","steam_id":76561198328543549,"connected_time":1123000000000,"state":"active","ping":89},{"user_id":377,"name":"Kosin [PL]","steam_id":76561199012956033,"connected_time":188000000000,"state":"active","ping":67},{"user_id":356,"name":"BuzzBees ‚ù§","steam_id":76561198101502273,"connected_time":802000000000,"state":"active","ping":60},{"user_id":378,"name":"Gregor Samsa","steam_id":76561198973069177,"connected_time":178000000000,"state":"active","ping":48},{"user_id":379,"name":"I'm past the point of insanity","steam_id":76561198800954471,"connected_time":177000000000,"state":"active","ping":77},{"user_id":312,"name":"KittyKate ‚ù§","steam_id":76561198116340817,"connected_time":4440000000000,"state":"active","ping":64},{"user_id":296,"name":"cop killer","steam_id":76561198039966198,"connected_time":4967000000000,"state":"active","ping":88},{"user_id":344,"name":"AwaDeMora","steam_id":76561198283945258,"connected_time":1940000000000,"state":"active","ping":92},{"user_id":380,"name":"Richard","steam_id":76561199485153573,"connected_time":128000000000,"state":"active","ping":92},{"user_id":381,"name":"StaryXayoo","steam_id":76561198263636974,"connected_time":51000000000,"state":"active","ping":83}]},{"server_id":309,"name":"Uncletopia | Frankfurt | 4 | All Maps","name_short":"frk-4","host":"frk-1.de.uncletopia.com","port":27045,"enabled":true,"region":"eu","cc":"de","latitude":50.110924,"longitude":8.682127,"reserved":0,"last_update":"0001-01-01T00:00:00Z","name_a2s":"Uncletopia | Frankfurt | 4 | All Maps","protocol":17,"map":"pl_thundermountain","folder":"tf","game":"Team Fortress","app_id":440,"player_count":24,"max_players":24,"Bots":0,"server_type":"Dedicated","server_os":"Linux","password":true,"vac":true,"version":"7961495","steam_id":85568392924504275,"keywords":["nocrits","nodmgspread","payload","uncletopia"],"game_id":440,"stv_port":27046,"stv_name":"Uncletopia | Frankfurt | 4 | All Maps | STV","players":[{"user_id":524,"name":"zeeko683","steam_id":76561198429788727,"connected_time":415000000000,"state":"active","ping":43},{"user_id":504,"name":"Musicano","steam_id":76561198114541088,"connected_time":1927000000000,"state":"active","ping":76},{"user_id":455,"name":"kelm","steam_id":76561198027166144,"connected_time":5400000000000,"state":"active","ping":83},{"user_id":489,"name":"lugi","steam_id":76561198026903673,"connected_time":2693000000000,"state":"active","ping":55},{"user_id":490,"name":"tired","steam_id":76561198046838168,"connected_time":2333000000000,"state":"active","ping":45},{"user_id":525,"name":"w","steam_id":76561198037136870,"connected_time":393000000000,"state":"active","ping":74},{"user_id":511,"name":"Efeca","steam_id":76561198018923829,"connected_time":1161000000000,"state":"active","ping":66},{"user_id":512,"name":"onixed","steam_id":76561198995478547,"connected_time":1159000000000,"state":"active","ping":47},{"user_id":523,"name":"HoneyBe_","steam_id":76561198288930154,"connected_time":860000000000,"state":"active","ping":62},{"user_id":487,"name":"StarDoc2222","steam_id":76561199389114520,"connected_time":3010000000000,"state":"active","ping":135},{"user_id":516,"name":"Neko","steam_id":76561198075690128,"connected_time":995000000000,"state":"active","ping":45},{"user_id":491,"name":"Toastiez","steam_id":76561197999284331,"connected_time":2328000000000,"state":"active","ping":59},{"user_id":518,"name":"„ã° Chase „ã°","steam_id":76561198965998351,"connected_time":926000000000,"state":"active","ping":57},{"user_id":509,"name":"Clydios","steam_id":76561198332311225,"connected_time":1301000000000,"state":"active","ping":89},{"user_id":519,"name":"soup","steam_id":76561198386933065,"connected_time":922000000000,"state":"active","ping":65},{"user_id":503,"name":"Morshu The Bastard","steam_id":76561198005094790,"connected_time":1963000000000,"state":"active","ping":59},{"user_id":476,"name":"Dankstein","steam_id":76561198122662378,"connected_time":3938000000000,"state":"active","ping":65},{"user_id":508,"name":"kornetov.vitalya","steam_id":76561199286034833,"connected_time":1604000000000,"state":"active","ping":79},{"user_id":510,"name":"r06u3","steam_id":76561198254099253,"connected_time":1297000000000,"state":"active","ping":165},{"user_id":515,"name":"Woad Raider","steam_id":76561198215485788,"connected_time":1130000000000,"state":"active","ping":72},{"user_id":431,"name":"Nick","steam_id":76561198036109469,"connected_time":7263000000000,"state":"active","ping":84},{"user_id":520,"name":"bigwish | bmod.tf","steam_id":76561197997859723,"connected_time":922000000000,"state":"active","ping":67},{"user_id":526,"name":"kUHASZ","steam_id":76561198843896414,"connected_time":263000000000,"state":"active","ping":74},{"user_id":484,"name":"Jangli","steam_id":76561198103923652,"connected_time":3074000000000,"state":"active","ping":182}]},{"server_id":310,"name":"Uncletopia | Frankfurt | 5 | All Maps","name_short":"frk-5","host":"frk-1.de.uncletopia.com","port":27055,"enabled":true,"region":"eu","cc":"de","latitude":50.110924,"longitude":8.682127,"reserved":0,"last_update":"0001-01-01T00:00:00Z","name_a2s":"Uncletopia | Frankfurt | 5 | All Maps","protocol":17,"map":"cp_snakewater_final1","folder":"tf","game":"Team Fortress","app_id":440,"player_count":24,"max_players":24,"Bots":0,"server_type":"Dedicated","server_os":"Linux","password":true,"vac":true,"version":"7961495","steam_id":85568392924504277,"keywords":["cp","nocrits","nodmgspread","uncletopia"],"game_id":440,"stv_port":27056,"stv_name":"Uncletopia | Frankfurt | 5 | All Maps | STV","players":[{"user_id":495,"name":"I shitted my a$$","steam_id":76561198981017406,"connected_time":817000000000,"state":"active","ping":71},{"user_id":455,"name":"R","steam_id":76561198025434244,"connected_time":4204000000000,"state":"active","ping":58},{"user_id":498,"name":"glyph","steam_id":76561197980736364,"connected_time":529000000000,"state":"active","ping":76},{"user_id":464,"name":"Nymph","steam_id":76561198042801329,"connected_time":3693000000000,"state":"active","ping":45},{"user_id":504,"name":"realness","steam_id":76561199129226935,"connected_time":121000000000,"state":"active","ping":105},{"user_id":488,"name":"Tree","steam_id":76561198060657113,"connected_time":1678000000000,"state":"active","ping":45},{"user_id":483,"name":"THE SPIRIT","steam_id":76561198170744597,"connected_time":2029000000000,"state":"active","ping":69},{"user_id":484,"name":"$400 boyfriend juicer","steam_id":76561197965406928,"connected_time":2023000000000,"state":"active","ping":62},{"user_id":492,"name":"Demicore","steam_id":76561197976922136,"connected_time":1321000000000,"state":"active","ping":63},{"user_id":505,"name":"stonebum","steam_id":76561198057004606,"connected_time":70000000000,"state":"active","ping":58},{"user_id":459,"name":"oskarskellyboi","steam_id":76561199365966333,"connected_time":4090000000000,"state":"active","ping":46},{"user_id":445,"name":"install gentoo","steam_id":76561198185257982,"connected_time":4732000000000,"state":"active","ping":79},{"user_id":444,"name":"Jesus","steam_id":76561198055998828,"connected_time":4785000000000,"state":"active","ping":56},{"user_id":493,"name":"Mortis","steam_id":76561198160658223,"connected_time":1315000000000,"state":"active","ping":61},{"user_id":494,"name":"(MAC) [BN] Crazyking","steam_id":76561198001668616,"connected_time":1046000000000,"state":"active","ping":61},{"user_id":476,"name":"compact disc","steam_id":76561198154677956,"connected_time":2681000000000,"state":"active","ping":60},{"user_id":499,"name":"LivEssense","steam_id":76561198052476979,"connected_time":342000000000,"state":"active","ping":76},{"user_id":501,"name":"MrChester","steam_id":76561199213192992,"connected_time":234000000000,"state":"active","ping":103},{"user_id":502,"name":"smugleafthesmug","steam_id":76561198844190634,"connected_time":204000000000,"state":"active","ping":141},{"user_id":479,"name":"WaiGee‚ô°‚ú∞","steam_id":76561198072293341,"connected_time":2329000000000,"state":"active","ping":70},{"user_id":469,"name":"Dunk","steam_id":76561198063091532,"connected_time":2980000000000,"state":"active","ping":68},{"user_id":503,"name":"emko√ß","steam_id":76561198846782346,"connected_time":189000000000,"state":"active","ping":116},{"user_id":457,"name":"‚òÖpoyo‚òÖ","steam_id":76561198150078959,"connected_time":4160000000000,"state":"active","ping":75},{"user_id":491,"name":"Monika Gaming","steam_id":76561198356227707,"connected_time":1561000000000,"state":"active","ping":94}]},{"server_id":311,"name":"Uncletopia | Frankfurt | 6 | All Maps","name_short":"frk-6","host":"frk-1.de.uncletopia.com","port":27065,"enabled":true,"region":"eu","cc":"de","latitude":50.110924,"longitude":8.682127,"reserved":0,"last_update":"0001-01-01T00:00:00Z","name_a2s":"Uncletopia | Frankfurt | 6 | All Maps","protocol":17,"map":"pl_upward","folder":"tf","game":"Team Fortress","app_id":440,"player_count":24,"max_players":24,"Bots":0,"server_type":"Dedicated","server_os":"Linux","password":true,"vac":true,"version":"7961495","steam_id":85568392924504278,"keywords":["nocrits","nodmgspread","payload","uncletopia"],"game_id":440,"stv_port":27066,"stv_name":"Uncletopia | Frankfurt | 6 | All Maps | STV","players":[{"user_id":193,"name":"Goshawk","steam_id":76561198816202642,"connected_time":1763000000000,"state":"active","ping":70},{"user_id":209,"name":"Shut up, I am tryin my best","steam_id":76561198152999099,"connected_time":1180000000000,"state":"active","ping":53},{"user_id":219,"name":"Saylexay","steam_id":76561198316643205,"connected_time":619000000000,"state":"active","ping":89},{"user_id":220,"name":"romov","steam_id":76561199182288871,"connected_time":583000000000,"state":"active","ping":90},{"user_id":221,"name":"CarbonPan","steam_id":76561198072169983,"connected_time":555000000000,"state":"active","ping":90},{"user_id":222,"name":"tsubonyan‚òÖ","steam_id":76561198120653445,"connected_time":532000000000,"state":"active","ping":38},{"user_id":235,"name":"American Chjeff (‚ú™oficial)","steam_id":76561198019917466,"connected_time":142000000000,"state":"active","ping":55},{"user_id":224,"name":"‚úö–ß—ã–∂‚úö","steam_id":76561198273074492,"connected_time":490000000000,"state":"active","ping":107},{"user_id":225,"name":"PLSNO (RYAN)","steam_id":76561198086542505,"connected_time":462000000000,"state":"active","ping":77},{"user_id":237,"name":"Rudoss","steam_id":76561198018415787,"connected_time":106000000000,"state":"active","ping":60},{"user_id":195,"name":"Zaka","steam_id":76561198148434957,"connected_time":1676000000000,"state":"active","ping":69},{"user_id":226,"name":"Functional Progaming","steam_id":76561198032310210,"connected_time":447000000000,"state":"active","ping":151},{"user_id":227,"name":"selkie","steam_id":76561198329321007,"connected_time":439000000000,"state":"active","ping":96},{"user_id":228,"name":"StagPrince","steam_id":76561198099125935,"connected_time":402000000000,"state":"active","ping":58},{"user_id":170,"name":"FrameTrash","steam_id":76561199167260122,"connected_time":3604000000000,"state":"active","ping":166},{"user_id":229,"name":"SirVitek","steam_id":76561198142961758,"connected_time":397000000000,"state":"active","ping":53},{"user_id":230,"name":"comicconcarne","steam_id":76561198005309469,"connected_time":396000000000,"state":"active","ping":163},{"user_id":210,"name":"vividatant","steam_id":76561198367913885,"connected_time":1175000000000,"state":"active","ping":59},{"user_id":236,"name":"God is serb","steam_id":76561198966246028,"connected_time":136000000000,"state":"active","ping":78},{"user_id":216,"name":"œÄŒøŒ¥œÄŒºŒ≤Œ±œÇ–ΩŒºŒ∫","steam_id":76561199006131505,"connected_time":983000000000,"state":"active","ping":123},{"user_id":234,"name":"cuddles","steam_id":76561198805181599,"connected_time":246000000000,"state":"active","ping":65},{"user_id":123,"name":"Grimm","steam_id":76561198044684227,"connected_time":5667000000000,"state":"active","ping":59},{"user_id":202,"name":"miiq130","steam_id":76561198188010666,"connected_time":1563000000000,"state":"active","ping":75},{"user_id":203,"name":"Tr4ilmaker","steam_id":76561198187758614,"connected_time":1539000000000,"state":"active","ping":46}]},{"server_id":23,"name":"Uncletopia | Frankfurt | 7 | Stopwatch","name_short":"frk-7","host":"frk-1.de.uncletopia.com","port":27075,"enabled":true,"region":"eu","cc":"de","latitude":50.110924,"longitude":8.682127,"reserved":0,"last_update":"0001-01-01T00:00:00Z","name_a2s":"Uncletopia | Frankfurt | 7 | Stopwatch","protocol":17,"map":"pl_borneo","folder":"tf","game":"Team Fortress","app_id":440,"player_count":0,"max_players":24,"Bots":0,"server_type":"Dedicated","server_os":"Linux","password":true,"vac":true,"version":"7961495","steam_id":85568392924742827,"keywords":["nocrits","nodmgspread","payload","uncletopia"],"game_id":440,"stv_port":27076,"stv_name":"Uncletopia | Frankfurt | 7 | Stopwatch | STV","players":null},{"server_id":24,"name":"Uncletopia | Frankfurt | 8 | Community","name_short":"frk-8","host":"frk-1.de.uncletopia.com","port":27085,"enabled":true,"region":"eu","cc":"de","latitude":50.110924,"longitude":8.682127,"reserved":0,"last_update":"0001-01-01T00:00:00Z","name_a2s":"Uncletopia | Frankfurt | 8 | Community","protocol":17,"map":"workshop/koth_synthetic_rc6a.ugc1549817316","folder":"tf","game":"Team Fortress","app_id":440,"player_count":0,"max_players":24,"Bots":0,"server_type":"Dedicated","server_os":"Linux","password":true,"vac":true,"version":"7961495","steam_id":85568392924742828,"keywords":["cp","nocrits","nodmgspread","uncletopia"],"game_id":440,"stv_port":27086,"stv_name":"Uncletopia | Frankfurt | 8 | Community | STV","players":null},{"server_id":202,"name":"Uncletopia | Hong Kong | 1 | All Maps","name_short":"hgk-1","host":"hgk-1.hk.uncletopia.com","port":27015,"enabled":true,"region":"asia","cc":"hk","latitude":22.302711,"longitude":114.177216,"reserved":0,"last_update":"0001-01-01T00:00:00Z","name_a2s":"Uncletopia | Hong Kong | 1 | All Maps","protocol":17,"map":"pl_frontier_final","folder":"tf","game":"Team Fortress","app_id":440,"player_count":0,"max_players":24,"Bots":0,"server_type":"Dedicated","server_os":"Linux","password":true,"vac":true,"version":"7961495","steam_id":85568392924494504,"keywords":["nocrits","nodmgspread","payload","uncletopia"],"game_id":440,"stv_port":27016,"stv_name":"Uncletopia | Hong Kong | 1 | All Maps | STV","players":null},{"server_id":1,"name":"Uncletopia | Los Angeles | 1 | All Maps","name_short":"lax-1","host":"lax-1.us.uncletopia.com","port":27015,"enabled":true,"region":"us-west","cc":"us","latitude":33.94279,"longitude":-118.41004,"reserved":0,"last_update":"0001-01-01T00:00:00Z","name_a2s":"Uncletopia | Los Angeles | 1 | All Maps","protocol":17,"map":"cp_snakewater_final1","folder":"tf","game":"Team Fortress","app_id":440,"player_count":0,"max_players":24,"Bots":0,"server_type":"Dedicated","server_os":"Linux","password":true,"vac":true,"version":"7961495","steam_id":85568392924469991,"keywords":["cp","nocrits","nodmgspread","uncletopia"],"game_id":440,"stv_port":27016,"stv_name":"Uncletopia | Los Angeles | 1 | All Maps | STV","players":null},{"server_id":112,"name":"Uncletopia | Los Angeles | 2 | All Maps","name_short":"lax-2","host":"lax-1.us.uncletopia.com","port":27025,"enabled":true,"region":"us-west","cc":"us","latitude":33.94279,"longitude":-118.41004,"reserved":0,"last_update":"0001-01-01T00:00:00Z","name_a2s":"Uncletopia | Los Angeles | 2 | All Maps","protocol":17,"map":"cp_process_final","folder":"tf","game":"Team Fortress","app_id":440,"player_count":0,"max_players":24,"Bots":0,"server_type":"Dedicated","server_os":"Linux","password":true,"vac":true,"version":"7961495","steam_id":85568392924469992,"keywords":["cp","nocrits","nodmgspread","uncletopia"],"game_id":440,"stv_port":27026,"stv_name":"Uncletopia | Los Angeles | 2 | All Maps | STV","players":null},{"server_id":324,"name":"Uncletopia | Los Angeles | 3 | All Maps","name_short":"lax-3","host":"lax-1.us.uncletopia.com","port":27035,"enabled":true,"region":"us-west","cc":"us","latitude":33.94279,"longitude":-118.41004,"reserved":0,"last_update":"0001-01-01T00:00:00Z","name_a2s":"Uncletopia | Los Angeles | 3 | All Maps","protocol":17,"map":"pl_swiftwater_final1","folder":"tf","game":"Team Fortress","app_id":440,"player_count":1,"max_players":24,"Bots":0,"server_type":"Dedicated","server_os":"Linux","password":true,"vac":true,"version":"7961495","steam_id":85568392924510198,"keywords":["nocrits","nodmgspread","payload","uncletopia"],"game_id":440,"stv_port":27036,"stv_name":"Uncletopia | Los Angeles | 3 | All Maps | STV","players":[{"user_id":5,"name":"GLXy","steam_id":76561198207551544,"connected_time":113000000000,"state":"active","ping":83}]},{"server_id":25,"name":"Uncletopia | Los Angeles | 4 | Stopwatch","name_short":"lax-4","host":"lax-1.us.uncletopia.com","port":27045,"enabled":true,"region":"us-west","cc":"us","latitude":33.94279,"longitude":-118.41004,"reserved":0,"last_update":"0001-01-01T00:00:00Z","name_a2s":"Uncletopia | Los Angeles | 4 | Stopwatch","protocol":17,"map":"pl_upward","folder":"tf","game":"Team Fortress","app_id":440,"player_count":0,"max_players":24,"Bots":0,"server_type":"Dedicated","server_os":"Linux","password":true,"vac":true,"version":"7961495","steam_id":85568392924510199,"keywords":["nocrits","nodmgspread","payload","uncletopia"],"game_id":440,"stv_port":27046,"stv_name":"Uncletopia | Los Angeles | 4 | Stopwatch | STV","players":null},{"server_id":11,"name":"Uncletopia | London | 1 | All Maps","name_short":"lon-1","host":"lon-1.uk.uncletopia.com","port":27015,"enabled":true,"region":"eu","cc":"gb","latitude":51.509865,"longitude":-0.118092,"reserved":0,"last_update":"0001-01-01T00:00:00Z","name_a2s":"Uncletopia | London | 1 | All Maps","protocol":17,"map":"cp_foundry","folder":"tf","game":"Team Fortress","app_id":440,"player_count":25,"max_players":24,"Bots":0,"server_type":"Dedicated","server_os":"Linux","password":true,"vac":true,"version":"7961495","steam_id":85568392924367362,"keywords":["cp","nocrits","nodmgspread","uncletopia"],"game_id":440,"stv_port":27016,"stv_name":"Uncletopia | London | 1 | All Maps | STV","players":[{"user_id":511,"name":"Kahvi","steam_id":76561198723244199,"connected_time":148000000000,"state":"active","ping":75},{"user_id":443,"name":"ediheelo","steam_id":76561198363615045,"connected_time":3436000000000,"state":"active","ping":56},{"user_id":386,"name":"magÃ∂pÃ∂iÃ∂e ‚úø","steam_id":76561198797266244,"connected_time":9501000000000,"state":"active","ping":79},{"user_id":494,"name":"IgnatiusFlange","steam_id":76561198102456416,"connected_time":394000000000,"state":"active","ping":48},{"user_id":462,"name":"pyromaniac","steam_id":76561198292781255,"connected_time":2080000000000,"state":"active","ping":61},{"user_id":452,"name":"Laru","steam_id":76561197998838438,"connected_time":2638000000000,"state":"active","ping":75},{"user_id":428,"name":"ber","steam_id":76561197993892057,"connected_time":5156000000000,"state":"active","ping":96},{"user_id":472,"name":"SENSITIVITY OVERDRIVE!!!!","steam_id":76561198163615254,"connected_time":1265000000000,"state":"active","ping":59},{"user_id":496,"name":"Fish","steam_id":76561198152128484,"connected_time":370000000000,"state":"active","ping":38},{"user_id":419,"name":"ats","steam_id":76561199383437138,"connected_time":6320000000000,"state":"active","ping":118},{"user_id":460,"name":"nudjura","steam_id":76561198281986139,"connected_time":2155000000000,"state":"active","ping":46},{"user_id":473,"name":"Finkaksu Devourer of Sour Candy","steam_id":76561198201389163,"connected_time":939000000000,"state":"active","ping":73},{"user_id":475,"name":"BurningJoke","steam_id":76561199014358707,"connected_time":839000000000,"state":"active","ping":58},{"user_id":488,"name":"Skatnaset","steam_id":76561198298457353,"connected_time":498000000000,"state":"active","ping":60},{"user_id":459,"name":"trite","steam_id":76561197983765323,"connected_time":2191000000000,"state":"active","ping":44},{"user_id":518,"name":"Imperial City Guard","steam_id":76561198083355845,"connected_time":3000000000,"state":"spawning","ping":53},{"user_id":461,"name":"Mea","steam_id":76561198353496134,"connected_time":2106000000000,"state":"active","ping":57},{"user_id":484,"name":"Doc. smelly feet (Kruzy)","steam_id":76561198032902122,"connected_time":558000000000,"state":"active","ping":51},{"user_id":471,"name":"Chill Spirit","steam_id":76561198845001725,"connected_time":1362000000000,"state":"active","ping":49},{"user_id":405,"name":"Richard nixon roleplayer","steam_id":76561198236015392,"connected_time":7342000000000,"state":"active","ping":117},{"user_id":480,"name":"Deni Vader","steam_id":76561198373554816,"connected_time":638000000000,"state":"active","ping":74},{"user_id":491,"name":"Woman (Real)","steam_id":76561199151823932,"connected_time":418000000000,"state":"active","ping":75},{"user_id":498,"name":"Bohagrius","steam_id":76561198003554034,"connected_time":343000000000,"state":"active","ping":136},{"user_id":227,"name":"whimsy.","steam_id":76561198878171763,"connected_time":21743000000000,"state":"active","ping":51},{"user_id":413,"name":"‚ößaura‚öß","steam_id":76561198066258544,"connected_time":6454000000000,"state":"active","ping":64}]},{"server_id":114,"name":"Uncletopia | London | 2 | All Maps","name_short":"lon-2","host":"lon-1.uk.uncletopia.com","port":27025,"enabled":true,"region":"eu","cc":"gb","latitude":51.509865,"longitude":-0.118092,"reserved":0,"last_update":"0001-01-01T00:00:00Z","name_a2s":"Uncletopia | London | 2 | All Maps","protocol":17,"map":"plr_hightower","folder":"tf","game":"Team Fortress","app_id":440,"player_count":23,"max_players":24,"Bots":0,"server_type":"Dedicated","server_os":"Linux","password":true,"vac":true,"version":"7961495","steam_id":85568392924470941,"keywords":["nocrits","nodmgspread","payload","uncletopia"],"game_id":440,"stv_port":27026,"stv_name":"Uncletopia | London | 2 | All Maps | STV","players":[{"user_id":495,"name":"main weapon machine broke","steam_id":76561198041329823,"connected_time":1310000000000,"state":"active","ping":51},{"user_id":392,"name":"Triploon","steam_id":76561198173304074,"connected_time":7610000000000,"state":"active","ping":48},{"user_id":505,"name":"Barmy","steam_id":76561198111626352,"connected_time":350000000000,"state":"active","ping":167},{"user_id":486,"name":"Chikra","steam_id":76561199472458719,"connected_time":1741000000000,"state":"active","ping":135},{"user_id":504,"name":"Joshy","steam_id":76561198059657098,"connected_time":402000000000,"state":"active","ping":30},{"user_id":509,"name":"Flying skyhigh","steam_id":76561198372971096,"connected_time":231000000000,"state":"active","ping":76},{"user_id":491,"name":"dank pank","steam_id":76561198995052713,"connected_time":1497000000000,"state":"active","ping":65},{"user_id":507,"name":"Hurans","steam_id":76561198064853199,"connected_time":336000000000,"state":"active","ping":64},{"user_id":478,"name":"Not Funny Anymore Lol","steam_id":76561198092680133,"connected_time":2133000000000,"state":"active","ping":43},{"user_id":497,"name":"Dr. Sex","steam_id":76561198998186161,"connected_time":1282000000000,"state":"active","ping":100},{"user_id":510,"name":"DJBreM","steam_id":76561198378933153,"connected_time":214000000000,"state":"active","ping":55},{"user_id":492,"name":"gaggle","steam_id":76561197988226281,"connected_time":1464000000000,"state":"active","ping":53},{"user_id":453,"name":"Lance Corporal Boiled Egg","steam_id":76561197989717358,"connected_time":3474000000000,"state":"active","ping":47},{"user_id":516,"name":"Adam","steam_id":76561198259467867,"connected_time":82000000000,"state":"active","ping":79},{"user_id":469,"name":"smiley","steam_id":76561198042245117,"connected_time":2720000000000,"state":"active","ping":60},{"user_id":513,"name":"Ferelous","steam_id":76561198042232425,"connected_time":197000000000,"state":"active","ping":34},{"user_id":493,"name":"meriones","steam_id":76561198034234373,"connected_time":1379000000000,"state":"active","ping":39},{"user_id":501,"name":"Rifle Mole","steam_id":76561198018571286,"connected_time":687000000000,"state":"active","ping":51},{"user_id":488,"name":"‚ò© Knightz ‚ò©","steam_id":76561198040936414,"connected_time":1690000000000,"state":"active","ping":101},{"user_id":514,"name":"Krazy Karlo","steam_id":76561198976332318,"connected_time":117000000000,"state":"active","ping":66},{"user_id":466,"name":"Doctor Medic","steam_id":76561198100957443,"connected_time":2763000000000,"state":"active","ping":79},{"user_id":489,"name":"cister0","steam_id":76561198130195469,"connected_time":1672000000000,"state":"active","ping":75},{"user_id":503,"name":"Banjo","steam_id":76561198206218496,"connected_time":612000000000,"state":"active","ping":44}]},{"server_id":320,"name":"Uncletopia | London | 3 | All Maps","name_short":"lon-3","host":"lon-1.uk.uncletopia.com","port":27035,"enabled":true,"region":"eu","cc":"gb","latitude":51.509865,"longitude":-0.118092,"reserved":0,"last_update":"0001-01-01T00:00:00Z","name_a2s":"Uncletopia | London | 3 | All Maps","protocol":17,"map":"pl_upward","folder":"tf","game":"Team Fortress","app_id":440,"player_count":24,"max_players":24,"Bots":0,"server_type":"Dedicated","server_os":"Linux","password":true,"vac":true,"version":"7961495","steam_id":85568392924510192,"keywords":["nocrits","nodmgspread","payload","uncletopia"],"game_id":440,"stv_port":27036,"stv_name":"Uncletopia | London | 3 | All Maps | STV","players":[{"user_id":512,"name":"Agon","steam_id":76561198982948437,"connected_time":973000000000,"state":"active","ping":86},{"user_id":508,"name":"niandits","steam_id":76561198419798900,"connected_time":1110000000000,"state":"active","ping":108},{"user_id":498,"name":"Sang","steam_id":76561198008510868,"connected_time":1911000000000,"state":"active","ping":71},{"user_id":531,"name":"–†–µ–î–∞–ù–æ–í–µ–¶ ^_^","steam_id":76561199032612973,"connected_time":29000000000,"state":"spawning","ping":88},{"user_id":475,"name":"ÔΩ•‚Ä¢.","steam_id":76561198049983016,"connected_time":3255000000000,"state":"active","ping":90},{"user_id":496,"name":"Don Draper","steam_id":76561198148359093,"connected_time":2041000000000,"state":"active","ping":44},{"user_id":499,"name":"dafran of tf2","steam_id":76561198066287815,"connected_time":1847000000000,"state":"active","ping":119},{"user_id":476,"name":"secunda","steam_id":76561198072250111,"connected_time":3238000000000,"state":"active","ping":60},{"user_id":481,"name":"The Subway Scientist","steam_id":76561198193757646,"connected_time":2533000000000,"state":"active","ping":58},{"user_id":517,"name":"eMcP","steam_id":76561198382509396,"connected_time":786000000000,"state":"active","ping":55},{"user_id":520,"name":"armadillo","steam_id":76561198324656652,"connected_time":751000000000,"state":"active","ping":47},{"user_id":491,"name":"1 toke 4 mars bars","steam_id":76561198056460000,"connected_time":2196000000000,"state":"active","ping":50},{"user_id":459,"name":"Teeth Snatcher","steam_id":76561198057707263,"connected_time":3875000000000,"state":"active","ping":67},{"user_id":521,"name":"Brick Samson","steam_id":76561198019076104,"connected_time":749000000000,"state":"active","ping":106},{"user_id":510,"name":"Werjor","steam_id":76561198845777888,"connected_time":1084000000000,"state":"active","ping":45},{"user_id":513,"name":"lebron james' left testicle","steam_id":76561198323757113,"connected_time":968000000000,"state":"active","ping":54},{"user_id":526,"name":"[T]aKer","steam_id":76561198001778013,"connected_time":468000000000,"state":"active","ping":51},{"user_id":530,"name":"WhyIsMyPepeSoSmall","steam_id":76561197994197001,"connected_time":71000000000,"state":"active","ping":97},{"user_id":522,"name":"PAX","steam_id":76561198046692146,"connected_time":742000000000,"state":"active","ping":57},{"user_id":529,"name":"That Guy","steam_id":76561198835358266,"connected_time":86000000000,"state":"active","ping":76},{"user_id":523,"name":"Coac","steam_id":76561198085265740,"connected_time":738000000000,"state":"active","ping":74},{"user_id":524,"name":"MR.CRAB","steam_id":76561198329833659,"connected_time":704000000000,"state":"active","ping":77},{"user_id":528,"name":"Femboy Thighs","steam_id":76561198115496457,"connected_time":274000000000,"state":"active","ping":45},{"user_id":502,"name":"Karahu","steam_id":76561198060426885,"connected_time":1733000000000,"state":"active","ping":83}]},{"server_id":321,"name":"Uncletopia | London | 4 | All Maps","name_short":"lon-4","host":"lon-1.uk.uncletopia.com","port":27045,"enabled":true,"region":"eu","cc":"gb","latitude":51.509865,"longitude":-0.118092,"reserved":0,"last_update":"0001-01-01T00:00:00Z","name_a2s":"Uncletopia | London | 4 | All Maps","protocol":17,"map":"pl_barnblitz","folder":"tf","game":"Team Fortress","app_id":440,"player_count":24,"max_players":24,"Bots":0,"server_type":"Dedicated","server_os":"Linux","password":true,"vac":true,"version":"7961495","steam_id":85568392924510193,"keywords":["nocrits","nodmgspread","payload","uncletopia"],"game_id":440,"stv_port":27046,"stv_name":"Uncletopia | London | 4 | All Maps | STV","players":[{"user_id":713,"name":"Deez nuts","steam_id":76561199429562693,"connected_time":647000000000,"state":"active","ping":61},{"user_id":720,"name":"TheFox.tf","steam_id":76561197996851702,"connected_time":505000000000,"state":"active","ping":74},{"user_id":732,"name":"The_voices","steam_id":76561199095701143,"connected_time":8000000000,"state":"active","ping":57},{"user_id":702,"name":"ThatSiegeKid","steam_id":76561198368037656,"connected_time":1261000000000,"state":"active","ping":45},{"user_id":704,"name":"Pirate5453","steam_id":76561199101247179,"connected_time":1246000000000,"state":"active","ping":61},{"user_id":721,"name":"Marty McFry","steam_id":76561198359702503,"connected_time":502000000000,"state":"active","ping":63},{"user_id":733,"name":"Krabs","steam_id":76561198161679477,"connected_time":6000000000,"state":"spawning","ping":44},{"user_id":707,"name":"ËìÆ Lotus","steam_id":76561198083141117,"connected_time":847000000000,"state":"active","ping":62},{"user_id":708,"name":"„É©„Çπ","steam_id":76561198124320485,"connected_time":797000000000,"state":"active","ping":77},{"user_id":730,"name":"8 Ball","steam_id":76561197960988736,"connected_time":141000000000,"state":"active","ping":47},{"user_id":710,"name":"Fishlover30","steam_id":76561199197436568,"connected_time":769000000000,"state":"active","ping":85},{"user_id":731,"name":"IBlewUpMalaysia","steam_id":76561198065455764,"connected_time":118000000000,"state":"active","ping":47},{"user_id":727,"name":"ran is running","steam_id":76561199443185667,"connected_time":288000000000,"state":"active","ping":111},{"user_id":714,"name":"Assassin+","steam_id":76561197994310420,"connected_time":628000000000,"state":"active","ping":61},{"user_id":717,"name":"Avitz","steam_id":76561197986150359,"connected_time":530000000000,"state":"active","ping":44},{"user_id":716,"name":"Vendedor de sacos do LIDL","steam_id":76561198301838757,"connected_time":588000000000,"state":"active","ping":66},{"user_id":718,"name":"TeeVee","steam_id":76561198050477005,"connected_time":524000000000,"state":"active","ping":77},{"user_id":722,"name":"Skuth","steam_id":76561198041470939,"connected_time":467000000000,"state":"active","ping":114},{"user_id":723,"name":"Groofy","steam_id":76561199302859008,"connected_time":410000000000,"state":"active","ping":122},{"user_id":724,"name":"LOBZIK","steam_id":76561198114830120,"connected_time":399000000000,"state":"active","ping":77},{"user_id":725,"name":"FJADL","steam_id":76561198237008214,"connected_time":340000000000,"state":"active","ping":74},{"user_id":726,"name":"HumorlessButton","steam_id":76561198170128638,"connected_time":320000000000,"state":"active","ping":64},{"user_id":728,"name":"Plop_","steam_id":76561198112567921,"connected_time":286000000000,"state":"active","ping":44},{"user_id":729,"name":"Rubi","steam_id":76561198139410003,"connected_time":248000000000,"state":"active","ping":62}]},{"server_id":21,"name":"Uncletopia | London | 5 | All Maps","name_short":"lon-5","host":"lon-1.uk.uncletopia.com","port":27055,"enabled":true,"region":"eu","cc":"gb","latitude":51.509865,"longitude":-0.118092,"reserved":0,"last_update":"0001-01-01T00:00:00Z","name_a2s":"Uncletopia | London | 5 | All Maps","protocol":17,"map":"pl_badwater","folder":"tf","game":"Team Fortress","app_id":440,"player_count":24,"max_players":24,"Bots":0,"server_type":"Dedicated","server_os":"Linux","password":true,"vac":true,"version":"7961495","steam_id":85568392924742829,"keywords":["nocrits","nodmgspread","payload","uncletopia"],"game_id":440,"stv_port":27056,"stv_name":"Uncletopia | London | 5 | All Maps | STV","players":[{"user_id":240,"name":"MistrzJaskier","steam_id":76561198069240119,"connected_time":2288000000000,"state":"active","ping":78},{"user_id":238,"name":"McAtka","steam_id":76561198019759329,"connected_time":2296000000000,"state":"active","ping":50},{"user_id":257,"name":"Ferrariracer5f1","steam_id":76561199229815098,"connected_time":1461000000000,"state":"active","ping":45},{"user_id":266,"name":"ImStillAVergil","steam_id":76561199248763115,"connected_time":261000000000,"state":"active","ping":43},{"user_id":226,"name":"FORMOISEI dropkickas","steam_id":76561198105121641,"connected_time":3131000000000,"state":"active","ping":74},{"user_id":262,"name":"Drunk","steam_id":76561198129454909,"connected_time":495000000000,"state":"active","ping":74},{"user_id":263,"name":"Qwerty","steam_id":76561198023525894,"connected_time":389000000000,"state":"active","ping":86},{"user_id":267,"name":"XxBenShapiro420xX","steam_id":76561199229373972,"connected_time":188000000000,"state":"active","ping":66},{"user_id":268,"name":"GREENbot","steam_id":76561198062378708,"connected_time":163000000000,"state":"active","ping":74},{"user_id":273,"name":"Bim Jeam","steam_id":76561198039417163,"connected_time":81000000000,"state":"active","ping":65},{"user_id":216,"name":"Packet","steam_id":76561199173195875,"connected_time":3340000000000,"state":"active","ping":77},{"user_id":232,"name":"Hoff","steam_id":76561198138540938,"connected_time":3022000000000,"state":"active","ping":71},{"user_id":254,"name":"citizen","steam_id":76561198094813693,"connected_time":1655000000000,"state":"active","ping":83},{"user_id":265,"name":"glue gunner","steam_id":76561198330025106,"connected_time":314000000000,"state":"active","ping":39},{"user_id":233,"name":"Edla","steam_id":76561198062815315,"connected_time":2943000000000,"state":"active","ping":133},{"user_id":261,"name":"tob:ias","steam_id":76561198832146626,"connected_time":706000000000,"state":"active","ping":59},{"user_id":258,"name":"Supercoxylac","steam_id":76561198376300138,"connected_time":1376000000000,"state":"active","ping":57},{"user_id":270,"name":"cecko","steam_id":76561198798721254,"connected_time":139000000000,"state":"active","ping":76},{"user_id":203,"name":":3","steam_id":76561198169471853,"connected_time":4427000000000,"state":"active","ping":41},{"user_id":271,"name":"Swift","steam_id":76561197998799889,"connected_time":136000000000,"state":"active","ping":52},{"user_id":256,"name":"alaskan.zebra","steam_id":76561199013662328,"connected_time":1496000000000,"state":"active","ping":174},{"user_id":181,"name":"willus212","steam_id":76561199182615246,"connected_time":5780000000000,"state":"active","ping":71},{"user_id":228,"name":"ÔºüSp1r1t0x","steam_id":76561198172046401,"connected_time":3126000000000,"state":"active","ping":64},{"user_id":274,"name":"yousiff","steam_id":76561198931770279,"connected_time":76000000000,"state":"active","ping":75}]},{"server_id":22,"name":"Uncletopia | London | 6 | All Maps","name_short":"lon-6","host":"lon-1.uk.uncletopia.com","port":27065,"enabled":true,"region":"eu","cc":"gb","latitude":51.509865,"longitude":-0.118092,"reserved":0,"last_update":"0001-01-01T00:00:00Z","name_a2s":"Uncletopia | London | 6 | All Maps","protocol":17,"map":"pl_frontier_final","folder":"tf","game":"Team Fortress","app_id":440,"player_count":24,"max_players":24,"Bots":0,"server_type":"Dedicated","server_os":"Linux","password":true,"vac":true,"version":"7961495","steam_id":85568392924742830,"keywords":["nocrits","nodmgspread","payload","uncletopia"],"game_id":440,"stv_port":27066,"stv_name":"Uncletopia | London | 6 | All Maps | STV","players":[{"user_id":252,"name":"lexa","steam_id":76561198153381971,"connected_time":1319000000000,"state":"active","ping":74},{"user_id":246,"name":"Logic Not Found","steam_id":76561198273025576,"connected_time":1810000000000,"state":"active","ping":48},{"user_id":238,"name":"Aash","steam_id":76561198041530759,"connected_time":2473000000000,"state":"active","ping":42},{"user_id":243,"name":"Mista LilJimmy","steam_id":76561198130497549,"connected_time":2105000000000,"state":"active","ping":42},{"user_id":254,"name":"Monsy","steam_id":76561198025735006,"connected_time":1203000000000,"state":"active","ping":44},{"user_id":232,"name":"ValJul456","steam_id":76561198254622005,"connected_time":2951000000000,"state":"active","ping":45},{"user_id":264,"name":"Boil em mash em","steam_id":76561198026508026,"connected_time":610000000000,"state":"active","ping":56},{"user_id":196,"name":"Training Bot [Easy]","steam_id":76561199119473164,"connected_time":4184000000000,"state":"active","ping":151},{"user_id":250,"name":"Zulu","steam_id":76561198043831707,"connected_time":1496000000000,"state":"active","ping":45},{"user_id":258,"name":"SpilledMilk","steam_id":76561198174123971,"connected_time":1051000000000,"state":"active","ping":58},{"user_id":256,"name":"The_Jaystone","steam_id":76561198126280691,"connected_time":1168000000000,"state":"active","ping":35},{"user_id":251,"name":"Sphynx Cat","steam_id":76561198367800260,"connected_time":1345000000000,"state":"active","ping":72},{"user_id":265,"name":"lexrit18","steam_id":76561198343554822,"connected_time":459000000000,"state":"active","ping":120},{"user_id":237,"name":"Agent","steam_id":76561198307704232,"connected_time":2484000000000,"state":"active","ping":77},{"user_id":266,"name":"immie^^","steam_id":76561197961231625,"connected_time":443000000000,"state":"active","ping":44},{"user_id":261,"name":"Mati [EST]","steam_id":76561197994743813,"connected_time":705000000000,"state":"active","ping":99},{"user_id":229,"name":"ROX","steam_id":76561198272289320,"connected_time":3129000000000,"state":"active","ping":47},{"user_id":259,"name":"System","steam_id":76561199442503973,"connected_time":754000000000,"state":"active","ping":60},{"user_id":167,"name":"TylowStar","steam_id":76561198357107806,"connected_time":5852000000000,"state":"active","ping":60},{"user_id":262,"name":"Jeffrey Harpen","steam_id":76561199073314677,"connected_time":703000000000,"state":"active","ping":64},{"user_id":263,"name":"owlsie","steam_id":76561198094883280,"connected_time":680000000000,"state":"active","ping":49},{"user_id":249,"name":"grr","steam_id":76561199429407130,"connected_time":1525000000000,"state":"active","ping":68},{"user_id":267,"name":"maciejkrzysteczko","steam_id":76561199140822962,"connected_time":201000000000,"state":"active","ping":67},{"user_id":257,"name":"muZ","steam_id":76561198060145190,"connected_time":1167000000000,"state":"active","ping":71}]},{"server_id":40,"name":"Uncletopia | London | 7 | Stopwatch","name_short":"lon-7","host":"lon-1.uk.uncletopia.com","port":27075,"enabled":true,"region":"eu","cc":"gb","latitude":51.509865,"longitude":-0.118092,"reserved":0,"last_update":"0001-01-01T00:00:00Z","name_a2s":"Uncletopia | London | 7 | Stopwatch","protocol":17,"map":"workshop/koth_jamram_rc1a.ugc2964065613","folder":"tf","game":"Team Fortress","app_id":440,"player_count":0,"max_players":24,"Bots":0,"server_type":"Dedicated","server_os":"Linux","password":true,"vac":true,"version":"7961495","steam_id":85568392924964314,"keywords":["cp","nocrits","nodmgspread","uncletopia"],"game_id":440,"stv_port":27076,"stv_name":"Uncletopia | London | 7 | Stopwatch | STV","players":null},{"server_id":41,"name":"Uncletopia | London | 8 | Community","name_short":"lon-8","host":"lon-1.uk.uncletopia.com","port":27085,"enabled":true,"region":"eu","cc":"gb","latitude":51.509865,"longitude":-0.118092,"reserved":0,"last_update":"0001-01-01T00:00:00Z","name_a2s":"Uncletopia | London | 8 | Community","protocol":17,"map":"workshop/cp_villa_b19.ugc2113052569","folder":"tf","game":"Team Fortress","app_id":440,"player_count":0,"max_players":24,"Bots":0,"server_type":"Dedicated","server_os":"Linux","password":true,"vac":true,"version":"7961495","steam_id":85568392924964315,"keywords":["cp","nocrits","nodmgspread","uncletopia"],"game_id":440,"stv_port":27086,"stv_name":"Uncletopia | London | 8 | Community | STV","players":null},{"server_id":300,"name":"Uncletopia | Montr√©al | 1 | One Thousand Uncles","name_short":"mtl-1","host":"mtl-1.ca.uncletopia.com","port":27015,"enabled":true,"region":"us-east","cc":"ca","latitude":45.50889,"longitude":-73.56167,"reserved":0,"last_update":"0001-01-01T00:00:00Z","name_a2s":"Uncletopia | Montr√©al | 1 | One Thousand Uncles","protocol":17,"map":"pl_goldrush","folder":"tf","game":"Team Fortress","app_id":440,"player_count":24,"max_players":32,"Bots":16,"server_type":"Dedicated","server_os":"Linux","password":true,"vac":true,"version":"7961495","steam_id":85568392924500087,"keywords":["alltalk","bots","danepve","increased_maxplayers","norespawntime","payload","uncletopia"],"game_id":440,"stv_port":0,"stv_name":"","players":[{"user_id":197,"name":"DrMisteryous2","steam_id":76561198336307012,"connected_time":1876000000000,"state":"active","ping":165},{"user_id":227,"name":"Wooper","steam_id":76561198047491931,"connected_time":225000000000,"state":"active","ping":45},{"user_id":193,"name":"ƒ†1 ‚ô¶ Synth","steam_id":76561198058660228,"connected_time":2415000000000,"state":"active","ping":72},{"user_id":229,"name":"Lucas096br","steam_id":76561198350760997,"connected_time":26000000000,"state":"spawning","ping":206},{"user_id":209,"name":"L0nelypumpkin","steam_id":76561198868798085,"connected_time":678000000000,"state":"active","ping":101},{"user_id":151,"name":"Grand Wizard","steam_id":76561199382783363,"connected_time":3574000000000,"state":"active","ping":129},{"user_id":152,"name":"DeepDive","steam_id":76561198140542184,"connected_time":3439000000000,"state":"active","ping":54},{"user_id":206,"name":"Berlioz","steam_id":76561198040532757,"connected_time":1036000000000,"state":"active","ping":75}]},{"server_id":301,"name":"Uncletopia | Montr√©al | 2 | One Thousand Uncles","name_short":"mtl-2","host":"mtl-1.ca.uncletopia.com","port":27025,"enabled":true,"region":"us-east","cc":"ca","latitude":45.50889,"longitude":-73.56167,"reserved":0,"last_update":"0001-01-01T00:00:00Z","name_a2s":"Uncletopia | Montr√©al | 2 | One Thousand Uncles","protocol":17,"map":"pl_chilly","folder":"tf","game":"Team Fortress","app_id":440,"player_count":0,"max_players":32,"Bots":0,"server_type":"Dedicated","server_os":"Linux","password":true,"vac":true,"version":"7961495","steam_id":85568392924500088,"keywords":["alltalk","danepve","increased_maxplayers","norespawntime","payload","uncletopia"],"game_id":440,"stv_port":0,"stv_name":"","players":null},{"server_id":302,"name":"Uncletopia | Montr√©al | 3 | One Thousand Uncles","name_short":"mtl-3","host":"mtl-1.ca.uncletopia.com","port":27035,"enabled":true,"region":"us-east","cc":"ca","latitude":45.50889,"longitude":-73.56167,"reserved":0,"last_update":"0001-01-01T00:00:00Z","name_a2s":"Uncletopia | Montr√©al | 3 | One Thousand Uncles","protocol":17,"map":"pl_pier","folder":"tf","game":"Team Fortress","app_id":440,"player_count":24,"max_players":32,"Bots":16,"server_type":"Dedicated","server_os":"Linux","password":true,"vac":true,"version":"7961495","steam_id":85568392924500089,"keywords":["alltalk","bots","danepve","increased_maxplayers","norespawntime","payload","uncletopia"],"game_id":440,"stv_port":0,"stv_name":"","players":[{"user_id":167,"name":"Herdex","steam_id":76561198092575778,"connected_time":102000000000,"state":"active","ping":75},{"user_id":139,"name":"Dragoninventor (He/Him)","steam_id":76561198956224948,"connected_time":3411000000000,"state":"active","ping":186},{"user_id":147,"name":"god_ferny","steam_id":76561198263380204,"connected_time":1535000000000,"state":"active","ping":92},{"user_id":146,"name":"Indi","steam_id":76561198177002367,"connected_time":1536000000000,"state":"active","ping":77},{"user_id":150,"name":"Prince Crow","steam_id":76561198211160740,"connected_time":1139000000000,"state":"active","ping":77},{"user_id":168,"name":"Proplayer3185","steam_id":76561198802781989,"connected_time":67000000000,"state":"active","ping":44},{"user_id":144,"name":"do you like beans?","steam_id":76561199184000745,"connected_time":2199000000000,"state":"active","ping":104},{"user_id":169,"name":"Heartgold","steam_id":76561199062592062,"connected_time":59000000000,"state":"active","ping":73},{"user_id":170,"name":"chomorkuz","steam_id":76561198452662446,"connected_time":53000000000,"state":"connecting","ping":0}]},{"server_id":13,"name":"Uncletopia | New York City | 1 | All Maps","name_short":"nyc-1","host":"nyc-1.us.uncletopia.com","port":27015,"enabled":true,"region":"us-east","cc":"us","latitude":40.73061,"longitude":-73.93524,"reserved":0,"last_update":"0001-01-01T00:00:00Z","name_a2s":"Uncletopia | New York City | 1 | All Maps","protocol":17,"map":"pl_upward","folder":"tf","game":"Team Fortress","app_id":440,"player_count":24,"max_players":24,"Bots":0,"server_type":"Dedicated","server_os":"Linux","password":true,"vac":true,"version":"7961495","steam_id":85568392924469993,"keywords":["nocrits","nodmgspread","payload","uncletopia"],"game_id":440,"stv_port":27016,"stv_name":"Uncletopia | New York City | 1 | All Maps | STV","players":[{"user_id":253,"name":"Yate","steam_id":76561198304924040,"connected_time":4461000000000,"state":"active","ping":74},{"user_id":274,"name":"ooBah","steam_id":76561198133684216,"connected_time":3242000000000,"state":"active","ping":34},{"user_id":310,"name":"Markoth","steam_id":76561198819418878,"connected_time":375000000000,"state":"active","ping":60},{"user_id":313,"name":"you forgot the sauce","steam_id":76561198387016713,"connected_time":209000000000,"state":"active","ping":49},{"user_id":300,"name":"bingus cheese","steam_id":76561198069010944,"connected_time":1259000000000,"state":"active","ping":72},{"user_id":304,"name":"‚ôîJaE‚ôî","steam_id":76561197999325159,"connected_time":771000000000,"state":"active","ping":59},{"user_id":292,"name":"Cervid√©","steam_id":76561198098579497,"connected_time":1788000000000,"state":"active","ping":47},{"user_id":305,"name":"KrazyPK","steam_id":76561198357989947,"connected_time":699000000000,"state":"active","ping":163},{"user_id":245,"name":"MarauderOP","steam_id":76561199087316861,"connected_time":4732000000000,"state":"active","ping":48},{"user_id":307,"name":"haruto","steam_id":76561198375345777,"connected_time":419000000000,"state":"active","ping":123},{"user_id":296,"name":"Meep","steam_id":76561198000304772,"connected_time":1514000000000,"state":"active","ping":50},{"user_id":246,"name":"Fio4","steam_id":76561199221171536,"connected_time":4723000000000,"state":"active","ping":55},{"user_id":287,"name":"insafjaleel","steam_id":76561198239445570,"connected_time":2444000000000,"state":"active","ping":48},{"user_id":297,"name":"lacoulaswwwe","steam_id":76561198966352385,"connected_time":1469000000000,"state":"active","ping":57},{"user_id":284,"name":"CanadianEgg","steam_id":76561198041680099,"connected_time":2857000000000,"state":"active","ping":88},{"user_id":308,"name":"LowRender3","steam_id":76561199491761622,"connected_time":408000000000,"state":"active","ping":154},{"user_id":315,"name":"Lemon Soda","steam_id":76561198140208761,"connected_time":51000000000,"state":"active","ping":47},{"user_id":294,"name":"Etherhel","steam_id":76561198838449544,"connected_time":1655000000000,"state":"active","ping":159},{"user_id":255,"name":".                          .","steam_id":76561198047555945,"connected_time":4436000000000,"state":"active","ping":75},{"user_id":309,"name":"YOU WHAT?!","steam_id":76561198418679471,"connected_time":390000000000,"state":"active","ping":59},{"user_id":316,"name":"Evo","steam_id":76561199267138470,"connected_time":45000000000,"state":"active","ping":59},{"user_id":272,"name":"SPOOKY HOTDOG","steam_id":76561197964599698,"connected_time":3402000000000,"state":"active","ping":80},{"user_id":312,"name":"chilis baby back ribs","steam_id":76561198813516435,"connected_time":347000000000,"state":"active","ping":95},{"user_id":268,"name":"Peluche Marisa","steam_id":76561199011452659,"connected_time":3511000000000,"state":"active","ping":110}]},{"server_id":14,"name":"Uncletopia | New York City | 2 | All Maps","name_short":"nyc-2","host":"nyc-1.us.uncletopia.com","port":27025,"enabled":true,"region":"us-east","cc":"us","latitude":40.73061,"longitude":-73.93524,"reserved":0,"last_update":"0001-01-01T00:00:00Z","name_a2s":"Uncletopia | New York City | 2 | All Maps","protocol":17,"map":"pl_borneo","folder":"tf","game":"Team Fortress","app_id":440,"player_count":24,"max_players":24,"Bots":0,"server_type":"Dedicated","server_os":"Linux","password":true,"vac":true,"version":"7961495","steam_id":85568392924469994,"keywords":["nocrits","nodmgspread","payload","uncletopia"],"game_id":440,"stv_port":27026,"stv_name":"Uncletopia | New York City | 2 | All Maps | STV","players":[{"user_id":418,"name":"Rummy the Blargh-gineer","steam_id":76561197997192800,"connected_time":679000000000,"state":"active","ping":50},{"user_id":391,"name":"Big Yoshi","steam_id":76561199160576376,"connected_time":2627000000000,"state":"active","ping":121},{"user_id":405,"name":"SPYCHECK ME","steam_id":76561198980994364,"connected_time":1656000000000,"state":"active","ping":100},{"user_id":414,"name":"Anamm","steam_id":76561198328762510,"connected_time":921000000000,"state":"active","ping":50},{"user_id":395,"name":"Tlaloc","steam_id":76561198375215983,"connected_time":2329000000000,"state":"active","ping":116},{"user_id":417,"name":"beats (16:38)","steam_id":76561199245717718,"connected_time":714000000000,"state":"active","ping":79},{"user_id":423,"name":"Simply_Komeiji","steam_id":76561198354177703,"connected_time":323000000000,"state":"active","ping":78},{"user_id":419,"name":"CheetoSmoke7","steam_id":76561198095217273,"connected_time":605000000000,"state":"active","ping":40},{"user_id":420,"name":"Mr. Squirt","steam_id":76561198174755679,"connected_time":583000000000,"state":"active","ping":41},{"user_id":410,"name":"ipad kid","steam_id":76561198178266978,"connected_time":1264000000000,"state":"active","ping":67},{"user_id":421,"name":"LUPAAAAAAAAAAAAAAAAAAAAN","steam_id":76561198804082097,"connected_time":411000000000,"state":"active","ping":49},{"user_id":19,"name":"Boofenshmirtz","steam_id":76561198071649858,"connected_time":18890000000000,"state":"active","ping":60},{"user_id":314,"name":"yes daddy","steam_id":76561198166100997,"connected_time":6920000000000,"state":"active","ping":62},{"user_id":426,"name":"Aokuma","steam_id":76561198808387179,"connected_time":135000000000,"state":"active","ping":56},{"user_id":403,"name":"Red_Hatkins","steam_id":76561198214004105,"connected_time":1805000000000,"state":"active","ping":75},{"user_id":386,"name":"corntent","steam_id":76561198824847948,"connected_time":2791000000000,"state":"active","ping":44},{"user_id":398,"name":"Mipsiek","steam_id":76561198164013471,"connected_time":2040000000000,"state":"active","ping":39},{"user_id":404,"name":"ball","steam_id":76561198394080554,"connected_time":1788000000000,"state":"active","ping":124},{"user_id":425,"name":"bobbymcbobington","steam_id":76561199089411172,"connected_time":157000000000,"state":"active","ping":113},{"user_id":428,"name":"Im totally a hacker","steam_id":76561198888005736,"connected_time":50000000000,"state":"spawning","ping":60},{"user_id":357,"name":"cali","steam_id":76561198326822403,"connected_time":4331000000000,"state":"active","ping":73},{"user_id":408,"name":"The Undead Knight","steam_id":76561198010654500,"connected_time":1496000000000,"state":"active","ping":77},{"user_id":399,"name":"Sucsubot","steam_id":76561198106456128,"connected_time":1955000000000,"state":"active","ping":75},{"user_id":406,"name":"p4tty","steam_id":76561198201156046,"connected_time":1639000000000,"state":"active","ping":51}]},{"server_id":15,"name":"Uncletopia | New York City | 3 | Stopwatch","name_short":"nyc-3","host":"nyc-1.us.uncletopia.com","port":27035,"enabled":true,"region":"us-east","cc":"us","latitude":40.73061,"longitude":-73.93524,"reserved":0,"last_update":"0001-01-01T00:00:00Z","name_a2s":"Uncletopia | New York City | 3 | Stopwatch","protocol":17,"map":"workshop/pl_vigil_rc10.ugc1266210012","folder":"tf","game":"Team Fortress","app_id":440,"player_count":2,"max_players":24,"Bots":0,"server_type":"Dedicated","server_os":"Linux","password":true,"vac":true,"version":"7961495","steam_id":85568392924742820,"keywords":["nocrits","nodmgspread","payload","uncletopia"],"game_id":440,"stv_port":27036,"stv_name":"Uncletopia | New York City | 3 | Stopwatch | STV","players":[{"user_id":4,"name":"ProSlayer77","steam_id":76561199435273618,"connected_time":1143000000000,"state":"active","ping":118},{"user_id":6,"name":"CheezusOfNazareth","steam_id":76561199093893813,"connected_time":1081000000000,"state":"active","ping":122}]},{"server_id":16,"name":"Uncletopia | New York City | 4 | Community","name_short":"nyc-4","host":"nyc-1.us.uncletopia.com","port":27045,"enabled":true,"region":"us-east","cc":"us","latitude":40.73061,"longitude":-73.93524,"reserved":0,"last_update":"0001-01-01T00:00:00Z","name_a2s":"Uncletopia | New York City | 4 | Community","protocol":17,"map":"workshop/cp_fulgur_rc2a.ugc2068252300","folder":"tf","game":"Team Fortress","app_id":440,"player_count":0,"max_players":24,"Bots":0,"server_type":"Dedicated","server_os":"Linux","password":true,"vac":true,"version":"7961495","steam_id":85568392924742821,"keywords":["cp","nocrits","nodmgspread","uncletopia"],"game_id":440,"stv_port":27046,"stv_name":"Uncletopia | New York City | 4 | Community | STV","players":null},{"server_id":142,"name":"Uncletopia | S√£o Paulo | 1 | All Maps","name_short":"sao-1","host":"sao-1.br.uncletopia.com","port":27015,"enabled":true,"region":"sa","cc":"br","latitude":-23.533773,"longitude":-46.62529,"reserved":0,"last_update":"0001-01-01T00:00:00Z","name_a2s":"Uncletopia | S√£o Paulo | 1 | All Maps","protocol":17,"map":"koth_cascade","folder":"tf","game":"Team Fortress","app_id":440,"player_count":0,"max_players":24,"Bots":0,"server_type":"Dedicated","server_os":"Linux","password":true,"vac":true,"version":"7961495","steam_id":85568392924469996,"keywords":["cp","nocrits","nodmgspread","uncletopia"],"game_id":440,"stv_port":27016,"stv_name":"Uncletopia | S√£o Paulo | 1 | All Maps | STV","players":null},{"server_id":143,"name":"Uncletopia | S√£o Paulo | 2 | Community","name_short":"sao-2","host":"sao-2.br.uncletopia.com","port":27015,"enabled":true,"region":"sa","cc":"br","latitude":-23.533773,"longitude":-46.62529,"reserved":0,"last_update":"0001-01-01T00:00:00Z","name_a2s":"Uncletopia | S√£o Paulo | 2 | Community","protocol":17,"map":"workshop/pl_divulgence_b4b.ugc2884808746","folder":"tf","game":"Team Fortress","app_id":440,"player_count":0,"max_players":24,"Bots":0,"server_type":"Dedicated","server_os":"Linux","password":true,"vac":true,"version":"7961495","steam_id":85568392924485349,"keywords":["nocrits","nodmgspread","payload","uncletopia"],"game_id":440,"stv_port":27016,"stv_name":"Uncletopia | S√£o Paulo | 2 | Community | STV","players":null},{"server_id":7,"name":"Uncletopia | Seattle | 1 | All Maps","name_short":"sea-1","host":"sea-1.us.uncletopia.com","port":27015,"enabled":true,"region":"us-west","cc":"us","latitude":47.608013,"longitude":-122.33517,"reserved":0,"last_update":"0001-01-01T00:00:00Z","name_a2s":"Uncletopia | Seattle | 1 | All Maps","protocol":17,"map":"pl_upward","folder":"tf","game":"Team Fortress","app_id":440,"player_count":24,"max_players":24,"Bots":0,"server_type":"Dedicated","server_os":"Linux","password":true,"vac":true,"version":"7961495","steam_id":85568392924469997,"keywords":["nocrits","nodmgspread","payload","uncletopia"],"game_id":440,"stv_port":27016,"stv_name":"Uncletopia | Seattle | 1 | All Maps | STV","players":[{"user_id":220,"name":"Hazel (Medical)","steam_id":76561199247095754,"connected_time":3715000000000,"state":"active","ping":52},{"user_id":239,"name":"I am NOT a Spy","steam_id":76561199153596010,"connected_time":1259000000000,"state":"active","ping":56},{"user_id":250,"name":"Alcohol + Bad Life Decisions","steam_id":76561198107973644,"connected_time":772000000000,"state":"active","ping":45},{"user_id":236,"name":"BlazedBunny","steam_id":76561198243610560,"connected_time":1289000000000,"state":"active","ping":70},{"user_id":191,"name":"tmm (theManMan)","steam_id":76561199488457138,"connected_time":6335000000000,"state":"active","ping":45},{"user_id":254,"name":"Lunch","steam_id":76561199173852120,"connected_time":110000000000,"state":"active","ping":50},{"user_id":230,"name":"Dezzithediscoduck","steam_id":76561198037043489,"connected_time":2445000000000,"state":"active","ping":60},{"user_id":180,"name":"Jeramosa","steam_id":76561198811000094,"connected_time":6860000000000,"state":"active","ping":80},{"user_id":163,"name":"PiolaCat","steam_id":76561199100535345,"connected_time":8177000000000,"state":"active","ping":100},{"user_id":213,"name":"[bbbc] Dimple","steam_id":76561198980324190,"connected_time":4394000000000,"state":"active","ping":59},{"user_id":237,"name":"Mango","steam_id":76561198266322471,"connected_time":1287000000000,"state":"active","ping":51},{"user_id":249,"name":"Lol","steam_id":76561198116421319,"connected_time":794000000000,"state":"active","ping":122},{"user_id":210,"name":"Dozzywozzit","steam_id":76561198110598577,"connected_time":4463000000000,"state":"active","ping":60},{"user_id":247,"name":"Fh","steam_id":76561198000903511,"connected_time":1023000000000,"state":"active","ping":60},{"user_id":246,"name":"Imitation Caucasian","steam_id":76561198320536166,"connected_time":1073000000000,"state":"active","ping":76},{"user_id":241,"name":"K2f","steam_id":76561198049600563,"connected_time":1237000000000,"state":"active","ping":75},{"user_id":253,"name":"NotAnypotato","steam_id":76561198397900218,"connected_time":539000000000,"state":"active","ping":45},{"user_id":238,"name":"Furikuri","steam_id":76561197998277739,"connected_time":1283000000000,"state":"active","ping":33},{"user_id":232,"name":"Penis Man","steam_id":76561198947885613,"connected_time":2322000000000,"state":"active","ping":60},{"user_id":255,"name":"Nina","steam_id":76561198875007138,"connected_time":96000000000,"state":"active","ping":44},{"user_id":234,"name":"dust | it/she","steam_id":76561198045218909,"connected_time":2198000000000,"state":"active","ping":34},{"user_id":235,"name":"the sneeze of 87","steam_id":76561198062451648,"connected_time":2095000000000,"state":"active","ping":91},{"user_id":243,"name":"Rick Assley","steam_id":76561198365019199,"connected_time":1203000000000,"state":"active","ping":103},{"user_id":252,"name":"‚ô•ur :3 medic gf‚ô• (51ref/hr)","steam_id":76561198816778484,"connected_time":606000000000,"state":"active","ping":81}]},{"server_id":119,"name":"Uncletopia | Seattle | 2 | All Maps","name_short":"sea-2","host":"sea-1.us.uncletopia.com","port":27025,"enabled":true,"region":"us-west","cc":"us","latitude":47.608013,"longitude":-122.33517,"reserved":0,"last_update":"0001-01-01T00:00:00Z","name_a2s":"Uncletopia | Seattle | 2 | All Maps","protocol":17,"map":"koth_lakeside_final","folder":"tf","game":"Team Fortress","app_id":440,"player_count":0,"max_players":24,"Bots":0,"server_type":"Dedicated","server_os":"Linux","password":true,"vac":true,"version":"7961495","steam_id":85568392924469998,"keywords":["cp","nocrits","nodmgspread","uncletopia"],"game_id":440,"stv_port":27026,"stv_name":"Uncletopia | Seattle | 2 | All Maps | STV","players":null},{"server_id":406,"name":"Uncletopia | Seattle | 3 | Stopwatch","name_short":"sea-3","host":"sea-1.us.uncletopia.com","port":27035,"enabled":true,"region":"us-west","cc":"us","latitude":47.608013,"longitude":-122.33517,"reserved":0,"last_update":"0001-01-01T00:00:00Z","name_a2s":"Uncletopia | Seattle | 3 | Stopwatch","protocol":17,"map":"workshop/cp_process_f12.ugc2302948105","folder":"tf","game":"Team Fortress","app_id":440,"player_count":0,"max_players":24,"Bots":0,"server_type":"Dedicated","server_os":"Linux","password":true,"vac":true,"version":"7961495","steam_id":85568392924515217,"keywords":["cp","nocrits","nodmgspread","uncletopia"],"game_id":440,"stv_port":27036,"stv_name":"Uncletopia | Seattle | 3 | Stopwatch | STV","players":null},{"server_id":17,"name":"Uncletopia | San Francisco | 1 | All Maps","name_short":"sfo-1","host":"sfo-1.us.uncletopia.com","port":27015,"enabled":true,"region":"us-west","cc":"us","latitude":37.77397,"longitude":-122.4313,"reserved":0,"last_update":"0001-01-01T00:00:00Z","name_a2s":"Uncletopia | San Francisco | 1 | All Maps","protocol":17,"map":"koth_highpass","folder":"tf","game":"Team Fortress","app_id":440,"player_count":0,"max_players":24,"Bots":0,"server_type":"Dedicated","server_os":"Linux","password":true,"vac":true,"version":"7961495","steam_id":85568392924469999,"keywords":["cp","nocrits","nodmgspread","uncletopia"],"game_id":440,"stv_port":27016,"stv_name":"Uncletopia | San Francisco | 1 | All Maps | STV","players":null},{"server_id":18,"name":"Uncletopia | San Francisco | 2 | All Maps","name_short":"sfo-2","host":"sfo-1.us.uncletopia.com","port":27025,"enabled":true,"region":"us-west","cc":"us","latitude":37.77397,"longitude":-122.4313,"reserved":0,"last_update":"0001-01-01T00:00:00Z","name_a2s":"Uncletopia | San Francisco | 2 | All Maps","protocol":17,"map":"pl_snowycoast","folder":"tf","game":"Team Fortress","app_id":440,"player_count":0,"max_players":24,"Bots":0,"server_type":"Dedicated","server_os":"Linux","password":true,"vac":true,"version":"7961495","steam_id":85568392924470000,"keywords":["nocrits","nodmgspread","payload","uncletopia"],"game_id":440,"stv_port":27026,"stv_name":"Uncletopia | San Francisco | 2 | All Maps | STV","players":null},{"server_id":19,"name":"Uncletopia | San Francisco | 3 | Stopwatch","name_short":"sfo-3","host":"sfo-1.us.uncletopia.com","port":27035,"enabled":true,"region":"us-west","cc":"us","latitude":37.77397,"longitude":-122.4313,"reserved":0,"last_update":"0001-01-01T00:00:00Z","name_a2s":"Uncletopia | San Francisco | 3 | Stopwatch","protocol":17,"map":"workshop/koth_product_final.ugc454272353","folder":"tf","game":"Team Fortress","app_id":440,"player_count":0,"max_players":24,"Bots":0,"server_type":"Dedicated","server_os":"Linux","password":true,"vac":true,"version":"7961495","steam_id":85568392924742824,"keywords":["cp","nocrits","nodmgspread","uncletopia"],"game_id":440,"stv_port":27036,"stv_name":"Uncletopia | San Francisco | 3 | Stopwatch | STV","players":null},{"server_id":20,"name":"Uncletopia | San Francisco | 4 | Community","name_short":"sfo-4","host":"sfo-1.us.uncletopia.com","port":27045,"enabled":true,"region":"us-west","cc":"us","latitude":37.77397,"longitude":-122.4313,"reserved":0,"last_update":"0001-01-01T00:00:00Z","name_a2s":"Uncletopia | San Francisco | 4 | Community","protocol":17,"map":"workshop/pl_cashworks_final1.ugc2904065412","folder":"tf","game":"Team Fortress","app_id":440,"player_count":6,"max_players":24,"Bots":0,"server_type":"Dedicated","server_os":"Linux","password":true,"vac":true,"version":"7961495","steam_id":85568392924742826,"keywords":["nocrits","nodmgspread","payload","uncletopia"],"game_id":440,"stv_port":27046,"stv_name":"Uncletopia | San Francisco | 4 | Community | STV","players":[{"user_id":5,"name":"gamerkiddude08","steam_id":76561198403417575,"connected_time":1297000000000,"state":"active","ping":57},{"user_id":6,"name":"thecookiesoftheholy","steam_id":76561199224792519,"connected_time":1212000000000,"state":"active","ping":71},{"user_id":7,"name":"Convenient Strip Mall","steam_id":76561198164678062,"connected_time":731000000000,"state":"active","ping":46},{"user_id":8,"name":"lil uzi squirt","steam_id":76561198045926594,"connected_time":466000000000,"state":"active","ping":45},{"user_id":9,"name":"Serene Salamander","steam_id":76561198001094770,"connected_time":272000000000,"state":"active","ping":58},{"user_id":10,"name":"June","steam_id":76561198141803658,"connected_time":223000000000,"state":"active","ping":59}]},{"server_id":141,"name":"Uncletopia | Sydney | 1 | All Maps","name_short":"syd-1","host":"syd-1.au.uncletopia.com","port":27015,"enabled":true,"region":"au","cc":"au","latitude":-33.865143,"longitude":151.2099,"reserved":0,"last_update":"0001-01-01T00:00:00Z","name_a2s":"Uncletopia | Sydney | 1 | All Maps","protocol":17,"map":"cp_altitude","folder":"tf","game":"Team Fortress","app_id":440,"player_count":0,"max_players":24,"Bots":0,"server_type":"Dedicated","server_os":"Linux","password":true,"vac":true,"version":"7961495","steam_id":85568392924470001,"keywords":["cp","nocrits","nodmgspread","uncletopia"],"game_id":440,"stv_port":27016,"stv_name":"Uncletopia | Sydney | 1 | All Maps | STV","players":null},{"server_id":123,"name":"Uncletopia | Sydney | 2 | All Maps","name_short":"syd-2","host":"syd-1.au.uncletopia.com","port":27025,"enabled":true,"region":"au","cc":"au","latitude":-33.865143,"longitude":151.2099,"reserved":0,"last_update":"0001-01-01T00:00:00Z","name_a2s":"Uncletopia | Sydney | 2 | All Maps","protocol":17,"map":"cp_sunshine","folder":"tf","game":"Team Fortress","app_id":440,"player_count":0,"max_players":24,"Bots":0,"server_type":"Dedicated","server_os":"Linux","password":true,"vac":true,"version":"7961495","steam_id":85568392924470002,"keywords":["cp","nocrits","nodmgspread","uncletopia"],"game_id":440,"stv_port":27026,"stv_name":"Uncletopia | Sydney | 2 | All Maps | STV","players":null},{"server_id":395,"name":"Uncletopia | Sydney | 3 | All Maps","name_short":"syd-3","host":"syd-1.au.uncletopia.com","port":27035,"enabled":true,"region":"au","cc":"au","latitude":-33.865143,"longitude":151.2099,"reserved":0,"last_update":"0001-01-01T00:00:00Z","name_a2s":"Uncletopia | Sydney | 3 | All Maps","protocol":17,"map":"pl_swiftwater_final1","folder":"tf","game":"Team Fortress","app_id":440,"player_count":0,"max_players":24,"Bots":0,"server_type":"Dedicated","server_os":"Linux","password":true,"vac":true,"version":"7961495","steam_id":85568392925194467,"keywords":["nocrits","nodmgspread","payload","uncletopia"],"game_id":440,"stv_port":27036,"stv_name":"Uncletopia | Sydney | 3 | All Maps | STV","players":null},{"server_id":396,"name":"Uncletopia | Sydney | 4 | All Maps","name_short":"syd-4","host":"syd-1.au.uncletopia.com","port":27045,"enabled":true,"region":"au","cc":"au","latitude":-33.865143,"longitude":151.2099,"reserved":0,"last_update":"0001-01-01T00:00:00Z","name_a2s":"Uncletopia | Sydney | 4 | All Maps","protocol":17,"map":"cp_sunshine","folder":"tf","game":"Team Fortress","app_id":440,"player_count":0,"max_players":24,"Bots":0,"server_type":"Dedicated","server_os":"Linux","password":true,"vac":true,"version":"7961495","steam_id":85568392925397958,"keywords":["cp","nocrits","nodmgspread","uncletopia"],"game_id":440,"stv_port":27046,"stv_name":"Uncletopia | Sydney | 4 | All Maps | STV","players":null},{"server_id":58,"name":"Uncletopia | Sydney | 5 | Stopwatch","name_short":"syd-5","host":"syd-1.au.uncletopia.com","port":27055,"enabled":true,"region":"au","cc":"au","latitude":-33.865143,"longitude":151.2099,"reserved":0,"last_update":"0001-01-01T00:00:00Z","name_a2s":"Uncletopia | Sydney | 5 | Stopwatch","protocol":17,"map":"pl_swiftwater_final1","folder":"tf","game":"Team Fortress","app_id":440,"player_count":0,"max_players":24,"Bots":0,"server_type":"Dedicated","server_os":"Linux","password":true,"vac":true,"version":"7961495","steam_id":85568392925397959,"keywords":["nocrits","nodmgspread","payload","uncletopia"],"game_id":440,"stv_port":27056,"stv_name":"Uncletopia | Sydney | 5 | Stopwatch | STV","players":null},{"server_id":59,"name":"Uncletopia | Sydney | 6 | Community","name_short":"syd-6","host":"syd-1.au.uncletopia.com","port":27065,"enabled":true,"region":"au","cc":"au","latitude":-33.865143,"longitude":151.2099,"reserved":0,"last_update":"0001-01-01T00:00:00Z","name_a2s":"Uncletopia | Sydney | 6 | Community","protocol":17,"map":"workshop/koth_trenchfoot_ab1.ugc731436616","folder":"tf","game":"Team Fortress","app_id":440,"player_count":0,"max_players":24,"Bots":0,"server_type":"Dedicated","server_os":"Linux","password":true,"vac":true,"version":"7961495","steam_id":85568392925397960,"keywords":["cp","nocrits","nodmgspread","uncletopia"],"game_id":440,"stv_port":27066,"stv_name":"Uncletopia | Sydney | 6 | Community | STV","players":null},{"server_id":49,"name":"Uncletopia | Warsaw | 1 | One Thousand Uncles","name_short":"waw-1","host":"waw-1.pl.uncletopia.com","port":27015,"enabled":true,"region":"eu","cc":"pl","latitude":52.2297,"longitude":21.017532,"reserved":0,"last_update":"0001-01-01T00:00:00Z","name_a2s":"Uncletopia | Warsaw | 1 | One Thousand Uncles","protocol":17,"map":"pl_badwater","folder":"tf","game":"Team Fortress","app_id":440,"player_count":27,"max_players":32,"Bots":16,"server_type":"Dedicated","server_os":"Linux","password":true,"vac":true,"version":"7961495","steam_id":85568392925397850,"keywords":["alltalk","bots","danepve","increased_maxplayers","norespawntime","payload","uncletopia"],"game_id":440,"stv_port":0,"stv_name":"","players":[{"user_id":591,"name":"padillacampos","steam_id":76561198161923970,"connected_time":1960000000000,"state":"active","ping":84},{"user_id":629,"name":"Kotlet schabowy","steam_id":76561198048983509,"connected_time":650000000000,"state":"active","ping":38},{"user_id":630,"name":"Riky95","steam_id":76561198095289436,"connected_time":573000000000,"state":"active","ping":59},{"user_id":617,"name":"Echo","steam_id":76561198044265873,"connected_time":1350000000000,"state":"active","ping":161},{"user_id":622,"name":"monke","steam_id":76561199095477435,"connected_time":1090000000000,"state":"active","ping":70},{"user_id":624,"name":"Vonk","steam_id":76561199080400526,"connected_time":941000000000,"state":"active","ping":107},{"user_id":584,"name":"Pootis engage gaming","steam_id":76561199107663205,"connected_time":2448000000000,"state":"active","ping":37},{"user_id":625,"name":"do you see Gustavo?","steam_id":76561198951268072,"connected_time":908000000000,"state":"active","ping":110},{"user_id":634,"name":"6C_X4","steam_id":76561198402191400,"connected_time":234000000000,"state":"active","ping":65},{"user_id":587,"name":"Supermanhandsy","steam_id":76561198396336470,"connected_time":2354000000000,"state":"active","ping":194},{"user_id":589,"name":"Village Gamer","steam_id":76561197973810581,"connected_time":2340000000000,"state":"active","ping":201}]},{"server_id":50,"name":"Uncletopia | Warsaw | 2 | One Thousand Uncles","name_short":"waw-2","host":"waw-1.pl.uncletopia.com","port":27025,"enabled":true,"region":"eu","cc":"pl","latitude":52.2297,"longitude":21.017532,"reserved":0,"last_update":"0001-01-01T00:00:00Z","name_a2s":"Uncletopia | Warsaw | 2 | One Thousand Uncles","protocol":17,"map":"pl_pier","folder":"tf","game":"Team Fortress","app_id":440,"player_count":27,"max_players":32,"Bots":16,"server_type":"Dedicated","server_os":"Linux","password":true,"vac":true,"version":"7961495","steam_id":85568392925397851,"keywords":["alltalk","bots","danepve","increased_maxplayers","norespawntime","payload","uncletopia"],"game_id":440,"stv_port":0,"stv_name":"","players":[{"user_id":699,"name":"Lavi","steam_id":76561198000911853,"connected_time":311000000000,"state":"active","ping":75},{"user_id":679,"name":"Mackerel","steam_id":76561197980088396,"connected_time":1563000000000,"state":"active","ping":75},{"user_id":622,"name":"Chemax","steam_id":76561198168846882,"connected_time":5489000000000,"state":"active","ping":104},{"user_id":610,"name":"MrHenry","steam_id":76561199249662743,"connected_time":6819000000000,"state":"active","ping":150},{"user_id":698,"name":"Sir Lancelot","steam_id":76561198049709392,"connected_time":319000000000,"state":"active","ping":89},{"user_id":611,"name":"aaaaaa","steam_id":76561198086304421,"connected_time":6814000000000,"state":"active","ping":89},{"user_id":684,"name":"Loo32","steam_id":76561199094568704,"connected_time":1304000000000,"state":"active","ping":66},{"user_id":700,"name":"Trash Compactor","steam_id":76561199383047989,"connected_time":268000000000,"state":"active","ping":165},{"user_id":648,"name":"m1nd_s3t","steam_id":76561199503364693,"connected_time":2681000000000,"state":"active","ping":59},{"user_id":577,"name":"Phisor","steam_id":76561198233450952,"connected_time":8248000000000,"state":"active","ping":66},{"user_id":696,"name":"Miksi","steam_id":76561199138567944,"connected_time":747000000000,"state":"active","ping":75}]},{"server_id":51,"name":"Uncletopia | Warsaw | 3 | All Maps","name_short":"waw-3","host":"waw-1.pl.uncletopia.com","port":27035,"enabled":true,"region":"eu","cc":"pl","latitude":52.2297,"longitude":21.017532,"reserved":0,"last_update":"0001-01-01T00:00:00Z","name_a2s":"Uncletopia | Warsaw | 3 | All Maps","protocol":17,"map":"koth_highpass","folder":"tf","game":"Team Fortress","app_id":440,"player_count":0,"max_players":24,"Bots":0,"server_type":"Dedicated","server_os":"Linux","password":true,"vac":true,"version":"7961495","steam_id":85568392925397852,"keywords":["cp","nocrits","nodmgspread","uncletopia"],"game_id":440,"stv_port":27036,"stv_name":"Uncletopia | Warsaw | 3 | All Maps | STV","players":null},{"server_id":52,"name":"Uncletopia | Warsaw | 4 | All Maps","name_short":"waw-4","host":"waw-1.pl.uncletopia.com","port":27045,"enabled":true,"region":"eu","cc":"pl","latitude":52.2297,"longitude":21.017532,"reserved":0,"last_update":"0001-01-01T00:00:00Z","name_a2s":"Uncletopia | Warsaw | 4 | All Maps","protocol":17,"map":"pl_barnblitz","folder":"tf","game":"Team Fortress","app_id":440,"player_count":21,"max_players":24,"Bots":0,"server_type":"Dedicated","server_os":"Linux","password":true,"vac":true,"version":"7961495","steam_id":85568392925397853,"keywords":["nocrits","nodmgspread","payload","uncletopia"],"game_id":440,"stv_port":27046,"stv_name":"Uncletopia | Warsaw | 4 | All Maps | STV","players":[{"user_id":299,"name":"Pucuj Sie","steam_id":76561198071679588,"connected_time":1419000000000,"state":"active","ping":38},{"user_id":295,"name":"Assaulter","steam_id":76561199360918034,"connected_time":1517000000000,"state":"active","ping":118},{"user_id":326,"name":"2020_land_rover_defender","steam_id":76561199230160952,"connected_time":776000000000,"state":"active","ping":81},{"user_id":305,"name":"Seliush","steam_id":76561198313583650,"connected_time":1293000000000,"state":"active","ping":38},{"user_id":313,"name":"GrumpyGrey","steam_id":76561199504695656,"connected_time":1170000000000,"state":"active","ping":60},{"user_id":327,"name":"Proud Owner of a Sittable Face","steam_id":76561198060735383,"connected_time":728000000000,"state":"active","ping":87},{"user_id":321,"name":"Astrya","steam_id":76561198091242337,"connected_time":1068000000000,"state":"active","ping":64},{"user_id":317,"name":"sex","steam_id":76561198321629483,"connected_time":1125000000000,"state":"active","ping":47},{"user_id":267,"name":"Berghopper","steam_id":76561198062599535,"connected_time":2532000000000,"state":"active","ping":74},{"user_id":331,"name":"debil boywife","steam_id":76561198160047415,"connected_time":481000000000,"state":"active","ping":51},{"user_id":269,"name":"sAmasam","steam_id":76561198114953928,"connected_time":2490000000000,"state":"active","ping":75},{"user_id":270,"name":"Atiicusser","steam_id":76561199228378875,"connected_time":2471000000000,"state":"active","ping":64},{"user_id":292,"name":"Arche","steam_id":76561198000866089,"connected_time":1566000000000,"state":"active","ping":75},{"user_id":333,"name":"[SQ UA] MartianDill","steam_id":76561198405382822,"connected_time":368000000000,"state":"active","ping":45},{"user_id":329,"name":"alice","steam_id":76561198269200388,"connected_time":629000000000,"state":"active","ping":50},{"user_id":332,"name":"warforge3","steam_id":76561199276024310,"connected_time":390000000000,"state":"active","ping":63},{"user_id":310,"name":"Evil Morty","steam_id":76561198065506317,"connected_time":1231000000000,"state":"active","ping":55},{"user_id":311,"name":"monikka","steam_id":76561198297003397,"connected_time":1222000000000,"state":"active","ping":89},{"user_id":293,"name":"FatAstro","steam_id":76561199162964034,"connected_time":1546000000000,"state":"active","ping":69},{"user_id":294,"name":"Wacht","steam_id":76561199033018467,"connected_time":1531000000000,"state":"active","ping":56},{"user_id":322,"name":"\"LS\"bulleloup5 [FR]","steam_id":76561198882411373,"connected_time":1023000000000,"state":"active","ping":71}]},{"server_id":53,"name":"Uncletopia | Warsaw | 5 | Stopwatch","name_short":"waw-5","host":"waw-1.pl.uncletopia.com","port":27055,"enabled":true,"region":"eu","cc":"pl","latitude":52.2297,"longitude":21.017532,"reserved":0,"last_update":"0001-01-01T00:00:00Z","name_a2s":"Uncletopia | Warsaw | 5 | Stopwatch","protocol":17,"map":"workshop/koth_clearcut_b15.ugc2107050255","folder":"tf","game":"Team Fortress","app_id":440,"player_count":0,"max_players":24,"Bots":0,"server_type":"Dedicated","server_os":"Linux","password":true,"vac":true,"version":"7961495","steam_id":85568392925397854,"keywords":["cp","nocrits","nodmgspread","uncletopia"],"game_id":440,"stv_port":27056,"stv_name":"Uncletopia | Warsaw | 5 | Stopwatch | STV","players":null},{"server_id":54,"name":"Uncletopia | Warsaw | 6 | Community","name_short":"waw-6","host":"waw-1.pl.uncletopia.com","port":27065,"enabled":true,"region":"eu","cc":"pl","latitude":52.2297,"longitude":21.017532,"reserved":0,"last_update":"0001-01-01T00:00:00Z","name_a2s":"Uncletopia | Warsaw | 6 | Community","protocol":17,"map":"workshop/cp_coilblaze_rc7.ugc1272700588","folder":"tf","game":"Team Fortress","app_id":440,"player_count":0,"max_players":24,"Bots":0,"server_type":"Dedicated","server_os":"Linux","password":true,"vac":true,"version":"7961495","steam_id":85568392925397856,"keywords":["cp","nocrits","nodmgspread","uncletopia"],"game_id":440,"stv_port":27066,"stv_name":"Uncletopia | Warsaw | 6 | Community | STV","players":null}]}