{"status":true,"message":"","result":[{"server_id":2,"name":"Uncletopia | Chicago | 1 | All Maps","name_short":"chi-1","host":"chi-1.us.uncletopia.com","port":27015,"enabled":true,"region":"us-central","cc":"us","latitude":41.881832,"longitude":-87.62318,"reserved":0,"last_update":"0001-01-01T00:00:00Z","name_a2s":"Uncletopia | Chicago | 1 | All Maps","protocol":17,"map":"pl_badwater","folder":"tf","game":"Team Fortress","app_id":440,"player_count":0,"max_players":24,"Bots":0,"server_type":"Dedicated","server_os":"Linux","password":true,"vac":true,"version":"7961495","steam_id":85568392924469984,"keywords":["nocrits","nodmgspread","payload","uncletopia"],"game_id":440,"stv_port":27016,"stv_name":"Uncletopia | Chicago | 1 | All Maps | STV","players":null},{"server_id":106,"name":"Uncletopia | Chicago | 2 | All Maps","name_short":"chi-2","host":"chi-1.us.uncletopia.com","port":27025,"enabled":true,"region":"us-central","cc":"us","latitude":41.881832,"longitude":-87.62318,"reserved":0,"last_update":"0001-01-01T00:00:00Z","name_a2s":"Uncletopia | Chicago | 2 | All Maps","protocol":17,"map":"koth_highpass","folder":"tf","game":"Team Fortress","app_id":440,"player_count":0,"max_players":24,"Bots":0,"server_type":"Dedicated","server_os":"Linux","password":true,"vac":true,"version":"7961495","steam_id":85568392924469985,"keywords":["cp","nocrits","nodmgspread","uncletopia"],"game_id":440,"stv_port":27026,"stv_name":"Uncletopia | Chicago | 2 | All Maps | STV","players":null},{"server_id":402,"name":"Uncletopia | Chicago | 3 | All Maps","name_short":"chi-3","host":"chi-1.us.uncletopia.com","port":27035,"enabled":true,"region":"us-central","cc":"us","latitude":41.881832,"longitude":-87.62318,"reserved":0,"last_update":"0001-01-01T00:00:00Z","name_a2s":"Uncletopia | Chicago | 3 | All Maps","protocol":17,"map":"koth_cascade","folder":"tf","game":"Team Fortress","app_id":440,"player_count":0,"max_players":24,"Bots":0,"server_type":"Dedicated","server_os":"Linux","password":true,"vac":true,"version":"7961495","steam_id":85568392924515191,"keywords":["cp","nocrits","nodmgspread","uncletopia"],"game_id":440,"stv_port":27036,"stv_name":"Uncletopia | Chicago | 3 | All Maps | STV","players":null},{"server_id":403,"name":"Uncletopia | Chicago | 4 | All Maps","name_short":"chi-4","host":"chi-1.us.uncletopia.com","port":27045,"enabled":true,"region":"us-central","cc":"us","latitude":41.881832,"longitude":-87.62318,"reserved":0,"last_update":"0001-01-01T00:00:00Z","name_a2s":"Uncletopia | Chicago | 4 | All Maps","protocol":17,"map":"pl_swiftwater_final1","folder":"tf","game":"Team Fortress","app_id":440,"player_count":24,"max_players":24,"Bots":0,"server_type":"Dedicated","server_os":"Linux","password":true,"vac":true,"version":"7961495","steam_id":85568392924515193,"keywords":["nocrits","nodmgspread","payload","uncletopia"],"game_id":440,"stv_port":27046,"stv_name":"Uncletopia | Chicago | 4 | All Maps | STV","players":[{"user_id":475,"name":"Zenyaru","steam_id":76561199128779995,"connected_time":1002000000000,"state":"active","ping":97},{"user_id":427,"name":"King of Ping","steam_id":76561198278737470,"connected_time":3557000000000,"state":"active","ping":69},{"user_id":476,"name":"Dunkin' Ponuts","steam_id":76561198082382465,"connected_time":938000000000,"state":"active","ping":71},{"user_id":484,"name":"decimalist","steam_id":76561198271751596,"connected_time":614000000000,"state":"active","ping":39},{"user_id":477,"name":"Coinclever","steam_id":76561198099972692,"connected_time":841000000000,"state":"active","ping":56},{"user_id":472,"name":"Mozz","steam_id":76561198132892873,"connected_time":1382000000000,"state":"active","ping":115},{"user_id":431,"name":"Yummy Kabobz","steam_id":76561198067661705,"connected_time":3385000000000,"state":"active","ping":71},{"user_id":466,"name":"Spidoo","steam_id":76561198239746894,"connected_time":2071000000000,"state":"active","ping":45},{"user_id":489,"name":"Let ε \u003e 0","steam_id":76561198111790388,"connected_time":126000000000,"state":"active","ping":92},{"user_id":478,"name":"sciencenerd42","steam_id":76561198274563320,"connected_time":821000000000,"state":"active","ping":55},{"user_id":479,"name":"PBxJAY","steam_id":76561198402471788,"connected_time":817000000000,"state":"active","ping":130},{"user_id":464,"name":"zodgodcod (fishing)","steam_id":76561198071374501,"connected_time":2142000000000,"state":"active","ping":63},{"user_id":480,"name":"Nidon","steam_id":76561199005871202,"connected_time":748000000000,"state":"active","ping":136},{"user_id":481,"name":"nerfthemedium","steam_id":76561198179833102,"connected_time":733000000000,"state":"active","ping":107},{"user_id":436,"name":"Sliferjam","steam_id":76561197998850076,"connected_time":3287000000000,"state":"active","ping":68},{"user_id":457,"name":"BeansMan","steam_id":76561198349672838,"connected_time":2578000000000,"state":"active","ping":157},{"user_id":482,"name":"Sparky","steam_id":76561198114574421,"connected_time":701000000000,"state":"active","ping":74},{"user_id":483,"name":"Viren","steam_id":76561198012636897,"connected_time":686000000000,"state":"active","ping":74},{"user_id":485,"name":"Ghost","steam_id":76561198110914180,"connected_time":512000000000,"state":"active","ping":181},{"user_id":425,"name":"Heartless Ol' Me","steam_id":76561198801153303,"connected_time":3822000000000,"state":"active","ping":67},{"user_id":486,"name":"first of all, I am Vegeta","steam_id":76561198399383132,"connected_time":457000000000,"state":"active","ping":54},{"user_id":487,"name":"Tabris","steam_id":76561198123608690,"connected_time":389000000000,"state":"active","ping":66},{"user_id":460,"name":"DSM-IVCE","steam_id":76561199438515797,"connected_time":2292000000000,"state":"active","ping":125},{"user_id":470,"name":"eevee","steam_id":76561198447072392,"connected_time":1544000000000,"state":"active","ping":189}]},{"server_id":36,"name":"Uncletopia | Chicago | 5 | All Maps","name_short":"chi-5","host":"chi-2.us.uncletopia.com","port":27015,"enabled":true,"region":"us-central","cc":"us","latitude":41.881832,"longitude":-87.62318,"reserved":0,"last_update":"0001-01-01T00:00:00Z","name_a2s":"Uncletopia | Chicago | 5 | All Maps","protocol":17,"map":"pl_snowycoast","folder":"tf","game":"Team Fortress","app_id":440,"player_count":0,"max_players":24,"Bots":0,"server_type":"Dedicated","server_os":"Linux","password":true,"vac":true,"version":"7961495","steam_id":85568392924866362,"keywords":["nocrits","nodmgspread","payload","uncletopia"],"game_id":440,"stv_port":27016,"stv_name":"Uncletopia | Chicago | 5 | All Maps | STV","players":null},{"server_id":37,"name":"Uncletopia | Chicago | 6 | All Maps","name_short":"chi-6","host":"chi-2.us.uncletopia.com","port":27025,"enabled":true,"region":"us-central","cc":"us","latitude":41.881832,"longitude":-87.62318,"reserved":0,"last_update":"0001-01-01T00:00:00Z","name_a2s":"Uncletopia | Chicago | 6 | All Maps","protocol":17,"map":"pl_upward","folder":"tf","game":"Team Fortress","app_id":440,"player_count":24,"max_players":24,"Bots":0,"server_type":"Dedicated","server_os":"Linux","password":true,"vac":true,"version":"7961495","steam_id":85568392924866363,"keywords":["nocrits","nodmgspread","payload","uncletopia"],"game_id":440,"stv_port":27026,"stv_name":"Uncletopia | Chicago | 6 | All Maps | STV","players":[{"user_id":350,"name":"d","steam_id":76561198066114874,"connected_time":635000000000,"state":"active","ping":102},{"user_id":341,"name":"lazyhead","steam_id":76561198044358804,"connected_time":1689000000000,"state":"active","ping":51},{"user_id":335,"name":"Stranger in a Strange Land","steam_id":76561198049843671,"connected_time":1816000000000,"state":"active","ping":61},{"user_id":278,"name":"Nrub","steam_id":76561199486344810,"connected_time":6356000000000,"state":"active","ping":67},{"user_id":312,"name":"larguu","steam_id":76561197994336210,"connected_time":4163000000000,"state":"active","ping":45},{"user_id":352,"name":"MenacingMelon","steam_id":76561198065045961,"connected_time":84000000000,"state":"active","ping":78},{"user_id":325,"name":"sagejay","steam_id":76561198118149530,"connected_time":2750000000000,"state":"active","ping":60},{"user_id":345,"name":"sqnguine","steam_id":76561199481839224,"connected_time":825000000000,"state":"active","ping":117},{"user_id":344,"name":"Rookie","steam_id":76561198191763447,"connected_time":1056000000000,"state":"active","ping":63},{"user_id":349,"name":"DALKurumiTokisaki","steam_id":76561198872867732,"connected_time":714000000000,"state":"active","ping":106},{"user_id":307,"name":"CatThulhu","steam_id":76561198211620004,"connected_time":4449000000000,"state":"active","ping":118},{"user_id":323,"name":"SomeFatPoptart","steam_id":76561198085433807,"connected_time":3036000000000,"state":"active","ping":75},{"user_id":330,"name":"małię","steam_id":76561198337705174,"connected_time":2399000000000,"state":"active","ping":71},{"user_id":324,"name":"seanisgone","steam_id":76561198170186101,"connected_time":3031000000000,"state":"active","ping":165},{"user_id":338,"name":"DoomsdaySnail","steam_id":76561198131444200,"connected_time":1809000000000,"state":"active","ping":68},{"user_id":346,"name":"Engwyrn","steam_id":76561198131833567,"connected_time":819000000000,"state":"active","ping":118},{"user_id":326,"name":"ktaeoh -fg","steam_id":76561198300888156,"connected_time":2737000000000,"state":"active","ping":94},{"user_id":269,"name":"Girl gamer","steam_id":76561198237827742,"connected_time":7065000000000,"state":"active","ping":62},{"user_id":277,"name":"Yongle","steam_id":76561198068591156,"connected_time":6441000000000,"state":"active","ping":58},{"user_id":347,"name":"ビーナー","steam_id":76561199196918355,"connected_time":818000000000,"state":"active","ping":55},{"user_id":319,"name":"bobbymcbobington","steam_id":76561199089411172,"connected_time":3417000000000,"state":"active","ping":114},{"user_id":348,"name":"tim grease","steam_id":76561198041863231,"connected_time":792000000000,"state":"active","ping":122},{"user_id":339,"name":"Sunchouse","steam_id":76561198453479806,"connected_time":1805000000000,"state":"active","ping":169},{"user_id":340,"name":"Geore","steam_id":76561198348274875,"connected_time":1792000000000,"state":"active","ping":61}]},{"server_id":38,"name":"Uncletopia | Chicago | 7 | Stopwatch Beta","name_short":"chi-7","host":"chi-2.us.uncletopia.com","port":27035,"enabled":true,"region":"us-central","cc":"us","latitude":41.881832,"longitude":-87.62318,"reserved":0,"last_update":"0001-01-01T00:00:00Z","name_a2s":"Uncletopia | Chicago | 7 | Stopwatch Beta","protocol":17,"map":"pl_borneo","folder":"tf","game":"Team Fortress","app_id":440,"player_count":0,"max_players":24,"Bots":0,"server_type":"Dedicated","server_os":"Linux","password":true,"vac":true,"version":"7961495","steam_id":85568392924866364,"keywords":["nocrits","nodmgspread","payload","uncletopia"],"game_id":440,"stv_port":27036,"stv_name":"Uncletopia | Chicago | 7 | Stopwatch Beta | STV","players":null},{"server_id":39,"name":"Uncletopia | Chicago | 8 | Community","name_short":"chi-8","host":"chi-2.us.uncletopia.com","port":27045,"enabled":true,"region":"us-central","cc":"us","latitude":41.881832,"longitude":-87.62318,"reserved":0,"last_update":"0001-01-01T00:00:00Z","name_a2s":"Uncletopia | Chicago | 8 | Community","protocol":17,"map":"workshop/koth_product_final.ugc454272353","folder":"tf","game":"Team Fortress","app_id":440,"player_count":0,"max_players":24,"Bots":0,"server_type":"Dedicated","server_os":"Linux","password":true,"vac":true,"version":"7961495","steam_id":85568392924866365,"keywords":["cp","nocrits","nodmgspread","uncletopia"],"game_id":440,"stv_port":27046,"stv_name":"Uncletopia | Chicago | 8 | Community | STV","players":null},{"server_id":8,"name":"Uncletopia | Dallas | 1 | All Maps","name_short":"dal-1","host":"dal-1.us.uncletopia.com","port":27015,"enabled":true,"region":"us-central","cc":"us","latitude":32.779167,"longitude":-96.80889,"reserved":0,"last_update":"0001-01-01T00:00:00Z","name_a2s":"Uncletopia | Dallas | 1 | All Maps","protocol":17,"map":"pl_barnblitz","folder":"tf","game":"Team Fortress","app_id":440,"player_count":24,"max_players":24,"Bots":0,"server_type":"Dedicated","server_os":"Linux","password":true,"vac":true,"version":"7961495","steam_id":85568392924469986,"keywords":["nocrits","nodmgspread","payload","uncletopia"],"game_id":440,"stv_port":27016,"stv_name":"Uncletopia | Dallas | 1 | All Maps | STV","players":[{"user_id":481,"name":"Koffy","steam_id":76561198184386039,"connected_time":164000000000,"state":"active","ping":93},{"user_id":482,"name":"teratoma","steam_id":76561198179249054,"connected_time":52000000000,"state":"active","ping":80},{"user_id":453,"name":"Lucil3 on Bandcamp","steam_id":76561198149063013,"connected_time":2281000000000,"state":"active","ping":58},{"user_id":433,"name":"ChaoticAngel","steam_id":76561198293528217,"connected_time":3528000000000,"state":"active","ping":76},{"user_id":429,"name":"crumblejon","steam_id":76561198111273302,"connected_time":3966000000000,"state":"active","ping":68},{"user_id":462,"name":"vulcan nightclub pon farr night","steam_id":76561197974283797,"connected_time":1818000000000,"state":"active","ping":71},{"user_id":472,"name":"M4 Sherman","steam_id":76561198011096132,"connected_time":1012000000000,"state":"active","ping":89},{"user_id":479,"name":"Forever Sushi","steam_id":76561198073739851,"connected_time":286000000000,"state":"active","ping":95},{"user_id":456,"name":"I can't pocket mountain*✩‧\ufffd","steam_id":76561198048925904,"connected_time":2204000000000,"state":"active","ping":86},{"user_id":422,"name":"AvapXia","steam_id":76561198147476096,"connected_time":4773000000000,"state":"active","ping":110},{"user_id":477,"name":"Oh No! It's Twister!","steam_id":76561198016791916,"connected_time":905000000000,"state":"active","ping":142},{"user_id":463,"name":"dare","steam_id":76561197960977496,"connected_time":1802000000000,"state":"active","ping":90},{"user_id":473,"name":"Rubeb","steam_id":76561198179489037,"connected_time":1005000000000,"state":"active","ping":77},{"user_id":478,"name":"Rikuus","steam_id":76561198093799835,"connected_time":635000000000,"state":"active","ping":102},{"user_id":464,"name":"QBR","steam_id":76561198088024854,"connected_time":1794000000000,"state":"active","ping":60},{"user_id":465,"name":"Faraday","steam_id":76561198089928357,"connected_time":1787000000000,"state":"active","ping":58},{"user_id":466,"name":"la fleur","steam_id":76561198277979851,"connected_time":1734000000000,"state":"active","ping":87},{"user_id":471,"name":"Kenku","steam_id":76561199086762926,"connected_time":1164000000000,"state":"active","ping":67},{"user_id":476,"name":"shitass | troutsupply.net","steam_id":76561198210572481,"connected_time":981000000000,"state":"active","ping":59},{"user_id":468,"name":"mountain*✩‧₊˚","steam_id":76561198078395002,"connected_time":1650000000000,"state":"active","ping":83},{"user_id":480,"name":"CoconutCarl1098","steam_id":76561198091878251,"connected_time":243000000000,"state":"active","ping":71},{"user_id":469,"name":"seepy","steam_id":76561198057884377,"connected_time":1644000000000,"state":"active","ping":68},{"user_id":440,"name":"brian eno","steam_id":76561198109901138,"connected_time":3289000000000,"state":"active","ping":102},{"user_id":470,"name":"TwinkCock","steam_id":76561198867798847,"connected_time":1640000000000,"state":"active","ping":76}]},{"server_id":108,"name":"Uncletopia | Dallas | 2 | All Maps","name_short":"dal-2","host":"dal-1.us.uncletopia.com","port":27025,"enabled":true,"region":"us-central","cc":"us","latitude":32.779167,"longitude":-96.80889,"reserved":0,"last_update":"0001-01-01T00:00:00Z","name_a2s":"Uncletopia | Dallas | 2 | All Maps","protocol":17,"map":"pl_barnblitz","folder":"tf","game":"Team Fortress","app_id":440,"player_count":24,"max_players":24,"Bots":0,"server_type":"Dedicated","server_os":"Linux","password":true,"vac":true,"version":"7961495","steam_id":85568392924469988,"keywords":["nocrits","nodmgspread","payload","uncletopia"],"game_id":440,"stv_port":27026,"stv_name":"Uncletopia | Dallas | 2 | All Maps | STV","players":[{"user_id":428,"name":"JJ","steam_id":76561199200296010,"connected_time":2274000000000,"state":"active","ping":68},{"user_id":420,"name":"robo gushy","steam_id":76561198060334743,"connected_time":4338000000000,"state":"active","ping":74},{"user_id":424,"name":"sergeant Adderall","steam_id":76561199010296481,"connected_time":2977000000000,"state":"active","ping":92},{"user_id":429,"name":"Miro","steam_id":76561198936412406,"connected_time":2031000000000,"state":"active","ping":80},{"user_id":443,"name":"Captian Wobbs","steam_id":76561198142884936,"connected_time":622000000000,"state":"active","ping":59},{"user_id":417,"name":"Wiffle","steam_id":76561198251951402,"connected_time":4578000000000,"state":"active","ping":106},{"user_id":399,"name":"Smug","steam_id":76561198448205229,"connected_time":5741000000000,"state":"active","ping":74},{"user_id":434,"name":"Goldan Bullett","steam_id":76561198143757627,"connected_time":1405000000000,"state":"active","ping":80},{"user_id":418,"name":"basilberry","steam_id":76561198145275937,"connected_time":4377000000000,"state":"active","ping":64},{"user_id":422,"name":"Lollichop Purchaser","steam_id":76561198168463508,"connected_time":4197000000000,"state":"active","ping":87},{"user_id":430,"name":"Just Dez","steam_id":76561199327664719,"connected_time":2030000000000,"state":"active","ping":125},{"user_id":431,"name":"NexFrost","steam_id":76561197985774837,"connected_time":2013000000000,"state":"active","ping":43},{"user_id":442,"name":"D","steam_id":76561198292908619,"connected_time":702000000000,"state":"active","ping":100},{"user_id":356,"name":"banan team fortes","steam_id":76561199073621650,"connected_time":8425000000000,"state":"active","ping":84},{"user_id":435,"name":"BillyWithaT","steam_id":76561199427729136,"connected_time":1259000000000,"state":"active","ping":148},{"user_id":449,"name":"zapato","steam_id":76561198142278437,"connected_time":273000000000,"state":"active","ping":103},{"user_id":437,"name":"PocketTieAMPLFY","steam_id":76561199080485881,"connected_time":1077000000000,"state":"active","ping":117},{"user_id":438,"name":"❤[S'more]❤","steam_id":76561198817361963,"connected_time":1055000000000,"state":"active","ping":108},{"user_id":441,"name":"goopgrabber","steam_id":76561199029951083,"connected_time":864000000000,"state":"active","ping":89},{"user_id":444,"name":"trash beast","steam_id":76561198015792736,"connected_time":593000000000,"state":"active","ping":75},{"user_id":445,"name":"♡RiTz♡","steam_id":76561199014354305,"connected_time":417000000000,"state":"active","ping":58},{"user_id":446,"name":"C^a^L","steam_id":76561198241124222,"connected_time":393000000000,"state":"active","ping":90},{"user_id":447,"name":"uhoh","steam_id":76561198136967934,"connected_time":329000000000,"state":"active","ping":104},{"user_id":450,"name":"-BRH- Tangled up in Bluegrass","steam_id":76561197987181139,"connected_time":194000000000,"state":"active","ping":82}]},{"server_id":5,"name":"Uncletopia | Frankfurt | 1 | All Maps","name_short":"frk-1","host":"frk-1.de.uncletopia.com","port":27015,"enabled":true,"region":"eu","cc":"de","latitude":50.110924,"longitude":8.682127,"reserved":0,"last_update":"0001-01-01T00:00:00Z","name_a2s":"Uncletopia | Frankfurt | 1 | All Maps","protocol":17,"map":"cp_altitude","folder":"tf","game":"Team Fortress","app_id":440,"player_count":0,"max_players":24,"Bots":0,"server_type":"Dedicated","server_os":"Linux","password":true,"vac":true,"version":"7961495","steam_id":85568392924469989,"keywords":["cp","nocrits","nodmgspread","uncletopia"],"game_id":440,"stv_port":27016,"stv_name":"Uncletopia | Frankfurt | 1 | All Maps | STV","players":null},{"server_id":110,"name":"Uncletopia | Frankfurt | 2 | All Maps","name_short":"frk-2","host":"frk-1.de.uncletopia.com","port":27025,"enabled":true,"region":"eu","cc":"de","latitude":50.110924,"longitude":8.682127,"reserved":0,"last_update":"0001-01-01T00:00:00Z","name_a2s":"Uncletopia | Frankfurt | 2 | All Maps","protocol":17,"map":"pl_upward","folder":"tf","game":"Team Fortress","app_id":440,"player_count":4,"max_players":24,"Bots":0,"server_type":"Dedicated","server_os":"Linux","password":true,"vac":true,"version":"7961495","steam_id":85568392924469990,"keywords":["nocrits","nodmgspread","payload","uncletopia"],"game_id":440,"stv_port":27026,"stv_name":"Uncletopia | Frankfurt | 2 | All Maps | STV","players":[{"user_id":8,"name":"meat man","steam_id":76561199135835032,"connected_time":464000000000,"state":"active","ping":90},{"user_id":9,"name":"Mario Moretti [BR]","steam_id":76561198179299606,"connected_time":180000000000,"state":"active","ping":92},{"user_id":7,"name":"Faxter","steam_id":76561198011771605,"connected_time":614000000000,"state":"active","ping":59},{"user_id":6,"name":"Tonyplays25","steam_id":76561199362556929,"connected_time":719000000000,"state":"active","ping":114}]},{"server_id":308,"name":"Uncletopia | Frankfurt | 3 | All Maps","name_short":"frk-3","host":"frk-1.de.uncletopia.com","port":27035,"enabled":true,"region":"eu","cc":"de","latitude":50.110924,"longitude":8.682127,"reserved":0,"last_update":"0001-01-01T00:00:00Z","name_a2s":"Uncletopia | Frankfurt | 3 | All Maps","protocol":17,"map":"cp_mountainlab","folder":"tf","game":"Team Fortress","app_id":440,"player_count":0,"max_players":24,"Bots":0,"server_type":"Dedicated","server_os":"Linux","password":true,"vac":true,"version":"7961495","steam_id":85568392924504274,"keywords":["cp","nocrits","nodmgspread","uncletopia"],"game_id":440,"stv_port":27036,"stv_name":"Uncletopia | Frankfurt | 3 | All Maps | STV","players":null},{"server_id":309,"name":"Uncletopia | Frankfurt | 4 | All Maps","name_short":"frk-4","host":"frk-1.de.uncletopia.com","port":27045,"enabled":true,"region":"eu","cc":"de","latitude":50.110924,"longitude":8.682127,"reserved":0,"last_update":"0001-01-01T00:00:00Z","name_a2s":"Uncletopia | Frankfurt | 4 | All Maps","protocol":17,"map":"cp_process_final","folder":"tf","game":"Team Fortress","app_id":440,"player_count":0,"max_players":24,"Bots":0,"server_type":"Dedicated","server_os":"Linux","password":true,"vac":true,"version":"7961495","steam_id":85568392924504275,"keywords":["cp","nocrits","nodmgspread","uncletopia"],"game_id":440,"stv_port":27046,"stv_name":"Uncletopia | Frankfurt | 4 | All Maps | STV","players":null},{"server_id":310,"name":"Uncletopia | Frankfurt | 5 | All Maps","name_short":"frk-5","host":"frk-1.de.uncletopia.com","port":27055,"enabled":true,"region":"eu","cc":"de","latitude":50.110924,"longitude":8.682127,"reserved":0,"last_update":"0001-01-01T00:00:00Z","name_a2s":"Uncletopia | Frankfurt | 5 | All Maps","protocol":17,"map":"koth_viaduct","folder":"tf","game":"Team Fortress","app_id":440,"player_count":0,"max_players":24,"Bots":0,"server_type":"Dedicated","server_os":"Linux","password":true,"vac":true,"version":"7961495","steam_id":85568392924504277,"keywords":["cp","nocrits","nodmgspread","uncletopia"],"game_id":440,"stv_port":27056,"stv_name":"Uncletopia | Frankfurt | 5 | All Maps | STV","players":null},{"server_id":311,"name":"Uncletopia | Frankfurt | 6 | All Maps","name_short":"frk-6","host":"frk-1.de.uncletopia.com","port":27065,"enabled":true,"region":"eu","cc":"de","latitude":50.110924,"longitude":8.682127,"reserved":0,"last_update":"0001-01-01T00:00:00Z","name_a2s":"Uncletopia | Frankfurt | 6 | All Maps","protocol":17,"map":"pl_pier","folder":"tf","game":"Team Fortress","app_id":440,"player_count":0,"max_players":24,"Bots":0,"server_type":"Dedicated","server_os":"Linux","password":true,"vac":true,"version":"7961495","steam_id":85568392924504278,"keywords":["nocrits","nodmgspread","payload","uncletopia"],"game_id":440,"stv_port":27066,"stv_name":"Uncletopia | Frankfurt | 6 | All Maps | STV","players":null},{"server_id":23,"name":"Uncletopia | Frankfurt | 7 | Stopwatch Beta","name_short":"frk-7","host":"frk-1.de.uncletopia.com","port":27075,"enabled":true,"region":"eu","cc":"de","latitude":50.110924,"longitude":8.682127,"reserved":0,"last_update":"0001-01-01T00:00:00Z","name_a2s":"Uncletopia | Frankfurt | 7 | Stopwatch Beta","protocol":17,"map":"koth_cascade","folder":"tf","game":"Team Fortress","app_id":440,"player_count":0,"max_players":24,"Bots":0,"server_type":"Dedicated","server_os":"Linux","password":true,"vac":true,"version":"7961495","steam_id":85568392924742827,"keywords":["cp","nocrits","nodmgspread","uncletopia"],"game_id":440,"stv_port":27076,"stv_name":"Uncletopia | Frankfurt | 7 | Stopwatch Beta | STV","players":null},{"server_id":24,"name":"Uncletopia | Frankfurt | 8 | Community","name_short":"frk-8","host":"frk-1.de.uncletopia.com","port":27085,"enabled":true,"region":"eu","cc":"de","latitude":50.110924,"longitude":8.682127,"reserved":0,"last_update":"0001-01-01T00:00:00Z","name_a2s":"Uncletopia | Frankfurt | 8 | Community","protocol":17,"map":"cp_process_final","folder":"tf","game":"Team Fortress","app_id":440,"player_count":0,"max_players":24,"Bots":0,"server_type":"Dedicated","server_os":"Linux","password":true,"vac":true,"version":"7961495","steam_id":85568392924742828,"keywords":["cp","nocrits","nodmgspread","uncletopia"],"game_id":440,"stv_port":27086,"stv_name":"Uncletopia | Frankfurt | 8 | Community | STV","players":null},{"server_id":202,"name":"Uncletopia | Hong Kong | 1 | All Maps","name_short":"hgk-1","host":"hgk-1.hk.uncletopia.com","port":27015,"enabled":true,"region":"asia","cc":"hk","latitude":22.302711,"longitude":114.177216,"reserved":0,"last_update":"0001-01-01T00:00:00Z","name_a2s":"Uncletopia | Hong Kong | 1 | All Maps","protocol":17,"map":"koth_viaduct","folder":"tf","game":"Team Fortress","app_id":440,"player_count":24,"max_players":24,"Bots":0,"server_type":"Dedicated","server_os":"Linux","password":true,"vac":true,"version":"7961495","steam_id":85568392924494504,"keywords":["cp","nocrits","nodmgspread","uncletopia"],"game_id":440,"stv_port":27016,"stv_name":"Uncletopia | Hong Kong | 1 | All Maps | STV","players":[{"user_id":23,"name":"TomProPlayer","steam_id":76561199223292521,"connected_time":4223000000000,"state":"active","ping":66},{"user_id":70,"name":"doctor morbin' (official)","steam_id":76561199365241695,"connected_time":348000000000,"state":"active","ping":74},{"user_id":62,"name":"VHS RETRO PORN","steam_id":76561198398974396,"connected_time":692000000000,"state":"active","ping":143},{"user_id":34,"name":"Green","steam_id":76561198391718463,"connected_time":2458000000000,"state":"active","ping":58},{"user_id":76,"name":"let him cook","steam_id":76561199219484527,"connected_time":68000000000,"state":"active","ping":123},{"user_id":29,"name":"Longst01","steam_id":76561199170105562,"connected_time":3230000000000,"state":"active","ping":56},{"user_id":47,"name":"h","steam_id":76561199093572590,"connected_time":1677000000000,"state":"active","ping":50},{"user_id":38,"name":"Streety","steam_id":76561199098969003,"connected_time":2213000000000,"state":"active","ping":80},{"user_id":61,"name":"1una","steam_id":76561198053008424,"connected_time":849000000000,"state":"active","ping":60},{"user_id":40,"name":"PotatoHead369","steam_id":76561199116622862,"connected_time":2058000000000,"state":"active","ping":77},{"user_id":63,"name":"Morningstar_","steam_id":76561198065756804,"connected_time":653000000000,"state":"active","ping":76},{"user_id":43,"name":"Ranogys","steam_id":76561198418646937,"connected_time":1816000000000,"state":"active","ping":104},{"user_id":48,"name":"NotKomori","steam_id":76561198845165975,"connected_time":1574000000000,"state":"active","ping":131},{"user_id":54,"name":"我是饭田的口袋医生QWQ","steam_id":76561199477709437,"connected_time":1350000000000,"state":"active","ping":95},{"user_id":50,"name":"Wx","steam_id":76561199217780897,"connected_time":1475000000000,"state":"active","ping":114},{"user_id":64,"name":"jim","steam_id":76561198200846829,"connected_time":602000000000,"state":"active","ping":118},{"user_id":65,"name":"_ViVo (F2P)","steam_id":76561198421730005,"connected_time":570000000000,"state":"active","ping":68},{"user_id":58,"name":"Dokutah, Husband of W","steam_id":76561199273390091,"connected_time":1302000000000,"state":"active","ping":72},{"user_id":66,"name":"obama boss fight simulator 3D","steam_id":76561199209331489,"connected_time":570000000000,"state":"active","ping":102},{"user_id":67,"name":"Sugarcoating","steam_id":76561199230196794,"connected_time":559000000000,"state":"active","ping":119},{"user_id":75,"name":"walid","steam_id":76561198395530753,"connected_time":112000000000,"state":"active","ping":143},{"user_id":71,"name":"Vesha","steam_id":76561199208233146,"connected_time":344000000000,"state":"active","ping":126},{"user_id":72,"name":"Sizrayn","steam_id":76561198438091233,"connected_time":277000000000,"state":"active","ping":72},{"user_id":73,"name":"monkeyman536","steam_id":76561197997717737,"connected_time":201000000000,"state":"active","ping":130}]},{"server_id":1,"name":"Uncletopia | Los Angeles | 1 | All Maps","name_short":"lax-1","host":"lax-1.us.uncletopia.com","port":27015,"enabled":true,"region":"us-west","cc":"us","latitude":33.94279,"longitude":-118.41004,"reserved":0,"last_update":"0001-01-01T00:00:00Z","name_a2s":"Uncletopia | Los Angeles | 1 | All Maps","protocol":17,"map":"koth_cascade","folder":"tf","game":"Team Fortress","app_id":440,"player_count":0,"max_players":24,"Bots":0,"server_type":"Dedicated","server_os":"Linux","password":true,"vac":true,"version":"7961495","steam_id":85568392924469991,"keywords":["cp","nocrits","nodmgspread","uncletopia"],"game_id":440,"stv_port":27016,"stv_name":"Uncletopia | Los Angeles | 1 | All Maps | STV","players":null},{"server_id":112,"name":"Uncletopia | Los Angeles | 2 | All Maps","name_short":"lax-2","host":"lax-1.us.uncletopia.com","port":27025,"enabled":true,"region":"us-west","cc":"us","latitude":33.94279,"longitude":-118.41004,"reserved":0,"last_update":"0001-01-01T00:00:00Z","name_a2s":"Uncletopia | Los Angeles | 2 | All Maps","protocol":17,"map":"cp_altitude","folder":"tf","game":"Team Fortress","app_id":440,"player_count":0,"max_players":24,"Bots":0,"server_type":"Dedicated","server_os":"Linux","password":true,"vac":true,"version":"7961495","steam_id":85568392924469992,"keywords":["cp","nocrits","nodmgspread","uncletopia"],"game_id":440,"stv_port":27026,"stv_name":"Uncletopia | Los Angeles | 2 | All Maps | STV","players":null},{"server_id":324,"name":"Uncletopia | Los Angeles | 3 | All Maps","name_short":"lax-3","host":"lax-1.us.uncletopia.com","port":27035,"enabled":true,"region":"us-west","cc":"us","latitude":33.94279,"longitude":-118.41004,"reserved":0,"last_update":"0001-01-01T00:00:00Z","name_a2s":"Uncletopia | Los Angeles | 3 | All Maps","protocol":17,"map":"pl_badwater","folder":"tf","game":"Team Fortress","app_id":440,"player_count":18,"max_players":24,"Bots":0,"server_type":"Dedicated","server_os":"Linux","password":true,"vac":true,"version":"7961495","steam_id":85568392924510198,"keywords":["nocrits","nodmgspread","payload","uncletopia"],"game_id":440,"stv_port":27036,"stv_name":"Uncletopia | Los Angeles | 3 | All Maps | STV","players":[{"user_id":302,"name":"Livin' Like Larry","steam_id":76561198313360974,"connected_time":7435000000000,"state":"active","ping":42},{"user_id":382,"name":"Mango","steam_id":76561198919918920,"connected_time":1264000000000,"state":"active","ping":49},{"user_id":403,"name":"Walter The Mighty","steam_id":76561198358433128,"connected_time":50000000000,"state":"active","ping":110},{"user_id":402,"name":"obese farts","steam_id":76561198206922028,"connected_time":55000000000,"state":"active","ping":45},{"user_id":386,"name":"Ian","steam_id":76561198159334435,"connected_time":614000000000,"state":"active","ping":169},{"user_id":385,"name":"Buffalo Gold","steam_id":76561198119693806,"connected_time":758000000000,"state":"active","ping":61},{"user_id":387,"name":"ena - d","steam_id":76561198072329335,"connected_time":596000000000,"state":"active","ping":98},{"user_id":389,"name":"selvhat","steam_id":76561198114225509,"connected_time":542000000000,"state":"active","ping":47},{"user_id":393,"name":"Vegan Veal","steam_id":76561198123607452,"connected_time":441000000000,"state":"active","ping":87},{"user_id":391,"name":"Jivin' Jigger","steam_id":76561198211677460,"connected_time":526000000000,"state":"active","ping":72},{"user_id":392,"name":"Thequirka","steam_id":76561198968058652,"connected_time":490000000000,"state":"active","ping":74},{"user_id":394,"name":"jrd101721","steam_id":76561198154812975,"connected_time":392000000000,"state":"active","ping":64},{"user_id":395,"name":"Kylek1133","steam_id":76561198277595899,"connected_time":316000000000,"state":"active","ping":54},{"user_id":360,"name":"Trips","steam_id":76561198054581597,"connected_time":2731000000000,"state":"active","ping":49},{"user_id":398,"name":"Scoops M'Gooch","steam_id":76561198048423812,"connected_time":199000000000,"state":"active","ping":57},{"user_id":400,"name":"-*__90(*0)","steam_id":76561199417229204,"connected_time":111000000000,"state":"active","ping":57},{"user_id":352,"name":"lana del rey","steam_id":76561198151135298,"connected_time":3734000000000,"state":"active","ping":30},{"user_id":372,"name":"Funkboi","steam_id":76561198046235038,"connected_time":2421000000000,"state":"active","ping":64}]},{"server_id":25,"name":"Uncletopia | Los Angeles | 4 | Stopwatch Beta","name_short":"lax-4","host":"lax-1.us.uncletopia.com","port":27045,"enabled":true,"region":"us-west","cc":"us","latitude":33.94279,"longitude":-118.41004,"reserved":0,"last_update":"0001-01-01T00:00:00Z","name_a2s":"Uncletopia | Los Angeles | 4 | Stopwatch Beta","protocol":17,"map":"pl_frontier_final","folder":"tf","game":"Team Fortress","app_id":440,"player_count":0,"max_players":24,"Bots":0,"server_type":"Dedicated","server_os":"Linux","password":true,"vac":true,"version":"7961495","steam_id":85568392924510199,"keywords":["nocrits","nodmgspread","payload","uncletopia"],"game_id":440,"stv_port":27046,"stv_name":"Uncletopia | Los Angeles | 4 | Stopwatch Beta | STV","players":null},{"server_id":11,"name":"Uncletopia | London | 1 | All Maps","name_short":"lon-1","host":"lon-1.uk.uncletopia.com","port":27015,"enabled":true,"region":"eu","cc":"gb","latitude":51.509865,"longitude":-0.118092,"reserved":0,"last_update":"0001-01-01T00:00:00Z","name_a2s":"Uncletopia | London | 1 | All Maps","protocol":17,"map":"pl_badwater","folder":"tf","game":"Team Fortress","app_id":440,"player_count":24,"max_players":24,"Bots":0,"server_type":"Dedicated","server_os":"Linux","password":true,"vac":true,"version":"7961495","steam_id":85568392924367362,"keywords":["nocrits","nodmgspread","payload","uncletopia"],"game_id":440,"stv_port":27016,"stv_name":"Uncletopia | London | 1 | All Maps | STV","players":[{"user_id":183,"name":"yabokuLittleGod","steam_id":76561199235270382,"connected_time":921000000000,"state":"active","ping":102},{"user_id":188,"name":"Lukas","steam_id":76561198009118452,"connected_time":470000000000,"state":"active","ping":69},{"user_id":166,"name":"Leibeigener","steam_id":76561199275478305,"connected_time":2089000000000,"state":"active","ping":48},{"user_id":184,"name":"Bun","steam_id":76561197989239999,"connected_time":854000000000,"state":"active","ping":58},{"user_id":186,"name":"The Builder","steam_id":76561198403959663,"connected_time":529000000000,"state":"active","ping":99},{"user_id":185,"name":"executive producer larry david","steam_id":76561198057868438,"connected_time":645000000000,"state":"active","ping":66},{"user_id":179,"name":"Holo","steam_id":76561198348567663,"connected_time":1324000000000,"state":"active","ping":74},{"user_id":180,"name":"TheVikingTheRed","steam_id":76561199221731253,"connected_time":1308000000000,"state":"active","ping":52},{"user_id":193,"name":"big naked bruh","steam_id":76561199179040672,"connected_time":293000000000,"state":"active","ping":55},{"user_id":126,"name":"Zembis","steam_id":76561198008017918,"connected_time":4930000000000,"state":"active","ping":102},{"user_id":157,"name":"Runyohell","steam_id":76561198309876860,"connected_time":2715000000000,"state":"active","ping":83},{"user_id":190,"name":"yell_cup","steam_id":76561199482507575,"connected_time":398000000000,"state":"active","ping":87},{"user_id":194,"name":"Wenolainen","steam_id":76561198334592800,"connected_time":196000000000,"state":"active","ping":87},{"user_id":160,"name":"Neimon","steam_id":76561198343485710,"connected_time":2336000000000,"state":"active","ping":129},{"user_id":189,"name":"Jimmy","steam_id":76561198133680783,"connected_time":468000000000,"state":"active","ping":71},{"user_id":165,"name":"C11H15NO2","steam_id":76561198066146016,"connected_time":2132000000000,"state":"active","ping":61},{"user_id":181,"name":"Grumble","steam_id":76561198053880090,"connected_time":1304000000000,"state":"active","ping":78},{"user_id":139,"name":"dunduu","steam_id":76561198875240717,"connected_time":3656000000000,"state":"active","ping":79},{"user_id":135,"name":"hsn⁧⁧741","steam_id":76561198307602421,"connected_time":4160000000000,"state":"active","ping":105},{"user_id":191,"name":"Trenbolone Acetate","steam_id":76561198078156944,"connected_time":374000000000,"state":"active","ping":90},{"user_id":176,"name":"ElegantSort","steam_id":76561198236788328,"connected_time":1904000000000,"state":"active","ping":124},{"user_id":178,"name":"lit","steam_id":76561198164806677,"connected_time":1401000000000,"state":"active","ping":148},{"user_id":192,"name":"nymph","steam_id":76561199249569889,"connected_time":308000000000,"state":"active","ping":60},{"user_id":47,"name":"zasert82","steam_id":76561199043016316,"connected_time":11264000000000,"state":"active","ping":97}]},{"server_id":114,"name":"Uncletopia | London | 2 | All Maps","name_short":"lon-2","host":"lon-1.uk.uncletopia.com","port":27025,"enabled":true,"region":"eu","cc":"gb","latitude":51.509865,"longitude":-0.118092,"reserved":0,"last_update":"0001-01-01T00:00:00Z","name_a2s":"Uncletopia | London | 2 | All Maps","protocol":17,"map":"cp_altitude","folder":"tf","game":"Team Fortress","app_id":440,"player_count":0,"max_players":24,"Bots":0,"server_type":"Dedicated","server_os":"Linux","password":true,"vac":true,"version":"7961495","steam_id":85568392924470941,"keywords":["cp","nocrits","nodmgspread","uncletopia"],"game_id":440,"stv_port":27026,"stv_name":"Uncletopia | London | 2 | All Maps | STV","players":null},{"server_id":320,"name":"Uncletopia | London | 3 | All Maps","name_short":"lon-3","host":"lon-1.uk.uncletopia.com","port":27035,"enabled":true,"region":"eu","cc":"gb","latitude":51.509865,"longitude":-0.118092,"reserved":0,"last_update":"0001-01-01T00:00:00Z","name_a2s":"Uncletopia | London | 3 | All Maps","protocol":17,"map":"pl_barnblitz","folder":"tf","game":"Team Fortress","app_id":440,"player_count":0,"max_players":24,"Bots":0,"server_type":"Dedicated","server_os":"Linux","password":true,"vac":true,"version":"7961495","steam_id":85568392924510192,"keywords":["nocrits","nodmgspread","payload","uncletopia"],"game_id":440,"stv_port":27036,"stv_name":"Uncletopia | London | 3 | All Maps | STV","players":null},{"server_id":321,"name":"Uncletopia | London | 4 | All Maps","name_short":"lon-4","host":"lon-1.uk.uncletopia.com","port":27045,"enabled":true,"region":"eu","cc":"gb","latitude":51.509865,"longitude":-0.118092,"reserved":0,"last_update":"0001-01-01T00:00:00Z","name_a2s":"Uncletopia | London | 4 | All Maps","protocol":17,"map":"koth_cascade","folder":"tf","game":"Team Fortress","app_id":440,"player_count":0,"max_players":24,"Bots":0,"server_type":"Dedicated","server_os":"Linux","password":true,"vac":true,"version":"7961495","steam_id":85568392924510193,"keywords":["cp","nocrits","nodmgspread","uncletopia"],"game_id":440,"stv_port":27046,"stv_name":"Uncletopia | London | 4 | All Maps | STV","players":null},{"server_id":21,"name":"Uncletopia | London | 5 | All Maps","name_short":"lon-5","host":"lon-1.uk.uncletopia.com","port":27055,"enabled":true,"region":"eu","cc":"gb","latitude":51.509865,"longitude":-0.118092,"reserved":0,"last_update":"0001-01-01T00:00:00Z","name_a2s":"Uncletopia | London | 5 | All Maps","protocol":17,"map":"pl_snowycoast","folder":"tf","game":"Team Fortress","app_id":440,"player_count":0,"max_players":24,"Bots":0,"server_type":"Dedicated","server_os":"Linux","password":true,"vac":true,"version":"7961495","steam_id":85568392924742829,"keywords":["nocrits","nodmgspread","payload","uncletopia"],"game_id":440,"stv_port":27056,"stv_name":"Uncletopia | London | 5 | All Maps | STV","players":null},{"server_id":22,"name":"Uncletopia | London | 6 | All Maps","name_short":"lon-6","host":"lon-1.uk.uncletopia.com","port":27065,"enabled":true,"region":"eu","cc":"gb","latitude":51.509865,"longitude":-0.118092,"reserved":0,"last_update":"0001-01-01T00:00:00Z","name_a2s":"Uncletopia | London | 6 | All Maps","protocol":17,"map":"koth_lakeside_final","folder":"tf","game":"Team Fortress","app_id":440,"player_count":0,"max_players":24,"Bots":0,"server_type":"Dedicated","server_os":"Linux","password":true,"vac":true,"version":"7961495","steam_id":85568392924742830,"keywords":["cp","nocrits","nodmgspread","uncletopia"],"game_id":440,"stv_port":27066,"stv_name":"Uncletopia | London | 6 | All Maps | STV","players":null},{"server_id":40,"name":"Uncletopia | London | 7 | No Payload","name_short":"lon-7","host":"lon-1.uk.uncletopia.com","port":27075,"enabled":true,"region":"eu","cc":"gb","latitude":51.509865,"longitude":-0.118092,"reserved":0,"last_update":"0001-01-01T00:00:00Z","name_a2s":"Uncletopia | London | 7 | No Payload","protocol":17,"map":"pl_snowycoast","folder":"tf","game":"Team Fortress","app_id":440,"player_count":0,"max_players":24,"Bots":0,"server_type":"Dedicated","server_os":"Linux","password":true,"vac":true,"version":"7961495","steam_id":85568392924964314,"keywords":["nocrits","nodmgspread","payload","uncletopia"],"game_id":440,"stv_port":27076,"stv_name":"Uncletopia | London | 7 | No Payload | STV","players":null},{"server_id":41,"name":"Uncletopia | London | 8 | Community","name_short":"lon-8","host":"lon-1.uk.uncletopia.com","port":27085,"enabled":true,"region":"eu","cc":"gb","latitude":51.509865,"longitude":-0.118092,"reserved":0,"last_update":"0001-01-01T00:00:00Z","name_a2s":"Uncletopia | London | 8 | Community","protocol":17,"map":"koth_viaduct","folder":"tf","game":"Team Fortress","app_id":440,"player_count":0,"max_players":24,"Bots":0,"server_type":"Dedicated","server_os":"Linux","password":true,"vac":true,"version":"7961495","steam_id":85568392924964315,"keywords":["cp","nocrits","nodmgspread","uncletopia"],"game_id":440,"stv_port":27086,"stv_name":"Uncletopia | London | 8 | Community | STV","players":null},{"server_id":300,"name":"Uncletopia | Montréal | 1 | All Maps","name_short":"mtl-1","host":"mtl-1.ca.uncletopia.com","port":27015,"enabled":true,"region":"us-east","cc":"ca","latitude":45.50889,"longitude":-73.56167,"reserved":0,"last_update":"0001-01-01T00:00:00Z","name_a2s":"Uncletopia | Montréal | 1 | All Maps","protocol":17,"map":"koth_cascade","folder":"tf","game":"Team Fortress","app_id":440,"player_count":0,"max_players":24,"Bots":0,"server_type":"Dedicated","server_os":"Linux","password":true,"vac":true,"version":"7961495","steam_id":85568392924500087,"keywords":["cp","nocrits","nodmgspread","uncletopia"],"game_id":440,"stv_port":27016,"stv_name":"Uncletopia | Montréal | 1 | All Maps | STV","players":null},{"server_id":301,"name":"Uncletopia | Montréal | 2 | All Maps","name_short":"mtl-2","host":"mtl-1.ca.uncletopia.com","port":27025,"enabled":true,"region":"us-east","cc":"ca","latitude":45.50889,"longitude":-73.56167,"reserved":0,"last_update":"0001-01-01T00:00:00Z","name_a2s":"Uncletopia | Montréal | 2 | All Maps","protocol":17,"map":"pl_frontier_final","folder":"tf","game":"Team Fortress","app_id":440,"player_count":0,"max_players":24,"Bots":0,"server_type":"Dedicated","server_os":"Linux","password":true,"vac":true,"version":"7961495","steam_id":85568392924500088,"keywords":["nocrits","nodmgspread","payload","uncletopia"],"game_id":440,"stv_port":27026,"stv_name":"Uncletopia | Montréal | 2 | All Maps | STV","players":null},{"server_id":302,"name":"Uncletopia | Montréal | 3 | All Maps","name_short":"mtl-3","host":"mtl-1.ca.uncletopia.com","port":27035,"enabled":true,"region":"us-east","cc":"ca","latitude":45.50889,"longitude":-73.56167,"reserved":0,"last_update":"0001-01-01T00:00:00Z","name_a2s":"Uncletopia | Montréal | 3 | All Maps","protocol":17,"map":"koth_viaduct","folder":"tf","game":"Team Fortress","app_id":440,"player_count":0,"max_players":24,"Bots":0,"server_type":"Dedicated","server_os":"Linux","password":true,"vac":true,"version":"7961495","steam_id":85568392924500089,"keywords":["cp","nocrits","nodmgspread","uncletopia"],"game_id":440,"stv_port":27036,"stv_name":"Uncletopia | Montréal | 3 | All Maps | STV","players":null},{"server_id":303,"name":"Uncletopia | Montréal | 4 | No Payload","name_short":"mtl-4","host":"mtl-1.ca.uncletopia.com","port":27045,"enabled":true,"region":"us-east","cc":"ca","latitude":45.50889,"longitude":-73.56167,"reserved":0,"last_update":"0001-01-01T00:00:00Z","name_a2s":"Uncletopia | Montréal | 4 | No Payload","protocol":17,"map":"cp_mountainlab","folder":"tf","game":"Team Fortress","app_id":440,"player_count":0,"max_players":24,"Bots":0,"server_type":"Dedicated","server_os":"Linux","password":true,"vac":true,"version":"7961495","steam_id":85568392924500090,"keywords":["cp","nocrits","nodmgspread","uncletopia"],"game_id":440,"stv_port":27046,"stv_name":"Uncletopia | Montréal | 4 | No Payload | STV","players":null},{"server_id":13,"name":"Uncletopia | New York City | 1 | All Maps","name_short":"nyc-1","host":"nyc-1.us.uncletopia.com","port":27015,"enabled":true,"region":"us-east","cc":"us","latitude":40.73061,"longitude":-73.93524,"reserved":0,"last_update":"0001-01-01T00:00:00Z","name_a2s":"Uncletopia | New York City | 1 | All Maps","protocol":17,"map":"cp_altitude","folder":"tf","game":"Team Fortress","app_id":440,"player_count":0,"max_players":24,"Bots":0,"server_type":"Dedicated","server_os":"Linux","password":true,"vac":true,"version":"7961495","steam_id":85568392924469993,"keywords":["cp","nocrits","nodmgspread","uncletopia"],"game_id":440,"stv_port":27016,"stv_name":"Uncletopia | New York City | 1 | All Maps | STV","players":null},{"server_id":14,"name":"Uncletopia | New York City | 2 | All Maps","name_short":"nyc-2","host":"nyc-1.us.uncletopia.com","port":27025,"enabled":true,"region":"us-east","cc":"us","latitude":40.73061,"longitude":-73.93524,"reserved":0,"last_update":"0001-01-01T00:00:00Z","name_a2s":"Uncletopia | New York City | 2 | All Maps","protocol":17,"map":"cp_mountainlab","folder":"tf","game":"Team Fortress","app_id":440,"player_count":0,"max_players":24,"Bots":0,"server_type":"Dedicated","server_os":"Linux","password":true,"vac":true,"version":"7961495","steam_id":85568392924469994,"keywords":["cp","nocrits","nodmgspread","uncletopia"],"game_id":440,"stv_port":27026,"stv_name":"Uncletopia | New York City | 2 | All Maps | STV","players":null},{"server_id":15,"name":"Uncletopia | New York City | 3 | Stopwatch Beta","name_short":"nyc-3","host":"nyc-1.us.uncletopia.com","port":27035,"enabled":true,"region":"us-east","cc":"us","latitude":40.73061,"longitude":-73.93524,"reserved":0,"last_update":"0001-01-01T00:00:00Z","name_a2s":"Uncletopia | New York City | 3 | Stopwatch Beta","protocol":17,"map":"workshop/pl_badwater_pro_v12.ugc2142942074","folder":"tf","game":"Team Fortress","app_id":440,"player_count":0,"max_players":24,"Bots":0,"server_type":"Dedicated","server_os":"Linux","password":true,"vac":true,"version":"7961495","steam_id":85568392924742820,"keywords":["nocrits","nodmgspread","payload","uncletopia"],"game_id":440,"stv_port":27036,"stv_name":"Uncletopia | New York City | 3 | Stopwatch Beta | STV","players":null},{"server_id":16,"name":"Uncletopia | New York City | 4 | Community","name_short":"nyc-4","host":"nyc-1.us.uncletopia.com","port":27045,"enabled":true,"region":"us-east","cc":"us","latitude":40.73061,"longitude":-73.93524,"reserved":0,"last_update":"0001-01-01T00:00:00Z","name_a2s":"Uncletopia | New York City | 4 | Community","protocol":17,"map":"workshop/pl_corrode_rc2.ugc546577989","folder":"tf","game":"Team Fortress","app_id":440,"player_count":0,"max_players":24,"Bots":0,"server_type":"Dedicated","server_os":"Linux","password":true,"vac":true,"version":"7961495","steam_id":85568392924742821,"keywords":["nocrits","nodmgspread","payload","uncletopia"],"game_id":440,"stv_port":27046,"stv_name":"Uncletopia | New York City | 4 | Community | STV","players":null},{"server_id":142,"name":"Uncletopia | São Paulo | 1 | All Maps","name_short":"sao-1","host":"sao-1.br.uncletopia.com","port":27015,"enabled":true,"region":"sa","cc":"br","latitude":-23.533773,"longitude":-46.62529,"reserved":0,"last_update":"0001-01-01T00:00:00Z","name_a2s":"Uncletopia | São Paulo | 1 | All Maps","protocol":17,"map":"cp_process_final","folder":"tf","game":"Team Fortress","app_id":440,"player_count":0,"max_players":24,"Bots":0,"server_type":"Dedicated","server_os":"Linux","password":true,"vac":true,"version":"7961495","steam_id":85568392924469996,"keywords":["cp","nocrits","nodmgspread","uncletopia"],"game_id":440,"stv_port":27016,"stv_name":"Uncletopia | São Paulo | 1 | All Maps | STV","players":null},{"server_id":143,"name":"Uncletopia | São Paulo | 2 | All Maps","name_short":"sao-2","host":"sao-2.br.uncletopia.com","port":27015,"enabled":true,"region":"sa","cc":"br","latitude":-23.533773,"longitude":-46.62529,"reserved":0,"last_update":"0001-01-01T00:00:00Z","name_a2s":"Uncletopia | São Paulo | 2 | All Maps","protocol":17,"map":"koth_lakeside_final","folder":"tf","game":"Team Fortress","app_id":440,"player_count":0,"max_players":24,"Bots":0,"server_type":"Dedicated","server_os":"Linux","password":true,"vac":true,"version":"7961495","steam_id":85568392924485349,"keywords":["cp","nocrits","nodmgspread","uncletopia"],"game_id":440,"stv_port":27016,"stv_name":"Uncletopia | São Paulo | 2 | All Maps | STV","players":null},{"server_id":7,"name":"Uncletopia | Seattle | 1 | All Maps","name_short":"sea-1","host":"sea-1.us.uncletopia.com","port":27015,"enabled":true,"region":"us-west","cc":"us","latitude":47.608013,"longitude":-122.33517,"reserved":0,"last_update":"0001-01-01T00:00:00Z","name_a2s":"Uncletopia | Seattle | 1 | All Maps","protocol":17,"map":"koth_highpass","folder":"tf","game":"Team Fortress","app_id":440,"player_count":24,"max_players":24,"Bots":0,"server_type":"Dedicated","server_os":"Linux","password":true,"vac":true,"version":"7961495","steam_id":85568392924469997,"keywords":["cp","nocrits","nodmgspread","uncletopia"],"game_id":440,"stv_port":27016,"stv_name":"Uncletopia | Seattle | 1 | All Maps | STV","players":[{"user_id":435,"name":"tr3@d0f4","steam_id":76561198000757362,"connected_time":1226000000000,"state":"active","ping":111},{"user_id":449,"name":"Slippin' Jimmy","steam_id":76561198324749126,"connected_time":23000000000,"state":"active","ping":148},{"user_id":448,"name":"oil","steam_id":76561198099980149,"connected_time":139000000000,"state":"active","ping":79},{"user_id":445,"name":"Level 99 Mudcrab","steam_id":76561198077452771,"connected_time":404000000000,"state":"active","ping":59},{"user_id":438,"name":"slugmundo","steam_id":76561198073549508,"connected_time":1055000000000,"state":"active","ping":62},{"user_id":370,"name":"delight","steam_id":76561197980280272,"connected_time":8268000000000,"state":"active","ping":47},{"user_id":447,"name":"Starkiller","steam_id":76561198101643120,"connected_time":247000000000,"state":"active","ping":106},{"user_id":399,"name":"Scout that makes you look up","steam_id":76561198137627873,"connected_time":5758000000000,"state":"active","ping":52},{"user_id":434,"name":"lil boogie","steam_id":76561198064059721,"connected_time":1273000000000,"state":"active","ping":44},{"user_id":391,"name":"A UsedNom","steam_id":76561198402832756,"connected_time":6248000000000,"state":"active","ping":85},{"user_id":442,"name":"Tommy Salami","steam_id":76561198392514273,"connected_time":784000000000,"state":"active","ping":58},{"user_id":403,"name":"gorlab","steam_id":76561198025089694,"connected_time":4831000000000,"state":"active","ping":65},{"user_id":358,"name":"im mr ____hed look at me","steam_id":76561198051751133,"connected_time":8817000000000,"state":"active","ping":58},{"user_id":429,"name":"Kaos","steam_id":76561198332958244,"connected_time":1618000000000,"state":"active","ping":48},{"user_id":423,"name":"Arsonist Goose","steam_id":76561198147441830,"connected_time":2864000000000,"state":"active","ping":69},{"user_id":443,"name":"luna","steam_id":76561198327390236,"connected_time":606000000000,"state":"active","ping":103},{"user_id":430,"name":"OutspokenWeeb","steam_id":76561198062984704,"connected_time":1393000000000,"state":"active","ping":123},{"user_id":431,"name":"comfycaffeine","steam_id":76561198058690096,"connected_time":1307000000000,"state":"active","ping":50},{"user_id":441,"name":"Mr. Carfox","steam_id":76561198041664428,"connected_time":960000000000,"state":"active","ping":93},{"user_id":420,"name":"mub","steam_id":76561197961943948,"connected_time":3145000000000,"state":"active","ping":51},{"user_id":408,"name":"Yammie","steam_id":76561197987304489,"connected_time":4754000000000,"state":"active","ping":48},{"user_id":428,"name":"roryisveryoutofit","steam_id":76561198065825165,"connected_time":1805000000000,"state":"active","ping":142},{"user_id":422,"name":"jorts","steam_id":76561199041179985,"connected_time":3118000000000,"state":"active","ping":55},{"user_id":311,"name":"NEBULA","steam_id":76561198086878595,"connected_time":12965000000000,"state":"active","ping":105}]},{"server_id":119,"name":"Uncletopia | Seattle | 2 | All Maps","name_short":"sea-2","host":"sea-1.us.uncletopia.com","port":27025,"enabled":true,"region":"us-west","cc":"us","latitude":47.608013,"longitude":-122.33517,"reserved":0,"last_update":"0001-01-01T00:00:00Z","name_a2s":"Uncletopia | Seattle | 2 | All Maps","protocol":17,"map":"koth_highpass","folder":"tf","game":"Team Fortress","app_id":440,"player_count":0,"max_players":24,"Bots":0,"server_type":"Dedicated","server_os":"Linux","password":true,"vac":true,"version":"7961495","steam_id":85568392924469998,"keywords":["cp","nocrits","nodmgspread","uncletopia"],"game_id":440,"stv_port":27026,"stv_name":"Uncletopia | Seattle | 2 | All Maps | STV","players":null},{"server_id":406,"name":"Uncletopia | Seattle | 3 | Stopwatch Beta","name_short":"sea-3","host":"sea-1.us.uncletopia.com","port":27035,"enabled":true,"region":"us-west","cc":"us","latitude":47.608013,"longitude":-122.33517,"reserved":0,"last_update":"0001-01-01T00:00:00Z","name_a2s":"Uncletopia | Seattle | 3 | Stopwatch Beta","protocol":17,"map":"pl_swiftwater_final1","folder":"tf","game":"Team Fortress","app_id":440,"player_count":0,"max_players":24,"Bots":0,"server_type":"Dedicated","server_os":"Linux","password":true,"vac":true,"version":"7961495","steam_id":85568392924515217,"keywords":["nocrits","nodmgspread","payload","uncletopia"],"game_id":440,"stv_port":27036,"stv_name":"Uncletopia | Seattle | 3 | Stopwatch Beta | STV","players":null},{"server_id":17,"name":"Uncletopia | San Francisco | 1 | All Maps","name_short":"sfo-1","host":"sfo-1.us.uncletopia.com","port":27015,"enabled":true,"region":"us-west","cc":"us","latitude":37.77397,"longitude":-122.4313,"reserved":0,"last_update":"0001-01-01T00:00:00Z","name_a2s":"Uncletopia | San Francisco | 1 | All Maps","protocol":17,"map":"pl_frontier_final","folder":"tf","game":"Team Fortress","app_id":440,"player_count":0,"max_players":24,"Bots":0,"server_type":"Dedicated","server_os":"Linux","password":true,"vac":true,"version":"7932396","steam_id":85568392924469999,"keywords":["nocrits","nodmgspread","payload","uncletopia"],"game_id":440,"stv_port":27016,"stv_name":"Uncletopia | San Francisco | 1 | All Maps | STV","players":null},{"server_id":18,"name":"Uncletopia | San Francisco | 2 | All Maps","name_short":"sfo-2","host":"sfo-1.us.uncletopia.com","port":27025,"enabled":true,"region":"us-west","cc":"us","latitude":37.77397,"longitude":-122.4313,"reserved":0,"last_update":"0001-01-01T00:00:00Z","name_a2s":"Uncletopia | San Francisco | 2 | All Maps","protocol":17,"map":"cp_snakewater_final1","folder":"tf","game":"Team Fortress","app_id":440,"player_count":0,"max_players":24,"Bots":0,"server_type":"Dedicated","server_os":"Linux","password":true,"vac":true,"version":"7932396","steam_id":85568392924470000,"keywords":["cp","nocrits","nodmgspread","uncletopia"],"game_id":440,"stv_port":27026,"stv_name":"Uncletopia | San Francisco | 2 | All Maps | STV","players":null},{"server_id":19,"name":"Uncletopia | San Francisco | 3 | Stopwatch Beta","name_short":"sfo-3","host":"sfo-1.us.uncletopia.com","port":27035,"enabled":true,"region":"us-west","cc":"us","latitude":37.77397,"longitude":-122.4313,"reserved":0,"last_update":"0001-01-01T00:00:00Z","name_a2s":"Uncletopia | San Francisco | 3 | Stopwatch Beta","protocol":17,"map":"koth_lakeside_final","folder":"tf","game":"Team Fortress","app_id":440,"player_count":0,"max_players":24,"Bots":0,"server_type":"Dedicated","server_os":"Linux","password":true,"vac":true,"version":"7932396","steam_id":85568392924742824,"keywords":["cp","nocrits","nodmgspread","uncletopia"],"game_id":440,"stv_port":27036,"stv_name":"Uncletopia | San Francisco | 3 | Stopwatch Beta | STV","players":null},{"server_id":20,"name":"Uncletopia | San Francisco | 4 | Community","name_short":"sfo-4","host":"sfo-1.us.uncletopia.com","port":27045,"enabled":true,"region":"us-west","cc":"us","latitude":37.77397,"longitude":-122.4313,"reserved":0,"last_update":"0001-01-01T00:00:00Z","name_a2s":"Uncletopia | San Francisco | 4 | Community","protocol":17,"map":"pl_borneo","folder":"tf","game":"Team Fortress","app_id":440,"player_count":0,"max_players":24,"Bots":0,"server_type":"Dedicated","server_os":"Linux","password":true,"vac":true,"version":"7932396","steam_id":85568392924742826,"keywords":["nocrits","nodmgspread","payload","uncletopia"],"game_id":440,"stv_port":27046,"stv_name":"Uncletopia | San Francisco | 4 | Community | STV","players":null},{"server_id":141,"name":"Uncletopia | Sydney | 1 | All Maps","name_short":"syd-1","host":"syd-1.au.uncletopia.com","port":27015,"enabled":true,"region":"au","cc":"au","latitude":-33.865143,"longitude":151.2099,"reserved":0,"last_update":"0001-01-01T00:00:00Z","name_a2s":"Uncletopia | Sydney | 1 | All Maps","protocol":17,"map":"pl_pier","folder":"tf","game":"Team Fortress","app_id":440,"player_count":13,"max_players":24,"Bots":0,"server_type":"Dedicated","server_os":"Linux","password":true,"vac":true,"version":"7961495","steam_id":85568392924470001,"keywords":["nocrits","nodmgspread","payload","uncletopia"],"game_id":440,"stv_port":27016,"stv_name":"Uncletopia | Sydney | 1 | All Maps | STV","players":[{"user_id":166,"name":"tim88435","steam_id":76561198089653987,"connected_time":3438000000000,"state":"active","ping":63},{"user_id":188,"name":"Das Ist Scheisse","steam_id":76561198886094239,"connected_time":274000000000,"state":"active","ping":53},{"user_id":189,"name":"Gamewalkerz","steam_id":76561198048291005,"connected_time":232000000000,"state":"active","ping":57},{"user_id":175,"name":"getgottengud","steam_id":76561199156863229,"connected_time":1370000000000,"state":"active","ping":71},{"user_id":182,"name":"TheCherry","steam_id":76561198062312012,"connected_time":769000000000,"state":"active","ping":73},{"user_id":184,"name":"mitchl1","steam_id":76561199141177400,"connected_time":623000000000,"state":"active","ping":98},{"user_id":185,"name":"Ultimate Spaghet","steam_id":76561198880336399,"connected_time":557000000000,"state":"active","ping":56},{"user_id":186,"name":"Mr Doctor","steam_id":76561198081415999,"connected_time":532000000000,"state":"active","ping":63},{"user_id":187,"name":"TTV/Lachiebuzzx","steam_id":76561198161564938,"connected_time":520000000000,"state":"active","ping":59},{"user_id":195,"name":"zoom :)","steam_id":76561199162390876,"connected_time":11000000000,"state":"spawning","ping":334},{"user_id":191,"name":"HaggisMax","steam_id":76561198152017658,"connected_time":78000000000,"state":"active","ping":74},{"user_id":193,"name":"koyaa","steam_id":76561198047484772,"connected_time":67000000000,"state":"active","ping":79},{"user_id":194,"name":"Zippy","steam_id":76561198279229422,"connected_time":36000000000,"state":"active","ping":259}]},{"server_id":123,"name":"Uncletopia | Sydney | 2 | All Maps","name_short":"syd-2","host":"syd-1.au.uncletopia.com","port":27025,"enabled":true,"region":"au","cc":"au","latitude":-33.865143,"longitude":151.2099,"reserved":0,"last_update":"0001-01-01T00:00:00Z","name_a2s":"Uncletopia | Sydney | 2 | All Maps","protocol":17,"map":"pl_snowycoast","folder":"tf","game":"Team Fortress","app_id":440,"player_count":24,"max_players":24,"Bots":0,"server_type":"Dedicated","server_os":"Linux","password":true,"vac":true,"version":"7961495","steam_id":85568392924470002,"keywords":["nocrits","nodmgspread","payload","uncletopia"],"game_id":440,"stv_port":27026,"stv_name":"Uncletopia | Sydney | 2 | All Maps | STV","players":[{"user_id":121,"name":"HA HA HA","steam_id":76561198987306525,"connected_time":3234000000000,"state":"active","ping":125},{"user_id":134,"name":"Tiger_Tan","steam_id":76561198221733844,"connected_time":2084000000000,"state":"active","ping":75},{"user_id":137,"name":"weezer","steam_id":76561199439508788,"connected_time":1559000000000,"state":"active","ping":71},{"user_id":107,"name":"CoolGuyMatt","steam_id":76561198009757360,"connected_time":4700000000000,"state":"active","ping":61},{"user_id":109,"name":"Qwertles","steam_id":76561198033779273,"connected_time":4413000000000,"state":"active","ping":61},{"user_id":138,"name":"biff","steam_id":76561198069603865,"connected_time":1501000000000,"state":"active","ping":61},{"user_id":44,"name":"A Burnt Cheeseburger","steam_id":76561198044178223,"connected_time":9025000000000,"state":"active","ping":59},{"user_id":146,"name":"Fleetfoot","steam_id":76561198072845816,"connected_time":559000000000,"state":"active","ping":57},{"user_id":145,"name":"Flak","steam_id":76561198205833232,"connected_time":566000000000,"state":"active","ping":56},{"user_id":136,"name":"...","steam_id":76561198309750355,"connected_time":1627000000000,"state":"active","ping":55},{"user_id":148,"name":"Zeppy","steam_id":76561198074766231,"connected_time":335000000000,"state":"active","ping":73},{"user_id":127,"name":"Paul Hollywood","steam_id":76561198060024585,"connected_time":3042000000000,"state":"active","ping":42},{"user_id":144,"name":"michael","steam_id":76561198052848358,"connected_time":871000000000,"state":"active","ping":68},{"user_id":122,"name":"horrid webbon ᘛ⁐̤ᕐᐷ","steam_id":76561198061998379,"connected_time":3196000000000,"state":"active","ping":37},{"user_id":131,"name":"anti-fun activist","steam_id":76561198048064049,"connected_time":2421000000000,"state":"active","ping":88},{"user_id":110,"name":"Penguin Wielder","steam_id":76561198169038889,"connected_time":4402000000000,"state":"active","ping":59},{"user_id":147,"name":"Edgar's can't be choosers","steam_id":76561198301282416,"connected_time":361000000000,"state":"active","ping":58},{"user_id":141,"name":"voxii","steam_id":76561198099698281,"connected_time":1285000000000,"state":"active","ping":72},{"user_id":96,"name":"the children yearn for the mine","steam_id":76561198025225448,"connected_time":5532000000000,"state":"active","ping":78},{"user_id":130,"name":"mazoingbur splorgnorbus","steam_id":76561198063481761,"connected_time":2470000000000,"state":"active","ping":44},{"user_id":99,"name":"we stay silly :3","steam_id":76561198132937542,"connected_time":5498000000000,"state":"active","ping":60},{"user_id":98,"name":"come chill under the blanket!","steam_id":76561198150293480,"connected_time":5516000000000,"state":"active","ping":73},{"user_id":119,"name":"Johnny 2 pipes","steam_id":76561198971245592,"connected_time":3637000000000,"state":"active","ping":63},{"user_id":133,"name":"garnish master","steam_id":76561197996551827,"connected_time":2393000000000,"state":"active","ping":56}]},{"server_id":395,"name":"Uncletopia | Sydney | 3 | All Maps","name_short":"syd-3","host":"syd-1.au.uncletopia.com","port":27035,"enabled":true,"region":"au","cc":"au","latitude":-33.865143,"longitude":151.2099,"reserved":0,"last_update":"0001-01-01T00:00:00Z","name_a2s":"Uncletopia | Sydney | 3 | All Maps","protocol":17,"map":"pl_pier","folder":"tf","game":"Team Fortress","app_id":440,"player_count":0,"max_players":24,"Bots":0,"server_type":"Dedicated","server_os":"Linux","password":true,"vac":true,"version":"7961495","steam_id":85568392925194467,"keywords":["nocrits","nodmgspread","payload","uncletopia"],"game_id":440,"stv_port":27036,"stv_name":"Uncletopia | Sydney | 3 | All Maps | STV","players":null},{"server_id":396,"name":"Uncletopia | Sydney | 4 | All Maps","name_short":"syd-4","host":"syd-1.au.uncletopia.com","port":27045,"enabled":true,"region":"au","cc":"au","latitude":-33.865143,"longitude":151.2099,"reserved":0,"last_update":"0001-01-01T00:00:00Z","name_a2s":"Uncletopia | Sydney | 4 | All Maps","protocol":17,"map":"koth_cascade","folder":"tf","game":"Team Fortress","app_id":440,"player_count":1,"max_players":24,"Bots":0,"server_type":"Dedicated","server_os":"Linux","password":true,"vac":true,"version":"7961495","steam_id":85568392925397958,"keywords":["cp","nocrits","nodmgspread","uncletopia"],"game_id":440,"stv_port":27046,"stv_name":"Uncletopia | Sydney | 4 | All Maps | STV","players":[{"user_id":8,"name":"TheOrang","steam_id":76561199232263206,"connected_time":407000000000,"state":"active","ping":94}]},{"server_id":58,"name":"Uncletopia | Sydney | 5 | Stopwatch Beta","name_short":"syd-5","host":"syd-1.au.uncletopia.com","port":27055,"enabled":true,"region":"au","cc":"au","latitude":-33.865143,"longitude":151.2099,"reserved":0,"last_update":"0001-01-01T00:00:00Z","name_a2s":"Uncletopia | Sydney | 5 | Stopwatch Beta","protocol":17,"map":"koth_viaduct","folder":"tf","game":"Team Fortress","app_id":440,"player_count":0,"max_players":24,"Bots":0,"server_type":"Dedicated","server_os":"Linux","password":true,"vac":true,"version":"7961495","steam_id":85568392925397959,"keywords":["cp","nocrits","nodmgspread","uncletopia"],"game_id":440,"stv_port":27056,"stv_name":"Uncletopia | Sydney | 5 | Stopwatch Beta | STV","players":null},{"server_id":59,"name":"Uncletopia | Sydney | 6 | Community","name_short":"syd-6","host":"syd-1.au.uncletopia.com","port":27065,"enabled":true,"region":"au","cc":"au","latitude":-33.865143,"longitude":151.2099,"reserved":0,"last_update":"0001-01-01T00:00:00Z","name_a2s":"Uncletopia | Sydney | 6 | Community","protocol":17,"map":"pl_barnblitz","folder":"tf","game":"Team Fortress","app_id":440,"player_count":0,"max_players":24,"Bots":0,"server_type":"Dedicated","server_os":"Linux","password":true,"vac":true,"version":"7961495","steam_id":85568392925397960,"keywords":["nocrits","nodmgspread","payload","uncletopia"],"game_id":440,"stv_port":27066,"stv_name":"Uncletopia | Sydney | 6 | Community | STV","players":null},{"server_id":49,"name":"Uncletopia | Warsaw | 1 | All Maps","name_short":"waw-1","host":"waw-1.pl.uncletopia.com","port":27015,"enabled":true,"region":"eu","cc":"pl","latitude":52.2297,"longitude":21.017532,"reserved":0,"last_update":"0001-01-01T00:00:00Z","name_a2s":"","protocol":0,"map":"","folder":"","game":"","app_id":0,"player_count":0,"max_players":0,"Bots":0,"server_type":"","server_os":"","password":false,"vac":false,"version":"","steam_id":0,"keywords":null,"game_id":0,"stv_port":0,"stv_name":"","players":null},{"server_id":50,"name":"Uncletopia | Warsaw | 2 | All Maps","name_short":"waw-2","host":"waw-1.pl.uncletopia.com","port":27025,"enabled":true,"region":"eu","cc":"pl","latitude":52.2297,"longitude":21.017532,"reserved":0,"last_update":"0001-01-01T00:00:00Z","name_a2s":"Uncletopia | Warsaw | 2 | All Maps","protocol":17,"map":"cp_mountainlab","folder":"tf","game":"Team Fortress","app_id":440,"player_count":0,"max_players":24,"Bots":0,"server_type":"Dedicated","server_os":"Linux","password":true,"vac":true,"version":"7961495","steam_id":85568392925397851,"keywords":["cp","nocrits","nodmgspread","uncletopia"],"game_id":440,"stv_port":27026,"stv_name":"Uncletopia | Warsaw | 2 | All Maps | STV","players":null},{"server_id":51,"name":"Uncletopia | Warsaw | 3 | All Maps","name_short":"waw-3","host":"waw-1.pl.uncletopia.com","port":27035,"enabled":true,"region":"eu","cc":"pl","latitude":52.2297,"longitude":21.017532,"reserved":0,"last_update":"0001-01-01T00:00:00Z","name_a2s":"Uncletopia | Warsaw | 3 | All Maps","protocol":17,"map":"cp_mountainlab","folder":"tf","game":"Team Fortress","app_id":440,"player_count":0,"max_players":24,"Bots":0,"server_type":"Dedicated","server_os":"Linux","password":true,"vac":true,"version":"7961495","steam_id":85568392925397852,"keywords":["cp","nocrits","nodmgspread","uncletopia"],"game_id":440,"stv_port":27036,"stv_name":"Uncletopia | Warsaw | 3 | All Maps | STV","players":null},{"server_id":52,"name":"Uncletopia | Warsaw | 4 | All Maps","name_short":"waw-4","host":"waw-1.pl.uncletopia.com","port":27045,"enabled":true,"region":"eu","cc":"pl","latitude":52.2297,"longitude":21.017532,"reserved":0,"last_update":"0001-01-01T00:00:00Z","name_a2s":"Uncletopia | Warsaw | 4 | All Maps","protocol":17,"map":"cp_dustbowl","folder":"tf","game":"Team Fortress","app_id":440,"player_count":0,"max_players":24,"Bots":0,"server_type":"Dedicated","server_os":"Linux","password":true,"vac":true,"version":"7961495","steam_id":85568392925397853,"keywords":["cp","nocrits","nodmgspread","uncletopia"],"game_id":440,"stv_port":27046,"stv_name":"Uncletopia | Warsaw | 4 | All Maps | STV","players":null},{"server_id":53,"name":"Uncletopia | Warsaw | 5 | Stopwatch Beta","name_short":"waw-5","host":"waw-1.pl.uncletopia.com","port":27055,"enabled":true,"region":"eu","cc":"pl","latitude":52.2297,"longitude":21.017532,"reserved":0,"last_update":"0001-01-01T00:00:00Z","name_a2s":"Uncletopia | Warsaw | 5 | Stopwatch Beta","protocol":17,"map":"pl_snowycoast","folder":"tf","game":"Team Fortress","app_id":440,"player_count":0,"max_players":24,"Bots":0,"server_type":"Dedicated","server_os":"Linux","password":true,"vac":true,"version":"7961495","steam_id":85568392925397854,"keywords":["nocrits","nodmgspread","payload","uncletopia"],"game_id":440,"stv_port":27056,"stv_name":"Uncletopia | Warsaw | 5 | Stopwatch Beta | STV","players":null},{"server_id":54,"name":"Uncletopia | Warsaw | 6 | Community","name_short":"waw-6","host":"waw-1.pl.uncletopia.com","port":27065,"enabled":true,"region":"eu","cc":"pl","latitude":52.2297,"longitude":21.017532,"reserved":0,"last_update":"0001-01-01T00:00:00Z","name_a2s":"Uncletopia | Warsaw | 6 | Community","protocol":17,"map":"pl_borneo","folder":"tf","game":"Team Fortress","app_id":440,"player_count":0,"max_players":24,"Bots":0,"server_type":"Dedicated","server_os":"Linux","password":true,"vac":true,"version":"7961495","steam_id":85568392925397856,"keywords":["nocrits","nodmgspread","payload","uncletopia"],"game_id":440,"stv_port":27066,"stv_name":"Uncletopia | Warsaw | 6 | Community | STV","players":null}]}