{"status":true,"message":"","result":[{"server_id":9,"name":"Uncletopia | Atlanta | 1 | All Maps","name_short":"atl-1","host":"atl-1.us.uncletopia.com","port":27015,"enabled":true,"region":"us-east","cc":"us","latitude":33.753746,"longitude":-84.38633,"reserved":0,"last_update":"0001-01-01T00:00:00Z","name_a2s":"Uncletopia | Atlanta | 1 | All Maps","protocol":17,"map":"cp_process_final","folder":"tf","game":"Team Fortress","app_id":440,"player_count":24,"max_players":24,"Bots":0,"server_type":"Dedicated","server_os":"Linux","password":true,"vac":true,"version":"7961495","steam_id":85568392924469982,"keywords":["cp","nocrits","nodmgspread","uncletopia"],"game_id":440,"stv_port":27016,"stv_name":"Uncletopia | Atlanta | 1 | All Maps | STV","players":[{"user_id":179,"name":"i play random (no audio)","steam_id":76561199468748840,"connected_time":40000000000,"state":"active","ping":75},{"user_id":163,"name":"ATL1 | on my hunting trip","steam_id":76561198315341646,"connected_time":1694000000000,"state":"active","ping":76},{"user_id":89,"name":"Ashes!","steam_id":76561197998475441,"connected_time":9076000000000,"state":"active","ping":78},{"user_id":82,"name":"lynt","steam_id":76561198988333976,"connected_time":9982000000000,"state":"active","ping":43},{"user_id":145,"name":"Avo","steam_id":76561197993340494,"connected_time":2889000000000,"state":"active","ping":57},{"user_id":117,"name":"lil hog","steam_id":76561199230929836,"connected_time":6767000000000,"state":"active","ping":89},{"user_id":136,"name":"Black Bear.","steam_id":76561198806203328,"connected_time":4261000000000,"state":"active","ping":119},{"user_id":175,"name":"Decolour","steam_id":76561199045608372,"connected_time":732000000000,"state":"active","ping":81},{"user_id":164,"name":"FYI, i am a","steam_id":76561198814096380,"connected_time":1639000000000,"state":"active","ping":78},{"user_id":173,"name":"sansa musa","steam_id":76561198163723555,"connected_time":1239000000000,"state":"active","ping":107},{"user_id":177,"name":"Dreszerg","steam_id":76561198838757422,"connected_time":408000000000,"state":"active","ping":81},{"user_id":167,"name":"The_Stomach_Stone_Surgeon","steam_id":76561198044643725,"connected_time":1466000000000,"state":"active","ping":53},{"user_id":176,"name":"Shame","steam_id":76561198100490994,"connected_time":706000000000,"state":"active","ping":60},{"user_id":100,"name":"JustADuck","steam_id":76561198311260943,"connected_time":8481000000000,"state":"active","ping":57},{"user_id":178,"name":"BlueSteele","steam_id":76561198080235316,"connected_time":300000000000,"state":"active","ping":112},{"user_id":140,"name":"ATL1 | to4st","steam_id":76561198981009008,"connected_time":3416000000000,"state":"active","ping":62},{"user_id":160,"name":"BeastRyder","steam_id":76561198330281584,"connected_time":1927000000000,"state":"active","ping":82},{"user_id":170,"name":"Vee (very cool)","steam_id":76561198330432889,"connected_time":1366000000000,"state":"active","ping":64},{"user_id":116,"name":"Dr.Zarann","steam_id":76561198163952958,"connected_time":6816000000000,"state":"active","ping":61},{"user_id":155,"name":"1HandsomeLAD","steam_id":76561198807047496,"connected_time":2264000000000,"state":"active","ping":71},{"user_id":169,"name":"chexo4","steam_id":76561198150532531,"connected_time":1464000000000,"state":"active","ping":51},{"user_id":172,"name":"Las Vegas","steam_id":76561198451778096,"connected_time":1263000000000,"state":"active","ping":69},{"user_id":154,"name":"a real fish","steam_id":76561198845824198,"connected_time":2649000000000,"state":"active","ping":75},{"user_id":162,"name":"freaky man","steam_id":76561198109742474,"connected_time":1759000000000,"state":"active","ping":59}]},{"server_id":104,"name":"Uncletopia | Atlanta | 2 | All Maps","name_short":"atl-2","host":"atl-1.us.uncletopia.com","port":27025,"enabled":true,"region":"us-east","cc":"us","latitude":33.753746,"longitude":-84.38633,"reserved":0,"last_update":"0001-01-01T00:00:00Z","name_a2s":"Uncletopia | Atlanta | 2 | All Maps","protocol":17,"map":"pl_snowycoast","folder":"tf","game":"Team Fortress","app_id":440,"player_count":24,"max_players":24,"Bots":0,"server_type":"Dedicated","server_os":"Linux","password":true,"vac":true,"version":"7961495","steam_id":85568392924469983,"keywords":["nocrits","nodmgspread","payload","uncletopia"],"game_id":440,"stv_port":27026,"stv_name":"Uncletopia | Atlanta | 2 | All Maps | STV","players":[{"user_id":157,"name":"spaghetti","steam_id":76561198069600113,"connected_time":3551000000000,"state":"active","ping":49},{"user_id":186,"name":"thehookerslammer","steam_id":76561198050136796,"connected_time":2766000000000,"state":"active","ping":90},{"user_id":241,"name":"Oopsie Daisy ❋","steam_id":76561198042144492,"connected_time":1229000000000,"state":"active","ping":58},{"user_id":167,"name":"NekoTrap","steam_id":76561198797624241,"connected_time":3290000000000,"state":"active","ping":72},{"user_id":93,"name":"Bubu!","steam_id":76561198188722751,"connected_time":5527000000000,"state":"active","ping":100},{"user_id":232,"name":"Mom I frew up","steam_id":76561198070224393,"connected_time":1746000000000,"state":"active","ping":64},{"user_id":231,"name":"Motorolª","steam_id":76561198358119669,"connected_time":1913000000000,"state":"active","ping":113},{"user_id":243,"name":"FenderBender","steam_id":76561198106379456,"connected_time":443000000000,"state":"active","ping":113},{"user_id":242,"name":"VenANON","steam_id":76561198055676240,"connected_time":955000000000,"state":"active","ping":92},{"user_id":79,"name":"hayes","steam_id":76561198057101042,"connected_time":6189000000000,"state":"active","ping":71},{"user_id":168,"name":"Shirt","steam_id":76561198082386564,"connected_time":3284000000000,"state":"active","ping":74},{"user_id":198,"name":"Volvo 740 Turbo Wagon","steam_id":76561199027564726,"connected_time":2492000000000,"state":"active","ping":131},{"user_id":240,"name":"Brown_Dream","steam_id":76561198975766145,"connected_time":1383000000000,"state":"active","ping":81},{"user_id":235,"name":"brotalium","steam_id":76561198055439054,"connected_time":1672000000000,"state":"active","ping":74},{"user_id":230,"name":"Your Loyal Familiar","steam_id":76561198106476075,"connected_time":1914000000000,"state":"active","ping":62},{"user_id":40,"name":"trianamarco780","steam_id":76561199084319677,"connected_time":8486000000000,"state":"active","ping":110},{"user_id":170,"name":"Hoob.egfug","steam_id":76561197980557818,"connected_time":3229000000000,"state":"active","ping":72},{"user_id":67,"name":"Artixes","steam_id":76561198379574232,"connected_time":7182000000000,"state":"active","ping":44},{"user_id":177,"name":"gerf.","steam_id":76561198811706201,"connected_time":2996000000000,"state":"active","ping":45},{"user_id":178,"name":"Rappy \u003c3","steam_id":76561198105613110,"connected_time":2993000000000,"state":"active","ping":76},{"user_id":172,"name":"Jrock","steam_id":76561198045715996,"connected_time":3177000000000,"state":"active","ping":88},{"user_id":108,"name":"bigbuddy","steam_id":76561198055455772,"connected_time":4911000000000,"state":"active","ping":86},{"user_id":192,"name":"Duke Skywalker","steam_id":76561199231296521,"connected_time":2622000000000,"state":"active","ping":70},{"user_id":228,"name":"MARIOPARTYDSFAN","steam_id":76561198872122117,"connected_time":1967000000000,"state":"active","ping":61}]},{"server_id":400,"name":"Uncletopia | Atlanta | 3 | Stopwatch","name_short":"atl-3","host":"atl-1.us.uncletopia.com","port":27035,"enabled":true,"region":"us-east","cc":"us","latitude":33.753746,"longitude":-84.38633,"reserved":0,"last_update":"0001-01-01T00:00:00Z","name_a2s":"Uncletopia | Atlanta | 3 | Stopwatch","protocol":17,"map":"workshop/pl_barnblitz_pro7.ugc582280235","folder":"tf","game":"Team Fortress","app_id":440,"player_count":0,"max_players":24,"Bots":0,"server_type":"Dedicated","server_os":"Linux","password":true,"vac":true,"version":"7961495","steam_id":85568392924515187,"keywords":["nocrits","nodmgspread","payload","uncletopia"],"game_id":440,"stv_port":27036,"stv_name":"Uncletopia | Atlanta | 3 | Stopwatch | STV","players":null},{"server_id":401,"name":"Uncletopia | Atlanta | 4 | Community","name_short":"atl-4","host":"atl-1.us.uncletopia.com","port":27045,"enabled":true,"region":"us-east","cc":"us","latitude":33.753746,"longitude":-84.38633,"reserved":0,"last_update":"0001-01-01T00:00:00Z","name_a2s":"Uncletopia | Atlanta | 4 | Community","protocol":17,"map":"workshop/koth_bagel_rc6.ugc2514036946","folder":"tf","game":"Team Fortress","app_id":440,"player_count":0,"max_players":24,"Bots":0,"server_type":"Dedicated","server_os":"Linux","password":true,"vac":true,"version":"7961495","steam_id":85568392924515188,"keywords":["cp","nocrits","nodmgspread","uncletopia"],"game_id":440,"stv_port":27046,"stv_name":"Uncletopia | Atlanta | 4 | Community | STV","players":null},{"server_id":2,"name":"Uncletopia | Chicago | 1 | All Maps","name_short":"chi-1","host":"chi-1.us.uncletopia.com","port":27015,"enabled":true,"region":"us-central","cc":"us","latitude":41.881832,"longitude":-87.62318,"reserved":0,"last_update":"0001-01-01T00:00:00Z","name_a2s":"Uncletopia | Chicago | 1 | All Maps","protocol":17,"map":"pl_swiftwater_final1","folder":"tf","game":"Team Fortress","app_id":440,"player_count":24,"max_players":24,"Bots":0,"server_type":"Dedicated","server_os":"Linux","password":true,"vac":true,"version":"7961495","steam_id":85568392924469984,"keywords":["nocrits","nodmgspread","payload","uncletopia"],"game_id":440,"stv_port":27016,"stv_name":"Uncletopia | Chicago | 1 | All Maps | STV","players":[{"user_id":232,"name":"oskaroku00","steam_id":76561199025360128,"connected_time":255000000000,"state":"active","ping":149},{"user_id":225,"name":"Asanez3","steam_id":76561198037381436,"connected_time":323000000000,"state":"active","ping":78},{"user_id":198,"name":"¡No te entiendo inglés!","steam_id":76561198298364415,"connected_time":1792000000000,"state":"active","ping":128},{"user_id":205,"name":"Lamp","steam_id":76561198369922506,"connected_time":1286000000000,"state":"active","ping":66},{"user_id":201,"name":"Deluxe_Taco34","steam_id":76561199037653437,"connected_time":1664000000000,"state":"active","ping":109},{"user_id":226,"name":"pHsHy","steam_id":76561198013195018,"connected_time":320000000000,"state":"active","ping":74},{"user_id":227,"name":"Emberdened","steam_id":76561199163688421,"connected_time":320000000000,"state":"active","ping":98},{"user_id":234,"name":"wepry","steam_id":76561198114091417,"connected_time":100000000000,"state":"active","ping":47},{"user_id":215,"name":"Ritartit","steam_id":76561198257109863,"connected_time":911000000000,"state":"active","ping":66},{"user_id":171,"name":"Poop Deck Joe","steam_id":76561198271397568,"connected_time":3359000000000,"state":"active","ping":79},{"user_id":217,"name":"Wagemage","steam_id":76561198013625580,"connected_time":642000000000,"state":"active","ping":56},{"user_id":223,"name":"Squid's","steam_id":76561198826820952,"connected_time":335000000000,"state":"active","ping":71},{"user_id":143,"name":"poopybutt420","steam_id":76561199000805315,"connected_time":5633000000000,"state":"active","ping":110},{"user_id":211,"name":"Dr_Cecil","steam_id":76561198873862113,"connected_time":1122000000000,"state":"active","ping":98},{"user_id":188,"name":"man shut the fuck up","steam_id":76561198142756572,"connected_time":2462000000000,"state":"active","ping":60},{"user_id":235,"name":"Kirat","steam_id":76561198060071234,"connected_time":37000000000,"state":"spawning","ping":60},{"user_id":210,"name":"robe","steam_id":76561198238166694,"connected_time":1157000000000,"state":"active","ping":56},{"user_id":218,"name":"Dan","steam_id":76561199236719411,"connected_time":616000000000,"state":"active","ping":71},{"user_id":228,"name":"SKETCHPUNK","steam_id":76561198092249249,"connected_time":317000000000,"state":"active","ping":53},{"user_id":229,"name":"Eugene Hinkle","steam_id":76561198442729982,"connected_time":311000000000,"state":"active","ping":77},{"user_id":161,"name":"krueger","steam_id":76561198268654031,"connected_time":4097000000000,"state":"active","ping":56},{"user_id":209,"name":"BradB.","steam_id":76561199163905036,"connected_time":1239000000000,"state":"active","ping":76},{"user_id":230,"name":"vandeer","steam_id":76561198120124007,"connected_time":300000000000,"state":"active","ping":122},{"user_id":233,"name":"KingBean","steam_id":76561199195063613,"connected_time":191000000000,"state":"active","ping":150}]},{"server_id":106,"name":"Uncletopia | Chicago | 2 | All Maps","name_short":"chi-2","host":"chi-1.us.uncletopia.com","port":27025,"enabled":true,"region":"us-central","cc":"us","latitude":41.881832,"longitude":-87.62318,"reserved":0,"last_update":"0001-01-01T00:00:00Z","name_a2s":"Uncletopia | Chicago | 2 | All Maps","protocol":17,"map":"cp_dustbowl","folder":"tf","game":"Team Fortress","app_id":440,"player_count":24,"max_players":24,"Bots":0,"server_type":"Dedicated","server_os":"Linux","password":true,"vac":true,"version":"7961495","steam_id":85568392924469985,"keywords":["cp","nocrits","nodmgspread","uncletopia"],"game_id":440,"stv_port":27026,"stv_name":"Uncletopia | Chicago | 2 | All Maps | STV","players":[{"user_id":295,"name":"MedRed™ #IATAH","steam_id":76561198002962970,"connected_time":3482000000000,"state":"active","ping":97},{"user_id":320,"name":"Chirunomo","steam_id":76561197963956138,"connected_time":848000000000,"state":"active","ping":105},{"user_id":321,"name":"Saul Goodman","steam_id":76561198958881101,"connected_time":833000000000,"state":"active","ping":78},{"user_id":322,"name":"giant_dork","steam_id":76561199105606956,"connected_time":829000000000,"state":"active","ping":70},{"user_id":314,"name":"Dokkibai","steam_id":76561198355935693,"connected_time":1483000000000,"state":"active","ping":45},{"user_id":309,"name":"yELLow","steam_id":76561198178488195,"connected_time":1883000000000,"state":"active","ping":60},{"user_id":279,"name":"oddbilly","steam_id":76561198117082744,"connected_time":3992000000000,"state":"active","ping":60},{"user_id":265,"name":"Buckler","steam_id":76561197969421355,"connected_time":5214000000000,"state":"active","ping":83},{"user_id":303,"name":"Lia_Rein","steam_id":76561198151569597,"connected_time":2980000000000,"state":"active","ping":150},{"user_id":74,"name":"Sonic Mania 2 [100 Real Leaked","steam_id":76561198062764039,"connected_time":24018000000000,"state":"active","ping":153},{"user_id":325,"name":"Zoot","steam_id":76561198121944243,"connected_time":52000000000,"state":"active","ping":59},{"user_id":307,"name":"Architect","steam_id":76561198015242016,"connected_time":2274000000000,"state":"active","ping":45},{"user_id":308,"name":"c64guy","steam_id":76561198023022744,"connected_time":1924000000000,"state":"active","ping":62},{"user_id":271,"name":"Laventhey","steam_id":76561198977523626,"connected_time":4546000000000,"state":"active","ping":70},{"user_id":326,"name":"H C N","steam_id":76561198106290021,"connected_time":38000000000,"state":"active","ping":67},{"user_id":294,"name":"Clean Lines","steam_id":76561197960691518,"connected_time":3491000000000,"state":"active","ping":46},{"user_id":268,"name":"Icybullets","steam_id":76561198950782310,"connected_time":4867000000000,"state":"active","ping":67},{"user_id":318,"name":"Shockwhale","steam_id":76561198019445127,"connected_time":989000000000,"state":"active","ping":69},{"user_id":259,"name":"hej","steam_id":76561197996366940,"connected_time":5662000000000,"state":"active","ping":60},{"user_id":313,"name":"NeoN","steam_id":76561198117608366,"connected_time":1579000000000,"state":"active","ping":49},{"user_id":282,"name":"Wiggs is the Shiggs","steam_id":76561198078379719,"connected_time":3768000000000,"state":"active","ping":123},{"user_id":317,"name":"EnderDanWie","steam_id":76561198336586325,"connected_time":1303000000000,"state":"active","ping":165},{"user_id":324,"name":"Quartzalcoatl","steam_id":76561198044944584,"connected_time":808000000000,"state":"active","ping":84},{"user_id":289,"name":"Chicago Shoplifter","steam_id":76561197986530028,"connected_time":3551000000000,"state":"active","ping":87}]},{"server_id":402,"name":"Uncletopia | Chicago | 3 | All Maps","name_short":"chi-3","host":"chi-1.us.uncletopia.com","port":27035,"enabled":true,"region":"us-central","cc":"us","latitude":41.881832,"longitude":-87.62318,"reserved":0,"last_update":"0001-01-01T00:00:00Z","name_a2s":"Uncletopia | Chicago | 3 | All Maps","protocol":17,"map":"pl_barnblitz","folder":"tf","game":"Team Fortress","app_id":440,"player_count":24,"max_players":24,"Bots":0,"server_type":"Dedicated","server_os":"Linux","password":true,"vac":true,"version":"7961495","steam_id":85568392924515191,"keywords":["nocrits","nodmgspread","payload","uncletopia"],"game_id":440,"stv_port":27036,"stv_name":"Uncletopia | Chicago | 3 | All Maps | STV","players":[{"user_id":321,"name":"Hazeyboi","steam_id":76561198130687838,"connected_time":1048000000000,"state":"active","ping":45},{"user_id":322,"name":"garypiss","steam_id":76561198066790131,"connected_time":1042000000000,"state":"active","ping":70},{"user_id":286,"name":"rickyrickyricky","steam_id":76561198041765918,"connected_time":4955000000000,"state":"active","ping":79},{"user_id":296,"name":"Cleverless Biped","steam_id":76561198045984856,"connected_time":3330000000000,"state":"active","ping":114},{"user_id":306,"name":"Mr. Tickle","steam_id":76561198126684647,"connected_time":2817000000000,"state":"active","ping":59},{"user_id":324,"name":"Mer","steam_id":76561198192171041,"connected_time":1035000000000,"state":"active","ping":150},{"user_id":294,"name":"sock_vendor","steam_id":76561198059103865,"connected_time":3495000000000,"state":"active","ping":72},{"user_id":297,"name":"=Silver=","steam_id":76561198292307127,"connected_time":3292000000000,"state":"active","ping":96},{"user_id":325,"name":"Kick Down Door 6:00AM TUCK☃RO","steam_id":76561197976146738,"connected_time":1032000000000,"state":"active","ping":84},{"user_id":310,"name":"Q Whang","steam_id":76561198122479810,"connected_time":2434000000000,"state":"active","ping":58},{"user_id":253,"name":"TechnoBear2099","steam_id":76561198238863596,"connected_time":7560000000000,"state":"active","ping":70},{"user_id":299,"name":"GuyGoom","steam_id":76561198254522178,"connected_time":3246000000000,"state":"active","ping":61},{"user_id":311,"name":"Robo Boss","steam_id":76561199067098696,"connected_time":2418000000000,"state":"active","ping":91},{"user_id":315,"name":"Firedust19","steam_id":76561198153238631,"connected_time":1696000000000,"state":"active","ping":111},{"user_id":333,"name":"JetZ","steam_id":76561199122488957,"connected_time":478000000000,"state":"active","ping":73},{"user_id":308,"name":"the.land.of.avalon","steam_id":76561198245431668,"connected_time":2720000000000,"state":"active","ping":70},{"user_id":332,"name":"Other Players, My One Weakness","steam_id":76561197989247588,"connected_time":710000000000,"state":"active","ping":63},{"user_id":327,"name":"cotton","steam_id":76561198018652890,"connected_time":1025000000000,"state":"active","ping":66},{"user_id":334,"name":"yomommasabitch","steam_id":76561198323217150,"connected_time":308000000000,"state":"active","ping":71},{"user_id":288,"name":"LegendaireNic","steam_id":76561198211753861,"connected_time":4934000000000,"state":"active","ping":70},{"user_id":335,"name":"The Roto Grip Exotic Gem","steam_id":76561197961141994,"connected_time":75000000000,"state":"active","ping":79},{"user_id":316,"name":"tony","steam_id":76561199085242309,"connected_time":1666000000000,"state":"active","ping":106},{"user_id":320,"name":"UnforeseenCabbages","steam_id":76561198079386608,"connected_time":1366000000000,"state":"active","ping":77},{"user_id":330,"name":"Hallowedspoon","steam_id":76561199141350399,"connected_time":979000000000,"state":"active","ping":84}]},{"server_id":403,"name":"Uncletopia | Chicago | 4 | All Maps","name_short":"chi-4","host":"chi-1.us.uncletopia.com","port":27045,"enabled":true,"region":"us-central","cc":"us","latitude":41.881832,"longitude":-87.62318,"reserved":0,"last_update":"0001-01-01T00:00:00Z","name_a2s":"Uncletopia | Chicago | 4 | All Maps","protocol":17,"map":"koth_viaduct","folder":"tf","game":"Team Fortress","app_id":440,"player_count":24,"max_players":24,"Bots":0,"server_type":"Dedicated","server_os":"Linux","password":true,"vac":true,"version":"7961495","steam_id":85568392924515193,"keywords":["cp","nocrits","nodmgspread","uncletopia"],"game_id":440,"stv_port":27046,"stv_name":"Uncletopia | Chicago | 4 | All Maps | STV","players":[{"user_id":193,"name":"https://popnmusic.fandom.com","steam_id":76561198061497429,"connected_time":1063000000000,"state":"active","ping":59},{"user_id":195,"name":"drugger. (makster implant)","steam_id":76561198353463585,"connected_time":949000000000,"state":"active","ping":67},{"user_id":201,"name":"majima construction employee","steam_id":76561198441246401,"connected_time":185000000000,"state":"active","ping":54},{"user_id":176,"name":"Shoeshocker","steam_id":76561198174302467,"connected_time":1887000000000,"state":"active","ping":71},{"user_id":198,"name":"GoodleShoes/ttv","steam_id":76561198030993521,"connected_time":563000000000,"state":"active","ping":67},{"user_id":191,"name":"Cam","steam_id":76561198139174433,"connected_time":1229000000000,"state":"active","ping":88},{"user_id":178,"name":"✨✨ BOILING PIZZA ✨✨","steam_id":76561198354108114,"connected_time":1857000000000,"state":"active","ping":79},{"user_id":190,"name":"just call me joe","steam_id":76561198043911582,"connected_time":1230000000000,"state":"active","ping":62},{"user_id":199,"name":"zeplinnn","steam_id":76561198301300987,"connected_time":537000000000,"state":"active","ping":92},{"user_id":161,"name":"DualiTea","steam_id":76561198081733870,"connected_time":3274000000000,"state":"active","ping":57},{"user_id":112,"name":"The World's Softest Sandwich","steam_id":76561198015577707,"connected_time":7794000000000,"state":"active","ping":74},{"user_id":172,"name":"rei ayanami plush (real)","steam_id":76561198401646789,"connected_time":2246000000000,"state":"active","ping":85},{"user_id":167,"name":"Jimbabwe","steam_id":76561198065373807,"connected_time":2581000000000,"state":"active","ping":65},{"user_id":120,"name":"Homocide","steam_id":76561199500265332,"connected_time":6378000000000,"state":"active","ping":69},{"user_id":192,"name":"TrOgDoR o==[]:::::::::::\u003e ^.=.^","steam_id":76561198041079607,"connected_time":1200000000000,"state":"active","ping":42},{"user_id":104,"name":"Okpar","steam_id":76561199221067945,"connected_time":8290000000000,"state":"active","ping":99},{"user_id":155,"name":"jimmyfnaf172198yay","steam_id":76561198311446636,"connected_time":3798000000000,"state":"active","ping":64},{"user_id":200,"name":"WindWaker","steam_id":76561198245941534,"connected_time":371000000000,"state":"active","ping":75},{"user_id":197,"name":"uzr","steam_id":76561198799343084,"connected_time":600000000000,"state":"active","ping":106},{"user_id":188,"name":"sadako","steam_id":76561198170642407,"connected_time":1308000000000,"state":"active","ping":75},{"user_id":106,"name":"CTriggerHurt","steam_id":76561198036209556,"connected_time":8112000000000,"state":"active","ping":78},{"user_id":144,"name":"beta central","steam_id":76561198301876831,"connected_time":4956000000000,"state":"active","ping":59},{"user_id":110,"name":"Fresh Lychee","steam_id":76561198045399559,"connected_time":8032000000000,"state":"active","ping":59},{"user_id":196,"name":"DiamondEpsilon","steam_id":76561198203883311,"connected_time":949000000000,"state":"active","ping":86}]},{"server_id":36,"name":"Uncletopia | Chicago | 5 | All Maps","name_short":"chi-5","host":"chi-2.us.uncletopia.com","port":27015,"enabled":true,"region":"us-central","cc":"us","latitude":41.881832,"longitude":-87.62318,"reserved":0,"last_update":"0001-01-01T00:00:00Z","name_a2s":"Uncletopia | Chicago | 5 | All Maps","protocol":17,"map":"pl_badwater","folder":"tf","game":"Team Fortress","app_id":440,"player_count":24,"max_players":24,"Bots":0,"server_type":"Dedicated","server_os":"Linux","password":true,"vac":true,"version":"7961495","steam_id":85568392924866362,"keywords":["nocrits","nodmgspread","payload","uncletopia"],"game_id":440,"stv_port":27016,"stv_name":"Uncletopia | Chicago | 5 | All Maps | STV","players":[{"user_id":20,"name":"Mr.President","steam_id":76561198971144834,"connected_time":2046000000000,"state":"active","ping":67},{"user_id":21,"name":"SpaceLeezerd","steam_id":76561198171026678,"connected_time":1949000000000,"state":"active","ping":65},{"user_id":22,"name":"Big Bill Haywood","steam_id":76561198142290733,"connected_time":1917000000000,"state":"active","ping":70},{"user_id":41,"name":"101_the_Robot","steam_id":76561198331039848,"connected_time":1391000000000,"state":"active","ping":187},{"user_id":54,"name":"Breakaway","steam_id":76561198089308523,"connected_time":753000000000,"state":"active","ping":88},{"user_id":55,"name":"good boy","steam_id":76561198012590103,"connected_time":547000000000,"state":"active","ping":69},{"user_id":42,"name":"gideon nav my beloved","steam_id":76561198259092181,"connected_time":1375000000000,"state":"active","ping":66},{"user_id":29,"name":"Squiddy_odd","steam_id":76561198849240604,"connected_time":1648000000000,"state":"active","ping":61},{"user_id":31,"name":"JGatsby","steam_id":76561198023307584,"connected_time":1601000000000,"state":"active","ping":48},{"user_id":32,"name":"󠁳 ⁧fortnite56k","steam_id":76561198404564240,"connected_time":1594000000000,"state":"active","ping":72},{"user_id":33,"name":"bingus :3","steam_id":76561199198633203,"connected_time":1590000000000,"state":"active","ping":100},{"user_id":34,"name":"SneakyJayMLP","steam_id":76561198969565685,"connected_time":1589000000000,"state":"active","ping":76},{"user_id":35,"name":"Xrath","steam_id":76561198220741860,"connected_time":1588000000000,"state":"active","ping":67},{"user_id":36,"name":"bonk man","steam_id":76561198386542309,"connected_time":1582000000000,"state":"active","ping":88},{"user_id":37,"name":"Kduck","steam_id":76561198092171095,"connected_time":1572000000000,"state":"active","ping":66},{"user_id":59,"name":"Nicopico","steam_id":76561198080371321,"connected_time":78000000000,"state":"spawning","ping":114},{"user_id":58,"name":"sea pig","steam_id":76561198068257774,"connected_time":104000000000,"state":"active","ping":99},{"user_id":44,"name":"Bman","steam_id":76561199056871297,"connected_time":1354000000000,"state":"active","ping":97},{"user_id":45,"name":"SlitherDoodle","steam_id":76561198000275473,"connected_time":1293000000000,"state":"active","ping":130},{"user_id":46,"name":"el wiwi","steam_id":76561198857304367,"connected_time":1274000000000,"state":"active","ping":96},{"user_id":47,"name":"bdkaine1","steam_id":76561198133545467,"connected_time":1236000000000,"state":"active","ping":64},{"user_id":56,"name":"Owl Pacino","steam_id":76561197979970666,"connected_time":483000000000,"state":"active","ping":56},{"user_id":53,"name":"Andrew","steam_id":76561198070615190,"connected_time":805000000000,"state":"active","ping":61},{"user_id":50,"name":"Several geollos screaming","steam_id":76561198291326102,"connected_time":1215000000000,"state":"active","ping":143}]},{"server_id":37,"name":"Uncletopia | Chicago | 6 | All Maps","name_short":"chi-6","host":"chi-2.us.uncletopia.com","port":27025,"enabled":true,"region":"us-central","cc":"us","latitude":41.881832,"longitude":-87.62318,"reserved":0,"last_update":"0001-01-01T00:00:00Z","name_a2s":"Uncletopia | Chicago | 6 | All Maps","protocol":17,"map":"koth_harvest_final","folder":"tf","game":"Team Fortress","app_id":440,"player_count":24,"max_players":24,"Bots":0,"server_type":"Dedicated","server_os":"Linux","password":true,"vac":true,"version":"7961495","steam_id":85568392924866363,"keywords":["cp","nocrits","nodmgspread","uncletopia"],"game_id":440,"stv_port":27026,"stv_name":"Uncletopia | Chicago | 6 | All Maps | STV","players":[{"user_id":289,"name":"Nestor","steam_id":76561198070782619,"connected_time":60000000000,"state":"active","ping":71},{"user_id":252,"name":"Octto","steam_id":76561198070124921,"connected_time":3759000000000,"state":"active","ping":52},{"user_id":270,"name":"Gram Tokers Count Doinkula","steam_id":76561198112811565,"connected_time":1434000000000,"state":"active","ping":73},{"user_id":275,"name":"Acro","steam_id":76561198092451804,"connected_time":919000000000,"state":"active","ping":72},{"user_id":262,"name":"Monterfart","steam_id":76561198125034271,"connected_time":2594000000000,"state":"active","ping":68},{"user_id":290,"name":"canakblasteran","steam_id":76561199472518822,"connected_time":51000000000,"state":"active","ping":103},{"user_id":291,"name":"misterspud","steam_id":76561198195306218,"connected_time":28000000000,"state":"active","ping":56},{"user_id":244,"name":"the zoo","steam_id":76561198013732450,"connected_time":4198000000000,"state":"active","ping":59},{"user_id":256,"name":"jan kili","steam_id":76561198289894834,"connected_time":2997000000000,"state":"active","ping":68},{"user_id":274,"name":"barefoot fruitscato","steam_id":76561198094225038,"connected_time":1092000000000,"state":"active","ping":54},{"user_id":287,"name":"msay","steam_id":76561198170888029,"connected_time":95000000000,"state":"active","ping":95},{"user_id":239,"name":"KILO","steam_id":76561199023056716,"connected_time":4600000000000,"state":"active","ping":66},{"user_id":282,"name":"BigBubble42","steam_id":76561198136286123,"connected_time":600000000000,"state":"active","ping":57},{"user_id":292,"name":"darkelaine227","steam_id":76561198097330521,"connected_time":19000000000,"state":"active","ping":155},{"user_id":254,"name":"S1r Gibby","steam_id":76561198107152354,"connected_time":3363000000000,"state":"active","ping":51},{"user_id":232,"name":"Peepster","steam_id":76561198297854733,"connected_time":5218000000000,"state":"active","ping":72},{"user_id":283,"name":"Dude","steam_id":76561199058616824,"connected_time":596000000000,"state":"active","ping":75},{"user_id":233,"name":"DaMultiversalist","steam_id":76561198239552412,"connected_time":5173000000000,"state":"active","ping":70},{"user_id":237,"name":"ed cook","steam_id":76561198043987486,"connected_time":4640000000000,"state":"active","ping":64},{"user_id":281,"name":"Cybernetic Froge","steam_id":76561199084544376,"connected_time":860000000000,"state":"active","ping":79},{"user_id":268,"name":"jolo","steam_id":76561198042831480,"connected_time":1554000000000,"state":"active","ping":74},{"user_id":258,"name":"canerom","steam_id":76561199037536878,"connected_time":2972000000000,"state":"active","ping":85},{"user_id":286,"name":"Terry Crews from Brooklyn 99","steam_id":76561198357806819,"connected_time":276000000000,"state":"active","ping":76},{"user_id":190,"name":"Claybae","steam_id":76561198064290179,"connected_time":7436000000000,"state":"active","ping":85}]},{"server_id":38,"name":"Uncletopia | Chicago | 7 | Stopwatch","name_short":"chi-7","host":"chi-2.us.uncletopia.com","port":27035,"enabled":true,"region":"us-central","cc":"us","latitude":41.881832,"longitude":-87.62318,"reserved":0,"last_update":"0001-01-01T00:00:00Z","name_a2s":"Uncletopia | Chicago | 7 | Stopwatch","protocol":17,"map":"workshop/koth_product_final.ugc454272353","folder":"tf","game":"Team Fortress","app_id":440,"player_count":0,"max_players":24,"Bots":0,"server_type":"Dedicated","server_os":"Linux","password":true,"vac":true,"version":"7961495","steam_id":85568392924866364,"keywords":["cp","nocrits","nodmgspread","uncletopia"],"game_id":440,"stv_port":27036,"stv_name":"Uncletopia | Chicago | 7 | Stopwatch | STV","players":null},{"server_id":39,"name":"Uncletopia | Chicago | 8 | Community","name_short":"chi-8","host":"chi-2.us.uncletopia.com","port":27045,"enabled":true,"region":"us-central","cc":"us","latitude":41.881832,"longitude":-87.62318,"reserved":0,"last_update":"0001-01-01T00:00:00Z","name_a2s":"Uncletopia | Chicago | 8 | Community","protocol":17,"map":"workshop/koth_product_final.ugc454272353","folder":"tf","game":"Team Fortress","app_id":440,"player_count":0,"max_players":24,"Bots":0,"server_type":"Dedicated","server_os":"Linux","password":true,"vac":true,"version":"7961495","steam_id":85568392924866365,"keywords":["cp","nocrits","nodmgspread","uncletopia"],"game_id":440,"stv_port":27046,"stv_name":"Uncletopia | Chicago | 8 | Community | STV","players":null},{"server_id":8,"name":"Uncletopia | Dallas | 1 | All Maps","name_short":"dal-1","host":"dal-1.us.uncletopia.com","port":27015,"enabled":true,"region":"us-central","cc":"us","latitude":32.779167,"longitude":-96.80889,"reserved":0,"last_update":"0001-01-01T00:00:00Z","name_a2s":"Uncletopia | Dallas | 1 | All Maps","protocol":17,"map":"cp_snakewater_final1","folder":"tf","game":"Team Fortress","app_id":440,"player_count":24,"max_players":24,"Bots":0,"server_type":"Dedicated","server_os":"Linux","password":true,"vac":true,"version":"7961495","steam_id":85568392924469986,"keywords":["cp","nocrits","nodmgspread","uncletopia"],"game_id":440,"stv_port":27016,"stv_name":"Uncletopia | Dallas | 1 | All Maps | STV","players":[{"user_id":155,"name":"JayTheNoob247_","steam_id":76561199348803437,"connected_time":4775000000000,"state":"active","ping":91},{"user_id":183,"name":"no vc no c","steam_id":76561197989503095,"connected_time":3200000000000,"state":"active","ping":181},{"user_id":205,"name":"Maggot-Milk","steam_id":76561199110151157,"connected_time":1602000000000,"state":"active","ping":87},{"user_id":191,"name":"hounschellxd","steam_id":76561198165243870,"connected_time":2928000000000,"state":"active","ping":49},{"user_id":192,"name":"Glizzy Gladiator","steam_id":76561198255306298,"connected_time":2716000000000,"state":"active","ping":61},{"user_id":212,"name":"neet","steam_id":76561197968115168,"connected_time":42000000000,"state":"active","ping":68},{"user_id":209,"name":"CherryPieRed2023","steam_id":76561198998007496,"connected_time":1327000000000,"state":"active","ping":111},{"user_id":213,"name":"techdeck","steam_id":76561199022751661,"connected_time":14000000000,"state":"spawning","ping":63},{"user_id":214,"name":"Deltaco","steam_id":76561198094572694,"connected_time":7000000000,"state":"spawning","ping":124},{"user_id":165,"name":"scout_main","steam_id":76561198987628993,"connected_time":4326000000000,"state":"active","ping":92},{"user_id":178,"name":"Final Boss","steam_id":76561198006081383,"connected_time":3782000000000,"state":"active","ping":84},{"user_id":198,"name":"Dragus","steam_id":76561198032967285,"connected_time":2338000000000,"state":"active","ping":62},{"user_id":176,"name":"biggamehntr887","steam_id":76561198999431215,"connected_time":3851000000000,"state":"active","ping":76},{"user_id":215,"name":"flm","steam_id":76561198144052860,"connected_time":4000000000,"state":"spawning","ping":98},{"user_id":216,"name":"Hayden Jacobs","steam_id":76561198082200738,"connected_time":0,"state":"connecting","ping":0},{"user_id":62,"name":"Rennsellaer","steam_id":76561198096207580,"connected_time":13670000000000,"state":"active","ping":76},{"user_id":186,"name":"aviarAzul","steam_id":76561198802088064,"connected_time":3133000000000,"state":"active","ping":79},{"user_id":210,"name":"bear","steam_id":76561198313696546,"connected_time":608000000000,"state":"active","ping":88},{"user_id":188,"name":"CampinCarl","steam_id":76561197997373624,"connected_time":3115000000000,"state":"active","ping":77},{"user_id":204,"name":"mutant demonic imp","steam_id":76561198132803810,"connected_time":1624000000000,"state":"active","ping":60},{"user_id":201,"name":"\u003e:J","steam_id":76561198353456379,"connected_time":2312000000000,"state":"active","ping":60},{"user_id":189,"name":"Captain Demytri","steam_id":76561198097998607,"connected_time":3103000000000,"state":"active","ping":75},{"user_id":194,"name":"Valenhart","steam_id":76561198354036240,"connected_time":2666000000000,"state":"active","ping":83},{"user_id":195,"name":"Lain","steam_id":76561198029303534,"connected_time":2415000000000,"state":"active","ping":60}]},{"server_id":108,"name":"Uncletopia | Dallas | 2 | All Maps","name_short":"dal-2","host":"dal-1.us.uncletopia.com","port":27025,"enabled":true,"region":"us-central","cc":"us","latitude":32.779167,"longitude":-96.80889,"reserved":0,"last_update":"0001-01-01T00:00:00Z","name_a2s":"Uncletopia | Dallas | 2 | All Maps","protocol":17,"map":"pl_borneo","folder":"tf","game":"Team Fortress","app_id":440,"player_count":24,"max_players":24,"Bots":0,"server_type":"Dedicated","server_os":"Linux","password":true,"vac":true,"version":"7961495","steam_id":85568392924469988,"keywords":["nocrits","nodmgspread","payload","uncletopia"],"game_id":440,"stv_port":27026,"stv_name":"Uncletopia | Dallas | 2 | All Maps | STV","players":[{"user_id":240,"name":"Snoopy","steam_id":76561198273735974,"connected_time":1200000000000,"state":"active","ping":73},{"user_id":259,"name":"surf","steam_id":76561198136838719,"connected_time":238000000000,"state":"active","ping":59},{"user_id":231,"name":"Alkimia","steam_id":76561198385763137,"connected_time":1754000000000,"state":"active","ping":224},{"user_id":104,"name":"Lolxdloldx","steam_id":76561198136887125,"connected_time":4652000000000,"state":"active","ping":101},{"user_id":252,"name":"GROOMER KILLER","steam_id":76561198059500571,"connected_time":335000000000,"state":"active","ping":60},{"user_id":230,"name":"a rabbit with a keyboard","steam_id":76561198129051488,"connected_time":1827000000000,"state":"active","ping":77},{"user_id":257,"name":"gooch_masta","steam_id":76561198151578423,"connected_time":291000000000,"state":"active","ping":83},{"user_id":197,"name":"Kdash","steam_id":76561198043829155,"connected_time":3155000000000,"state":"active","ping":57},{"user_id":251,"name":"Quick-Fix","steam_id":76561198295501978,"connected_time":410000000000,"state":"active","ping":54},{"user_id":183,"name":"Can You Feel It Mr.Krabs","steam_id":76561198128302414,"connected_time":3624000000000,"state":"active","ping":71},{"user_id":234,"name":"ben","steam_id":76561198319336957,"connected_time":1620000000000,"state":"active","ping":92},{"user_id":254,"name":"Gerard","steam_id":76561198053456194,"connected_time":323000000000,"state":"active","ping":59},{"user_id":221,"name":"YoteDab McFapDab.jpg","steam_id":76561197984870380,"connected_time":2062000000000,"state":"active","ping":88},{"user_id":255,"name":"Queuetimeevent","steam_id":76561198079438423,"connected_time":317000000000,"state":"active","ping":70},{"user_id":213,"name":"bunny","steam_id":76561198194067598,"connected_time":2747000000000,"state":"active","ping":79},{"user_id":227,"name":"The Sydney Sleeper Itself","steam_id":76561198180251763,"connected_time":1885000000000,"state":"active","ping":61},{"user_id":256,"name":"Aino","steam_id":76561198053662930,"connected_time":304000000000,"state":"active","ping":109},{"user_id":258,"name":"Rat Smacker","steam_id":76561199090197628,"connected_time":286000000000,"state":"active","ping":69},{"user_id":246,"name":"Open Mailbox","steam_id":76561198051933580,"connected_time":751000000000,"state":"active","ping":113},{"user_id":244,"name":"lego star wars on the psp","steam_id":76561198148014773,"connected_time":922000000000,"state":"active","ping":98},{"user_id":241,"name":"\u003c3","steam_id":76561198244081950,"connected_time":1164000000000,"state":"active","ping":442},{"user_id":228,"name":"Hero Smasher","steam_id":76561198150681669,"connected_time":1883000000000,"state":"active","ping":93},{"user_id":260,"name":"jumpingjacks","steam_id":76561197964839440,"connected_time":116000000000,"state":"active","ping":76},{"user_id":120,"name":"Birby","steam_id":76561198884009768,"connected_time":4399000000000,"state":"active","ping":101}]},{"server_id":404,"name":"Uncletopia | Dallas | 3 | All Maps","name_short":"dal-3","host":"dal-1.us.uncletopia.com","port":27035,"enabled":true,"region":"us-central","cc":"us","latitude":32.779167,"longitude":-96.80889,"reserved":0,"last_update":"0001-01-01T00:00:00Z","name_a2s":"Uncletopia | Dallas | 3 | All Maps","protocol":17,"map":"cp_sunshine","folder":"tf","game":"Team Fortress","app_id":440,"player_count":24,"max_players":24,"Bots":0,"server_type":"Dedicated","server_os":"Linux","password":true,"vac":true,"version":"7961495","steam_id":85568392924515219,"keywords":["cp","nocrits","nodmgspread","uncletopia"],"game_id":440,"stv_port":27036,"stv_name":"Uncletopia | Dallas | 3 | All Maps | STV","players":[{"user_id":73,"name":"CamWtheDestroyer","steam_id":76561198950777742,"connected_time":869000000000,"state":"active","ping":143},{"user_id":77,"name":"for the king","steam_id":76561197973488858,"connected_time":789000000000,"state":"active","ping":74},{"user_id":56,"name":"jairo","steam_id":76561199006124613,"connected_time":1917000000000,"state":"active","ping":110},{"user_id":53,"name":"Testicular Torsion","steam_id":76561198025207814,"connected_time":2171000000000,"state":"active","ping":73},{"user_id":12,"name":"Jobius","steam_id":76561198145561348,"connected_time":4367000000000,"state":"active","ping":73},{"user_id":37,"name":"The Family Business","steam_id":76561198107249245,"connected_time":3338000000000,"state":"active","ping":69},{"user_id":85,"name":"Pnobio","steam_id":76561197998863667,"connected_time":157000000000,"state":"active","ping":134},{"user_id":72,"name":"7thelden","steam_id":76561198297428761,"connected_time":912000000000,"state":"active","ping":84},{"user_id":78,"name":"Joe the Hooligan","steam_id":76561198814429079,"connected_time":772000000000,"state":"active","ping":69},{"user_id":49,"name":"checkswing","steam_id":76561198999816132,"connected_time":2392000000000,"state":"active","ping":105},{"user_id":19,"name":"Drained","steam_id":76561198081974528,"connected_time":3776000000000,"state":"active","ping":66},{"user_id":42,"name":"Al Cabone","steam_id":76561198956823243,"connected_time":2662000000000,"state":"active","ping":60},{"user_id":71,"name":"GenericName","steam_id":76561198104074968,"connected_time":954000000000,"state":"active","ping":72},{"user_id":79,"name":"Jovo","steam_id":76561197993265970,"connected_time":765000000000,"state":"active","ping":101},{"user_id":65,"name":"mkl","steam_id":76561197986401685,"connected_time":1272000000000,"state":"active","ping":56},{"user_id":80,"name":"Green eggs and ham","steam_id":76561198043507340,"connected_time":764000000000,"state":"active","ping":119},{"user_id":83,"name":"motherofdragons96","steam_id":76561198864779097,"connected_time":448000000000,"state":"active","ping":84},{"user_id":39,"name":"Whompert","steam_id":76561198042939624,"connected_time":3113000000000,"state":"active","ping":96},{"user_id":82,"name":"bobbymcbobington","steam_id":76561199089411172,"connected_time":457000000000,"state":"active","ping":124},{"user_id":54,"name":"otw way to mars off the bars","steam_id":76561199085974120,"connected_time":2060000000000,"state":"active","ping":92},{"user_id":38,"name":"b0urbaki7","steam_id":76561198141342345,"connected_time":3214000000000,"state":"active","ping":91},{"user_id":67,"name":"Philo","steam_id":76561198061873341,"connected_time":1134000000000,"state":"active","ping":95},{"user_id":84,"name":"Chromatic Bliss","steam_id":76561198252604816,"connected_time":259000000000,"state":"active","ping":102},{"user_id":76,"name":"terrapieseven","steam_id":76561198072062415,"connected_time":858000000000,"state":"active","ping":103}]},{"server_id":405,"name":"Uncletopia | Dallas | 4 | Community","name_short":"dal-4","host":"dal-1.us.uncletopia.com","port":27045,"enabled":true,"region":"us-central","cc":"us","latitude":32.779167,"longitude":-96.80889,"reserved":0,"last_update":"0001-01-01T00:00:00Z","name_a2s":"Uncletopia | Dallas | 4 | Community","protocol":17,"map":"pl_pier","folder":"tf","game":"Team Fortress","app_id":440,"player_count":0,"max_players":24,"Bots":0,"server_type":"Dedicated","server_os":"Linux","password":true,"vac":true,"version":"7961495","steam_id":85568392924515220,"keywords":["nocrits","nodmgspread","payload","uncletopia"],"game_id":440,"stv_port":27046,"stv_name":"Uncletopia | Dallas | 4 | Community | STV","players":null},{"server_id":5,"name":"Uncletopia | Frankfurt | 1 | All Maps","name_short":"frk-1","host":"frk-1.de.uncletopia.com","port":27015,"enabled":true,"region":"eu","cc":"de","latitude":50.110924,"longitude":8.682127,"reserved":0,"last_update":"0001-01-01T00:00:00Z","name_a2s":"Uncletopia | Frankfurt | 1 | All Maps","protocol":17,"map":"pl_swiftwater_final1","folder":"tf","game":"Team Fortress","app_id":440,"player_count":24,"max_players":24,"Bots":0,"server_type":"Dedicated","server_os":"Linux","password":true,"vac":true,"version":"7961495","steam_id":85568392924469989,"keywords":["nocrits","nodmgspread","payload","uncletopia"],"game_id":440,"stv_port":27016,"stv_name":"Uncletopia | Frankfurt | 1 | All Maps | STV","players":[{"user_id":476,"name":"dumbai","steam_id":76561199098418729,"connected_time":265000000000,"state":"active","ping":95},{"user_id":483,"name":"♂ MGE ♂ PUPSIK ♂","steam_id":76561198308302932,"connected_time":21000000000,"state":"spawning","ping":91},{"user_id":470,"name":"Seijuro","steam_id":76561197992648099,"connected_time":674000000000,"state":"active","ping":69},{"user_id":471,"name":"sp00ky","steam_id":76561199181412601,"connected_time":673000000000,"state":"active","ping":171},{"user_id":472,"name":"dash.","steam_id":76561198084796149,"connected_time":654000000000,"state":"active","ping":51},{"user_id":482,"name":"Arsonist","steam_id":76561199087953833,"connected_time":62000000000,"state":"active","ping":116},{"user_id":467,"name":"Nonok","steam_id":76561199480685498,"connected_time":803000000000,"state":"active","ping":92},{"user_id":475,"name":"Fran","steam_id":76561199070516960,"connected_time":470000000000,"state":"active","ping":55},{"user_id":455,"name":"kalumuna","steam_id":76561197996957462,"connected_time":1749000000000,"state":"active","ping":92},{"user_id":405,"name":"niko","steam_id":76561198195617573,"connected_time":4981000000000,"state":"active","ping":66},{"user_id":403,"name":"KFC Watermelonn","steam_id":76561198127593818,"connected_time":5168000000000,"state":"active","ping":64},{"user_id":450,"name":"domek","steam_id":76561198048447632,"connected_time":2209000000000,"state":"active","ping":60},{"user_id":477,"name":"Caliban","steam_id":76561197999696839,"connected_time":263000000000,"state":"active","ping":103},{"user_id":479,"name":"fischman","steam_id":76561199064142670,"connected_time":236000000000,"state":"active","ping":57},{"user_id":435,"name":"NO end to POOTIS","steam_id":76561198144879361,"connected_time":3136000000000,"state":"active","ping":119},{"user_id":436,"name":"Dmitry Kerman","steam_id":76561198300020540,"connected_time":3075000000000,"state":"active","ping":102},{"user_id":463,"name":"Dewritos Nacho Red","steam_id":76561198048324872,"connected_time":1255000000000,"state":"active","ping":57},{"user_id":481,"name":"Syll","steam_id":76561198040736202,"connected_time":82000000000,"state":"active","ping":83},{"user_id":437,"name":"alfredos","steam_id":76561198874296631,"connected_time":3050000000000,"state":"active","ping":77},{"user_id":480,"name":"ALARM","steam_id":76561198120686521,"connected_time":226000000000,"state":"active","ping":52},{"user_id":422,"name":"coffee","steam_id":76561198382387303,"connected_time":3687000000000,"state":"active","ping":88},{"user_id":453,"name":"skippy","steam_id":76561198171958773,"connected_time":1900000000000,"state":"active","ping":81},{"user_id":462,"name":"Kecskeszar","steam_id":76561199401478121,"connected_time":1336000000000,"state":"active","ping":59},{"user_id":473,"name":"tobi ^︿^","steam_id":76561198023388785,"connected_time":654000000000,"state":"active","ping":57}]},{"server_id":110,"name":"Uncletopia | Frankfurt | 2 | All Maps","name_short":"frk-2","host":"frk-1.de.uncletopia.com","port":27025,"enabled":true,"region":"eu","cc":"de","latitude":50.110924,"longitude":8.682127,"reserved":0,"last_update":"0001-01-01T00:00:00Z","name_a2s":"Uncletopia | Frankfurt | 2 | All Maps","protocol":17,"map":"cp_dustbowl","folder":"tf","game":"Team Fortress","app_id":440,"player_count":24,"max_players":24,"Bots":0,"server_type":"Dedicated","server_os":"Linux","password":true,"vac":true,"version":"7961495","steam_id":85568392924469990,"keywords":["cp","nocrits","nodmgspread","uncletopia"],"game_id":440,"stv_port":27026,"stv_name":"Uncletopia | Frankfurt | 2 | All Maps | STV","players":[{"user_id":316,"name":"Wardruna96","steam_id":76561199057083828,"connected_time":7367000000000,"state":"active","ping":73},{"user_id":400,"name":"Testicular torsion","steam_id":76561198119547399,"connected_time":78000000000,"state":"active","ping":56},{"user_id":291,"name":"Emiza","steam_id":76561198120524962,"connected_time":8521000000000,"state":"active","ping":84},{"user_id":381,"name":"cuddles","steam_id":76561198805181599,"connected_time":1290000000000,"state":"active","ping":68},{"user_id":324,"name":"Tactical Kerbal","steam_id":76561198212970205,"connected_time":6546000000000,"state":"active","ping":69},{"user_id":379,"name":"kastanomata","steam_id":76561198271832763,"connected_time":1576000000000,"state":"active","ping":96},{"user_id":387,"name":"videogaming","steam_id":76561198251927912,"connected_time":1050000000000,"state":"active","ping":76},{"user_id":389,"name":"Matbanan","steam_id":76561198228537672,"connected_time":626000000000,"state":"active","ping":84},{"user_id":391,"name":"scoutcasper","steam_id":76561199019266022,"connected_time":580000000000,"state":"active","ping":57},{"user_id":367,"name":"grigobno","steam_id":76561198037018719,"connected_time":2474000000000,"state":"active","ping":104},{"user_id":396,"name":"Master Of Noob","steam_id":76561198217926783,"connected_time":289000000000,"state":"active","ping":69},{"user_id":398,"name":"Fabian","steam_id":76561199071627976,"connected_time":188000000000,"state":"active","ping":63},{"user_id":369,"name":"CheesingBond","steam_id":76561198034939270,"connected_time":2466000000000,"state":"active","ping":100},{"user_id":380,"name":"hipster_doofus","steam_id":76561197970902697,"connected_time":1513000000000,"state":"active","ping":73},{"user_id":377,"name":"1914","steam_id":76561198257383813,"connected_time":1932000000000,"state":"active","ping":52},{"user_id":303,"name":"After8","steam_id":76561198090750865,"connected_time":7945000000000,"state":"active","ping":62},{"user_id":392,"name":"rafa1123","steam_id":76561198102810874,"connected_time":536000000000,"state":"active","ping":47},{"user_id":394,"name":"SʟɪᴘEɴOʀ","steam_id":76561197967931911,"connected_time":506000000000,"state":"active","ping":121},{"user_id":399,"name":"Far ∞","steam_id":76561199166149359,"connected_time":182000000000,"state":"active","ping":85},{"user_id":317,"name":"DrExplosive","steam_id":76561198063678579,"connected_time":7140000000000,"state":"active","ping":76},{"user_id":383,"name":"Purple Soup :D","steam_id":76561198985100366,"connected_time":1123000000000,"state":"active","ping":97},{"user_id":267,"name":"CzechMate #SaveTF2","steam_id":76561198012687703,"connected_time":9988000000000,"state":"active","ping":45},{"user_id":357,"name":"YARrICk.«+»","steam_id":76561197990126485,"connected_time":4075000000000,"state":"active","ping":63},{"user_id":363,"name":"mediocre sniper","steam_id":76561198010428082,"connected_time":2657000000000,"state":"active","ping":69}]},{"server_id":308,"name":"Uncletopia | Frankfurt | 3 | All Maps","name_short":"frk-3","host":"frk-1.de.uncletopia.com","port":27035,"enabled":true,"region":"eu","cc":"de","latitude":50.110924,"longitude":8.682127,"reserved":0,"last_update":"0001-01-01T00:00:00Z","name_a2s":"Uncletopia | Frankfurt | 3 | All Maps","protocol":17,"map":"pl_badwater","folder":"tf","game":"Team Fortress","app_id":440,"player_count":21,"max_players":24,"Bots":0,"server_type":"Dedicated","server_os":"Linux","password":true,"vac":true,"version":"7961495","steam_id":85568392924504274,"keywords":["nocrits","nodmgspread","payload","uncletopia"],"game_id":440,"stv_port":27036,"stv_name":"Uncletopia | Frankfurt | 3 | All Maps | STV","players":[{"user_id":413,"name":"Archive","steam_id":76561198071255385,"connected_time":179000000000,"state":"active","ping":87},{"user_id":306,"name":"galaxy","steam_id":76561198164819022,"connected_time":7809000000000,"state":"active","ping":67},{"user_id":410,"name":"Thin Diesel","steam_id":76561198364121077,"connected_time":502000000000,"state":"active","ping":86},{"user_id":392,"name":"Da Frosto","steam_id":76561198059588928,"connected_time":2094000000000,"state":"active","ping":46},{"user_id":416,"name":"viddy","steam_id":76561198004383856,"connected_time":74000000000,"state":"active","ping":85},{"user_id":411,"name":"Drunk Furry","steam_id":76561199108868522,"connected_time":357000000000,"state":"active","ping":84},{"user_id":403,"name":"Riky95","steam_id":76561198095289436,"connected_time":669000000000,"state":"active","ping":44},{"user_id":368,"name":"AndrewToasterr #SaveTF2","steam_id":76561198107159512,"connected_time":3293000000000,"state":"active","ping":60},{"user_id":391,"name":"No1. cripple","steam_id":76561199277602303,"connected_time":2152000000000,"state":"active","ping":69},{"user_id":412,"name":"Ransu","steam_id":76561198211750823,"connected_time":339000000000,"state":"active","ping":124},{"user_id":328,"name":"The Daniella","steam_id":76561198023075547,"connected_time":6324000000000,"state":"active","ping":61},{"user_id":417,"name":"RandomName","steam_id":76561198055552108,"connected_time":26000000000,"state":"active","ping":50},{"user_id":399,"name":"Nox Equites","steam_id":76561198115438449,"connected_time":1346000000000,"state":"active","ping":97},{"user_id":337,"name":"༼ ຈل͜ຈ༽","steam_id":76561198027166144,"connected_time":5962000000000,"state":"active","ping":79},{"user_id":400,"name":"Fired","steam_id":76561198054511813,"connected_time":894000000000,"state":"active","ping":80},{"user_id":407,"name":"Bobo","steam_id":76561198052308399,"connected_time":586000000000,"state":"active","ping":56},{"user_id":375,"name":"mr.resetti","steam_id":76561198974520642,"connected_time":2623000000000,"state":"active","ping":60},{"user_id":408,"name":"Rocadinis","steam_id":76561198095910616,"connected_time":586000000000,"state":"active","ping":90},{"user_id":364,"name":"flutterravie","steam_id":76561198020935990,"connected_time":3399000000000,"state":"active","ping":119},{"user_id":397,"name":"heddwch","steam_id":76561198076097983,"connected_time":1671000000000,"state":"active","ping":71},{"user_id":415,"name":"Civil Melon","steam_id":76561198988309618,"connected_time":112000000000,"state":"active","ping":89}]},{"server_id":309,"name":"Uncletopia | Frankfurt | 4 | All Maps","name_short":"frk-4","host":"frk-1.de.uncletopia.com","port":27045,"enabled":true,"region":"eu","cc":"de","latitude":50.110924,"longitude":8.682127,"reserved":0,"last_update":"0001-01-01T00:00:00Z","name_a2s":"Uncletopia | Frankfurt | 4 | All Maps","protocol":17,"map":"pl_upward","folder":"tf","game":"Team Fortress","app_id":440,"player_count":24,"max_players":24,"Bots":0,"server_type":"Dedicated","server_os":"Linux","password":true,"vac":true,"version":"7961495","steam_id":85568392924504275,"keywords":["nocrits","nodmgspread","payload","uncletopia"],"game_id":440,"stv_port":27046,"stv_name":"Uncletopia | Frankfurt | 4 | All Maps | STV","players":[{"user_id":569,"name":"Spaguetti","steam_id":76561198002913092,"connected_time":615000000000,"state":"active","ping":84},{"user_id":514,"name":"Egor Pomidor","steam_id":76561199175688390,"connected_time":3826000000000,"state":"active","ping":74},{"user_id":498,"name":"willus212","steam_id":76561199182615246,"connected_time":4727000000000,"state":"active","ping":88},{"user_id":536,"name":"realguy","steam_id":76561198821743257,"connected_time":2721000000000,"state":"active","ping":83},{"user_id":562,"name":"Splattted","steam_id":76561199327476294,"connected_time":1146000000000,"state":"active","ping":80},{"user_id":507,"name":"robbie","steam_id":76561198798195287,"connected_time":4274000000000,"state":"active","ping":64},{"user_id":546,"name":"General Petrov","steam_id":76561198027204104,"connected_time":1992000000000,"state":"active","ping":87},{"user_id":545,"name":"idenburg","steam_id":76561198063574956,"connected_time":2151000000000,"state":"active","ping":66},{"user_id":566,"name":"im a girl","steam_id":76561198101995942,"connected_time":967000000000,"state":"active","ping":80},{"user_id":540,"name":"Delta","steam_id":76561198268912848,"connected_time":2647000000000,"state":"active","ping":75},{"user_id":574,"name":"Buford D. Luffy","steam_id":76561198129828715,"connected_time":96000000000,"state":"active","ping":59},{"user_id":527,"name":"magic man","steam_id":76561198846827179,"connected_time":2922000000000,"state":"active","ping":80},{"user_id":511,"name":"Kili","steam_id":76561198138456346,"connected_time":4021000000000,"state":"active","ping":67},{"user_id":565,"name":"Towercat","steam_id":76561198013141793,"connected_time":997000000000,"state":"active","ping":69},{"user_id":550,"name":"agent_richi","steam_id":76561199218542987,"connected_time":1790000000000,"state":"active","ping":45},{"user_id":487,"name":"Finnish Farmer","steam_id":76561198205366043,"connected_time":5449000000000,"state":"active","ping":82},{"user_id":568,"name":"Gamlader","steam_id":76561198306177608,"connected_time":674000000000,"state":"active","ping":65},{"user_id":570,"name":"TheMilOne","steam_id":76561198058910512,"connected_time":555000000000,"state":"active","ping":63},{"user_id":571,"name":"PhilipptheVI","steam_id":76561198037505721,"connected_time":544000000000,"state":"active","ping":57},{"user_id":549,"name":"BabyYodaIsMySoda","steam_id":76561198321846861,"connected_time":1798000000000,"state":"active","ping":76},{"user_id":534,"name":"Scobra","steam_id":76561198000734400,"connected_time":2785000000000,"state":"active","ping":136},{"user_id":512,"name":"MIGHTY PISS","steam_id":76561198226378616,"connected_time":4019000000000,"state":"active","ping":82},{"user_id":572,"name":"Pudlich","steam_id":76561198300089671,"connected_time":535000000000,"state":"active","ping":69},{"user_id":573,"name":"Communist Loser","steam_id":76561198194272686,"connected_time":231000000000,"state":"active","ping":81}]},{"server_id":310,"name":"Uncletopia | Frankfurt | 5 | All Maps","name_short":"frk-5","host":"frk-1.de.uncletopia.com","port":27055,"enabled":true,"region":"eu","cc":"de","latitude":50.110924,"longitude":8.682127,"reserved":0,"last_update":"0001-01-01T00:00:00Z","name_a2s":"Uncletopia | Frankfurt | 5 | All Maps","protocol":17,"map":"pl_frontier_final","folder":"tf","game":"Team Fortress","app_id":440,"player_count":23,"max_players":24,"Bots":0,"server_type":"Dedicated","server_os":"Linux","password":true,"vac":true,"version":"7961495","steam_id":85568392924504277,"keywords":["nocrits","nodmgspread","payload","uncletopia"],"game_id":440,"stv_port":27056,"stv_name":"Uncletopia | Frankfurt | 5 | All Maps | STV","players":[{"user_id":383,"name":"aaris123","steam_id":76561198845303952,"connected_time":5487000000000,"state":"active","ping":89},{"user_id":427,"name":"Imperial City Guard","steam_id":76561198083355845,"connected_time":2354000000000,"state":"active","ping":55},{"user_id":453,"name":"Alyx","steam_id":76561198064654326,"connected_time":203000000000,"state":"active","ping":76},{"user_id":417,"name":"Tony","steam_id":76561198128993838,"connected_time":3109000000000,"state":"active","ping":70},{"user_id":387,"name":"XPullaHiiri","steam_id":76561198031652375,"connected_time":4923000000000,"state":"active","ping":86},{"user_id":404,"name":"swashbuckler_helicopter1997","steam_id":76561198343328308,"connected_time":3967000000000,"state":"active","ping":71},{"user_id":440,"name":"G4merSz3mcsi (▰˘◡˘▰)","steam_id":76561199055233794,"connected_time":821000000000,"state":"active","ping":72},{"user_id":434,"name":"Rimx","steam_id":76561198053034840,"connected_time":1902000000000,"state":"active","ping":92},{"user_id":407,"name":"eva","steam_id":76561198054474684,"connected_time":3563000000000,"state":"active","ping":74},{"user_id":444,"name":"The Engineer","steam_id":76561199437330739,"connected_time":505000000000,"state":"active","ping":81},{"user_id":426,"name":"Nanope","steam_id":76561198040056071,"connected_time":2366000000000,"state":"active","ping":51},{"user_id":455,"name":"Lanz","steam_id":76561198126356394,"connected_time":28000000000,"state":"active","ping":51},{"user_id":452,"name":"Tugazu","steam_id":76561198144223649,"connected_time":286000000000,"state":"active","ping":68},{"user_id":450,"name":"Tea","steam_id":76561198799243030,"connected_time":352000000000,"state":"active","ping":80},{"user_id":414,"name":"Isak","steam_id":76561198085959762,"connected_time":3192000000000,"state":"active","ping":78},{"user_id":423,"name":"pef","steam_id":76561198398629859,"connected_time":2727000000000,"state":"active","ping":102},{"user_id":435,"name":"grassesmode.exe","steam_id":76561198090167960,"connected_time":1648000000000,"state":"active","ping":90},{"user_id":397,"name":"H.J.","steam_id":76561197991313578,"connected_time":4659000000000,"state":"active","ping":88},{"user_id":438,"name":"Toasty5050","steam_id":76561198073540881,"connected_time":1297000000000,"state":"active","ping":44},{"user_id":454,"name":"Dangerous Andrew","steam_id":76561198067218981,"connected_time":155000000000,"state":"active","ping":72},{"user_id":433,"name":"korea","steam_id":76561198120520111,"connected_time":2077000000000,"state":"active","ping":50},{"user_id":411,"name":"Trollstoy","steam_id":76561198072017175,"connected_time":3525000000000,"state":"active","ping":66},{"user_id":451,"name":"energiske erik","steam_id":76561198044616068,"connected_time":349000000000,"state":"active","ping":95}]},{"server_id":311,"name":"Uncletopia | Frankfurt | 6 | All Maps","name_short":"frk-6","host":"frk-1.de.uncletopia.com","port":27065,"enabled":true,"region":"eu","cc":"de","latitude":50.110924,"longitude":8.682127,"reserved":0,"last_update":"0001-01-01T00:00:00Z","name_a2s":"Uncletopia | Frankfurt | 6 | All Maps","protocol":17,"map":"cp_process_final","folder":"tf","game":"Team Fortress","app_id":440,"player_count":24,"max_players":24,"Bots":0,"server_type":"Dedicated","server_os":"Linux","password":true,"vac":true,"version":"7961495","steam_id":85568392924504278,"keywords":["cp","nocrits","nodmgspread","uncletopia"],"game_id":440,"stv_port":27066,"stv_name":"Uncletopia | Frankfurt | 6 | All Maps | STV","players":[{"user_id":549,"name":"Mr. Mundy","steam_id":76561198132008918,"connected_time":7463000000000,"state":"active","ping":77},{"user_id":702,"name":"Da bodi do","steam_id":76561198131055184,"connected_time":296000000000,"state":"active","ping":59},{"user_id":670,"name":"I like apple","steam_id":76561198108115790,"connected_time":838000000000,"state":"active","ping":54},{"user_id":600,"name":"Lubi Animal","steam_id":76561199041620433,"connected_time":3758000000000,"state":"active","ping":48},{"user_id":630,"name":"JayKey","steam_id":76561198008847925,"connected_time":1897000000000,"state":"active","ping":56},{"user_id":583,"name":"Hexagon","steam_id":76561198151205758,"connected_time":5047000000000,"state":"active","ping":49},{"user_id":602,"name":"N1xD4","steam_id":76561199047686063,"connected_time":3729000000000,"state":"active","ping":63},{"user_id":693,"name":"snowii","steam_id":76561198836246326,"connected_time":461000000000,"state":"active","ping":72},{"user_id":683,"name":"FoOzTV","steam_id":76561197998636728,"connected_time":557000000000,"state":"active","ping":70},{"user_id":684,"name":"Eggy_The_Tyrone","steam_id":76561198036857277,"connected_time":547000000000,"state":"active","ping":64},{"user_id":548,"name":"Nick","steam_id":76561198036109469,"connected_time":7570000000000,"state":"active","ping":90},{"user_id":689,"name":"r^f nyanezt","steam_id":76561198253734265,"connected_time":536000000000,"state":"active","ping":103},{"user_id":694,"name":"Ragdoller","steam_id":76561198028525455,"connected_time":443000000000,"state":"active","ping":72},{"user_id":631,"name":"Snowy","steam_id":76561198169992461,"connected_time":1846000000000,"state":"active","ping":63},{"user_id":687,"name":"M4 SOPMOD II Enjoyer","steam_id":76561198155176802,"connected_time":543000000000,"state":"active","ping":146},{"user_id":688,"name":"๖ۣۜSir Robbiewolf","steam_id":76561198001357988,"connected_time":542000000000,"state":"active","ping":76},{"user_id":690,"name":"goz","steam_id":76561198155229347,"connected_time":514000000000,"state":"active","ping":53},{"user_id":707,"name":"Bobirulez","steam_id":76561198009125458,"connected_time":213000000000,"state":"active","ping":75},{"user_id":615,"name":"Rock..","steam_id":76561198004641963,"connected_time":3260000000000,"state":"active","ping":83},{"user_id":716,"name":"Baba Sraka","steam_id":76561198128292318,"connected_time":24000000000,"state":"active","ping":128},{"user_id":691,"name":"Nymph","steam_id":76561198042801329,"connected_time":512000000000,"state":"active","ping":54},{"user_id":619,"name":"itchy balls","steam_id":76561198364466446,"connected_time":2681000000000,"state":"active","ping":70},{"user_id":660,"name":"Remlap","steam_id":76561198097398971,"connected_time":1103000000000,"state":"active","ping":66},{"user_id":673,"name":"DEFENDOR62","steam_id":76561199386703896,"connected_time":804000000000,"state":"active","ping":64}]},{"server_id":23,"name":"Uncletopia | Frankfurt | 7 | Stopwatch","name_short":"frk-7","host":"frk-1.de.uncletopia.com","port":27075,"enabled":true,"region":"eu","cc":"de","latitude":50.110924,"longitude":8.682127,"reserved":0,"last_update":"0001-01-01T00:00:00Z","name_a2s":"Uncletopia | Frankfurt | 7 | Stopwatch","protocol":17,"map":"workshop/koth_bagel_rc6.ugc2514036946","folder":"tf","game":"Team Fortress","app_id":440,"player_count":0,"max_players":24,"Bots":0,"server_type":"Dedicated","server_os":"Linux","password":true,"vac":true,"version":"7961495","steam_id":85568392924742827,"keywords":["cp","nocrits","nodmgspread","uncletopia"],"game_id":440,"stv_port":27076,"stv_name":"Uncletopia | Frankfurt | 7 | Stopwatch | STV","players":null},{"server_id":24,"name":"Uncletopia | Frankfurt | 8 | Community","name_short":"frk-8","host":"frk-1.de.uncletopia.com","port":27085,"enabled":true,"region":"eu","cc":"de","latitude":50.110924,"longitude":8.682127,"reserved":0,"last_update":"0001-01-01T00:00:00Z","name_a2s":"Uncletopia | Frankfurt | 8 | Community","protocol":17,"map":"workshop/koth_bagel_rc6.ugc2514036946","folder":"tf","game":"Team Fortress","app_id":440,"player_count":8,"max_players":24,"Bots":0,"server_type":"Dedicated","server_os":"Linux","password":true,"vac":true,"version":"7961495","steam_id":85568392924742828,"keywords":["cp","nocrits","nodmgspread","uncletopia"],"game_id":440,"stv_port":27086,"stv_name":"Uncletopia | Frankfurt | 8 | Community | STV","players":[{"user_id":24,"name":"mridkmyname","steam_id":76561199053952121,"connected_time":1811000000000,"state":"active","ping":69},{"user_id":25,"name":"|TFT| Merlin_cat","steam_id":76561198346652467,"connected_time":1790000000000,"state":"active","ping":80},{"user_id":43,"name":"I-I","steam_id":76561198267969436,"connected_time":77000000000,"state":"active","ping":62},{"user_id":32,"name":"HailedClown","steam_id":76561199225239977,"connected_time":1063000000000,"state":"active","ping":157},{"user_id":38,"name":"F","steam_id":76561199149462792,"connected_time":265000000000,"state":"active","ping":63},{"user_id":41,"name":"garr","steam_id":76561197983869811,"connected_time":127000000000,"state":"active","ping":56},{"user_id":42,"name":"Ralistix","steam_id":76561198051654135,"connected_time":126000000000,"state":"active","ping":86},{"user_id":40,"name":"Sn1Ch","steam_id":76561198073076943,"connected_time":139000000000,"state":"active","ping":81}]},{"server_id":202,"name":"Uncletopia | Hong Kong | 1 | All Maps","name_short":"hgk-1","host":"hgk-1.hk.uncletopia.com","port":27015,"enabled":true,"region":"asia","cc":"hk","latitude":22.302711,"longitude":114.177216,"reserved":0,"last_update":"0001-01-01T00:00:00Z","name_a2s":"Uncletopia | Hong Kong | 1 | All Maps","protocol":17,"map":"pl_swiftwater_final1","folder":"tf","game":"Team Fortress","app_id":440,"player_count":0,"max_players":24,"Bots":0,"server_type":"Dedicated","server_os":"Linux","password":true,"vac":true,"version":"7961495","steam_id":85568392924494504,"keywords":["nocrits","nodmgspread","payload","uncletopia"],"game_id":440,"stv_port":27016,"stv_name":"Uncletopia | Hong Kong | 1 | All Maps | STV","players":null},{"server_id":1,"name":"Uncletopia | Los Angeles | 1 | All Maps","name_short":"lax-1","host":"lax-1.us.uncletopia.com","port":27015,"enabled":true,"region":"us-west","cc":"us","latitude":33.94279,"longitude":-118.41004,"reserved":0,"last_update":"0001-01-01T00:00:00Z","name_a2s":"Uncletopia | Los Angeles | 1 | All Maps","protocol":17,"map":"pl_frontier_final","folder":"tf","game":"Team Fortress","app_id":440,"player_count":24,"max_players":24,"Bots":0,"server_type":"Dedicated","server_os":"Linux","password":true,"vac":true,"version":"7961495","steam_id":85568392924469991,"keywords":["nocrits","nodmgspread","payload","uncletopia"],"game_id":440,"stv_port":27016,"stv_name":"Uncletopia | Los Angeles | 1 | All Maps | STV","players":[{"user_id":134,"name":"greens beans","steam_id":76561198153611491,"connected_time":1175000000000,"state":"active","ping":66},{"user_id":107,"name":"DJtrickshot2013","steam_id":76561199184622920,"connected_time":2805000000000,"state":"active","ping":104},{"user_id":142,"name":"can of Heinz Beans","steam_id":76561198806423231,"connected_time":660000000000,"state":"active","ping":87},{"user_id":129,"name":"Igrium","steam_id":76561198119549811,"connected_time":1236000000000,"state":"active","ping":62},{"user_id":135,"name":"Dracodemus","steam_id":76561198079518597,"connected_time":1168000000000,"state":"active","ping":100},{"user_id":126,"name":"BasedGod","steam_id":76561198061177973,"connected_time":1259000000000,"state":"active","ping":58},{"user_id":68,"name":"Useless","steam_id":76561198116079299,"connected_time":5886000000000,"state":"active","ping":85},{"user_id":117,"name":"baunter","steam_id":76561198024311871,"connected_time":2495000000000,"state":"active","ping":50},{"user_id":133,"name":"Blitzoetic","steam_id":76561198053239412,"connected_time":1196000000000,"state":"active","ping":56},{"user_id":136,"name":"Foreskin Man","steam_id":76561198060205015,"connected_time":1149000000000,"state":"active","ping":56},{"user_id":102,"name":"noceof","steam_id":76561198043656816,"connected_time":3209000000000,"state":"active","ping":171},{"user_id":140,"name":"Silverman_Cam","steam_id":76561198936168937,"connected_time":874000000000,"state":"active","ping":64},{"user_id":138,"name":"Sleuth","steam_id":76561198418288939,"connected_time":989000000000,"state":"active","ping":64},{"user_id":110,"name":"Pork Belly","steam_id":76561198053003142,"connected_time":2744000000000,"state":"active","ping":59},{"user_id":111,"name":"imng","steam_id":76561198014988031,"connected_time":2739000000000,"state":"active","ping":96},{"user_id":146,"name":"crimson","steam_id":76561198018725934,"connected_time":255000000000,"state":"active","ping":54},{"user_id":124,"name":"ShamroknRoll","steam_id":76561198984165109,"connected_time":1631000000000,"state":"active","ping":55},{"user_id":119,"name":"François Viète","steam_id":76561198072975518,"connected_time":2174000000000,"state":"active","ping":100},{"user_id":121,"name":"oog","steam_id":76561199089730744,"connected_time":1946000000000,"state":"active","ping":63},{"user_id":141,"name":"cajun thotsauce","steam_id":76561198101636066,"connected_time":865000000000,"state":"active","ping":45},{"user_id":147,"name":"Canuck","steam_id":76561197999152255,"connected_time":254000000000,"state":"active","ping":82},{"user_id":145,"name":"HeroOfTime","steam_id":76561199096218001,"connected_time":370000000000,"state":"active","ping":51},{"user_id":120,"name":"Max Headass","steam_id":76561198964210411,"connected_time":2159000000000,"state":"active","ping":49},{"user_id":139,"name":"JohhnyFromCali :7","steam_id":76561198044015725,"connected_time":885000000000,"state":"active","ping":86}]},{"server_id":112,"name":"Uncletopia | Los Angeles | 2 | All Maps","name_short":"lax-2","host":"lax-1.us.uncletopia.com","port":27025,"enabled":true,"region":"us-west","cc":"us","latitude":33.94279,"longitude":-118.41004,"reserved":0,"last_update":"0001-01-01T00:00:00Z","name_a2s":"Uncletopia | Los Angeles | 2 | All Maps","protocol":17,"map":"cp_mountainlab","folder":"tf","game":"Team Fortress","app_id":440,"player_count":0,"max_players":24,"Bots":0,"server_type":"Dedicated","server_os":"Linux","password":true,"vac":true,"version":"7961495","steam_id":85568392924469992,"keywords":["cp","nocrits","nodmgspread","uncletopia"],"game_id":440,"stv_port":27026,"stv_name":"Uncletopia | Los Angeles | 2 | All Maps | STV","players":null},{"server_id":324,"name":"Uncletopia | Los Angeles | 3 | All Maps","name_short":"lax-3","host":"lax-1.us.uncletopia.com","port":27035,"enabled":true,"region":"us-west","cc":"us","latitude":33.94279,"longitude":-118.41004,"reserved":0,"last_update":"0001-01-01T00:00:00Z","name_a2s":"Uncletopia | Los Angeles | 3 | All Maps","protocol":17,"map":"pl_badwater","folder":"tf","game":"Team Fortress","app_id":440,"player_count":0,"max_players":24,"Bots":0,"server_type":"Dedicated","server_os":"Linux","password":true,"vac":true,"version":"7961495","steam_id":85568392924510198,"keywords":["nocrits","nodmgspread","payload","uncletopia"],"game_id":440,"stv_port":27036,"stv_name":"Uncletopia | Los Angeles | 3 | All Maps | STV","players":null},{"server_id":25,"name":"Uncletopia | Los Angeles | 4 | Stopwatch","name_short":"lax-4","host":"lax-1.us.uncletopia.com","port":27045,"enabled":true,"region":"us-west","cc":"us","latitude":33.94279,"longitude":-118.41004,"reserved":0,"last_update":"0001-01-01T00:00:00Z","name_a2s":"Uncletopia | Los Angeles | 4 | Stopwatch","protocol":17,"map":"pl_barnblitz","folder":"tf","game":"Team Fortress","app_id":440,"player_count":0,"max_players":24,"Bots":0,"server_type":"Dedicated","server_os":"Linux","password":true,"vac":true,"version":"7961495","steam_id":85568392924510199,"keywords":["nocrits","nodmgspread","payload","uncletopia"],"game_id":440,"stv_port":27046,"stv_name":"Uncletopia | Los Angeles | 4 | Stopwatch | STV","players":null},{"server_id":11,"name":"Uncletopia | London | 1 | All Maps","name_short":"lon-1","host":"lon-1.uk.uncletopia.com","port":27015,"enabled":true,"region":"eu","cc":"gb","latitude":51.509865,"longitude":-0.118092,"reserved":0,"last_update":"0001-01-01T00:00:00Z","name_a2s":"Uncletopia | London | 1 | All Maps","protocol":17,"map":"cp_steel","folder":"tf","game":"Team Fortress","app_id":440,"player_count":24,"max_players":24,"Bots":0,"server_type":"Dedicated","server_os":"Linux","password":true,"vac":true,"version":"7961495","steam_id":85568392924367362,"keywords":["cp","nocrits","nodmgspread","uncletopia"],"game_id":440,"stv_port":27016,"stv_name":"Uncletopia | London | 1 | All Maps | STV","players":[{"user_id":635,"name":"bowchika wowa #SlavaUkraine","steam_id":76561198159564550,"connected_time":34000000000,"state":"active","ping":72},{"user_id":639,"name":"AKA_Sloth","steam_id":76561198031264376,"connected_time":20000000000,"state":"connecting","ping":59},{"user_id":593,"name":"Janneke Maan","steam_id":76561198069290924,"connected_time":5347000000000,"state":"active","ping":70},{"user_id":628,"name":"jimmy bob","steam_id":76561198319583692,"connected_time":869000000000,"state":"spawning","ping":73},{"user_id":588,"name":"rigel_","steam_id":76561198148640847,"connected_time":5552000000000,"state":"active","ping":77},{"user_id":640,"name":"anson2623","steam_id":76561198147658525,"connected_time":16000000000,"state":"spawning","ping":235},{"user_id":626,"name":"jonesy","steam_id":76561198073975078,"connected_time":933000000000,"state":"active","ping":53},{"user_id":609,"name":"SpacePig","steam_id":76561198044662873,"connected_time":2390000000000,"state":"active","ping":97},{"user_id":549,"name":"Sinnamonsters","steam_id":76561198423422354,"connected_time":8066000000000,"state":"spawning","ping":123},{"user_id":633,"name":"{UA} tom shelbey","steam_id":76561198080912087,"connected_time":45000000000,"state":"active","ping":63},{"user_id":630,"name":"whimsy.","steam_id":76561198878171763,"connected_time":136000000000,"state":"spawning","ping":57},{"user_id":567,"name":"Smoking problem","steam_id":76561198361351449,"connected_time":6925000000000,"state":"spawning","ping":38},{"user_id":616,"name":"CaptainC","steam_id":76561198319555514,"connected_time":1721000000000,"state":"active","ping":85},{"user_id":625,"name":"Prome","steam_id":76561199050383942,"connected_time":951000000000,"state":"active","ping":75},{"user_id":569,"name":"shooer!","steam_id":76561198110531281,"connected_time":6901000000000,"state":"spawning","ping":60},{"user_id":627,"name":"Bobby Dazzler 魔鐘","steam_id":76561198007405067,"connected_time":921000000000,"state":"active","ping":136},{"user_id":598,"name":"DaVitsChi","steam_id":76561199035895096,"connected_time":4143000000000,"state":"active","ping":152},{"user_id":641,"name":"Pomson Gaming","steam_id":76561199200442395,"connected_time":9000000000,"state":"spawning","ping":72},{"user_id":558,"name":"Anri Okita's Massive Milkers","steam_id":76561199186352720,"connected_time":7239000000000,"state":"active","ping":69},{"user_id":636,"name":"Swip3r","steam_id":76561198039789772,"connected_time":31000000000,"state":"active","ping":38},{"user_id":631,"name":"KnugenIV","steam_id":76561198127091993,"connected_time":86000000000,"state":"active","ping":59},{"user_id":637,"name":"the coom slayer (2016)","steam_id":76561198890193313,"connected_time":31000000000,"state":"active","ping":55},{"user_id":634,"name":"gman borat","steam_id":76561198041051148,"connected_time":44000000000,"state":"active","ping":78},{"user_id":638,"name":"technicolour","steam_id":76561198241561594,"connected_time":30000000000,"state":"active","ping":300}]},{"server_id":114,"name":"Uncletopia | London | 2 | All Maps","name_short":"lon-2","host":"lon-1.uk.uncletopia.com","port":27025,"enabled":true,"region":"eu","cc":"gb","latitude":51.509865,"longitude":-0.118092,"reserved":0,"last_update":"0001-01-01T00:00:00Z","name_a2s":"Uncletopia | London | 2 | All Maps","protocol":17,"map":"cp_mountainlab","folder":"tf","game":"Team Fortress","app_id":440,"player_count":25,"max_players":24,"Bots":0,"server_type":"Dedicated","server_os":"Linux","password":true,"vac":true,"version":"7961495","steam_id":85568392924470941,"keywords":["cp","nocrits","nodmgspread","uncletopia"],"game_id":440,"stv_port":27026,"stv_name":"Uncletopia | London | 2 | All Maps | STV","players":[{"user_id":534,"name":"pomson gaming (real)","steam_id":76561198411292601,"connected_time":145000000000,"state":"active","ping":130},{"user_id":492,"name":"Rigel","steam_id":76561198042636040,"connected_time":2424000000000,"state":"active","ping":85},{"user_id":530,"name":"kaiji_saleh","steam_id":76561199274325425,"connected_time":169000000000,"state":"active","ping":206},{"user_id":495,"name":"treelover69","steam_id":76561199207433674,"connected_time":1951000000000,"state":"active","ping":95},{"user_id":533,"name":"cry is free","steam_id":76561198097507847,"connected_time":153000000000,"state":"active","ping":78},{"user_id":511,"name":"siriusplay116","steam_id":76561199403847433,"connected_time":670000000000,"state":"active","ping":57},{"user_id":481,"name":"Barry Bee Benson","steam_id":76561198115199225,"connected_time":3361000000000,"state":"active","ping":58},{"user_id":551,"name":"fart fiend","steam_id":76561197998230791,"connected_time":3000000000,"state":"spawning","ping":59},{"user_id":505,"name":"Palm Trees","steam_id":76561198111462976,"connected_time":811000000000,"state":"active","ping":63},{"user_id":472,"name":"Joetron","steam_id":76561198267907985,"connected_time":4193000000000,"state":"active","ping":49},{"user_id":440,"name":"Penis Contortionist","steam_id":76561198073663784,"connected_time":5910000000000,"state":"active","ping":39},{"user_id":535,"name":"slug","steam_id":76561198065902089,"connected_time":144000000000,"state":"active","ping":64},{"user_id":538,"name":"BaCyka","steam_id":76561198029333533,"connected_time":135000000000,"state":"active","ping":61},{"user_id":536,"name":"( ͡° ͜ʖ ͡°)","steam_id":76561199196316280,"connected_time":141000000000,"state":"active","ping":96},{"user_id":396,"name":"howabe","steam_id":76561197996486818,"connected_time":9109000000000,"state":"active","ping":63},{"user_id":504,"name":"whatever","steam_id":76561198095943461,"connected_time":902000000000,"state":"active","ping":79},{"user_id":476,"name":"Emerald","steam_id":76561199141384216,"connected_time":3918000000000,"state":"active","ping":53},{"user_id":502,"name":"HMateH","steam_id":76561198048082032,"connected_time":1255000000000,"state":"active","ping":76},{"user_id":537,"name":"Jack","steam_id":76561198079575891,"connected_time":137000000000,"state":"active","ping":46},{"user_id":539,"name":"Scout Guy","steam_id":76561198097293587,"connected_time":127000000000,"state":"active","ping":79},{"user_id":540,"name":"[kot.bob]","steam_id":76561198990993971,"connected_time":125000000000,"state":"active","ping":135},{"user_id":541,"name":"Dmskooje","steam_id":76561198127600559,"connected_time":120000000000,"state":"active","ping":58},{"user_id":549,"name":"ATARAKSIA","steam_id":76561198119392756,"connected_time":36000000000,"state":"active","ping":89},{"user_id":543,"name":"Flick","steam_id":76561198001067990,"connected_time":94000000000,"state":"active","ping":50},{"user_id":544,"name":"csgn_tank","steam_id":76561199124027537,"connected_time":91000000000,"state":"active","ping":54}]},{"server_id":320,"name":"Uncletopia | London | 3 | All Maps","name_short":"lon-3","host":"lon-1.uk.uncletopia.com","port":27035,"enabled":true,"region":"eu","cc":"gb","latitude":51.509865,"longitude":-0.118092,"reserved":0,"last_update":"0001-01-01T00:00:00Z","name_a2s":"Uncletopia | London | 3 | All Maps","protocol":17,"map":"pl_goldrush","folder":"tf","game":"Team Fortress","app_id":440,"player_count":24,"max_players":24,"Bots":0,"server_type":"Dedicated","server_os":"Linux","password":true,"vac":true,"version":"7961495","steam_id":85568392924510192,"keywords":["nocrits","nodmgspread","payload","uncletopia"],"game_id":440,"stv_port":27036,"stv_name":"Uncletopia | London | 3 | All Maps | STV","players":[{"user_id":436,"name":"groyper_8814_bligger","steam_id":76561198276691164,"connected_time":149000000000,"state":"active","ping":74},{"user_id":421,"name":"Scorpionking","steam_id":76561197980983667,"connected_time":2174000000000,"state":"active","ping":74},{"user_id":428,"name":"Borazilla","steam_id":76561198083626821,"connected_time":723000000000,"state":"active","ping":122},{"user_id":433,"name":"Sludgester","steam_id":76561199071479527,"connected_time":652000000000,"state":"active","ping":62},{"user_id":383,"name":"hamilton","steam_id":76561198034096096,"connected_time":4882000000000,"state":"active","ping":132},{"user_id":423,"name":"Shoeman","steam_id":76561198126726364,"connected_time":2012000000000,"state":"active","ping":57},{"user_id":413,"name":"Patatata","steam_id":76561198152188319,"connected_time":2920000000000,"state":"active","ping":76},{"user_id":434,"name":"Tombobx","steam_id":76561198862443949,"connected_time":594000000000,"state":"active","ping":85},{"user_id":420,"name":"TheBeardedM1G","steam_id":76561198040208946,"connected_time":2484000000000,"state":"active","ping":41},{"user_id":435,"name":"Bulyto","steam_id":76561198043205202,"connected_time":585000000000,"state":"active","ping":76},{"user_id":427,"name":"Miquel128","steam_id":76561198274955794,"connected_time":826000000000,"state":"active","ping":85},{"user_id":379,"name":"Topool45","steam_id":76561199161389847,"connected_time":5659000000000,"state":"active","ping":124},{"user_id":406,"name":"Kitten","steam_id":76561198019027657,"connected_time":3289000000000,"state":"active","ping":88},{"user_id":212,"name":":3","steam_id":76561198169471853,"connected_time":17235000000000,"state":"active","ping":102},{"user_id":276,"name":"Ixsus\u003c3","steam_id":76561198094756869,"connected_time":12356000000000,"state":"active","ping":61},{"user_id":411,"name":"NotChloe","steam_id":76561198080658092,"connected_time":2940000000000,"state":"active","ping":63},{"user_id":419,"name":"silicon based life form","steam_id":76561199127121346,"connected_time":2676000000000,"state":"active","ping":57},{"user_id":390,"name":"BurningJoke","steam_id":76561199014358707,"connected_time":4464000000000,"state":"active","ping":61},{"user_id":424,"name":"yuno appreciator","steam_id":76561198083286511,"connected_time":1800000000000,"state":"active","ping":43},{"user_id":431,"name":"My left foot itches","steam_id":76561198078411001,"connected_time":701000000000,"state":"active","ping":89},{"user_id":282,"name":"Vilmukas","steam_id":76561199106648396,"connected_time":12309000000000,"state":"active","ping":74},{"user_id":380,"name":"Jarppa!","steam_id":76561197995834786,"connected_time":5537000000000,"state":"active","ping":75},{"user_id":432,"name":"Daenny","steam_id":76561198053088822,"connected_time":693000000000,"state":"active","ping":56},{"user_id":402,"name":"Zero Sleep Gaming","steam_id":76561198982674420,"connected_time":3589000000000,"state":"active","ping":46}]},{"server_id":321,"name":"Uncletopia | London | 4 | All Maps","name_short":"lon-4","host":"lon-1.uk.uncletopia.com","port":27045,"enabled":true,"region":"eu","cc":"gb","latitude":51.509865,"longitude":-0.118092,"reserved":0,"last_update":"0001-01-01T00:00:00Z","name_a2s":"Uncletopia | London | 4 | All Maps","protocol":17,"map":"pl_upward","folder":"tf","game":"Team Fortress","app_id":440,"player_count":24,"max_players":24,"Bots":0,"server_type":"Dedicated","server_os":"Linux","password":true,"vac":true,"version":"7961495","steam_id":85568392924510193,"keywords":["nocrits","nodmgspread","payload","uncletopia"],"game_id":440,"stv_port":27046,"stv_name":"Uncletopia | London | 4 | All Maps | STV","players":[{"user_id":533,"name":"Rad","steam_id":76561199001560866,"connected_time":1368000000000,"state":"active","ping":89},{"user_id":534,"name":"golfmastr","steam_id":76561198993144124,"connected_time":1348000000000,"state":"active","ping":61},{"user_id":538,"name":"Biggest Homie","steam_id":76561198373107677,"connected_time":1147000000000,"state":"active","ping":97},{"user_id":449,"name":"ABSOLUTE UNIT","steam_id":76561197972287320,"connected_time":8063000000000,"state":"active","ping":86},{"user_id":458,"name":"sHISSUS","steam_id":76561198211063493,"connected_time":7082000000000,"state":"active","ping":65},{"user_id":547,"name":"Ceasar","steam_id":76561198056590853,"connected_time":224000000000,"state":"active","ping":63},{"user_id":548,"name":"Bob Sacamano","steam_id":76561198085610701,"connected_time":220000000000,"state":"active","ping":97},{"user_id":526,"name":"bhalazs","steam_id":76561198248831634,"connected_time":1787000000000,"state":"active","ping":74},{"user_id":531,"name":"Plep","steam_id":76561198840259819,"connected_time":1394000000000,"state":"active","ping":61},{"user_id":545,"name":"KermSlinger","steam_id":76561198854027069,"connected_time":357000000000,"state":"active","ping":74},{"user_id":495,"name":"Lensy","steam_id":76561198124442128,"connected_time":3904000000000,"state":"active","ping":47},{"user_id":494,"name":"bapab","steam_id":76561198307556377,"connected_time":3922000000000,"state":"active","ping":50},{"user_id":481,"name":"Vitun vittu","steam_id":76561198110679463,"connected_time":5322000000000,"state":"active","ping":74},{"user_id":507,"name":"ST4F","steam_id":76561198262924022,"connected_time":2658000000000,"state":"active","ping":49},{"user_id":540,"name":"Shine","steam_id":76561198136297981,"connected_time":880000000000,"state":"active","ping":88},{"user_id":511,"name":"Aspartus","steam_id":76561198101385763,"connected_time":2388000000000,"state":"active","ping":44},{"user_id":484,"name":"sui","steam_id":76561198185348855,"connected_time":5034000000000,"state":"active","ping":81},{"user_id":520,"name":"The Chosen One","steam_id":76561199046984627,"connected_time":2012000000000,"state":"active","ping":155},{"user_id":544,"name":"Xtis","steam_id":76561198043837480,"connected_time":379000000000,"state":"active","ping":67},{"user_id":539,"name":"yuck","steam_id":76561197987249568,"connected_time":952000000000,"state":"active","ping":104},{"user_id":543,"name":"chickenoidi","steam_id":76561198449498382,"connected_time":609000000000,"state":"active","ping":100},{"user_id":521,"name":"Bagel","steam_id":76561198167747447,"connected_time":2008000000000,"state":"active","ping":120},{"user_id":524,"name":"Nittugai","steam_id":76561198067366462,"connected_time":1802000000000,"state":"active","ping":60},{"user_id":537,"name":"the grongle","steam_id":76561198989398023,"connected_time":1324000000000,"state":"active","ping":119}]},{"server_id":21,"name":"Uncletopia | London | 5 | All Maps","name_short":"lon-5","host":"lon-1.uk.uncletopia.com","port":27055,"enabled":true,"region":"eu","cc":"gb","latitude":51.509865,"longitude":-0.118092,"reserved":0,"last_update":"0001-01-01T00:00:00Z","name_a2s":"Uncletopia | London | 5 | All Maps","protocol":17,"map":"pl_upward","folder":"tf","game":"Team Fortress","app_id":440,"player_count":23,"max_players":24,"Bots":0,"server_type":"Dedicated","server_os":"Linux","password":true,"vac":true,"version":"7961495","steam_id":85568392924742829,"keywords":["nocrits","nodmgspread","payload","uncletopia"],"game_id":440,"stv_port":27056,"stv_name":"Uncletopia | London | 5 | All Maps | STV","players":[{"user_id":333,"name":"Oak","steam_id":76561198067315672,"connected_time":1756000000000,"state":"active","ping":44},{"user_id":323,"name":"spy's arent real","steam_id":76561198165871469,"connected_time":2518000000000,"state":"active","ping":66},{"user_id":255,"name":"Ullr","steam_id":76561198140547483,"connected_time":5170000000000,"state":"active","ping":42},{"user_id":293,"name":"GMsU | Rebikas","steam_id":76561198077053764,"connected_time":4102000000000,"state":"active","ping":60},{"user_id":311,"name":"I I | #saveTF2","steam_id":76561199101935057,"connected_time":3230000000000,"state":"active","ping":104},{"user_id":338,"name":"worgeral","steam_id":76561198050781898,"connected_time":1670000000000,"state":"active","ping":52},{"user_id":316,"name":"fortnite sweat","steam_id":76561198865534979,"connected_time":2920000000000,"state":"active","ping":59},{"user_id":275,"name":"Dingus4Bingus","steam_id":76561199162776745,"connected_time":4880000000000,"state":"active","ping":125},{"user_id":310,"name":"Technic","steam_id":76561198128096130,"connected_time":3369000000000,"state":"active","ping":52},{"user_id":356,"name":"Hasamnas","steam_id":76561199125038537,"connected_time":54000000000,"state":"active","ping":400},{"user_id":328,"name":"Jezal dan Luthar","steam_id":76561198989449047,"connected_time":2261000000000,"state":"active","ping":147},{"user_id":343,"name":"Kahvi","steam_id":76561198723244199,"connected_time":1199000000000,"state":"active","ping":90},{"user_id":276,"name":"JodeXtreme","steam_id":76561198044132935,"connected_time":4880000000000,"state":"active","ping":90},{"user_id":339,"name":"Grim the lemon","steam_id":76561199083433988,"connected_time":1631000000000,"state":"active","ping":59},{"user_id":354,"name":"etc","steam_id":76561197998394797,"connected_time":399000000000,"state":"active","ping":60},{"user_id":352,"name":"Visphiric","steam_id":76561198071938027,"connected_time":582000000000,"state":"active","ping":43},{"user_id":341,"name":"Louna","steam_id":76561198393344301,"connected_time":1352000000000,"state":"active","ping":98},{"user_id":346,"name":"Carrot","steam_id":76561198119340863,"connected_time":1155000000000,"state":"active","ping":46},{"user_id":349,"name":"Dombe","steam_id":76561198289424045,"connected_time":835000000000,"state":"active","ping":61},{"user_id":336,"name":"Wyvern786","steam_id":76561199137770636,"connected_time":1682000000000,"state":"active","ping":51},{"user_id":330,"name":"shh.... tiny carrots r sleeping","steam_id":76561198069649097,"connected_time":2167000000000,"state":"active","ping":62},{"user_id":353,"name":"Krabs","steam_id":76561198161679477,"connected_time":548000000000,"state":"active","ping":43},{"user_id":308,"name":"DaLuigi","steam_id":76561198054486188,"connected_time":3604000000000,"state":"active","ping":55}]},{"server_id":22,"name":"Uncletopia | London | 6 | All Maps","name_short":"lon-6","host":"lon-1.uk.uncletopia.com","port":27065,"enabled":true,"region":"eu","cc":"gb","latitude":51.509865,"longitude":-0.118092,"reserved":0,"last_update":"0001-01-01T00:00:00Z","name_a2s":"Uncletopia | London | 6 | All Maps","protocol":17,"map":"pl_rumford_event","folder":"tf","game":"Team Fortress","app_id":440,"player_count":24,"max_players":24,"Bots":0,"server_type":"Dedicated","server_os":"Linux","password":true,"vac":true,"version":"7961495","steam_id":85568392924742830,"keywords":["nocrits","nodmgspread","payload","uncletopia"],"game_id":440,"stv_port":27066,"stv_name":"Uncletopia | London | 6 | All Maps | STV","players":[{"user_id":354,"name":"void monad","steam_id":76561198117012334,"connected_time":154000000000,"state":"active","ping":103},{"user_id":345,"name":"Milosz52","steam_id":76561199060940204,"connected_time":1301000000000,"state":"active","ping":76},{"user_id":337,"name":"I AM DOT","steam_id":76561198354118090,"connected_time":2181000000000,"state":"active","ping":89},{"user_id":336,"name":"Saint","steam_id":76561198840591678,"connected_time":2334000000000,"state":"active","ping":87},{"user_id":322,"name":"cez","steam_id":76561198361380956,"connected_time":3217000000000,"state":"active","ping":43},{"user_id":223,"name":"Rez","steam_id":76561198410598772,"connected_time":8813000000000,"state":"active","ping":34},{"user_id":355,"name":"Aiya Leiß","steam_id":76561198067677196,"connected_time":142000000000,"state":"active","ping":59},{"user_id":340,"name":"Miiukade","steam_id":76561198089157860,"connected_time":2146000000000,"state":"active","ping":115},{"user_id":349,"name":"smjwels6","steam_id":76561198859868344,"connected_time":170000000000,"state":"active","ping":67},{"user_id":346,"name":"Ergas","steam_id":76561198860861032,"connected_time":726000000000,"state":"active","ping":73},{"user_id":350,"name":"Dr. Funkenstein","steam_id":76561197977816210,"connected_time":169000000000,"state":"active","ping":82},{"user_id":324,"name":"ra","steam_id":76561198239927434,"connected_time":3164000000000,"state":"active","ping":82},{"user_id":321,"name":"HaylingZar","steam_id":76561198053559897,"connected_time":3534000000000,"state":"active","ping":67},{"user_id":356,"name":"󠀡󠀡","steam_id":76561198059375315,"connected_time":103000000000,"state":"active","ping":71},{"user_id":325,"name":"TOP G","steam_id":76561198138928548,"connected_time":3157000000000,"state":"active","ping":66},{"user_id":309,"name":"Government Approved Amphetamine","steam_id":76561198303429751,"connected_time":3993000000000,"state":"active","ping":48},{"user_id":344,"name":"knyazF","steam_id":76561198163278585,"connected_time":1807000000000,"state":"active","ping":84},{"user_id":351,"name":"Borshyak","steam_id":76561199198442244,"connected_time":168000000000,"state":"active","ping":100},{"user_id":352,"name":"quickfast","steam_id":76561199438900919,"connected_time":167000000000,"state":"active","ping":45},{"user_id":347,"name":"Dave_G","steam_id":76561198203292668,"connected_time":571000000000,"state":"active","ping":79},{"user_id":353,"name":"A literal heavy","steam_id":76561199219233587,"connected_time":166000000000,"state":"active","ping":83},{"user_id":327,"name":"The Hat Fancier","steam_id":76561198004272825,"connected_time":3120000000000,"state":"active","ping":65},{"user_id":348,"name":"DanonArmagedon","steam_id":76561199448191521,"connected_time":399000000000,"state":"active","ping":120},{"user_id":313,"name":"Balls","steam_id":76561198086400484,"connected_time":3938000000000,"state":"active","ping":74}]},{"server_id":40,"name":"Uncletopia | London | 7 | Stopwatch","name_short":"lon-7","host":"lon-1.uk.uncletopia.com","port":27075,"enabled":true,"region":"eu","cc":"gb","latitude":51.509865,"longitude":-0.118092,"reserved":0,"last_update":"0001-01-01T00:00:00Z","name_a2s":"Uncletopia | London | 7 | Stopwatch","protocol":17,"map":"workshop/koth_bagel_rc6.ugc2514036946","folder":"tf","game":"Team Fortress","app_id":440,"player_count":0,"max_players":24,"Bots":0,"server_type":"Dedicated","server_os":"Linux","password":true,"vac":true,"version":"7961495","steam_id":85568392924964314,"keywords":["cp","nocrits","nodmgspread","uncletopia"],"game_id":440,"stv_port":27076,"stv_name":"Uncletopia | London | 7 | Stopwatch | STV","players":null},{"server_id":41,"name":"Uncletopia | London | 8 | Community","name_short":"lon-8","host":"lon-1.uk.uncletopia.com","port":27085,"enabled":true,"region":"eu","cc":"gb","latitude":51.509865,"longitude":-0.118092,"reserved":0,"last_update":"0001-01-01T00:00:00Z","name_a2s":"Uncletopia | London | 8 | Community","protocol":17,"map":"workshop/koth_ramjam_rc1.ugc459778887","folder":"tf","game":"Team Fortress","app_id":440,"player_count":0,"max_players":24,"Bots":0,"server_type":"Dedicated","server_os":"Linux","password":true,"vac":true,"version":"7961495","steam_id":85568392924964315,"keywords":["cp","nocrits","nodmgspread","uncletopia"],"game_id":440,"stv_port":27086,"stv_name":"Uncletopia | London | 8 | Community | STV","players":null},{"server_id":300,"name":"Uncletopia | Montréal | 1 | One Thousand Uncles","name_short":"mtl-1","host":"mtl-1.ca.uncletopia.com","port":27015,"enabled":true,"region":"us-east","cc":"ca","latitude":45.50889,"longitude":-73.56167,"reserved":0,"last_update":"0001-01-01T00:00:00Z","name_a2s":"","protocol":0,"map":"","folder":"","game":"","app_id":0,"player_count":7,"max_players":0,"Bots":0,"server_type":"","server_os":"","password":false,"vac":false,"version":"","steam_id":0,"keywords":null,"game_id":0,"stv_port":0,"stv_name":"","players":[{"user_id":300,"name":"backwoods","steam_id":76561198328109873,"connected_time":1899000000000,"state":"active","ping":68},{"user_id":301,"name":"Waaagh!","steam_id":76561197995317887,"connected_time":1309000000000,"state":"active","ping":30},{"user_id":152,"name":"puffy","steam_id":76561198411347037,"connected_time":12399000000000,"state":"active","ping":60},{"user_id":306,"name":"Негр южнее Сахар\ufffd","steam_id":76561199296042270,"connected_time":551000000000,"state":"active","ping":173},{"user_id":309,"name":"yeehaw rodeo","steam_id":76561199217503417,"connected_time":200000000000,"state":"active","ping":151},{"user_id":274,"name":"iamtheSpicer","steam_id":76561198263557044,"connected_time":3081000000000,"state":"active","ping":64},{"user_id":276,"name":"Elite_Friendly","steam_id":76561198819972127,"connected_time":2848000000000,"state":"active","ping":144}]},{"server_id":301,"name":"Uncletopia | Montréal | 2 | One Thousand Uncles","name_short":"mtl-2","host":"mtl-1.ca.uncletopia.com","port":27025,"enabled":true,"region":"us-east","cc":"ca","latitude":45.50889,"longitude":-73.56167,"reserved":0,"last_update":"0001-01-01T00:00:00Z","name_a2s":"","protocol":0,"map":"","folder":"","game":"","app_id":0,"player_count":0,"max_players":0,"Bots":0,"server_type":"","server_os":"","password":false,"vac":false,"version":"","steam_id":0,"keywords":null,"game_id":0,"stv_port":0,"stv_name":"","players":null},{"server_id":302,"name":"Uncletopia | Montréal | 3 | One Thousand Uncles","name_short":"mtl-3","host":"mtl-1.ca.uncletopia.com","port":27035,"enabled":true,"region":"us-east","cc":"ca","latitude":45.50889,"longitude":-73.56167,"reserved":0,"last_update":"0001-01-01T00:00:00Z","name_a2s":"","protocol":0,"map":"","folder":"","game":"","app_id":0,"player_count":13,"max_players":0,"Bots":0,"server_type":"","server_os":"","password":false,"vac":false,"version":"","steam_id":0,"keywords":null,"game_id":0,"stv_port":0,"stv_name":"","players":[{"user_id":147,"name":"xPoonDogg1977x","steam_id":76561198316094788,"connected_time":984000000000,"state":"active","ping":37},{"user_id":148,"name":"Sussin'","steam_id":76561198059813696,"connected_time":983000000000,"state":"active","ping":61},{"user_id":189,"name":"meowfang","steam_id":76561198123056791,"connected_time":34000000000,"state":"active","ping":59},{"user_id":113,"name":"Kazuma Yagami","steam_id":76561199044812516,"connected_time":4592000000000,"state":"active","ping":62},{"user_id":114,"name":"pipebombrater","steam_id":76561199029030831,"connected_time":4342000000000,"state":"active","ping":79},{"user_id":146,"name":"LtCrouton","steam_id":76561199158547745,"connected_time":1005000000000,"state":"active","ping":66},{"user_id":133,"name":"Im Groot","steam_id":76561198294943420,"connected_time":2615000000000,"state":"active","ping":83},{"user_id":134,"name":"Giant Two-Flusher","steam_id":76561199266846329,"connected_time":2347000000000,"state":"active","ping":59},{"user_id":169,"name":"stickg","steam_id":76561199193020423,"connected_time":674000000000,"state":"active","ping":113},{"user_id":171,"name":"Fat Female Over40","steam_id":76561198371166597,"connected_time":210000000000,"state":"active","ping":36},{"user_id":165,"name":"xXx_putrid_pigeon_xXx","steam_id":76561198103367994,"connected_time":960000000000,"state":"active","ping":64},{"user_id":141,"name":"QuakAtack","steam_id":76561198870770157,"connected_time":1676000000000,"state":"active","ping":71},{"user_id":172,"name":"Congcrab","steam_id":76561198078687685,"connected_time":200000000000,"state":"active","ping":85}]},{"server_id":13,"name":"Uncletopia | New York City | 1 | All Maps","name_short":"nyc-1","host":"nyc-1.us.uncletopia.com","port":27015,"enabled":true,"region":"us-east","cc":"us","latitude":40.73061,"longitude":-73.93524,"reserved":0,"last_update":"0001-01-01T00:00:00Z","name_a2s":"Uncletopia | New York City | 1 | All Maps","protocol":17,"map":"cp_snakewater_final1","folder":"tf","game":"Team Fortress","app_id":440,"player_count":24,"max_players":24,"Bots":0,"server_type":"Dedicated","server_os":"Linux","password":true,"vac":true,"version":"7961495","steam_id":85568392924469993,"keywords":["cp","nocrits","nodmgspread","uncletopia"],"game_id":440,"stv_port":27016,"stv_name":"Uncletopia | New York City | 1 | All Maps | STV","players":[{"user_id":260,"name":"nilftb","steam_id":76561198161952186,"connected_time":692000000000,"state":"active","ping":55},{"user_id":199,"name":"Ceige LFT","steam_id":76561198068538473,"connected_time":4589000000000,"state":"active","ping":90},{"user_id":237,"name":"Inevitable","steam_id":76561198210050169,"connected_time":1871000000000,"state":"active","ping":59},{"user_id":256,"name":"Wique","steam_id":76561198071217597,"connected_time":724000000000,"state":"active","ping":80},{"user_id":202,"name":"RanchEater","steam_id":76561198836436110,"connected_time":4557000000000,"state":"active","ping":63},{"user_id":226,"name":"flip","steam_id":76561198850545380,"connected_time":2827000000000,"state":"active","ping":175},{"user_id":253,"name":"Rylline","steam_id":76561198040374588,"connected_time":1300000000000,"state":"active","ping":72},{"user_id":234,"name":"piss man (fake)","steam_id":76561198286647221,"connected_time":2079000000000,"state":"active","ping":116},{"user_id":263,"name":"SpaceSanctum","steam_id":76561198805242305,"connected_time":30000000000,"state":"active","ping":44},{"user_id":238,"name":"pinkissocool {f2p}","steam_id":76561198989599828,"connected_time":1866000000000,"state":"active","ping":40},{"user_id":261,"name":"Silly-Brained Sh3ba","steam_id":76561198047412394,"connected_time":616000000000,"state":"active","ping":81},{"user_id":258,"name":"Drilly22","steam_id":76561198068838338,"connected_time":710000000000,"state":"active","ping":94},{"user_id":204,"name":"Fluffeline","steam_id":76561198352909489,"connected_time":4536000000000,"state":"active","ping":153},{"user_id":244,"name":"NovaSc6ut","steam_id":76561198277163301,"connected_time":1816000000000,"state":"active","ping":76},{"user_id":262,"name":"mild mannered mystery man","steam_id":76561198072095399,"connected_time":449000000000,"state":"active","ping":37},{"user_id":189,"name":"John Fortnite","steam_id":76561198076608253,"connected_time":6015000000000,"state":"active","ping":56},{"user_id":224,"name":"a tale of two toads","steam_id":76561198073269122,"connected_time":2882000000000,"state":"active","ping":57},{"user_id":194,"name":"Professional HotDog","steam_id":76561199250225639,"connected_time":5389000000000,"state":"active","ping":70},{"user_id":255,"name":"joachym","steam_id":76561198428579761,"connected_time":732000000000,"state":"active","ping":155},{"user_id":230,"name":"hrdurdur","steam_id":76561199204815638,"connected_time":2796000000000,"state":"active","ping":87},{"user_id":173,"name":"pea ttv/peabeanz","steam_id":76561198119551968,"connected_time":6864000000000,"state":"active","ping":71},{"user_id":241,"name":"Juggernaut","steam_id":76561198306730124,"connected_time":1859000000000,"state":"active","ping":55},{"user_id":259,"name":"Schizo Femboy","steam_id":76561199162627150,"connected_time":705000000000,"state":"active","ping":145},{"user_id":242,"name":"qmracerbt","steam_id":76561198533919986,"connected_time":1852000000000,"state":"active","ping":52}]},{"server_id":14,"name":"Uncletopia | New York City | 2 | All Maps","name_short":"nyc-2","host":"nyc-1.us.uncletopia.com","port":27025,"enabled":true,"region":"us-east","cc":"us","latitude":40.73061,"longitude":-73.93524,"reserved":0,"last_update":"0001-01-01T00:00:00Z","name_a2s":"Uncletopia | New York City | 2 | All Maps","protocol":17,"map":"koth_badlands","folder":"tf","game":"Team Fortress","app_id":440,"player_count":24,"max_players":24,"Bots":0,"server_type":"Dedicated","server_os":"Linux","password":true,"vac":true,"version":"7961495","steam_id":85568392924469994,"keywords":["cp","nocrits","nodmgspread","uncletopia"],"game_id":440,"stv_port":27026,"stv_name":"Uncletopia | New York City | 2 | All Maps | STV","players":[{"user_id":219,"name":"nonagon infinity","steam_id":76561198397662124,"connected_time":2788000000000,"state":"active","ping":97},{"user_id":258,"name":"big drink","steam_id":76561198882758067,"connected_time":5000000000,"state":"spawning","ping":59},{"user_id":250,"name":"A Fucking Degenerate","steam_id":76561198093261788,"connected_time":508000000000,"state":"active","ping":87},{"user_id":235,"name":"A_dude","steam_id":76561199261495418,"connected_time":1413000000000,"state":"active","ping":63},{"user_id":248,"name":"Chilidawg","steam_id":76561198108048855,"connected_time":594000000000,"state":"active","ping":63},{"user_id":251,"name":"Orange Triangle","steam_id":76561198320498182,"connected_time":485000000000,"state":"active","ping":77},{"user_id":247,"name":"reymundo","steam_id":76561197989412830,"connected_time":741000000000,"state":"active","ping":121},{"user_id":236,"name":"Coup de Grass","steam_id":76561198011643226,"connected_time":1411000000000,"state":"active","ping":73},{"user_id":197,"name":"bonk","steam_id":76561199158470103,"connected_time":4542000000000,"state":"active","ping":72},{"user_id":220,"name":"Chubbles","steam_id":76561198237619472,"connected_time":2782000000000,"state":"active","ping":58},{"user_id":238,"name":"sentient soup","steam_id":76561198887503216,"connected_time":1369000000000,"state":"active","ping":66},{"user_id":237,"name":"NERV","steam_id":76561198111023744,"connected_time":1406000000000,"state":"active","ping":64},{"user_id":213,"name":"TheWallaby","steam_id":76561198948037546,"connected_time":2993000000000,"state":"active","ping":50},{"user_id":199,"name":"Satori Komeiji","steam_id":76561198337692867,"connected_time":4498000000000,"state":"active","ping":71},{"user_id":205,"name":"LazyKoala99","steam_id":76561199183623672,"connected_time":3803000000000,"state":"active","ping":44},{"user_id":254,"name":"Dreamzapp","steam_id":76561199084936632,"connected_time":202000000000,"state":"active","ping":123},{"user_id":227,"name":"Nic0","steam_id":76561198305690218,"connected_time":1894000000000,"state":"active","ping":53},{"user_id":256,"name":"bambino","steam_id":76561198396348054,"connected_time":127000000000,"state":"active","ping":71},{"user_id":257,"name":"LittleFieryOne","steam_id":76561198107463724,"connected_time":112000000000,"state":"active","ping":74},{"user_id":189,"name":"just a little hater","steam_id":76561198326083509,"connected_time":5500000000000,"state":"active","ping":80},{"user_id":249,"name":"-InternalDeath-","steam_id":76561198866009351,"connected_time":588000000000,"state":"active","ping":59},{"user_id":255,"name":"Demon Slayer","steam_id":76561198179806930,"connected_time":180000000000,"state":"active","ping":70},{"user_id":230,"name":"Pablo Cornfield","steam_id":76561198154279297,"connected_time":1744000000000,"state":"active","ping":77},{"user_id":167,"name":"Jousty","steam_id":76561199162677853,"connected_time":6563000000000,"state":"active","ping":111}]},{"server_id":15,"name":"Uncletopia | New York City | 3 | Stopwatch","name_short":"nyc-3","host":"nyc-1.us.uncletopia.com","port":27035,"enabled":true,"region":"us-east","cc":"us","latitude":40.73061,"longitude":-73.93524,"reserved":0,"last_update":"0001-01-01T00:00:00Z","name_a2s":"Uncletopia | New York City | 3 | Stopwatch","protocol":17,"map":"koth_lakeside_final","folder":"tf","game":"Team Fortress","app_id":440,"player_count":0,"max_players":24,"Bots":0,"server_type":"Dedicated","server_os":"Linux","password":true,"vac":true,"version":"7961495","steam_id":85568392924742820,"keywords":["cp","nocrits","nodmgspread","uncletopia"],"game_id":440,"stv_port":27036,"stv_name":"Uncletopia | New York City | 3 | Stopwatch | STV","players":null},{"server_id":16,"name":"Uncletopia | New York City | 4 | Community","name_short":"nyc-4","host":"nyc-1.us.uncletopia.com","port":27045,"enabled":true,"region":"us-east","cc":"us","latitude":40.73061,"longitude":-73.93524,"reserved":0,"last_update":"0001-01-01T00:00:00Z","name_a2s":"Uncletopia | New York City | 4 | Community","protocol":17,"map":"workshop/koth_synthetic_rc6a.ugc1549817316","folder":"tf","game":"Team Fortress","app_id":440,"player_count":0,"max_players":24,"Bots":0,"server_type":"Dedicated","server_os":"Linux","password":true,"vac":true,"version":"7961495","steam_id":85568392924742821,"keywords":["cp","nocrits","nodmgspread","uncletopia"],"game_id":440,"stv_port":27046,"stv_name":"Uncletopia | New York City | 4 | Community | STV","players":null},{"server_id":142,"name":"Uncletopia | São Paulo | 1 | All Maps","name_short":"sao-1","host":"sao-1.br.uncletopia.com","port":27015,"enabled":true,"region":"sa","cc":"br","latitude":-23.533773,"longitude":-46.62529,"reserved":0,"last_update":"0001-01-01T00:00:00Z","name_a2s":"Uncletopia | São Paulo | 1 | All Maps","protocol":17,"map":"pl_snowycoast","folder":"tf","game":"Team Fortress","app_id":440,"player_count":0,"max_players":24,"Bots":0,"server_type":"Dedicated","server_os":"Linux","password":true,"vac":true,"version":"7961495","steam_id":85568392924469996,"keywords":["nocrits","nodmgspread","payload","uncletopia"],"game_id":440,"stv_port":27016,"stv_name":"Uncletopia | São Paulo | 1 | All Maps | STV","players":null},{"server_id":143,"name":"Uncletopia | São Paulo | 2 | Community","name_short":"sao-2","host":"sao-2.br.uncletopia.com","port":27015,"enabled":true,"region":"sa","cc":"br","latitude":-23.533773,"longitude":-46.62529,"reserved":0,"last_update":"0001-01-01T00:00:00Z","name_a2s":"Uncletopia | São Paulo | 2 | Community","protocol":17,"map":"workshop/pl_fifthcurve_rc1.ugc648227046","folder":"tf","game":"Team Fortress","app_id":440,"player_count":0,"max_players":24,"Bots":0,"server_type":"Dedicated","server_os":"Linux","password":true,"vac":true,"version":"7961495","steam_id":85568392924485349,"keywords":["nocrits","nodmgspread","payload","uncletopia"],"game_id":440,"stv_port":27016,"stv_name":"Uncletopia | São Paulo | 2 | Community | STV","players":null},{"server_id":7,"name":"Uncletopia | Seattle | 1 | All Maps","name_short":"sea-1","host":"sea-1.us.uncletopia.com","port":27015,"enabled":true,"region":"us-west","cc":"us","latitude":47.608013,"longitude":-122.33517,"reserved":0,"last_update":"0001-01-01T00:00:00Z","name_a2s":"Uncletopia | Seattle | 1 | All Maps","protocol":17,"map":"pl_barnblitz","folder":"tf","game":"Team Fortress","app_id":440,"player_count":25,"max_players":24,"Bots":0,"server_type":"Dedicated","server_os":"Linux","password":true,"vac":true,"version":"7961495","steam_id":85568392924469997,"keywords":["nocrits","nodmgspread","payload","uncletopia"],"game_id":440,"stv_port":27016,"stv_name":"Uncletopia | Seattle | 1 | All Maps | STV","players":[{"user_id":114,"name":"COOL master_9","steam_id":76561198073041151,"connected_time":2901000000000,"state":"active","ping":81},{"user_id":94,"name":"dearender","steam_id":76561199427644498,"connected_time":5148000000000,"state":"active","ping":54},{"user_id":136,"name":"Streamline","steam_id":76561198031098638,"connected_time":1036000000000,"state":"active","ping":102},{"user_id":85,"name":"owl","steam_id":76561198088403016,"connected_time":6148000000000,"state":"active","ping":152},{"user_id":147,"name":"Bige Rone","steam_id":76561198066718191,"connected_time":13000000000,"state":"spawning","ping":50},{"user_id":121,"name":"Spruce","steam_id":76561198081684676,"connected_time":2849000000000,"state":"active","ping":62},{"user_id":144,"name":"msay","steam_id":76561198170888029,"connected_time":273000000000,"state":"connecting","ping":0},{"user_id":138,"name":"Grweb","steam_id":76561198316741856,"connected_time":696000000000,"state":"active","ping":45},{"user_id":125,"name":"porfer","steam_id":76561199118049168,"connected_time":2195000000000,"state":"active","ping":78},{"user_id":134,"name":"vfa","steam_id":76561198055729118,"connected_time":1366000000000,"state":"active","ping":58},{"user_id":119,"name":"a familiar cat","steam_id":76561198080046542,"connected_time":2865000000000,"state":"active","ping":47},{"user_id":128,"name":"Greskrendtregk","steam_id":76561197969553142,"connected_time":1757000000000,"state":"active","ping":51},{"user_id":126,"name":"ilun","steam_id":76561198042913843,"connected_time":2154000000000,"state":"active","ping":53},{"user_id":132,"name":"Forty","steam_id":76561198257410181,"connected_time":1559000000000,"state":"active","ping":56},{"user_id":60,"name":"firestabber","steam_id":76561198057055577,"connected_time":9409000000000,"state":"active","ping":55},{"user_id":127,"name":"fwoov","steam_id":76561198129166260,"connected_time":1808000000000,"state":"active","ping":83},{"user_id":124,"name":"Grassman (Cc)","steam_id":76561198026488532,"connected_time":2340000000000,"state":"active","ping":60},{"user_id":117,"name":"Fh","steam_id":76561198000903511,"connected_time":2887000000000,"state":"active","ping":67},{"user_id":145,"name":"Bollar I din mun","steam_id":76561198334977151,"connected_time":272000000000,"state":"active","ping":69},{"user_id":123,"name":"fun guy","steam_id":76561198326208931,"connected_time":2545000000000,"state":"active","ping":55},{"user_id":146,"name":"Poundcake","steam_id":76561198042196918,"connected_time":220000000000,"state":"active","ping":46},{"user_id":107,"name":"dust | it/she","steam_id":76561198045218909,"connected_time":4494000000000,"state":"active","ping":38},{"user_id":137,"name":"Ping","steam_id":76561199206514106,"connected_time":858000000000,"state":"active","ping":114},{"user_id":89,"name":"xXBeef_SupreamXx","steam_id":76561199247095754,"connected_time":5848000000000,"state":"active","ping":62},{"user_id":143,"name":"Dimple","steam_id":76561198980324190,"connected_time":294000000000,"state":"active","ping":61}]},{"server_id":119,"name":"Uncletopia | Seattle | 2 | All Maps","name_short":"sea-2","host":"sea-1.us.uncletopia.com","port":27025,"enabled":true,"region":"us-west","cc":"us","latitude":47.608013,"longitude":-122.33517,"reserved":0,"last_update":"0001-01-01T00:00:00Z","name_a2s":"Uncletopia | Seattle | 2 | All Maps","protocol":17,"map":"cp_gullywash_final1","folder":"tf","game":"Team Fortress","app_id":440,"player_count":1,"max_players":24,"Bots":0,"server_type":"Dedicated","server_os":"Linux","password":true,"vac":true,"version":"7961495","steam_id":85568392924469998,"keywords":["cp","nocrits","nodmgspread","uncletopia"],"game_id":440,"stv_port":27026,"stv_name":"Uncletopia | Seattle | 2 | All Maps | STV","players":[{"user_id":10,"name":"cielael","steam_id":76561198043971956,"connected_time":303000000000,"state":"active","ping":70}]},{"server_id":406,"name":"Uncletopia | Seattle | 3 | Stopwatch","name_short":"sea-3","host":"sea-1.us.uncletopia.com","port":27035,"enabled":true,"region":"us-west","cc":"us","latitude":47.608013,"longitude":-122.33517,"reserved":0,"last_update":"0001-01-01T00:00:00Z","name_a2s":"Uncletopia | Seattle | 3 | Stopwatch","protocol":17,"map":"pl_pier","folder":"tf","game":"Team Fortress","app_id":440,"player_count":0,"max_players":24,"Bots":0,"server_type":"Dedicated","server_os":"Linux","password":true,"vac":true,"version":"7961495","steam_id":85568392924515217,"keywords":["nocrits","nodmgspread","payload","uncletopia"],"game_id":440,"stv_port":27036,"stv_name":"Uncletopia | Seattle | 3 | Stopwatch | STV","players":null},{"server_id":17,"name":"Uncletopia | San Francisco | 1 | All Maps","name_short":"sfo-1","host":"sfo-1.us.uncletopia.com","port":27015,"enabled":true,"region":"us-west","cc":"us","latitude":37.77397,"longitude":-122.4313,"reserved":0,"last_update":"0001-01-01T00:00:00Z","name_a2s":"Uncletopia | San Francisco | 1 | All Maps","protocol":17,"map":"koth_cascade","folder":"tf","game":"Team Fortress","app_id":440,"player_count":0,"max_players":24,"Bots":0,"server_type":"Dedicated","server_os":"Linux","password":true,"vac":true,"version":"7961495","steam_id":85568392924469999,"keywords":["cp","nocrits","nodmgspread","uncletopia"],"game_id":440,"stv_port":27016,"stv_name":"Uncletopia | San Francisco | 1 | All Maps | STV","players":null},{"server_id":18,"name":"Uncletopia | San Francisco | 2 | All Maps","name_short":"sfo-2","host":"sfo-1.us.uncletopia.com","port":27025,"enabled":true,"region":"us-west","cc":"us","latitude":37.77397,"longitude":-122.4313,"reserved":0,"last_update":"0001-01-01T00:00:00Z","name_a2s":"Uncletopia | San Francisco | 2 | All Maps","protocol":17,"map":"koth_cascade","folder":"tf","game":"Team Fortress","app_id":440,"player_count":6,"max_players":24,"Bots":0,"server_type":"Dedicated","server_os":"Linux","password":true,"vac":true,"version":"7961495","steam_id":85568392924470000,"keywords":["cp","nocrits","nodmgspread","uncletopia"],"game_id":440,"stv_port":27026,"stv_name":"Uncletopia | San Francisco | 2 | All Maps | STV","players":[{"user_id":11,"name":"ultraviolentlight","steam_id":76561198874956671,"connected_time":299000000000,"state":"active","ping":233},{"user_id":12,"name":"teddyplayzgames","steam_id":76561199055741408,"connected_time":292000000000,"state":"active","ping":241},{"user_id":14,"name":"FearMeisterMedusa","steam_id":76561198330311673,"connected_time":191000000000,"state":"active","ping":104},{"user_id":15,"name":"The Inn of Ill Omen","steam_id":76561198042402172,"connected_time":105000000000,"state":"active","ping":87},{"user_id":16,"name":"Beer69","steam_id":76561199131528964,"connected_time":92000000000,"state":"active","ping":68},{"user_id":17,"name":"Busta! Straight Busta!","steam_id":76561198121554252,"connected_time":83000000000,"state":"active","ping":95}]},{"server_id":19,"name":"Uncletopia | San Francisco | 3 | Stopwatch","name_short":"sfo-3","host":"sfo-1.us.uncletopia.com","port":27035,"enabled":true,"region":"us-west","cc":"us","latitude":37.77397,"longitude":-122.4313,"reserved":0,"last_update":"0001-01-01T00:00:00Z","name_a2s":"Uncletopia | San Francisco | 3 | Stopwatch","protocol":17,"map":"pl_pier","folder":"tf","game":"Team Fortress","app_id":440,"player_count":0,"max_players":24,"Bots":0,"server_type":"Dedicated","server_os":"Linux","password":true,"vac":true,"version":"7961495","steam_id":85568392924742824,"keywords":["nocrits","nodmgspread","payload","uncletopia"],"game_id":440,"stv_port":27036,"stv_name":"Uncletopia | San Francisco | 3 | Stopwatch | STV","players":null},{"server_id":20,"name":"Uncletopia | San Francisco | 4 | Community","name_short":"sfo-4","host":"sfo-1.us.uncletopia.com","port":27045,"enabled":true,"region":"us-west","cc":"us","latitude":37.77397,"longitude":-122.4313,"reserved":0,"last_update":"0001-01-01T00:00:00Z","name_a2s":"Uncletopia | San Francisco | 4 | Community","protocol":17,"map":"pl_pier","folder":"tf","game":"Team Fortress","app_id":440,"player_count":0,"max_players":24,"Bots":0,"server_type":"Dedicated","server_os":"Linux","password":true,"vac":true,"version":"7961495","steam_id":85568392924742826,"keywords":["nocrits","nodmgspread","payload","uncletopia"],"game_id":440,"stv_port":27046,"stv_name":"Uncletopia | San Francisco | 4 | Community | STV","players":null},{"server_id":141,"name":"Uncletopia | Sydney | 1 | All Maps","name_short":"syd-1","host":"syd-1.au.uncletopia.com","port":27015,"enabled":true,"region":"au","cc":"au","latitude":-33.865143,"longitude":151.2099,"reserved":0,"last_update":"0001-01-01T00:00:00Z","name_a2s":"Uncletopia | Sydney | 1 | All Maps","protocol":17,"map":"koth_viaduct","folder":"tf","game":"Team Fortress","app_id":440,"player_count":0,"max_players":24,"Bots":0,"server_type":"Dedicated","server_os":"Linux","password":true,"vac":true,"version":"7961495","steam_id":85568392924470001,"keywords":["cp","nocrits","nodmgspread","uncletopia"],"game_id":440,"stv_port":27016,"stv_name":"Uncletopia | Sydney | 1 | All Maps | STV","players":null},{"server_id":123,"name":"Uncletopia | Sydney | 2 | All Maps","name_short":"syd-2","host":"syd-1.au.uncletopia.com","port":27025,"enabled":true,"region":"au","cc":"au","latitude":-33.865143,"longitude":151.2099,"reserved":0,"last_update":"0001-01-01T00:00:00Z","name_a2s":"Uncletopia | Sydney | 2 | All Maps","protocol":17,"map":"koth_viaduct","folder":"tf","game":"Team Fortress","app_id":440,"player_count":0,"max_players":24,"Bots":0,"server_type":"Dedicated","server_os":"Linux","password":true,"vac":true,"version":"7961495","steam_id":85568392924470002,"keywords":["cp","nocrits","nodmgspread","uncletopia"],"game_id":440,"stv_port":27026,"stv_name":"Uncletopia | Sydney | 2 | All Maps | STV","players":null},{"server_id":395,"name":"Uncletopia | Sydney | 3 | All Maps","name_short":"syd-3","host":"syd-1.au.uncletopia.com","port":27035,"enabled":true,"region":"au","cc":"au","latitude":-33.865143,"longitude":151.2099,"reserved":0,"last_update":"0001-01-01T00:00:00Z","name_a2s":"Uncletopia | Sydney | 3 | All Maps","protocol":17,"map":"koth_lakeside_final","folder":"tf","game":"Team Fortress","app_id":440,"player_count":0,"max_players":24,"Bots":0,"server_type":"Dedicated","server_os":"Linux","password":true,"vac":true,"version":"7961495","steam_id":85568392925194467,"keywords":["cp","nocrits","nodmgspread","uncletopia"],"game_id":440,"stv_port":27036,"stv_name":"Uncletopia | Sydney | 3 | All Maps | STV","players":null},{"server_id":396,"name":"Uncletopia | Sydney | 4 | All Maps","name_short":"syd-4","host":"syd-1.au.uncletopia.com","port":27045,"enabled":true,"region":"au","cc":"au","latitude":-33.865143,"longitude":151.2099,"reserved":0,"last_update":"0001-01-01T00:00:00Z","name_a2s":"Uncletopia | Sydney | 4 | All Maps","protocol":17,"map":"koth_highpass","folder":"tf","game":"Team Fortress","app_id":440,"player_count":0,"max_players":24,"Bots":0,"server_type":"Dedicated","server_os":"Linux","password":true,"vac":true,"version":"7961495","steam_id":85568392925397958,"keywords":["cp","nocrits","nodmgspread","uncletopia"],"game_id":440,"stv_port":27046,"stv_name":"Uncletopia | Sydney | 4 | All Maps | STV","players":null},{"server_id":58,"name":"Uncletopia | Sydney | 5 | Stopwatch","name_short":"syd-5","host":"syd-1.au.uncletopia.com","port":27055,"enabled":true,"region":"au","cc":"au","latitude":-33.865143,"longitude":151.2099,"reserved":0,"last_update":"0001-01-01T00:00:00Z","name_a2s":"Uncletopia | Sydney | 5 | Stopwatch","protocol":17,"map":"koth_highpass","folder":"tf","game":"Team Fortress","app_id":440,"player_count":0,"max_players":24,"Bots":0,"server_type":"Dedicated","server_os":"Linux","password":true,"vac":true,"version":"7961495","steam_id":85568392925397959,"keywords":["cp","nocrits","nodmgspread","uncletopia"],"game_id":440,"stv_port":27056,"stv_name":"Uncletopia | Sydney | 5 | Stopwatch | STV","players":null},{"server_id":59,"name":"Uncletopia | Sydney | 6 | Community","name_short":"syd-6","host":"syd-1.au.uncletopia.com","port":27065,"enabled":true,"region":"au","cc":"au","latitude":-33.865143,"longitude":151.2099,"reserved":0,"last_update":"0001-01-01T00:00:00Z","name_a2s":"Uncletopia | Sydney | 6 | Community","protocol":17,"map":"workshop/pl_fifthcurve_rc1.ugc648227046","folder":"tf","game":"Team Fortress","app_id":440,"player_count":0,"max_players":24,"Bots":0,"server_type":"Dedicated","server_os":"Linux","password":true,"vac":true,"version":"7961495","steam_id":85568392925397960,"keywords":["nocrits","nodmgspread","payload","uncletopia"],"game_id":440,"stv_port":27066,"stv_name":"Uncletopia | Sydney | 6 | Community | STV","players":null},{"server_id":49,"name":"Uncletopia | Warsaw | 1 | One Thousand Uncles","name_short":"waw-1","host":"waw-1.pl.uncletopia.com","port":27015,"enabled":true,"region":"eu","cc":"pl","latitude":52.2297,"longitude":21.017532,"reserved":0,"last_update":"0001-01-01T00:00:00Z","name_a2s":"Uncletopia | Warsaw | 1 | One Thousand Uncles","protocol":17,"map":"pl_pier","folder":"tf","game":"Team Fortress","app_id":440,"player_count":30,"max_players":32,"Bots":16,"server_type":"Dedicated","server_os":"Linux","password":true,"vac":true,"version":"7961495","steam_id":85568392925397850,"keywords":["alltalk","bots","danepve","increased_maxplayers","nocrits","norespawntime","payload","uncletopia"],"game_id":440,"stv_port":0,"stv_name":"","players":[{"user_id":710,"name":"Boris_Bober","steam_id":76561199176831467,"connected_time":579000000000,"state":"active","ping":69},{"user_id":695,"name":"Dosi","steam_id":76561199032025182,"connected_time":696000000000,"state":"active","ping":45},{"user_id":576,"name":"DarthDanny","steam_id":76561197997718926,"connected_time":8438000000000,"state":"active","ping":115},{"user_id":712,"name":"Ostara","steam_id":76561198200054489,"connected_time":43000000000,"state":"active","ping":73},{"user_id":711,"name":"Gustavo","steam_id":76561199258367212,"connected_time":285000000000,"state":"active","ping":107},{"user_id":679,"name":"Mingo","steam_id":76561199191245650,"connected_time":1236000000000,"state":"active","ping":119},{"user_id":501,"name":"Charmedelf","steam_id":76561197993611881,"connected_time":14314000000000,"state":"active","ping":74},{"user_id":713,"name":"король шутов","steam_id":76561198137816939,"connected_time":42000000000,"state":"active","ping":52},{"user_id":671,"name":"please do not the cat","steam_id":76561198089003514,"connected_time":1773000000000,"state":"active","ping":60},{"user_id":634,"name":"Benzo Fury","steam_id":76561198025259336,"connected_time":4897000000000,"state":"active","ping":80},{"user_id":683,"name":"Max Power","steam_id":76561198019269089,"connected_time":1151000000000,"state":"active","ping":64},{"user_id":681,"name":"ruffeeh","steam_id":76561197995517185,"connected_time":1210000000000,"state":"active","ping":69},{"user_id":688,"name":"erik_jjj","steam_id":76561198215788857,"connected_time":795000000000,"state":"active","ping":93},{"user_id":689,"name":"antondstepanenko","steam_id":76561198966147466,"connected_time":723000000000,"state":"active","ping":85}]},{"server_id":50,"name":"Uncletopia | Warsaw | 2 | One Thousand Uncles","name_short":"waw-2","host":"waw-1.pl.uncletopia.com","port":27025,"enabled":true,"region":"eu","cc":"pl","latitude":52.2297,"longitude":21.017532,"reserved":0,"last_update":"0001-01-01T00:00:00Z","name_a2s":"Uncletopia | Warsaw | 2 | One Thousand Uncles","protocol":17,"map":"cp_mossrock","folder":"tf","game":"Team Fortress","app_id":440,"player_count":24,"max_players":32,"Bots":16,"server_type":"Dedicated","server_os":"Linux","password":true,"vac":true,"version":"7961495","steam_id":85568392925397851,"keywords":["alltalk","bots","cp","danepve","increased_maxplayers","nocrits","norespawntime","uncletopia"],"game_id":440,"stv_port":0,"stv_name":"","players":[{"user_id":436,"name":"svyat.hodorov","steam_id":76561199230663060,"connected_time":187000000000,"state":"active","ping":302},{"user_id":431,"name":"Winter Not Summer","steam_id":76561198201409574,"connected_time":1429000000000,"state":"active","ping":150},{"user_id":433,"name":"Ando","steam_id":76561197994056083,"connected_time":902000000000,"state":"active","ping":72},{"user_id":435,"name":"que movida","steam_id":76561197966125354,"connected_time":561000000000,"state":"active","ping":83},{"user_id":397,"name":"Kretes","steam_id":76561198982786431,"connected_time":2760000000000,"state":"active","ping":34},{"user_id":438,"name":"bugpov","steam_id":76561198104896547,"connected_time":39000000000,"state":"active","ping":47},{"user_id":246,"name":"FinnishGuy","steam_id":76561198155380452,"connected_time":12519000000000,"state":"active","ping":91},{"user_id":410,"name":"pyro","steam_id":76561199255856612,"connected_time":1854000000000,"state":"active","ping":45}]},{"server_id":51,"name":"Uncletopia | Warsaw | 3 | All Maps","name_short":"waw-3","host":"waw-1.pl.uncletopia.com","port":27035,"enabled":true,"region":"eu","cc":"pl","latitude":52.2297,"longitude":21.017532,"reserved":0,"last_update":"0001-01-01T00:00:00Z","name_a2s":"Uncletopia | Warsaw | 3 | All Maps","protocol":17,"map":"pl_badwater","folder":"tf","game":"Team Fortress","app_id":440,"player_count":24,"max_players":24,"Bots":0,"server_type":"Dedicated","server_os":"Linux","password":true,"vac":true,"version":"7961495","steam_id":85568392925397852,"keywords":["nocrits","nodmgspread","payload","uncletopia"],"game_id":440,"stv_port":27036,"stv_name":"Uncletopia | Warsaw | 3 | All Maps | STV","players":[{"user_id":45,"name":"stefanbejenari","steam_id":76561199466718294,"connected_time":5528000000000,"state":"active","ping":68},{"user_id":143,"name":"jekk.97","steam_id":76561198146961838,"connected_time":690000000000,"state":"active","ping":121},{"user_id":40,"name":"Yavuz Sultan Selim","steam_id":76561198842296672,"connected_time":6010000000000,"state":"active","ping":80},{"user_id":114,"name":"alice","steam_id":76561198269200388,"connected_time":2606000000000,"state":"active","ping":60},{"user_id":153,"name":"fönököm","steam_id":76561198107656465,"connected_time":297000000000,"state":"active","ping":79},{"user_id":129,"name":"Moses","steam_id":76561198257652671,"connected_time":1942000000000,"state":"active","ping":41},{"user_id":154,"name":"KODE","steam_id":76561198053212394,"connected_time":251000000000,"state":"active","ping":90},{"user_id":76,"name":":3","steam_id":76561198422006468,"connected_time":4134000000000,"state":"active","ping":69},{"user_id":128,"name":"Aureolin","steam_id":76561198210274835,"connected_time":1963000000000,"state":"active","ping":142},{"user_id":115,"name":"debil","steam_id":76561198160047415,"connected_time":2543000000000,"state":"active","ping":47},{"user_id":142,"name":"Germanium_Ge","steam_id":76561198130561775,"connected_time":944000000000,"state":"active","ping":58},{"user_id":109,"name":"Wenolainen","steam_id":76561198334592800,"connected_time":2916000000000,"state":"active","ping":91},{"user_id":155,"name":"Noob_with_source","steam_id":76561198870362103,"connected_time":249000000000,"state":"active","ping":69},{"user_id":145,"name":"Refleks","steam_id":76561198149489876,"connected_time":650000000000,"state":"active","ping":90},{"user_id":163,"name":"Dīng.Zhèn1996","steam_id":76561198152681460,"connected_time":91000000000,"state":"active","ping":90},{"user_id":118,"name":"wes","steam_id":76561198067000117,"connected_time":2518000000000,"state":"active","ping":48},{"user_id":157,"name":"Gruset","steam_id":76561198327512432,"connected_time":207000000000,"state":"active","ping":102},{"user_id":146,"name":"Crank","steam_id":76561198053443360,"connected_time":627000000000,"state":"active","ping":164},{"user_id":164,"name":"LEMON'S GOOD","steam_id":76561199251785909,"connected_time":40000000000,"state":"active","ping":176},{"user_id":149,"name":"dartush","steam_id":76561198067506270,"connected_time":539000000000,"state":"active","ping":55},{"user_id":150,"name":"zek","steam_id":76561198862763731,"connected_time":521000000000,"state":"active","ping":74},{"user_id":159,"name":"Schizophrenic Tyrant","steam_id":76561199011576146,"connected_time":187000000000,"state":"active","ping":75},{"user_id":108,"name":"Morbeus","steam_id":76561198057717808,"connected_time":2942000000000,"state":"active","ping":87},{"user_id":162,"name":"Jevol","steam_id":76561199060223960,"connected_time":113000000000,"state":"active","ping":93}]},{"server_id":52,"name":"Uncletopia | Warsaw | 4 | All Maps","name_short":"waw-4","host":"waw-1.pl.uncletopia.com","port":27045,"enabled":true,"region":"eu","cc":"pl","latitude":52.2297,"longitude":21.017532,"reserved":0,"last_update":"0001-01-01T00:00:00Z","name_a2s":"Uncletopia | Warsaw | 4 | All Maps","protocol":17,"map":"cp_sunshine","folder":"tf","game":"Team Fortress","app_id":440,"player_count":3,"max_players":24,"Bots":0,"server_type":"Dedicated","server_os":"Linux","password":true,"vac":true,"version":"7961495","steam_id":85568392925397853,"keywords":["cp","nocrits","nodmgspread","uncletopia"],"game_id":440,"stv_port":27046,"stv_name":"Uncletopia | Warsaw | 4 | All Maps | STV","players":[{"user_id":15,"name":"Ondřej ✌","steam_id":76561198115905637,"connected_time":1664000000000,"state":"active","ping":44},{"user_id":23,"name":"Buterbrod","steam_id":76561198829880730,"connected_time":1207000000000,"state":"active","ping":67},{"user_id":29,"name":"heexy","steam_id":76561198138548899,"connected_time":931000000000,"state":"active","ping":34}]},{"server_id":53,"name":"Uncletopia | Warsaw | 5 | Stopwatch","name_short":"waw-5","host":"waw-1.pl.uncletopia.com","port":27055,"enabled":true,"region":"eu","cc":"pl","latitude":52.2297,"longitude":21.017532,"reserved":0,"last_update":"0001-01-01T00:00:00Z","name_a2s":"Uncletopia | Warsaw | 5 | Stopwatch","protocol":17,"map":"workshop/koth_ashville_final.ugc2130459942","folder":"tf","game":"Team Fortress","app_id":440,"player_count":0,"max_players":24,"Bots":0,"server_type":"Dedicated","server_os":"Linux","password":true,"vac":true,"version":"7961495","steam_id":85568392925397854,"keywords":["cp","nocrits","nodmgspread","uncletopia"],"game_id":440,"stv_port":27056,"stv_name":"Uncletopia | Warsaw | 5 | Stopwatch | STV","players":null},{"server_id":54,"name":"Uncletopia | Warsaw | 6 | Community","name_short":"waw-6","host":"waw-1.pl.uncletopia.com","port":27065,"enabled":true,"region":"eu","cc":"pl","latitude":52.2297,"longitude":21.017532,"reserved":0,"last_update":"0001-01-01T00:00:00Z","name_a2s":"Uncletopia | Warsaw | 6 | Community","protocol":17,"map":"workshop/cp_mannbase_rc2a.ugc1900737467","folder":"tf","game":"Team Fortress","app_id":440,"player_count":0,"max_players":24,"Bots":0,"server_type":"Dedicated","server_os":"Linux","password":true,"vac":true,"version":"7961495","steam_id":85568392925397856,"keywords":["cp","nocrits","nodmgspread","uncletopia"],"game_id":440,"stv_port":27066,"stv_name":"Uncletopia | Warsaw | 6 | Community | STV","players":null}]}