{"status":true,"message":"","result":[{"server_id":9,"name":"Uncletopia | Atlanta | 1 | All Maps","name_short":"atl-1","host":"atl-1.us.uncletopia.com","port":27015,"enabled":true,"region":"us-east","cc":"us","latitude":33.753746,"longitude":-84.38633,"reserved":0,"last_update":"0001-01-01T00:00:00Z","name_a2s":"Uncletopia | Atlanta | 1 | All Maps","protocol":17,"map":"cp_snakewater_final1","folder":"tf","game":"Team Fortress","app_id":440,"player_count":24,"max_players":24,"Bots":0,"server_type":"Dedicated","server_os":"Linux","password":true,"vac":true,"version":"7708610","steam_id":85568392924469982,"keywords":["cp","nocrits","nodmgspread","uncletopia"],"game_id":440,"stv_port":27016,"stv_name":"Uncletopia | Atlanta | 1 | All Maps | STV","players":[{"user_id":21,"name":"ATL1 | Phestive Pango","steam_id":76561198069811545,"connected_time":14123000000000,"state":"active","ping":46},{"user_id":148,"name":"noelle","steam_id":76561198386344068,"connected_time":2196000000000,"state":"active","ping":74},{"user_id":128,"name":"「SK8TR」","steam_id":76561199389089862,"connected_time":4552000000000,"state":"active","ping":162},{"user_id":146,"name":"CivillianNumber86","steam_id":76561199349013627,"connected_time":2789000000000,"state":"active","ping":53},{"user_id":144,"name":"Jin","steam_id":76561198119873148,"connected_time":2909000000000,"state":"active","ping":64},{"user_id":155,"name":"Quiggles","steam_id":76561199177247655,"connected_time":824000000000,"state":"active","ping":57},{"user_id":156,"name":"The Squid Gamer™","steam_id":76561198340621517,"connected_time":823000000000,"state":"active","ping":108},{"user_id":133,"name":"jimsgims","steam_id":76561198048395545,"connected_time":3892000000000,"state":"active","ping":53},{"user_id":31,"name":"sim65","steam_id":76561197985428155,"connected_time":12247000000000,"state":"active","ping":79},{"user_id":151,"name":"Royal","steam_id":76561198319509387,"connected_time":1379000000000,"state":"active","ping":62},{"user_id":157,"name":"SnowStorm","steam_id":76561198095817025,"connected_time":764000000000,"state":"active","ping":42},{"user_id":149,"name":"AtlasWarMachine","steam_id":76561198309487226,"connected_time":1839000000000,"state":"active","ping":94},{"user_id":101,"name":"I'm Only 4 Inches","steam_id":76561198055542546,"connected_time":7523000000000,"state":"active","ping":62},{"user_id":147,"name":"sansa musa","steam_id":76561198163723555,"connected_time":2410000000000,"state":"active","ping":76},{"user_id":110,"name":"kasper ring","steam_id":76561198263271697,"connected_time":6640000000000,"state":"active","ping":60},{"user_id":127,"name":"FancyBones","steam_id":76561198180198885,"connected_time":4656000000000,"state":"active","ping":75},{"user_id":136,"name":"Medic","steam_id":76561198067869016,"connected_time":3697000000000,"state":"active","ping":68},{"user_id":126,"name":"xyt0nix","steam_id":76561199437938235,"connected_time":4673000000000,"state":"active","ping":59},{"user_id":145,"name":"garfield","steam_id":76561198114119308,"connected_time":2828000000000,"state":"active","ping":51},{"user_id":118,"name":"Bunt","steam_id":76561198124477567,"connected_time":5664000000000,"state":"active","ping":41},{"user_id":137,"name":"BotchyAlarm8","steam_id":76561198092682129,"connected_time":3642000000000,"state":"active","ping":63},{"user_id":152,"name":"ATL1 | Dec the halls","steam_id":76561199045608372,"connected_time":854000000000,"state":"active","ping":91},{"user_id":153,"name":"ATL0 Dedi Le4n!!!","steam_id":76561198045522596,"connected_time":853000000000,"state":"active","ping":74},{"user_id":154,"name":"Gerobus","steam_id":76561198060029029,"connected_time":851000000000,"state":"active","ping":89}]},{"server_id":400,"name":"Uncletopia | Atlanta | 3 | All Maps","name_short":"atl-3","host":"atl-1.us.uncletopia.com","port":27035,"enabled":true,"region":"us-east","cc":"us","latitude":33.753746,"longitude":-84.38633,"reserved":0,"last_update":"0001-01-01T00:00:00Z","name_a2s":"Uncletopia | Atlanta | 3 | All Maps","protocol":17,"map":"pl_barnblitz","folder":"tf","game":"Team Fortress","app_id":440,"player_count":23,"max_players":24,"Bots":0,"server_type":"Dedicated","server_os":"Linux","password":true,"vac":true,"version":"7708610","steam_id":85568392924515187,"keywords":["nocrits","nodmgspread","payload","uncletopia"],"game_id":440,"stv_port":27036,"stv_name":"Uncletopia | Atlanta | 3 | All Maps | STV","players":[{"user_id":136,"name":"sketchesgallore","steam_id":76561198331254794,"connected_time":342000000000,"state":"active","ping":90},{"user_id":138,"name":"Cyborgnn","steam_id":76561198283586887,"connected_time":315000000000,"state":"active","ping":91},{"user_id":63,"name":"Zoawsome","steam_id":76561198018758753,"connected_time":6539000000000,"state":"active","ping":63},{"user_id":131,"name":"renura","steam_id":76561198128277665,"connected_time":546000000000,"state":"active","ping":118},{"user_id":128,"name":"Kanye West","steam_id":76561199125982967,"connected_time":603000000000,"state":"active","ping":79},{"user_id":139,"name":"ZaneTree","steam_id":76561198304661367,"connected_time":313000000000,"state":"active","ping":78},{"user_id":133,"name":"Mozey","steam_id":76561198127776224,"connected_time":496000000000,"state":"active","ping":72},{"user_id":82,"name":"Cthulwho?","steam_id":76561198165550810,"connected_time":5679000000000,"state":"active","ping":61},{"user_id":129,"name":"♥","steam_id":76561198401455467,"connected_time":600000000000,"state":"active","ping":104},{"user_id":126,"name":"bogus","steam_id":76561198377555279,"connected_time":897000000000,"state":"active","ping":64},{"user_id":130,"name":"Fiammetta","steam_id":76561198044183173,"connected_time":557000000000,"state":"active","ping":86},{"user_id":69,"name":"Mad Cow※","steam_id":76561198132498594,"connected_time":6433000000000,"state":"active","ping":76},{"user_id":146,"name":"BEAswacks93 (she/her)","steam_id":76561199222250828,"connected_time":12000000000,"state":"spawning","ping":88},{"user_id":132,"name":"SeaBass","steam_id":76561198278914206,"connected_time":532000000000,"state":"active","ping":66},{"user_id":118,"name":"ACrispSlimJim","steam_id":76561198145913920,"connected_time":1466000000000,"state":"active","ping":61},{"user_id":134,"name":"Seal","steam_id":76561197970204043,"connected_time":450000000000,"state":"active","ping":104},{"user_id":135,"name":"Sir Tea","steam_id":76561198353912752,"connected_time":395000000000,"state":"active","ping":75},{"user_id":87,"name":"wolf_71","steam_id":76561198963570945,"connected_time":5090000000000,"state":"active","ping":64},{"user_id":140,"name":"bradolf hilter","steam_id":76561198300928877,"connected_time":307000000000,"state":"active","ping":47},{"user_id":141,"name":"Fight Milk","steam_id":76561198046189668,"connected_time":307000000000,"state":"active","ping":63},{"user_id":142,"name":"peachy","steam_id":76561198026664629,"connected_time":299000000000,"state":"active","ping":60},{"user_id":147,"name":"anonpain","steam_id":76561198081317092,"connected_time":1000000000,"state":"spawning","ping":63},{"user_id":145,"name":"MajorSwags","steam_id":76561199013011235,"connected_time":137000000000,"state":"active","ping":78}]},{"server_id":401,"name":"Uncletopia | Atlanta | 4 | No Payload","name_short":"atl-4","host":"atl-1.us.uncletopia.com","port":27045,"enabled":true,"region":"us-east","cc":"us","latitude":33.753746,"longitude":-84.38633,"reserved":0,"last_update":"0001-01-01T00:00:00Z","name_a2s":"Uncletopia | Atlanta | 4 | No Payload","protocol":17,"map":"cp_foundry","folder":"tf","game":"Team Fortress","app_id":440,"player_count":24,"max_players":24,"Bots":0,"server_type":"Dedicated","server_os":"Linux","password":true,"vac":true,"version":"7708610","steam_id":85568392924515188,"keywords":["cp","nocrits","nodmgspread","uncletopia"],"game_id":440,"stv_port":27046,"stv_name":"Uncletopia | Atlanta | 4 | No Payload | STV","players":[{"user_id":40,"name":"John16Mark","steam_id":76561198119445407,"connected_time":845000000000,"state":"active","ping":80},{"user_id":43,"name":"Spr","steam_id":76561198314316664,"connected_time":783000000000,"state":"active","ping":66},{"user_id":5,"name":"P-4rio","steam_id":76561198003593070,"connected_time":2349000000000,"state":"active","ping":83},{"user_id":6,"name":"boydicicco","steam_id":76561197980329684,"connected_time":2184000000000,"state":"active","ping":75},{"user_id":28,"name":"Steiner","steam_id":76561198030457066,"connected_time":1178000000000,"state":"active","ping":78},{"user_id":8,"name":"Dr. Birb","steam_id":76561198141939154,"connected_time":2104000000000,"state":"active","ping":60},{"user_id":11,"name":"Mr. Ruckus","steam_id":76561198339566190,"connected_time":1608000000000,"state":"active","ping":83},{"user_id":45,"name":"10 INCH TGIRL SCHLONG","steam_id":76561198122059018,"connected_time":483000000000,"state":"active","ping":74},{"user_id":16,"name":"Estrogen Connoisseur","steam_id":76561198085813708,"connected_time":1451000000000,"state":"active","ping":63},{"user_id":27,"name":"ToddGold","steam_id":76561198186920331,"connected_time":1187000000000,"state":"active","ping":69},{"user_id":15,"name":"Brynkiwi","steam_id":76561198052177917,"connected_time":1497000000000,"state":"active","ping":127},{"user_id":17,"name":"Career","steam_id":76561198028542212,"connected_time":1443000000000,"state":"active","ping":60},{"user_id":49,"name":"Serenue","steam_id":76561199040361250,"connected_time":107000000000,"state":"active","ping":84},{"user_id":19,"name":"Zeora","steam_id":76561198799145251,"connected_time":1420000000000,"state":"active","ping":51},{"user_id":20,"name":"PyroTechno","steam_id":76561198060929872,"connected_time":1404000000000,"state":"active","ping":73},{"user_id":50,"name":"oberhausmatt","steam_id":76561198377673739,"connected_time":93000000000,"state":"active","ping":94},{"user_id":25,"name":"What are you doing?!","steam_id":76561198405248691,"connected_time":1222000000000,"state":"active","ping":121},{"user_id":51,"name":"Mandrie","steam_id":76561198058918549,"connected_time":89000000000,"state":"active","ping":92},{"user_id":33,"name":"Rue","steam_id":76561198013135993,"connected_time":1023000000000,"state":"active","ping":60},{"user_id":42,"name":"Merchants of Misery","steam_id":76561199188142396,"connected_time":815000000000,"state":"active","ping":96},{"user_id":36,"name":"Mr.Indian Jokar","steam_id":76561198381343086,"connected_time":982000000000,"state":"active","ping":106},{"user_id":37,"name":"MrPibb (Fumo Enjoyer)","steam_id":76561198104384449,"connected_time":975000000000,"state":"active","ping":78},{"user_id":39,"name":"chexo4","steam_id":76561198150532531,"connected_time":927000000000,"state":"active","ping":57},{"user_id":48,"name":"Luucyf3r","steam_id":76561198141820085,"connected_time":296000000000,"state":"active","ping":60}]},{"server_id":2,"name":"Uncletopia | Chicago | 1 | All Maps","name_short":"chi-1","host":"chi-1.us.uncletopia.com","port":27015,"enabled":true,"region":"us-central","cc":"us","latitude":41.881832,"longitude":-87.62318,"reserved":0,"last_update":"0001-01-01T00:00:00Z","name_a2s":"Uncletopia | Chicago | 1 | All Maps","protocol":17,"map":"ctf_doublecross_snowy","folder":"tf","game":"Team Fortress","app_id":440,"player_count":24,"max_players":24,"Bots":0,"server_type":"Dedicated","server_os":"Linux","password":true,"vac":true,"version":"7708610","steam_id":85568392924469984,"keywords":["ctf","nocrits","nodmgspread","uncletopia"],"game_id":440,"stv_port":27016,"stv_name":"Uncletopia | Chicago | 1 | All Maps | STV","players":[{"user_id":370,"name":"PowerGem3000","steam_id":76561198944644691,"connected_time":1817000000000,"state":"active","ping":90},{"user_id":359,"name":"(1)John Darksoul","steam_id":76561198031675881,"connected_time":2921000000000,"state":"active","ping":64},{"user_id":386,"name":"randomperson88","steam_id":76561199228822173,"connected_time":1238000000000,"state":"active","ping":54},{"user_id":368,"name":"stop","steam_id":76561198268686419,"connected_time":1878000000000,"state":"active","ping":51},{"user_id":356,"name":"NUt","steam_id":76561198031007966,"connected_time":3074000000000,"state":"active","ping":56},{"user_id":321,"name":"Dude Named Bob","steam_id":76561198310448093,"connected_time":5605000000000,"state":"active","ping":51},{"user_id":279,"name":"SuperJagops","steam_id":76561198034689716,"connected_time":8354000000000,"state":"active","ping":58},{"user_id":382,"name":"Le","steam_id":76561198817754233,"connected_time":1552000000000,"state":"active","ping":60},{"user_id":363,"name":"confused","steam_id":76561198042236165,"connected_time":2216000000000,"state":"active","ping":54},{"user_id":311,"name":"BOT Bot","steam_id":76561197995225620,"connected_time":6091000000000,"state":"active","ping":68},{"user_id":383,"name":"VX Ghost (Holiday)","steam_id":76561198072541436,"connected_time":1478000000000,"state":"active","ping":45},{"user_id":380,"name":"Big kahuna","steam_id":76561198142024812,"connected_time":1668000000000,"state":"active","ping":71},{"user_id":390,"name":"Federico","steam_id":76561198411873065,"connected_time":328000000000,"state":"active","ping":122},{"user_id":351,"name":"Goofball","steam_id":76561198061211537,"connected_time":3513000000000,"state":"active","ping":62},{"user_id":237,"name":"Potato-Protein-Pancake","steam_id":76561198027198306,"connected_time":12354000000000,"state":"active","ping":67},{"user_id":361,"name":"pablo.gonzales.2004","steam_id":76561199217620385,"connected_time":2448000000000,"state":"active","ping":77},{"user_id":375,"name":"toastman","steam_id":76561198207073088,"connected_time":1703000000000,"state":"active","ping":73},{"user_id":367,"name":"Floattube","steam_id":76561198005720144,"connected_time":1984000000000,"state":"active","ping":60},{"user_id":389,"name":"Gordan Timlothle","steam_id":76561198272013678,"connected_time":430000000000,"state":"active","ping":67},{"user_id":391,"name":"he suckin on my rick til i mort","steam_id":76561198310711692,"connected_time":65000000000,"state":"active","ping":166},{"user_id":354,"name":"MK","steam_id":76561198044764469,"connected_time":3106000000000,"state":"active","ping":87},{"user_id":377,"name":"Kaluka","steam_id":76561198036861445,"connected_time":1687000000000,"state":"active","ping":67},{"user_id":309,"name":"weeb_whacker #Jenius","steam_id":76561198187098041,"connected_time":6308000000000,"state":"active","ping":56},{"user_id":327,"name":"balls123","steam_id":76561198154437495,"connected_time":5412000000000,"state":"active","ping":97}]},{"server_id":106,"name":"Uncletopia | Chicago | 2 | All Maps","name_short":"chi-2","host":"chi-1.us.uncletopia.com","port":27025,"enabled":true,"region":"us-central","cc":"us","latitude":41.881832,"longitude":-87.62318,"reserved":0,"last_update":"0001-01-01T00:00:00Z","name_a2s":"Uncletopia | Chicago | 2 | All Maps","protocol":17,"map":"koth_viaduct","folder":"tf","game":"Team Fortress","app_id":440,"player_count":24,"max_players":24,"Bots":0,"server_type":"Dedicated","server_os":"Linux","password":true,"vac":true,"version":"7708610","steam_id":85568392924469985,"keywords":["cp","nocrits","nodmgspread","uncletopia"],"game_id":440,"stv_port":27026,"stv_name":"Uncletopia | Chicago | 2 | All Maps | STV","players":[{"user_id":244,"name":"Stupid frogs!","steam_id":76561198069415057,"connected_time":1012000000000,"state":"active","ping":91},{"user_id":234,"name":"strategic dier","steam_id":76561197999257178,"connected_time":1333000000000,"state":"active","ping":65},{"user_id":226,"name":"Floodzie","steam_id":76561198068113077,"connected_time":1687000000000,"state":"active","ping":127},{"user_id":231,"name":"Convict Police Officers","steam_id":76561197993527275,"connected_time":1352000000000,"state":"active","ping":56},{"user_id":232,"name":"Dert","steam_id":76561198883014990,"connected_time":1350000000000,"state":"active","ping":53},{"user_id":245,"name":"newboi (F2P)","steam_id":76561199273882768,"connected_time":837000000000,"state":"active","ping":60},{"user_id":246,"name":"Lv4 Gnoll Magus","steam_id":76561198042068995,"connected_time":553000000000,"state":"active","ping":96},{"user_id":240,"name":"Enderneer","steam_id":76561198012136653,"connected_time":1234000000000,"state":"active","ping":59},{"user_id":236,"name":"whale_lord420","steam_id":76561199014469424,"connected_time":1328000000000,"state":"active","ping":66},{"user_id":235,"name":"Quansen","steam_id":76561198151594550,"connected_time":1329000000000,"state":"active","ping":59},{"user_id":202,"name":"shmoke","steam_id":76561198056996952,"connected_time":4515000000000,"state":"active","ping":71},{"user_id":220,"name":"4d4","steam_id":76561198402360789,"connected_time":1933000000000,"state":"active","ping":59},{"user_id":218,"name":"DeathwingTheDestroyer","steam_id":76561199147322448,"connected_time":1970000000000,"state":"active","ping":57},{"user_id":221,"name":"spaaaaace","steam_id":76561199085974120,"connected_time":1849000000000,"state":"active","ping":67},{"user_id":181,"name":"Oomitch","steam_id":76561198071702759,"connected_time":5747000000000,"state":"active","ping":89},{"user_id":247,"name":"Catboy Potemkin","steam_id":76561198078474420,"connected_time":437000000000,"state":"active","ping":69},{"user_id":165,"name":"gordon freeman christmas","steam_id":76561198367735460,"connected_time":7055000000000,"state":"active","ping":75},{"user_id":248,"name":"hyperledz","steam_id":76561198807917808,"connected_time":203000000000,"state":"active","ping":80},{"user_id":216,"name":"Cheatcommando","steam_id":76561198034825735,"connected_time":2056000000000,"state":"active","ping":36},{"user_id":239,"name":"tf2 n chill?","steam_id":76561198149063013,"connected_time":1254000000000,"state":"active","ping":63},{"user_id":241,"name":"Nate","steam_id":76561198068225765,"connected_time":1189000000000,"state":"active","ping":59},{"user_id":200,"name":"porz","steam_id":76561198195711453,"connected_time":4634000000000,"state":"active","ping":60},{"user_id":214,"name":"rum","steam_id":76561198465334150,"connected_time":3141000000000,"state":"active","ping":62},{"user_id":224,"name":"superbad","steam_id":76561198065913973,"connected_time":1736000000000,"state":"active","ping":103}]},{"server_id":402,"name":"Uncletopia | Chicago | 3 | All Maps","name_short":"chi-3","host":"chi-1.us.uncletopia.com","port":27035,"enabled":true,"region":"us-central","cc":"us","latitude":41.881832,"longitude":-87.62318,"reserved":0,"last_update":"0001-01-01T00:00:00Z","name_a2s":"Uncletopia | Chicago | 3 | All Maps","protocol":17,"map":"koth_viaduct","folder":"tf","game":"Team Fortress","app_id":440,"player_count":8,"max_players":24,"Bots":0,"server_type":"Dedicated","server_os":"Linux","password":true,"vac":true,"version":"7708610","steam_id":85568392924515191,"keywords":["cp","nocrits","nodmgspread","uncletopia"],"game_id":440,"stv_port":27036,"stv_name":"Uncletopia | Chicago | 3 | All Maps | STV","players":[{"user_id":24,"name":"kris krueger","steam_id":76561198268654031,"connected_time":23000000000,"state":"active","ping":45},{"user_id":23,"name":"Wild_Rumpus","steam_id":76561198066393719,"connected_time":86000000000,"state":"active","ping":146},{"user_id":9,"name":"Vatacide","steam_id":76561198019287086,"connected_time":1123000000000,"state":"active","ping":88},{"user_id":12,"name":"KrashBoomBang","steam_id":76561199002978777,"connected_time":809000000000,"state":"active","ping":66},{"user_id":25,"name":"bane","steam_id":76561198196769297,"connected_time":16000000000,"state":"spawning","ping":66},{"user_id":14,"name":"TheBiggerIron","steam_id":76561198257043605,"connected_time":693000000000,"state":"active","ping":95},{"user_id":17,"name":"I'm Glenn Quagmire","steam_id":76561198196211121,"connected_time":561000000000,"state":"active","ping":68},{"user_id":18,"name":"majorbobfunction","steam_id":76561198042464632,"connected_time":453000000000,"state":"active","ping":59}]},{"server_id":403,"name":"Uncletopia | Chicago | 4 | All Maps","name_short":"chi-4","host":"chi-1.us.uncletopia.com","port":27045,"enabled":true,"region":"us-central","cc":"us","latitude":41.881832,"longitude":-87.62318,"reserved":0,"last_update":"0001-01-01T00:00:00Z","name_a2s":"Uncletopia | Chicago | 4 | All Maps","protocol":17,"map":"pl_snowycoast","folder":"tf","game":"Team Fortress","app_id":440,"player_count":24,"max_players":24,"Bots":0,"server_type":"Dedicated","server_os":"Linux","password":true,"vac":true,"version":"7708610","steam_id":85568392924515193,"keywords":["nocrits","nodmgspread","payload","uncletopia"],"game_id":440,"stv_port":27046,"stv_name":"Uncletopia | Chicago | 4 | All Maps | STV","players":[{"user_id":198,"name":"turnip","steam_id":76561197999375941,"connected_time":599000000000,"state":"active","ping":72},{"user_id":185,"name":"Tyco","steam_id":76561197978414167,"connected_time":1638000000000,"state":"active","ping":81},{"user_id":193,"name":"a_person_159","steam_id":76561199024416326,"connected_time":1484000000000,"state":"active","ping":60},{"user_id":201,"name":"-|FG|- Hamilkar Barca","steam_id":76561198091666474,"connected_time":222000000000,"state":"active","ping":67},{"user_id":196,"name":"Vanya","steam_id":76561198042631561,"connected_time":1301000000000,"state":"active","ping":79},{"user_id":202,"name":"MA BEETS","steam_id":76561198168981607,"connected_time":160000000000,"state":"active","ping":108},{"user_id":163,"name":"pinglefingle","steam_id":76561198216580197,"connected_time":4036000000000,"state":"active","ping":79},{"user_id":178,"name":"Dr. Marvello","steam_id":76561198107573800,"connected_time":2148000000000,"state":"active","ping":82},{"user_id":199,"name":"OmniXVII","steam_id":76561198027183394,"connected_time":369000000000,"state":"active","ping":83},{"user_id":174,"name":"Samus","steam_id":76561198121933439,"connected_time":2278000000000,"state":"active","ping":68},{"user_id":200,"name":"QuarticalPhysics","steam_id":76561198061386266,"connected_time":368000000000,"state":"active","ping":72},{"user_id":172,"name":"JDizzle","steam_id":76561199122696841,"connected_time":2295000000000,"state":"active","ping":95},{"user_id":190,"name":"Sup m8","steam_id":76561198081659121,"connected_time":1540000000000,"state":"active","ping":75},{"user_id":197,"name":"Galvarg","steam_id":76561198189877771,"connected_time":1246000000000,"state":"active","ping":48},{"user_id":144,"name":"merry trapmas","steam_id":76561198402801140,"connected_time":4998000000000,"state":"active","ping":60},{"user_id":175,"name":"Elizabeth truss","steam_id":76561198058250979,"connected_time":2277000000000,"state":"active","ping":66},{"user_id":191,"name":"Jerry","steam_id":76561198320897424,"connected_time":1540000000000,"state":"active","ping":172},{"user_id":194,"name":"Mister36","steam_id":76561198019132100,"connected_time":1464000000000,"state":"active","ping":66},{"user_id":179,"name":"Jeffenthropus","steam_id":76561198134204248,"connected_time":2134000000000,"state":"active","ping":71},{"user_id":135,"name":"slug","steam_id":76561198410221734,"connected_time":5797000000000,"state":"active","ping":60},{"user_id":177,"name":"Tyler\u0026Fingers","steam_id":76561198085154485,"connected_time":2172000000000,"state":"active","ping":77},{"user_id":166,"name":"koompa_stomp","steam_id":76561198073081735,"connected_time":3115000000000,"state":"active","ping":101},{"user_id":138,"name":"Van","steam_id":76561198073518712,"connected_time":5761000000000,"state":"active","ping":69},{"user_id":203,"name":"jpuck","steam_id":76561198025018960,"connected_time":160000000000,"state":"active","ping":74}]},{"server_id":36,"name":"Uncletopia | Chicago | 5 | All Maps","name_short":"chi-5","host":"chi-2.us.uncletopia.com","port":27015,"enabled":true,"region":"us-central","cc":"us","latitude":41.881832,"longitude":-87.62318,"reserved":0,"last_update":"0001-01-01T00:00:00Z","name_a2s":"Uncletopia | Chicago | 5 | All Maps","protocol":17,"map":"koth_lakeside_final","folder":"tf","game":"Team Fortress","app_id":440,"player_count":0,"max_players":24,"Bots":0,"server_type":"Dedicated","server_os":"Linux","password":true,"vac":true,"version":"7708610","steam_id":85568392924866362,"keywords":["cp","nocrits","nodmgspread","uncletopia"],"game_id":440,"stv_port":27016,"stv_name":"Uncletopia | Chicago | 5 | All Maps | STV","players":null},{"server_id":37,"name":"Uncletopia | Chicago | 6 | All Maps","name_short":"chi-6","host":"chi-2.us.uncletopia.com","port":27025,"enabled":true,"region":"us-central","cc":"us","latitude":41.881832,"longitude":-87.62318,"reserved":0,"last_update":"0001-01-01T00:00:00Z","name_a2s":"Uncletopia | Chicago | 6 | All Maps","protocol":17,"map":"cp_altitude","folder":"tf","game":"Team Fortress","app_id":440,"player_count":0,"max_players":24,"Bots":0,"server_type":"Dedicated","server_os":"Linux","password":true,"vac":true,"version":"7708610","steam_id":85568392924866363,"keywords":["cp","nocrits","nodmgspread","uncletopia"],"game_id":440,"stv_port":27026,"stv_name":"Uncletopia | Chicago | 6 | All Maps | STV","players":null},{"server_id":38,"name":"Uncletopia | Chicago | 7 | No Payload","name_short":"chi-7","host":"chi-2.us.uncletopia.com","port":27035,"enabled":true,"region":"us-central","cc":"us","latitude":41.881832,"longitude":-87.62318,"reserved":0,"last_update":"0001-01-01T00:00:00Z","name_a2s":"Uncletopia | Chicago | 7 | No Payload","protocol":17,"map":"cp_dustbowl","folder":"tf","game":"Team Fortress","app_id":440,"player_count":0,"max_players":24,"Bots":0,"server_type":"Dedicated","server_os":"Linux","password":true,"vac":true,"version":"7708610","steam_id":85568392924866364,"keywords":["cp","nocrits","nodmgspread","uncletopia"],"game_id":440,"stv_port":27036,"stv_name":"Uncletopia | Chicago | 7 | No Payload | STV","players":null},{"server_id":39,"name":"Uncletopia | Chicago | 8 | Community","name_short":"chi-8","host":"chi-2.us.uncletopia.com","port":27045,"enabled":true,"region":"us-central","cc":"us","latitude":41.881832,"longitude":-87.62318,"reserved":0,"last_update":"0001-01-01T00:00:00Z","name_a2s":"Uncletopia | Chicago | 8 | Community","protocol":17,"map":"workshop/cp_caldera_rc2.ugc2834196889","folder":"tf","game":"Team Fortress","app_id":440,"player_count":0,"max_players":24,"Bots":0,"server_type":"Dedicated","server_os":"Linux","password":true,"vac":true,"version":"7708610","steam_id":85568392924866365,"keywords":["cp","nocrits","nodmgspread","uncletopia"],"game_id":440,"stv_port":27046,"stv_name":"Uncletopia | Chicago | 8 | Community | STV","players":null},{"server_id":8,"name":"Uncletopia | Dallas | 1 | All Maps","name_short":"dal-1","host":"dal-1.us.uncletopia.com","port":27015,"enabled":true,"region":"us-central","cc":"us","latitude":32.779167,"longitude":-96.80889,"reserved":0,"last_update":"0001-01-01T00:00:00Z","name_a2s":"Uncletopia | Dallas | 1 | All Maps","protocol":17,"map":"koth_lakeside_final","folder":"tf","game":"Team Fortress","app_id":440,"player_count":2,"max_players":24,"Bots":0,"server_type":"Dedicated","server_os":"Linux","password":true,"vac":true,"version":"7708610","steam_id":85568392924469986,"keywords":["cp","nocrits","nodmgspread","uncletopia"],"game_id":440,"stv_port":27016,"stv_name":"Uncletopia | Dallas | 1 | All Maps | STV","players":[{"user_id":13,"name":"LooseCannon1010","steam_id":76561198201377137,"connected_time":615000000000,"state":"active","ping":54},{"user_id":16,"name":"thob","steam_id":76561199173618294,"connected_time":150000000000,"state":"active","ping":59}]},{"server_id":108,"name":"Uncletopia | Dallas | 2 | All Maps","name_short":"dal-2","host":"dal-1.us.uncletopia.com","port":27025,"enabled":true,"region":"us-central","cc":"us","latitude":32.779167,"longitude":-96.80889,"reserved":0,"last_update":"0001-01-01T00:00:00Z","name_a2s":"Uncletopia | Dallas | 2 | All Maps","protocol":17,"map":"koth_highpass","folder":"tf","game":"Team Fortress","app_id":440,"player_count":0,"max_players":24,"Bots":0,"server_type":"Dedicated","server_os":"Linux","password":true,"vac":true,"version":"7708610","steam_id":85568392924469988,"keywords":["cp","nocrits","nodmgspread","uncletopia"],"game_id":440,"stv_port":27026,"stv_name":"Uncletopia | Dallas | 2 | All Maps | STV","players":null},{"server_id":5,"name":"Uncletopia | Frankfurt | 1 | All Maps","name_short":"frk-1","host":"frk-1.de.uncletopia.com","port":27015,"enabled":true,"region":"eu","cc":"de","latitude":50.110924,"longitude":8.682127,"reserved":0,"last_update":"0001-01-01T00:00:00Z","name_a2s":"Uncletopia | Frankfurt | 1 | All Maps","protocol":17,"map":"pl_frontier_final","folder":"tf","game":"Team Fortress","app_id":440,"player_count":24,"max_players":24,"Bots":0,"server_type":"Dedicated","server_os":"Linux","password":true,"vac":true,"version":"7708610","steam_id":85568392924469989,"keywords":["nocrits","nodmgspread","payload","uncletopia"],"game_id":440,"stv_port":27016,"stv_name":"Uncletopia | Frankfurt | 1 | All Maps | STV","players":[{"user_id":690,"name":"tshirt","steam_id":76561198040757844,"connected_time":2235000000000,"state":"active","ping":108},{"user_id":692,"name":"glyphoglossus molossus","steam_id":76561198191291749,"connected_time":2181000000000,"state":"active","ping":69},{"user_id":688,"name":"Jag är ett anka","steam_id":76561198059978438,"connected_time":2283000000000,"state":"active","ping":48},{"user_id":697,"name":"Rarky","steam_id":76561198054398642,"connected_time":532000000000,"state":"active","ping":51},{"user_id":631,"name":"Serton♝","steam_id":76561198011061126,"connected_time":6416000000000,"state":"active","ping":93},{"user_id":698,"name":"saarfaarsik","steam_id":76561198043684537,"connected_time":474000000000,"state":"active","ping":47},{"user_id":705,"name":"fogings","steam_id":76561198044165284,"connected_time":319000000000,"state":"active","ping":45},{"user_id":693,"name":"The Feds","steam_id":76561199134834554,"connected_time":1536000000000,"state":"active","ping":154},{"user_id":701,"name":"microwavable caprisun","steam_id":76561198325124967,"connected_time":352000000000,"state":"active","ping":138},{"user_id":686,"name":"giclure :;","steam_id":76561197986362828,"connected_time":2306000000000,"state":"active","ping":52},{"user_id":694,"name":"Well","steam_id":76561198411337640,"connected_time":1361000000000,"state":"active","ping":96},{"user_id":689,"name":"|20BB)\u003eMach","steam_id":76561198952487564,"connected_time":2267000000000,"state":"active","ping":76},{"user_id":616,"name":"Festdoktor","steam_id":76561198058159271,"connected_time":7351000000000,"state":"active","ping":60},{"user_id":681,"name":"AvocadoConstant","steam_id":76561198343031982,"connected_time":2505000000000,"state":"active","ping":74},{"user_id":702,"name":"Layton","steam_id":76561198087221314,"connected_time":344000000000,"state":"active","ping":54},{"user_id":679,"name":"the joy of recycling","steam_id":76561198415564349,"connected_time":2636000000000,"state":"active","ping":65},{"user_id":703,"name":"tone","steam_id":76561197975301462,"connected_time":330000000000,"state":"active","ping":68},{"user_id":617,"name":"LarsInABox","steam_id":76561198028329262,"connected_time":7331000000000,"state":"active","ping":73},{"user_id":684,"name":"Prox","steam_id":76561198351490981,"connected_time":2467000000000,"state":"active","ping":61},{"user_id":704,"name":"Kevin","steam_id":76561198035625423,"connected_time":329000000000,"state":"active","ping":72},{"user_id":706,"name":"Cuthbert","steam_id":76561198204649481,"connected_time":312000000000,"state":"active","ping":105},{"user_id":708,"name":"ΩvetabolΩ","steam_id":76561199015064558,"connected_time":99000000000,"state":"active","ping":104},{"user_id":695,"name":"Mor'du","steam_id":76561198274105878,"connected_time":1293000000000,"state":"active","ping":79},{"user_id":707,"name":"Chat","steam_id":76561198351286949,"connected_time":286000000000,"state":"active","ping":60}]},{"server_id":110,"name":"Uncletopia | Frankfurt | 2 | All Maps","name_short":"frk-2","host":"frk-1.de.uncletopia.com","port":27025,"enabled":true,"region":"eu","cc":"de","latitude":50.110924,"longitude":8.682127,"reserved":0,"last_update":"0001-01-01T00:00:00Z","name_a2s":"Uncletopia | Frankfurt | 2 | All Maps","protocol":17,"map":"pl_swiftwater_final1","folder":"tf","game":"Team Fortress","app_id":440,"player_count":24,"max_players":24,"Bots":0,"server_type":"Dedicated","server_os":"Linux","password":true,"vac":true,"version":"7708610","steam_id":85568392924469990,"keywords":["nocrits","nodmgspread","payload","uncletopia"],"game_id":440,"stv_port":27026,"stv_name":"Uncletopia | Frankfurt | 2 | All Maps | STV","players":[{"user_id":673,"name":"Raldow","steam_id":76561198021389301,"connected_time":1641000000000,"state":"active","ping":70},{"user_id":674,"name":"Flint","steam_id":76561197995920776,"connected_time":1637000000000,"state":"active","ping":47},{"user_id":665,"name":"why is my pee red?","steam_id":76561198156216402,"connected_time":2252000000000,"state":"active","ping":64},{"user_id":691,"name":"Adam Sandler","steam_id":76561198310408309,"connected_time":88000000000,"state":"active","ping":73},{"user_id":692,"name":"engineer observer","steam_id":76561199037027456,"connected_time":60000000000,"state":"active","ping":75},{"user_id":675,"name":"ReVerb","steam_id":76561198024949870,"connected_time":1635000000000,"state":"active","ping":57},{"user_id":686,"name":"BELADIT","steam_id":76561198011911501,"connected_time":450000000000,"state":"active","ping":73},{"user_id":687,"name":"NotFionn","steam_id":76561198890525176,"connected_time":431000000000,"state":"active","ping":81},{"user_id":680,"name":"hench frog","steam_id":76561198445120460,"connected_time":1549000000000,"state":"active","ping":70},{"user_id":648,"name":"HSL","steam_id":76561198183949987,"connected_time":3874000000000,"state":"active","ping":63},{"user_id":672,"name":"KAKTyC","steam_id":76561198019296536,"connected_time":1701000000000,"state":"active","ping":80},{"user_id":688,"name":"Arturias","steam_id":76561198188720263,"connected_time":403000000000,"state":"active","ping":47},{"user_id":640,"name":"Cirox","steam_id":76561198383142404,"connected_time":4195000000000,"state":"active","ping":82},{"user_id":689,"name":"blue mean-eyes","steam_id":76561198060105180,"connected_time":398000000000,"state":"active","ping":75},{"user_id":679,"name":"dYnamo","steam_id":76561198448443559,"connected_time":1601000000000,"state":"active","ping":72},{"user_id":677,"name":"cazador","steam_id":76561198123096922,"connected_time":1616000000000,"state":"active","ping":105},{"user_id":681,"name":"Empyrean","steam_id":76561198138552502,"connected_time":1538000000000,"state":"active","ping":74},{"user_id":685,"name":"jamkel #savetf2","steam_id":76561199088464666,"connected_time":627000000000,"state":"active","ping":99},{"user_id":683,"name":"Halal Goku","steam_id":76561198161822358,"connected_time":1469000000000,"state":"active","ping":71},{"user_id":690,"name":"Gator GF","steam_id":76561198134378108,"connected_time":360000000000,"state":"active","ping":78},{"user_id":620,"name":"QuantumSleeper","steam_id":76561198082347638,"connected_time":5323000000000,"state":"active","ping":67},{"user_id":668,"name":"ApplePieAlive","steam_id":76561198396695859,"connected_time":1876000000000,"state":"active","ping":61},{"user_id":684,"name":"Raulca25","steam_id":76561199068256964,"connected_time":1433000000000,"state":"active","ping":90},{"user_id":643,"name":"durin","steam_id":76561199024778160,"connected_time":4182000000000,"state":"active","ping":93}]},{"server_id":308,"name":"Uncletopia | Frankfurt | 3 | All Maps","name_short":"frk-3","host":"frk-1.de.uncletopia.com","port":27035,"enabled":true,"region":"eu","cc":"de","latitude":50.110924,"longitude":8.682127,"reserved":0,"last_update":"0001-01-01T00:00:00Z","name_a2s":"Uncletopia | Frankfurt | 3 | All Maps","protocol":17,"map":"cp_steel","folder":"tf","game":"Team Fortress","app_id":440,"player_count":23,"max_players":24,"Bots":0,"server_type":"Dedicated","server_os":"Linux","password":true,"vac":true,"version":"7708610","steam_id":85568392924504274,"keywords":["cp","nocrits","nodmgspread","uncletopia"],"game_id":440,"stv_port":27036,"stv_name":"Uncletopia | Frankfurt | 3 | All Maps | STV","players":[{"user_id":480,"name":"Fox","steam_id":76561198052541711,"connected_time":3411000000000,"state":"active","ping":62},{"user_id":526,"name":"Tomb","steam_id":76561198110349761,"connected_time":228000000000,"state":"active","ping":59},{"user_id":487,"name":"Dimchooo","steam_id":76561198395634302,"connected_time":3009000000000,"state":"active","ping":61},{"user_id":534,"name":"boliviano comunista","steam_id":76561199353704265,"connected_time":18000000000,"state":"spawning","ping":243},{"user_id":517,"name":"Mikron111","steam_id":76561198387726337,"connected_time":782000000000,"state":"active","ping":61},{"user_id":528,"name":"bruh","steam_id":76561199439030016,"connected_time":173000000000,"state":"active","ping":90},{"user_id":519,"name":"Dolphin2011","steam_id":76561197997323419,"connected_time":618000000000,"state":"active","ping":87},{"user_id":486,"name":"ralph62x","steam_id":76561198865294231,"connected_time":3152000000000,"state":"active","ping":53},{"user_id":523,"name":"Mex","steam_id":76561198108279631,"connected_time":442000000000,"state":"active","ping":55},{"user_id":504,"name":"Frank","steam_id":76561198086672774,"connected_time":1266000000000,"state":"active","ping":60},{"user_id":455,"name":"Luke SpyWalker","steam_id":76561198008643276,"connected_time":4765000000000,"state":"active","ping":60},{"user_id":506,"name":"JimJam","steam_id":76561199002957746,"connected_time":1192000000000,"state":"active","ping":65},{"user_id":479,"name":"zoinks!","steam_id":76561198068645362,"connected_time":3470000000000,"state":"active","ping":55},{"user_id":529,"name":"Warpzel65","steam_id":76561198799303596,"connected_time":91000000000,"state":"active","ping":107},{"user_id":498,"name":"Yelowchy","steam_id":76561198199416121,"connected_time":2359000000000,"state":"active","ping":121},{"user_id":530,"name":"Ralvim","steam_id":76561198151040933,"connected_time":78000000000,"state":"active","ping":73},{"user_id":483,"name":"Clitorina","steam_id":76561198077570815,"connected_time":3333000000000,"state":"active","ping":60},{"user_id":531,"name":"steven","steam_id":76561198028240570,"connected_time":51000000000,"state":"spawning","ping":56},{"user_id":532,"name":"bepis","steam_id":76561198060355012,"connected_time":50000000000,"state":"active","ping":66},{"user_id":533,"name":"Kwan","steam_id":76561198116003936,"connected_time":46000000000,"state":"active","ping":74},{"user_id":512,"name":"penis haver","steam_id":76561198230735156,"connected_time":900000000000,"state":"active","ping":58},{"user_id":515,"name":"Anxiety","steam_id":76561198110232383,"connected_time":794000000000,"state":"active","ping":107},{"user_id":516,"name":"Лавурка","steam_id":76561199383606179,"connected_time":791000000000,"state":"active","ping":75}]},{"server_id":309,"name":"Uncletopia | Frankfurt | 4 | All Maps","name_short":"frk-4","host":"frk-1.de.uncletopia.com","port":27045,"enabled":true,"region":"eu","cc":"de","latitude":50.110924,"longitude":8.682127,"reserved":0,"last_update":"0001-01-01T00:00:00Z","name_a2s":"Uncletopia | Frankfurt | 4 | All Maps","protocol":17,"map":"pl_pier","folder":"tf","game":"Team Fortress","app_id":440,"player_count":24,"max_players":24,"Bots":0,"server_type":"Dedicated","server_os":"Linux","password":true,"vac":true,"version":"7708610","steam_id":85568392924504275,"keywords":["nocrits","nodmgspread","payload","uncletopia"],"game_id":440,"stv_port":27046,"stv_name":"Uncletopia | Frankfurt | 4 | All Maps | STV","players":[{"user_id":312,"name":"Cum flicker","steam_id":76561198304771597,"connected_time":5479000000000,"state":"active","ping":70},{"user_id":347,"name":"Fengerros","steam_id":76561199008363999,"connected_time":3493000000000,"state":"active","ping":66},{"user_id":379,"name":"Kaek","steam_id":76561197960283484,"connected_time":472000000000,"state":"active","ping":81},{"user_id":378,"name":"catgirl","steam_id":76561198113324486,"connected_time":513000000000,"state":"active","ping":55},{"user_id":375,"name":"Glorious Potato Leader","steam_id":76561199121958011,"connected_time":712000000000,"state":"active","ping":84},{"user_id":368,"name":"Z3nith","steam_id":76561198368565336,"connected_time":1003000000000,"state":"active","ping":74},{"user_id":388,"name":"sova","steam_id":76561199040246790,"connected_time":149000000000,"state":"active","ping":59},{"user_id":363,"name":"Tonne","steam_id":76561197970856766,"connected_time":1234000000000,"state":"active","ping":52},{"user_id":381,"name":"M.H.T","steam_id":76561198272860105,"connected_time":415000000000,"state":"active","ping":73},{"user_id":215,"name":"Proto-arc","steam_id":76561198012776747,"connected_time":11335000000000,"state":"active","ping":60},{"user_id":238,"name":"Fat Pigeon","steam_id":76561198817940142,"connected_time":10044000000000,"state":"active","ping":53},{"user_id":353,"name":"ball devourer","steam_id":76561198377533237,"connected_time":1958000000000,"state":"active","ping":65},{"user_id":374,"name":"Human Rights","steam_id":76561198102420849,"connected_time":815000000000,"state":"active","ping":61},{"user_id":373,"name":"jones","steam_id":76561198044434971,"connected_time":826000000000,"state":"active","ping":64},{"user_id":390,"name":"Mr. Guy","steam_id":76561198102277342,"connected_time":42000000000,"state":"active","ping":61},{"user_id":369,"name":"AforeKingDwarf","steam_id":76561198043562926,"connected_time":995000000000,"state":"active","ping":60},{"user_id":370,"name":"КОСЪ 387","steam_id":76561198071830760,"connected_time":978000000000,"state":"active","ping":93},{"user_id":383,"name":"Jim The Jackal","steam_id":76561198062998417,"connected_time":315000000000,"state":"active","ping":61},{"user_id":359,"name":"Christopher","steam_id":76561198108482463,"connected_time":1755000000000,"state":"active","ping":65},{"user_id":366,"name":"Deefect","steam_id":76561198094559788,"connected_time":1154000000000,"state":"active","ping":59},{"user_id":301,"name":"nedilya","steam_id":76561198039692077,"connected_time":6717000000000,"state":"active","ping":62},{"user_id":361,"name":"GiftingGuyVv (Ask for a gift)","steam_id":76561198256656295,"connected_time":1711000000000,"state":"active","ping":60},{"user_id":384,"name":"Toad | Mario Kart Double Dash","steam_id":76561198374881425,"connected_time":307000000000,"state":"active","ping":68},{"user_id":385,"name":"Inhambane, Inhambane, Mozambiqu","steam_id":76561198364050027,"connected_time":299000000000,"state":"active","ping":66}]},{"server_id":310,"name":"Uncletopia | Frankfurt | 5 | All Maps","name_short":"frk-5","host":"frk-1.de.uncletopia.com","port":27055,"enabled":true,"region":"eu","cc":"de","latitude":50.110924,"longitude":8.682127,"reserved":0,"last_update":"0001-01-01T00:00:00Z","name_a2s":"Uncletopia | Frankfurt | 5 | All Maps","protocol":17,"map":"cp_powerhouse","folder":"tf","game":"Team Fortress","app_id":440,"player_count":22,"max_players":24,"Bots":0,"server_type":"Dedicated","server_os":"Linux","password":true,"vac":true,"version":"7708610","steam_id":85568392924504277,"keywords":["cp","nocrits","nodmgspread","uncletopia"],"game_id":440,"stv_port":27056,"stv_name":"Uncletopia | Frankfurt | 5 | All Maps | STV","players":[{"user_id":543,"name":"Speibsackerl","steam_id":76561198058135257,"connected_time":3768000000000,"state":"active","ping":57},{"user_id":573,"name":"Tomfool","steam_id":76561197993256481,"connected_time":1546000000000,"state":"active","ping":71},{"user_id":550,"name":"Wyremingo","steam_id":76561198314337596,"connected_time":3318000000000,"state":"active","ping":87},{"user_id":502,"name":"dddd","steam_id":76561198120894372,"connected_time":5861000000000,"state":"active","ping":104},{"user_id":569,"name":"Luut Schmeinen","steam_id":76561198117223597,"connected_time":1711000000000,"state":"active","ping":57},{"user_id":544,"name":"charlag_khan","steam_id":76561197991768268,"connected_time":3564000000000,"state":"active","ping":52},{"user_id":557,"name":"deno_","steam_id":76561198316520968,"connected_time":2556000000000,"state":"active","ping":49},{"user_id":559,"name":"drippin jimmy","steam_id":76561198219243969,"connected_time":2514000000000,"state":"active","ping":51},{"user_id":575,"name":"Badrock 1","steam_id":76561198368513115,"connected_time":1493000000000,"state":"active","ping":115},{"user_id":588,"name":"xristosblin","steam_id":76561199043074852,"connected_time":853000000000,"state":"active","ping":86},{"user_id":531,"name":"spud Johnson (fake)","steam_id":76561199380974466,"connected_time":4192000000000,"state":"active","ping":78},{"user_id":587,"name":"MisterSleider","steam_id":76561198063840611,"connected_time":948000000000,"state":"active","ping":76},{"user_id":578,"name":"DeCypher","steam_id":76561198171992619,"connected_time":1397000000000,"state":"active","ping":63},{"user_id":602,"name":"Kanny","steam_id":76561198058810184,"connected_time":51000000000,"state":"active","ping":67},{"user_id":593,"name":"big boi","steam_id":76561198033467299,"connected_time":526000000000,"state":"active","ping":124},{"user_id":534,"name":"Chiaros","steam_id":76561198089233744,"connected_time":4089000000000,"state":"active","ping":79},{"user_id":599,"name":"RY4NX15X","steam_id":76561199065561979,"connected_time":216000000000,"state":"active","ping":59},{"user_id":603,"name":"C++","steam_id":76561198214855155,"connected_time":51000000000,"state":"active","ping":63},{"user_id":568,"name":"Snowmotion","steam_id":76561198075022454,"connected_time":2212000000000,"state":"active","ping":58},{"user_id":585,"name":"Check Messenger","steam_id":76561198043868408,"connected_time":1314000000000,"state":"active","ping":79},{"user_id":539,"name":"Wrex ","steam_id":76561198310870744,"connected_time":3962000000000,"state":"active","ping":63},{"user_id":597,"name":"zeta307","steam_id":76561198010891875,"connected_time":386000000000,"state":"active","ping":75}]},{"server_id":311,"name":"Uncletopia | Frankfurt | 6 | All Maps","name_short":"frk-6","host":"frk-1.de.uncletopia.com","port":27065,"enabled":true,"region":"eu","cc":"de","latitude":50.110924,"longitude":8.682127,"reserved":0,"last_update":"0001-01-01T00:00:00Z","name_a2s":"Uncletopia | Frankfurt | 6 | All Maps","protocol":17,"map":"pl_upward","folder":"tf","game":"Team Fortress","app_id":440,"player_count":0,"max_players":24,"Bots":0,"server_type":"Dedicated","server_os":"Linux","password":true,"vac":true,"version":"7708610","steam_id":85568392924504278,"keywords":["nocrits","nodmgspread","payload","uncletopia"],"game_id":440,"stv_port":27066,"stv_name":"Uncletopia | Frankfurt | 6 | All Maps | STV","players":null},{"server_id":23,"name":"Uncletopia | Frankfurt | 7 | No Payload","name_short":"frk-7","host":"frk-1.de.uncletopia.com","port":27075,"enabled":true,"region":"eu","cc":"de","latitude":50.110924,"longitude":8.682127,"reserved":0,"last_update":"0001-01-01T00:00:00Z","name_a2s":"Uncletopia | Frankfurt | 7 | No Payload","protocol":17,"map":"plr_hightower","folder":"tf","game":"Team Fortress","app_id":440,"player_count":0,"max_players":24,"Bots":0,"server_type":"Dedicated","server_os":"Linux","password":true,"vac":true,"version":"7708610","steam_id":85568392924742827,"keywords":["nocrits","nodmgspread","payload","uncletopia"],"game_id":440,"stv_port":27076,"stv_name":"Uncletopia | Frankfurt | 7 | No Payload | STV","players":null},{"server_id":24,"name":"Uncletopia | Frankfurt | 8 | Community","name_short":"frk-8","host":"frk-1.de.uncletopia.com","port":27085,"enabled":true,"region":"eu","cc":"de","latitude":50.110924,"longitude":8.682127,"reserved":0,"last_update":"0001-01-01T00:00:00Z","name_a2s":"Uncletopia | Frankfurt | 8 | Community","protocol":17,"map":"workshop/koth_slaughter_rc1.ugc1712845210","folder":"tf","game":"Team Fortress","app_id":440,"player_count":0,"max_players":24,"Bots":0,"server_type":"Dedicated","server_os":"Linux","password":true,"vac":true,"version":"7708610","steam_id":85568392924742828,"keywords":["cp","nocrits","nodmgspread","uncletopia"],"game_id":440,"stv_port":27086,"stv_name":"Uncletopia | Frankfurt | 8 | Community | STV","players":null},{"server_id":202,"name":"Uncletopia | Hong Kong | 1 | All Maps","name_short":"hgk-1","host":"hgk-1.hk.uncletopia.com","port":27015,"enabled":true,"region":"asia","cc":"hk","latitude":22.302711,"longitude":114.177216,"reserved":0,"last_update":"0001-01-01T00:00:00Z","name_a2s":"Uncletopia | Hong Kong | 1 | All Maps","protocol":17,"map":"koth_lakeside_final","folder":"tf","game":"Team Fortress","app_id":440,"player_count":0,"max_players":24,"Bots":0,"server_type":"Dedicated","server_os":"Linux","password":true,"vac":true,"version":"7708610","steam_id":85568392924494504,"keywords":["cp","nocrits","nodmgspread","uncletopia"],"game_id":440,"stv_port":27016,"stv_name":"Uncletopia | Hong Kong | 1 | All Maps | STV","players":null},{"server_id":1,"name":"Uncletopia | Los Angeles | 1 | All Maps","name_short":"lax-1","host":"lax-1.us.uncletopia.com","port":27015,"enabled":true,"region":"us-west","cc":"us","latitude":33.94279,"longitude":-118.41004,"reserved":0,"last_update":"0001-01-01T00:00:00Z","name_a2s":"Uncletopia | Los Angeles | 1 | All Maps","protocol":17,"map":"pl_pier","folder":"tf","game":"Team Fortress","app_id":440,"player_count":0,"max_players":24,"Bots":0,"server_type":"Dedicated","server_os":"Linux","password":true,"vac":true,"version":"7708610","steam_id":85568392924469991,"keywords":["nocrits","nodmgspread","payload","uncletopia"],"game_id":440,"stv_port":27016,"stv_name":"Uncletopia | Los Angeles | 1 | All Maps | STV","players":null},{"server_id":112,"name":"Uncletopia | Los Angeles | 2 | All Maps","name_short":"lax-2","host":"lax-1.us.uncletopia.com","port":27025,"enabled":true,"region":"us-west","cc":"us","latitude":33.94279,"longitude":-118.41004,"reserved":0,"last_update":"0001-01-01T00:00:00Z","name_a2s":"Uncletopia | Los Angeles | 2 | All Maps","protocol":17,"map":"pl_snowycoast","folder":"tf","game":"Team Fortress","app_id":440,"player_count":0,"max_players":24,"Bots":0,"server_type":"Dedicated","server_os":"Linux","password":true,"vac":true,"version":"7708610","steam_id":85568392924469992,"keywords":["nocrits","nodmgspread","payload","uncletopia"],"game_id":440,"stv_port":27026,"stv_name":"Uncletopia | Los Angeles | 2 | All Maps | STV","players":null},{"server_id":324,"name":"Uncletopia | Los Angeles | 3 | All Maps","name_short":"lax-3","host":"lax-1.us.uncletopia.com","port":27035,"enabled":true,"region":"us-west","cc":"us","latitude":33.94279,"longitude":-118.41004,"reserved":0,"last_update":"0001-01-01T00:00:00Z","name_a2s":"Uncletopia | Los Angeles | 3 | All Maps","protocol":17,"map":"pl_frontier_final","folder":"tf","game":"Team Fortress","app_id":440,"player_count":24,"max_players":24,"Bots":0,"server_type":"Dedicated","server_os":"Linux","password":true,"vac":true,"version":"7708610","steam_id":85568392924510198,"keywords":["nocrits","nodmgspread","payload","uncletopia"],"game_id":440,"stv_port":27036,"stv_name":"Uncletopia | Los Angeles | 3 | All Maps | STV","players":[{"user_id":438,"name":"therealdeal680","steam_id":76561199190330316,"connected_time":257000000000,"state":"active","ping":95},{"user_id":435,"name":"Rowdy Riot","steam_id":76561198037734418,"connected_time":500000000000,"state":"active","ping":87},{"user_id":426,"name":"An Old Lady","steam_id":76561198047480318,"connected_time":1388000000000,"state":"active","ping":59},{"user_id":344,"name":"Popcorn Dragon","steam_id":76561199097345869,"connected_time":7074000000000,"state":"active","ping":47},{"user_id":365,"name":"Raian","steam_id":76561199138048671,"connected_time":6261000000000,"state":"active","ping":43},{"user_id":437,"name":"fancy chef","steam_id":76561198993641831,"connected_time":331000000000,"state":"active","ping":87},{"user_id":428,"name":"BrightOrangeMango","steam_id":76561198023144607,"connected_time":1018000000000,"state":"active","ping":55},{"user_id":407,"name":"Itgel","steam_id":76561198188572226,"connected_time":3007000000000,"state":"active","ping":103},{"user_id":402,"name":"HawkeyJockey","steam_id":76561199133092736,"connected_time":3489000000000,"state":"active","ping":45},{"user_id":436,"name":"ButterDog","steam_id":76561198170459503,"connected_time":474000000000,"state":"active","ping":61},{"user_id":405,"name":"Tmiracle","steam_id":76561198052375275,"connected_time":3179000000000,"state":"active","ping":42},{"user_id":430,"name":"lag","steam_id":76561197963872739,"connected_time":809000000000,"state":"active","ping":61},{"user_id":422,"name":"GP-Stealth","steam_id":76561198142906368,"connected_time":1513000000000,"state":"active","ping":56},{"user_id":376,"name":"Chad the Sex Haver","steam_id":76561198058236528,"connected_time":4958000000000,"state":"active","ping":53},{"user_id":433,"name":"happer","steam_id":76561198018252253,"connected_time":719000000000,"state":"active","ping":51},{"user_id":424,"name":"Wheatley","steam_id":76561199059006203,"connected_time":1499000000000,"state":"active","ping":104},{"user_id":377,"name":"Soap Man","steam_id":76561198000490235,"connected_time":4952000000000,"state":"active","ping":93},{"user_id":434,"name":"Western_dragon","steam_id":76561198130456105,"connected_time":668000000000,"state":"active","ping":58},{"user_id":403,"name":"Altruisticailuridae","steam_id":76561198335295596,"connected_time":3330000000000,"state":"active","ping":50},{"user_id":427,"name":"JON","steam_id":76561198057971005,"connected_time":1273000000000,"state":"active","ping":71},{"user_id":431,"name":"OxOoxen841","steam_id":76561198297981993,"connected_time":759000000000,"state":"active","ping":114},{"user_id":417,"name":"⛧Alkahestry","steam_id":76561198109641497,"connected_time":2138000000000,"state":"active","ping":47},{"user_id":425,"name":"Honda Insight 2021","steam_id":76561198191154553,"connected_time":1475000000000,"state":"active","ping":60},{"user_id":418,"name":"GameGuru the Green Gryphon","steam_id":76561198118495354,"connected_time":1886000000000,"state":"active","ping":58}]},{"server_id":25,"name":"Uncletopia | Los Angeles | 4 | No Payload","name_short":"lax-4","host":"lax-1.us.uncletopia.com","port":27045,"enabled":true,"region":"us-west","cc":"us","latitude":33.94279,"longitude":-118.41004,"reserved":0,"last_update":"0001-01-01T00:00:00Z","name_a2s":"Uncletopia | Los Angeles | 4 | No Payload","protocol":17,"map":"cp_well","folder":"tf","game":"Team Fortress","app_id":440,"player_count":0,"max_players":24,"Bots":0,"server_type":"Dedicated","server_os":"Linux","password":true,"vac":true,"version":"7708610","steam_id":85568392924510199,"keywords":["cp","nocrits","nodmgspread","uncletopia"],"game_id":440,"stv_port":27046,"stv_name":"Uncletopia | Los Angeles | 4 | No Payload | STV","players":null},{"server_id":11,"name":"Uncletopia | London | 1 | All Maps","name_short":"lon-1","host":"lon-1.uk.uncletopia.com","port":27015,"enabled":true,"region":"eu","cc":"gb","latitude":51.509865,"longitude":-0.118092,"reserved":0,"last_update":"0001-01-01T00:00:00Z","name_a2s":"Uncletopia | London | 1 | All Maps","protocol":17,"map":"cp_snakewater_final1","folder":"tf","game":"Team Fortress","app_id":440,"player_count":24,"max_players":24,"Bots":0,"server_type":"Dedicated","server_os":"Linux","password":true,"vac":true,"version":"7708610","steam_id":85568392924367362,"keywords":["cp","nocrits","nodmgspread","uncletopia"],"game_id":440,"stv_port":27016,"stv_name":"Uncletopia | London | 1 | All Maps | STV","players":[{"user_id":464,"name":"festive jones","steam_id":76561198073975078,"connected_time":1158000000000,"state":"active","ping":45},{"user_id":445,"name":"♥ඞlilyඞ♥","steam_id":76561198049840460,"connected_time":3188000000000,"state":"active","ping":50},{"user_id":460,"name":"The_Jaystone","steam_id":76561198126280691,"connected_time":1319000000000,"state":"active","ping":40},{"user_id":486,"name":"Pizza/Cheese/Pepperoni","steam_id":76561198174510235,"connected_time":21000000000,"state":"active","ping":52},{"user_id":479,"name":"Samm","steam_id":76561198050474499,"connected_time":247000000000,"state":"active","ping":89},{"user_id":482,"name":"ash","steam_id":76561198004728744,"connected_time":127000000000,"state":"active","ping":56},{"user_id":466,"name":"ducks","steam_id":76561198166148685,"connected_time":866000000000,"state":"active","ping":30},{"user_id":481,"name":"Caruzon - Obismal","steam_id":76561198036211170,"connected_time":168000000000,"state":"active","ping":74},{"user_id":483,"name":"bingle","steam_id":76561198359413453,"connected_time":109000000000,"state":"active","ping":122},{"user_id":487,"name":"Superiumentarius","steam_id":76561198081642249,"connected_time":21000000000,"state":"active","ping":60},{"user_id":398,"name":"Mango","steam_id":76561198139555709,"connected_time":7426000000000,"state":"active","ping":53},{"user_id":470,"name":"MagusCubed","steam_id":76561198083973944,"connected_time":506000000000,"state":"active","ping":45},{"user_id":485,"name":"nobody","steam_id":76561198180637374,"connected_time":35000000000,"state":"spawning","ping":108},{"user_id":405,"name":"✪ J","steam_id":76561198094911581,"connected_time":6833000000000,"state":"active","ping":49},{"user_id":467,"name":"swallowed 10 pennies please hel","steam_id":76561198055816412,"connected_time":767000000000,"state":"active","ping":46},{"user_id":421,"name":"Bonca","steam_id":76561198137503531,"connected_time":5942000000000,"state":"active","ping":71},{"user_id":397,"name":"nudjura","steam_id":76561198281986139,"connected_time":7430000000000,"state":"active","ping":47},{"user_id":478,"name":"Vince","steam_id":76561199103000131,"connected_time":270000000000,"state":"active","ping":45},{"user_id":472,"name":"merry beebo","steam_id":76561199120277007,"connected_time":418000000000,"state":"active","ping":53},{"user_id":416,"name":"Grim the lemon","steam_id":76561199083433988,"connected_time":6408000000000,"state":"active","ping":50},{"user_id":488,"name":"The Irish Eejit","steam_id":76561198027738057,"connected_time":13000000000,"state":"spawning","ping":87},{"user_id":450,"name":"Arscin","steam_id":76561198262193529,"connected_time":3050000000000,"state":"active","ping":52},{"user_id":426,"name":"Tasukeru","steam_id":76561198011909704,"connected_time":4340000000000,"state":"active","ping":56},{"user_id":454,"name":"Posho","steam_id":76561198062396436,"connected_time":2743000000000,"state":"active","ping":42}]},{"server_id":114,"name":"Uncletopia | London | 2 | All Maps","name_short":"lon-2","host":"lon-1.uk.uncletopia.com","port":27025,"enabled":true,"region":"eu","cc":"gb","latitude":51.509865,"longitude":-0.118092,"reserved":0,"last_update":"0001-01-01T00:00:00Z","name_a2s":"Uncletopia | London | 2 | All Maps","protocol":17,"map":"pl_borneo","folder":"tf","game":"Team Fortress","app_id":440,"player_count":24,"max_players":24,"Bots":0,"server_type":"Dedicated","server_os":"Linux","password":true,"vac":true,"version":"7708610","steam_id":85568392924470941,"keywords":["nocrits","nodmgspread","payload","uncletopia"],"game_id":440,"stv_port":27026,"stv_name":"Uncletopia | London | 2 | All Maps | STV","players":[{"user_id":349,"name":"Yen","steam_id":76561198118519554,"connected_time":1815000000000,"state":"active","ping":57},{"user_id":346,"name":"ArekanPL","steam_id":76561198306811916,"connected_time":2263000000000,"state":"active","ping":80},{"user_id":358,"name":"gagalak","steam_id":76561198089979108,"connected_time":1110000000000,"state":"active","ping":105},{"user_id":340,"name":"washed up","steam_id":76561198275742101,"connected_time":2491000000000,"state":"active","ping":69},{"user_id":315,"name":"-_-","steam_id":76561199210154597,"connected_time":3993000000000,"state":"active","ping":45},{"user_id":355,"name":"shr1mple","steam_id":76561198173537027,"connected_time":1158000000000,"state":"active","ping":45},{"user_id":362,"name":"team fortress 2","steam_id":76561198029771708,"connected_time":649000000000,"state":"active","ping":79},{"user_id":335,"name":"effie♡","steam_id":76561198129649478,"connected_time":2889000000000,"state":"active","ping":59},{"user_id":367,"name":"Cheshireycat","steam_id":76561198067204908,"connected_time":15000000000,"state":"active","ping":57},{"user_id":347,"name":"Tryrn","steam_id":76561198075487436,"connected_time":2053000000000,"state":"active","ping":90},{"user_id":363,"name":"kickz","steam_id":76561198038453890,"connected_time":612000000000,"state":"active","ping":39},{"user_id":332,"name":"D E A D A S S !","steam_id":76561198170081058,"connected_time":2966000000000,"state":"active","ping":69},{"user_id":337,"name":"LemonLeCitron","steam_id":76561198215545267,"connected_time":2686000000000,"state":"active","ping":51},{"user_id":311,"name":"soil.dirt.earth","steam_id":76561198014377623,"connected_time":4155000000000,"state":"active","ping":58},{"user_id":361,"name":"saus","steam_id":76561198114729364,"connected_time":1049000000000,"state":"active","ping":57},{"user_id":344,"name":"Scrubbey","steam_id":76561197962091948,"connected_time":2336000000000,"state":"active","ping":75},{"user_id":360,"name":"Dirt Road","steam_id":76561198210372012,"connected_time":1065000000000,"state":"active","ping":139},{"user_id":329,"name":"Sgreff","steam_id":76561198036304365,"connected_time":3116000000000,"state":"active","ping":45},{"user_id":338,"name":"Breizbuc","steam_id":76561198118220633,"connected_time":2665000000000,"state":"active","ping":54},{"user_id":348,"name":"simn","steam_id":76561198159182269,"connected_time":1930000000000,"state":"active","ping":59},{"user_id":316,"name":"Laurie","steam_id":76561198082951750,"connected_time":3968000000000,"state":"active","ping":43},{"user_id":333,"name":"Andeeh","steam_id":76561198072810527,"connected_time":2954000000000,"state":"active","ping":63},{"user_id":345,"name":"coyo","steam_id":76561198079583195,"connected_time":2305000000000,"state":"active","ping":50},{"user_id":366,"name":"Im_drinking_lemonade","steam_id":76561199001294239,"connected_time":119000000000,"state":"active","ping":148}]},{"server_id":320,"name":"Uncletopia | London | 3 | All Maps","name_short":"lon-3","host":"lon-1.uk.uncletopia.com","port":27035,"enabled":true,"region":"eu","cc":"gb","latitude":51.509865,"longitude":-0.118092,"reserved":0,"last_update":"0001-01-01T00:00:00Z","name_a2s":"Uncletopia | London | 3 | All Maps","protocol":17,"map":"pl_borneo","folder":"tf","game":"Team Fortress","app_id":440,"player_count":23,"max_players":24,"Bots":0,"server_type":"Dedicated","server_os":"Linux","password":true,"vac":true,"version":"7708610","steam_id":85568392924510192,"keywords":["nocrits","nodmgspread","payload","uncletopia"],"game_id":440,"stv_port":27036,"stv_name":"Uncletopia | London | 3 | All Maps | STV","players":[{"user_id":331,"name":"Salesman","steam_id":76561198045527771,"connected_time":662000000000,"state":"active","ping":48},{"user_id":336,"name":"mark feely got put in my zoot","steam_id":76561199117070934,"connected_time":198000000000,"state":"active","ping":76},{"user_id":297,"name":"AND HIT IT!","steam_id":76561198030956814,"connected_time":4335000000000,"state":"active","ping":75},{"user_id":165,"name":"lark","steam_id":76561198091724522,"connected_time":13689000000000,"state":"active","ping":57},{"user_id":330,"name":"Darky","steam_id":76561198004733239,"connected_time":722000000000,"state":"active","ping":43},{"user_id":170,"name":"Saken","steam_id":76561198049075295,"connected_time":13424000000000,"state":"active","ping":59},{"user_id":326,"name":"BrownBreadMan","steam_id":76561199092834214,"connected_time":1366000000000,"state":"active","ping":49},{"user_id":327,"name":"Listerine Larry","steam_id":76561198093229786,"connected_time":982000000000,"state":"active","ping":79},{"user_id":311,"name":"⩩✞ _SneKerz ⩩✞","steam_id":76561198141259011,"connected_time":2609000000000,"state":"active","ping":60},{"user_id":337,"name":"Sivik","steam_id":76561198370329466,"connected_time":115000000000,"state":"active","ping":47},{"user_id":269,"name":"Dewotter","steam_id":76561198007653168,"connected_time":7006000000000,"state":"active","ping":60},{"user_id":251,"name":"Bounter","steam_id":76561198072614188,"connected_time":7972000000000,"state":"active","ping":75},{"user_id":338,"name":"player","steam_id":76561198054474684,"connected_time":104000000000,"state":"active","ping":82},{"user_id":303,"name":"wickEd_","steam_id":76561198048068999,"connected_time":3408000000000,"state":"active","ping":145},{"user_id":339,"name":"Not Steven","steam_id":76561198051881261,"connected_time":72000000000,"state":"active","ping":36},{"user_id":309,"name":"Max Andrew","steam_id":76561198158955194,"connected_time":2658000000000,"state":"active","ping":61},{"user_id":164,"name":"cropping","steam_id":76561198026586456,"connected_time":13751000000000,"state":"active","ping":59},{"user_id":340,"name":"gatherer","steam_id":76561198378235611,"connected_time":65000000000,"state":"active","ping":89},{"user_id":328,"name":"Joseph Stalin LFT","steam_id":76561198033199746,"connected_time":975000000000,"state":"active","ping":58},{"user_id":334,"name":"fénix","steam_id":76561198083199151,"connected_time":225000000000,"state":"active","ping":59},{"user_id":241,"name":"timothytreestand-041165","steam_id":76561197995676953,"connected_time":8863000000000,"state":"active","ping":56},{"user_id":323,"name":"glyph","steam_id":76561197980736364,"connected_time":1597000000000,"state":"active","ping":90},{"user_id":341,"name":"Pandamonia","steam_id":76561198237125154,"connected_time":51000000000,"state":"active","ping":142}]},{"server_id":321,"name":"Uncletopia | London | 4 | All Maps","name_short":"lon-4","host":"lon-1.uk.uncletopia.com","port":27045,"enabled":true,"region":"eu","cc":"gb","latitude":51.509865,"longitude":-0.118092,"reserved":0,"last_update":"0001-01-01T00:00:00Z","name_a2s":"Uncletopia | London | 4 | All Maps","protocol":17,"map":"pl_barnblitz","folder":"tf","game":"Team Fortress","app_id":440,"player_count":24,"max_players":24,"Bots":0,"server_type":"Dedicated","server_os":"Linux","password":true,"vac":true,"version":"7708610","steam_id":85568392924510193,"keywords":["nocrits","nodmgspread","payload","uncletopia"],"game_id":440,"stv_port":27046,"stv_name":"Uncletopia | London | 4 | All Maps | STV","players":[{"user_id":388,"name":"Gnarville","steam_id":76561198006373329,"connected_time":1745000000000,"state":"active","ping":51},{"user_id":358,"name":"stupidugly","steam_id":76561198914610283,"connected_time":4023000000000,"state":"active","ping":82},{"user_id":380,"name":"roleypokey","steam_id":76561198999961975,"connected_time":2165000000000,"state":"active","ping":47},{"user_id":360,"name":"Wee Hoose Rice","steam_id":76561198423902979,"connected_time":3881000000000,"state":"active","ping":47},{"user_id":372,"name":"Malen","steam_id":76561198074179851,"connected_time":2683000000000,"state":"active","ping":68},{"user_id":361,"name":"Florua","steam_id":76561198182297846,"connected_time":3812000000000,"state":"active","ping":67},{"user_id":393,"name":"Lux","steam_id":76561198060417740,"connected_time":1091000000000,"state":"active","ping":48},{"user_id":406,"name":"sv_opor 13123","steam_id":76561198002229612,"connected_time":584000000000,"state":"active","ping":65},{"user_id":364,"name":"ciliorkun18","steam_id":76561198228942500,"connected_time":3363000000000,"state":"active","ping":90},{"user_id":407,"name":"Cynical","steam_id":76561198077084694,"connected_time":93000000000,"state":"active","ping":36},{"user_id":381,"name":"Splarvis","steam_id":76561198007792525,"connected_time":2118000000000,"state":"active","ping":41},{"user_id":395,"name":"DARK SOULS™ III","steam_id":76561198045296812,"connected_time":1056000000000,"state":"active","ping":48},{"user_id":345,"name":"Welder","steam_id":76561198355300561,"connected_time":4726000000000,"state":"active","ping":73},{"user_id":382,"name":"kalaa †","steam_id":76561198134652336,"connected_time":2096000000000,"state":"active","ping":66},{"user_id":396,"name":"mishka.*","steam_id":76561198040003628,"connected_time":1041000000000,"state":"active","ping":88},{"user_id":328,"name":"The Imperial","steam_id":76561198374118102,"connected_time":5513000000000,"state":"active","ping":43},{"user_id":379,"name":"Труп Володя","steam_id":76561198035718457,"connected_time":2219000000000,"state":"active","ping":90},{"user_id":362,"name":"Frazel","steam_id":76561198072172113,"connected_time":3489000000000,"state":"active","ping":50},{"user_id":383,"name":"padillacampos","steam_id":76561198161923970,"connected_time":2091000000000,"state":"active","ping":70},{"user_id":404,"name":"nynon","steam_id":76561197998432126,"connected_time":848000000000,"state":"active","ping":114},{"user_id":384,"name":"Lods of Emone","steam_id":76561198188642265,"connected_time":2029000000000,"state":"active","ping":47},{"user_id":357,"name":"Thornton Aardvark","steam_id":76561198259668029,"connected_time":4206000000000,"state":"active","ping":46},{"user_id":386,"name":"meatsoupcube","steam_id":76561198276802249,"connected_time":1875000000000,"state":"active","ping":75},{"user_id":400,"name":"beurgeur","steam_id":76561198872426314,"connected_time":1006000000000,"state":"active","ping":38}]},{"server_id":21,"name":"Uncletopia | London | 5 | All Maps","name_short":"lon-5","host":"lon-1.uk.uncletopia.com","port":27055,"enabled":true,"region":"eu","cc":"gb","latitude":51.509865,"longitude":-0.118092,"reserved":0,"last_update":"0001-01-01T00:00:00Z","name_a2s":"Uncletopia | London | 5 | All Maps","protocol":17,"map":"pl_frontier_final","folder":"tf","game":"Team Fortress","app_id":440,"player_count":24,"max_players":24,"Bots":0,"server_type":"Dedicated","server_os":"Linux","password":true,"vac":true,"version":"7708610","steam_id":85568392924742829,"keywords":["nocrits","nodmgspread","payload","uncletopia"],"game_id":440,"stv_port":27056,"stv_name":"Uncletopia | London | 5 | All Maps | STV","players":[{"user_id":181,"name":"Fancy","steam_id":76561198350658462,"connected_time":1763000000000,"state":"active","ping":103},{"user_id":204,"name":"Dominus.","steam_id":76561199065917088,"connected_time":794000000000,"state":"active","ping":51},{"user_id":166,"name":"Bob_Tostas","steam_id":76561198249006560,"connected_time":3004000000000,"state":"active","ping":82},{"user_id":202,"name":"airshotter","steam_id":76561198154406495,"connected_time":807000000000,"state":"active","ping":42},{"user_id":213,"name":"RayenIDK","steam_id":76561198426022186,"connected_time":305000000000,"state":"active","ping":90},{"user_id":191,"name":"very gud prayer","steam_id":76561198228810696,"connected_time":1530000000000,"state":"active","ping":91},{"user_id":165,"name":"Benameme","steam_id":76561198074097655,"connected_time":3022000000000,"state":"active","ping":50},{"user_id":205,"name":"Bombad General Ged","steam_id":76561198079288943,"connected_time":786000000000,"state":"active","ping":122},{"user_id":175,"name":"jmlc","steam_id":76561199152653643,"connected_time":2581000000000,"state":"active","ping":51},{"user_id":197,"name":"Baron","steam_id":76561198021901783,"connected_time":1241000000000,"state":"active","ping":54},{"user_id":211,"name":"Aeglos","steam_id":76561198248698294,"connected_time":402000000000,"state":"active","ping":57},{"user_id":199,"name":"Teecho","steam_id":76561197995269610,"connected_time":980000000000,"state":"active","ping":52},{"user_id":137,"name":"Ravel.lando #savetf2","steam_id":76561198061543859,"connected_time":4225000000000,"state":"active","ping":48},{"user_id":196,"name":"RIP Pop Smoke LLJ #swag #weed","steam_id":76561198119528210,"connected_time":1350000000000,"state":"active","ping":50},{"user_id":214,"name":"Clarissa","steam_id":76561198005508054,"connected_time":194000000000,"state":"active","ping":140},{"user_id":212,"name":"TheWildKirby","steam_id":76561198836027309,"connected_time":331000000000,"state":"active","ping":45},{"user_id":151,"name":"Archie","steam_id":76561199061232100,"connected_time":3600000000000,"state":"active","ping":74},{"user_id":216,"name":"flange","steam_id":76561198040182692,"connected_time":133000000000,"state":"active","ping":41},{"user_id":217,"name":"torn","steam_id":76561198223003236,"connected_time":93000000000,"state":"active","ping":33},{"user_id":185,"name":"waffle toaster","steam_id":76561198799089628,"connected_time":1694000000000,"state":"active","ping":48},{"user_id":136,"name":"random_player691","steam_id":76561199209946306,"connected_time":4258000000000,"state":"active","ping":51},{"user_id":215,"name":"Waffles","steam_id":76561199086942763,"connected_time":185000000000,"state":"active","ping":90},{"user_id":208,"name":"Goon Spoons","steam_id":76561198116391675,"connected_time":722000000000,"state":"active","ping":75},{"user_id":209,"name":"Jimmy","steam_id":76561197999039252,"connected_time":719000000000,"state":"active","ping":59}]},{"server_id":22,"name":"Uncletopia | London | 6 | All Maps","name_short":"lon-6","host":"lon-1.uk.uncletopia.com","port":27065,"enabled":true,"region":"eu","cc":"gb","latitude":51.509865,"longitude":-0.118092,"reserved":0,"last_update":"0001-01-01T00:00:00Z","name_a2s":"Uncletopia | London | 6 | All Maps","protocol":17,"map":"koth_highpass","folder":"tf","game":"Team Fortress","app_id":440,"player_count":0,"max_players":24,"Bots":0,"server_type":"Dedicated","server_os":"Linux","password":true,"vac":true,"version":"7708610","steam_id":85568392924742830,"keywords":["cp","nocrits","nodmgspread","uncletopia"],"game_id":440,"stv_port":27066,"stv_name":"Uncletopia | London | 6 | All Maps | STV","players":null},{"server_id":40,"name":"Uncletopia | London | 7 | No Payload","name_short":"lon-7","host":"lon-1.uk.uncletopia.com","port":27075,"enabled":true,"region":"eu","cc":"gb","latitude":51.509865,"longitude":-0.118092,"reserved":0,"last_update":"0001-01-01T00:00:00Z","name_a2s":"Uncletopia | London | 7 | No Payload","protocol":17,"map":"koth_highpass","folder":"tf","game":"Team Fortress","app_id":440,"player_count":1,"max_players":24,"Bots":0,"server_type":"Dedicated","server_os":"Linux","password":true,"vac":true,"version":"7708610","steam_id":85568392924964314,"keywords":["cp","nocrits","nodmgspread","uncletopia"],"game_id":440,"stv_port":27076,"stv_name":"Uncletopia | London | 7 | No Payload | STV","players":[{"user_id":19,"name":"SFGPLAY #savetf2","steam_id":76561199235732935,"connected_time":2000000000,"state":"spawning","ping":129}]},{"server_id":41,"name":"Uncletopia | London | 8 | Community","name_short":"lon-8","host":"lon-1.uk.uncletopia.com","port":27085,"enabled":true,"region":"eu","cc":"gb","latitude":51.509865,"longitude":-0.118092,"reserved":0,"last_update":"0001-01-01T00:00:00Z","name_a2s":"Uncletopia | London | 8 | Community","protocol":17,"map":"workshop/koth_synthetic_rc6a.ugc1549817316","folder":"tf","game":"Team Fortress","app_id":440,"player_count":0,"max_players":24,"Bots":0,"server_type":"Dedicated","server_os":"Linux","password":true,"vac":true,"version":"7708610","steam_id":85568392924964315,"keywords":["cp","nocrits","nodmgspread","uncletopia"],"game_id":440,"stv_port":27086,"stv_name":"Uncletopia | London | 8 | Community | STV","players":null},{"server_id":300,"name":"Uncletopia | Montréal | 1 | All Maps","name_short":"mtl-1","host":"mtl-1.ca.uncletopia.com","port":27015,"enabled":true,"region":"us-east","cc":"ca","latitude":45.50889,"longitude":-73.56167,"reserved":0,"last_update":"0001-01-01T00:00:00Z","name_a2s":"Uncletopia | Montréal | 1 | All Maps","protocol":17,"map":"pl_borneo","folder":"tf","game":"Team Fortress","app_id":440,"player_count":0,"max_players":24,"Bots":0,"server_type":"Dedicated","server_os":"Linux","password":true,"vac":true,"version":"7708610","steam_id":85568392924500087,"keywords":["nocrits","nodmgspread","payload","uncletopia"],"game_id":440,"stv_port":27016,"stv_name":"Uncletopia | Montréal | 1 | All Maps | STV","players":null},{"server_id":301,"name":"Uncletopia | Montréal | 2 | All Maps","name_short":"mtl-2","host":"mtl-1.ca.uncletopia.com","port":27025,"enabled":true,"region":"us-east","cc":"ca","latitude":45.50889,"longitude":-73.56167,"reserved":0,"last_update":"0001-01-01T00:00:00Z","name_a2s":"Uncletopia | Montréal | 2 | All Maps","protocol":17,"map":"pl_swiftwater_final1","folder":"tf","game":"Team Fortress","app_id":440,"player_count":0,"max_players":24,"Bots":0,"server_type":"Dedicated","server_os":"Linux","password":true,"vac":true,"version":"7708610","steam_id":85568392924500088,"keywords":["nocrits","nodmgspread","payload","uncletopia"],"game_id":440,"stv_port":27026,"stv_name":"Uncletopia | Montréal | 2 | All Maps | STV","players":null},{"server_id":302,"name":"Uncletopia | Montréal | 3 | All Maps","name_short":"mtl-3","host":"mtl-1.ca.uncletopia.com","port":27035,"enabled":true,"region":"us-east","cc":"ca","latitude":45.50889,"longitude":-73.56167,"reserved":0,"last_update":"0001-01-01T00:00:00Z","name_a2s":"Uncletopia | Montréal | 3 | All Maps","protocol":17,"map":"cp_snakewater_final1","folder":"tf","game":"Team Fortress","app_id":440,"player_count":0,"max_players":24,"Bots":0,"server_type":"Dedicated","server_os":"Linux","password":true,"vac":true,"version":"7708610","steam_id":85568392924500089,"keywords":["cp","nocrits","nodmgspread","uncletopia"],"game_id":440,"stv_port":27036,"stv_name":"Uncletopia | Montréal | 3 | All Maps | STV","players":null},{"server_id":303,"name":"Uncletopia | Montréal | 4 | No Payload","name_short":"mtl-4","host":"mtl-1.ca.uncletopia.com","port":27045,"enabled":true,"region":"us-east","cc":"ca","latitude":45.50889,"longitude":-73.56167,"reserved":0,"last_update":"0001-01-01T00:00:00Z","name_a2s":"Uncletopia | Montréal | 4 | No Payload","protocol":17,"map":"cp_snakewater_final1","folder":"tf","game":"Team Fortress","app_id":440,"player_count":0,"max_players":24,"Bots":0,"server_type":"Dedicated","server_os":"Linux","password":true,"vac":true,"version":"7708610","steam_id":85568392924500090,"keywords":["cp","nocrits","nodmgspread","uncletopia"],"game_id":440,"stv_port":27046,"stv_name":"Uncletopia | Montréal | 4 | No Payload | STV","players":null},{"server_id":13,"name":"Uncletopia | New York City | 1 | All Maps","name_short":"nyc-1","host":"nyc-1.us.uncletopia.com","port":27015,"enabled":true,"region":"us-east","cc":"us","latitude":40.73061,"longitude":-73.93524,"reserved":0,"last_update":"0001-01-01T00:00:00Z","name_a2s":"Uncletopia | New York City | 1 | All Maps","protocol":17,"map":"koth_lakeside_final","folder":"tf","game":"Team Fortress","app_id":440,"player_count":0,"max_players":24,"Bots":0,"server_type":"Dedicated","server_os":"Linux","password":true,"vac":true,"version":"7708610","steam_id":85568392924469993,"keywords":["cp","nocrits","nodmgspread","uncletopia"],"game_id":440,"stv_port":27016,"stv_name":"Uncletopia | New York City | 1 | All Maps | STV","players":null},{"server_id":14,"name":"Uncletopia | New York City | 2 | All Maps","name_short":"nyc-2","host":"nyc-1.us.uncletopia.com","port":27025,"enabled":true,"region":"us-east","cc":"us","latitude":40.73061,"longitude":-73.93524,"reserved":0,"last_update":"0001-01-01T00:00:00Z","name_a2s":"Uncletopia | New York City | 2 | All Maps","protocol":17,"map":"cp_dustbowl","folder":"tf","game":"Team Fortress","app_id":440,"player_count":23,"max_players":24,"Bots":0,"server_type":"Dedicated","server_os":"Linux","password":true,"vac":true,"version":"7708610","steam_id":85568392924469994,"keywords":["cp","nocrits","nodmgspread","uncletopia"],"game_id":440,"stv_port":27026,"stv_name":"Uncletopia | New York City | 2 | All Maps | STV","players":[{"user_id":5,"name":"piflle","steam_id":76561199283873577,"connected_time":4249000000000,"state":"active","ping":62},{"user_id":6,"name":"Eliza (They/She)","steam_id":76561198108938752,"connected_time":4191000000000,"state":"active","ping":80},{"user_id":7,"name":"PapaPatrick","steam_id":76561199017975241,"connected_time":3844000000000,"state":"active","ping":83},{"user_id":10,"name":"MeKaso TropStar","steam_id":76561199109895840,"connected_time":3461000000000,"state":"active","ping":43},{"user_id":49,"name":"Vem","steam_id":76561198117273112,"connected_time":1337000000000,"state":"active","ping":64},{"user_id":50,"name":"Karma","steam_id":76561198030565234,"connected_time":1223000000000,"state":"active","ping":48},{"user_id":42,"name":"Bismarck","steam_id":76561198442873012,"connected_time":2239000000000,"state":"active","ping":53},{"user_id":44,"name":"BeerPowder","steam_id":76561198058129400,"connected_time":2027000000000,"state":"active","ping":45},{"user_id":45,"name":"Sapphireblitz","steam_id":76561198272635379,"connected_time":1892000000000,"state":"active","ping":68},{"user_id":28,"name":"marrimae","steam_id":76561198077579990,"connected_time":2481000000000,"state":"active","ping":146},{"user_id":66,"name":"Strike The Earth!","steam_id":76561198090891781,"connected_time":363000000000,"state":"active","ping":51},{"user_id":39,"name":"PrinceGrotle","steam_id":76561198206131603,"connected_time":2312000000000,"state":"active","ping":53},{"user_id":71,"name":"Cassius","steam_id":76561198146163328,"connected_time":295000000000,"state":"active","ping":52},{"user_id":63,"name":"catgirl","steam_id":76561198020736672,"connected_time":491000000000,"state":"active","ping":61},{"user_id":23,"name":"BenjinEngine","steam_id":76561198079371059,"connected_time":2643000000000,"state":"active","ping":73},{"user_id":59,"name":"\"seductive French noises\"","steam_id":76561199050791883,"connected_time":670000000000,"state":"active","ping":59},{"user_id":67,"name":"Wolfwu - BUFF THE SPEED","steam_id":76561198864421290,"connected_time":336000000000,"state":"active","ping":61},{"user_id":29,"name":"Indigolake","steam_id":76561198202215807,"connected_time":2474000000000,"state":"active","ping":64},{"user_id":40,"name":"anna KUSH","steam_id":76561199100831175,"connected_time":2281000000000,"state":"active","ping":60},{"user_id":74,"name":"OneTrueCorvid","steam_id":76561199012953221,"connected_time":60000000000,"state":"spawning","ping":131},{"user_id":69,"name":"Nate (Not Yours)","steam_id":76561198953073286,"connected_time":321000000000,"state":"active","ping":52},{"user_id":70,"name":"Ghtf","steam_id":76561198237521982,"connected_time":312000000000,"state":"active","ping":118},{"user_id":73,"name":"TheGreatAndMightySpence","steam_id":76561198880848609,"connected_time":270000000000,"state":"active","ping":44}]},{"server_id":15,"name":"Uncletopia | New York City | 3 | All Maps","name_short":"nyc-3","host":"nyc-1.us.uncletopia.com","port":27035,"enabled":true,"region":"us-east","cc":"us","latitude":40.73061,"longitude":-73.93524,"reserved":0,"last_update":"0001-01-01T00:00:00Z","name_a2s":"Uncletopia | New York City | 3 | All Maps","protocol":17,"map":"pl_upward","folder":"tf","game":"Team Fortress","app_id":440,"player_count":24,"max_players":24,"Bots":0,"server_type":"Dedicated","server_os":"Linux","password":true,"vac":true,"version":"7708610","steam_id":85568392924742820,"keywords":["nocrits","nodmgspread","payload","uncletopia"],"game_id":440,"stv_port":27036,"stv_name":"Uncletopia | New York City | 3 | All Maps | STV","players":[{"user_id":54,"name":"THRILLHO","steam_id":76561198371663047,"connected_time":4804000000000,"state":"active","ping":45},{"user_id":71,"name":"Spirit","steam_id":76561199069322627,"connected_time":3699000000000,"state":"active","ping":55},{"user_id":118,"name":"Zhong Xina","steam_id":76561197963305792,"connected_time":346000000000,"state":"active","ping":46},{"user_id":113,"name":"erik1983_v2","steam_id":76561198235875882,"connected_time":661000000000,"state":"active","ping":79},{"user_id":56,"name":"the biggest bird","steam_id":76561198026393621,"connected_time":4778000000000,"state":"active","ping":64},{"user_id":109,"name":"Puro","steam_id":76561198882421166,"connected_time":731000000000,"state":"active","ping":80},{"user_id":119,"name":"aimee","steam_id":76561198834309212,"connected_time":219000000000,"state":"active","ping":57},{"user_id":110,"name":"NeoN™","steam_id":76561198117608366,"connected_time":714000000000,"state":"active","ping":38},{"user_id":93,"name":"Ripley","steam_id":76561198080766916,"connected_time":2130000000000,"state":"active","ping":68},{"user_id":97,"name":"hops_a_pops","steam_id":76561198210902109,"connected_time":2075000000000,"state":"active","ping":66},{"user_id":76,"name":"Communist Killing Candy Cactus\ufffd","steam_id":76561198074980635,"connected_time":3573000000000,"state":"active","ping":118},{"user_id":111,"name":"FULCRUM faded than a ho","steam_id":76561198274959371,"connected_time":667000000000,"state":"active","ping":51},{"user_id":88,"name":"Liam Triforce","steam_id":76561198065300748,"connected_time":2617000000000,"state":"active","ping":73},{"user_id":107,"name":"coffee bagel","steam_id":76561198141198352,"connected_time":1022000000000,"state":"active","ping":61},{"user_id":120,"name":"Shagbark","steam_id":76561198173447342,"connected_time":150000000000,"state":"active","ping":70},{"user_id":121,"name":":3","steam_id":76561198120772700,"connected_time":141000000000,"state":"active","ping":77},{"user_id":101,"name":"ck_rene","steam_id":76561199079260488,"connected_time":1440000000000,"state":"active","ping":60},{"user_id":67,"name":"Dilly Pickles","steam_id":76561198312068499,"connected_time":4059000000000,"state":"active","ping":63},{"user_id":122,"name":"tinkercrab11","steam_id":76561198881792140,"connected_time":132000000000,"state":"active","ping":62},{"user_id":103,"name":"NovaSc6ut","steam_id":76561198277163301,"connected_time":1404000000000,"state":"active","ping":78},{"user_id":36,"name":"ItzFluffyex","steam_id":76561198289521685,"connected_time":6031000000000,"state":"active","ping":63},{"user_id":116,"name":"Sleepy Brady","steam_id":76561198867378129,"connected_time":458000000000,"state":"active","ping":85},{"user_id":63,"name":"Noisyjerman1","steam_id":76561198155915478,"connected_time":4297000000000,"state":"active","ping":45},{"user_id":114,"name":"john quindillius cornbread","steam_id":76561198212902624,"connected_time":652000000000,"state":"active","ping":52}]},{"server_id":16,"name":"Uncletopia | New York City | 4 | Community","name_short":"nyc-4","host":"nyc-1.us.uncletopia.com","port":27045,"enabled":true,"region":"us-east","cc":"us","latitude":40.73061,"longitude":-73.93524,"reserved":0,"last_update":"0001-01-01T00:00:00Z","name_a2s":"Uncletopia | New York City | 4 | Community","protocol":17,"map":"workshop/koth_product_final.ugc454272353","folder":"tf","game":"Team Fortress","app_id":440,"player_count":0,"max_players":24,"Bots":0,"server_type":"Dedicated","server_os":"Linux","password":true,"vac":true,"version":"7708610","steam_id":85568392924742821,"keywords":["cp","nocrits","nodmgspread","uncletopia"],"game_id":440,"stv_port":27046,"stv_name":"Uncletopia | New York City | 4 | Community | STV","players":null},{"server_id":142,"name":"Uncletopia | São Paulo | 1 | All Maps","name_short":"sao-1","host":"sao-1.br.uncletopia.com","port":27015,"enabled":true,"region":"sa","cc":"br","latitude":-23.533773,"longitude":-46.62529,"reserved":0,"last_update":"0001-01-01T00:00:00Z","name_a2s":"Uncletopia | São Paulo | 1 | All Maps","protocol":17,"map":"cp_dustbowl","folder":"tf","game":"Team Fortress","app_id":440,"player_count":7,"max_players":24,"Bots":0,"server_type":"Dedicated","server_os":"Linux","password":true,"vac":true,"version":"7708610","steam_id":85568392924469996,"keywords":["cp","nocrits","nodmgspread","uncletopia"],"game_id":440,"stv_port":27016,"stv_name":"Uncletopia | São Paulo | 1 | All Maps | STV","players":[{"user_id":53,"name":"algumber","steam_id":76561199429426012,"connected_time":962000000000,"state":"active","ping":60},{"user_id":49,"name":"ShinGojira[BR]","steam_id":76561199199037141,"connected_time":1882000000000,"state":"active","ping":90},{"user_id":50,"name":"Jigglypuff™","steam_id":76561198087949553,"connected_time":1400000000000,"state":"active","ping":178},{"user_id":54,"name":"PHIKILL","steam_id":76561198261514412,"connected_time":810000000000,"state":"active","ping":54},{"user_id":55,"name":"leks","steam_id":76561198809532051,"connected_time":743000000000,"state":"active","ping":108},{"user_id":56,"name":"Bellesi","steam_id":76561198056750369,"connected_time":716000000000,"state":"active","ping":59},{"user_id":57,"name":"Pink","steam_id":76561198058095953,"connected_time":38000000000,"state":"active","ping":93}]},{"server_id":143,"name":"Uncletopia | São Paulo | 2 | All Maps","name_short":"sao-2","host":"sao-2.br.uncletopia.com","port":27015,"enabled":true,"region":"sa","cc":"br","latitude":-23.533773,"longitude":-46.62529,"reserved":0,"last_update":"0001-01-01T00:00:00Z","name_a2s":"Uncletopia | São Paulo | 2 | All Maps","protocol":17,"map":"koth_viaduct","folder":"tf","game":"Team Fortress","app_id":440,"player_count":4,"max_players":24,"Bots":0,"server_type":"Dedicated","server_os":"Linux","password":true,"vac":true,"version":"7708610","steam_id":85568392924485349,"keywords":["cp","nocrits","nodmgspread","uncletopia"],"game_id":440,"stv_port":27016,"stv_name":"Uncletopia | São Paulo | 2 | All Maps | STV","players":[{"user_id":12,"name":"quqi_zzz","steam_id":76561199112820656,"connected_time":231000000000,"state":"active","ping":57},{"user_id":13,"name":"zychs","steam_id":76561199082406749,"connected_time":166000000000,"state":"active","ping":227},{"user_id":14,"name":"pee man","steam_id":76561199243684443,"connected_time":151000000000,"state":"active","ping":86},{"user_id":15,"name":"maqs_","steam_id":76561199443049209,"connected_time":137000000000,"state":"spawning","ping":83}]},{"server_id":7,"name":"Uncletopia | Seattle | 1 | All Maps","name_short":"sea-1","host":"sea-1.us.uncletopia.com","port":27015,"enabled":true,"region":"us-west","cc":"us","latitude":47.608013,"longitude":-122.33517,"reserved":0,"last_update":"0001-01-01T00:00:00Z","name_a2s":"Uncletopia | Seattle | 1 | All Maps","protocol":17,"map":"cp_sunshine","folder":"tf","game":"Team Fortress","app_id":440,"player_count":6,"max_players":24,"Bots":0,"server_type":"Dedicated","server_os":"Linux","password":true,"vac":true,"version":"7708610","steam_id":85568392924469997,"keywords":["cp","nocrits","nodmgspread","uncletopia"],"game_id":440,"stv_port":27016,"stv_name":"Uncletopia | Seattle | 1 | All Maps | STV","players":[{"user_id":14,"name":"Skeleton Bones Ghoulie","steam_id":76561199138772722,"connected_time":1297000000000,"state":"active","ping":67},{"user_id":15,"name":"Luca","steam_id":76561198125087140,"connected_time":1194000000000,"state":"active","ping":28},{"user_id":16,"name":"Shark Sandwich","steam_id":76561198025007938,"connected_time":1141000000000,"state":"active","ping":79},{"user_id":18,"name":"chad pyro","steam_id":76561199294815271,"connected_time":697000000000,"state":"active","ping":128},{"user_id":19,"name":"The Gremlin","steam_id":76561198419066993,"connected_time":564000000000,"state":"active","ping":53},{"user_id":20,"name":"littlecatking","steam_id":76561199041359755,"connected_time":340000000000,"state":"active","ping":102}]},{"server_id":119,"name":"Uncletopia | Seattle | 2 | All Maps","name_short":"sea-2","host":"sea-1.us.uncletopia.com","port":27025,"enabled":true,"region":"us-west","cc":"us","latitude":47.608013,"longitude":-122.33517,"reserved":0,"last_update":"0001-01-01T00:00:00Z","name_a2s":"Uncletopia | Seattle | 2 | All Maps","protocol":17,"map":"koth_cascade","folder":"tf","game":"Team Fortress","app_id":440,"player_count":0,"max_players":24,"Bots":0,"server_type":"Dedicated","server_os":"Linux","password":true,"vac":true,"version":"7708610","steam_id":85568392924469998,"keywords":["cp","nocrits","nodmgspread","uncletopia"],"game_id":440,"stv_port":27026,"stv_name":"Uncletopia | Seattle | 2 | All Maps | STV","players":null},{"server_id":17,"name":"Uncletopia | San Francisco | 1 | All Maps","name_short":"sfo-1","host":"sfo-1.us.uncletopia.com","port":27015,"enabled":true,"region":"us-west","cc":"us","latitude":37.77397,"longitude":-122.4313,"reserved":0,"last_update":"0001-01-01T00:00:00Z","name_a2s":"Uncletopia | San Francisco | 1 | All Maps","protocol":17,"map":"pl_barnblitz","folder":"tf","game":"Team Fortress","app_id":440,"player_count":0,"max_players":24,"Bots":0,"server_type":"Dedicated","server_os":"Linux","password":true,"vac":true,"version":"7708610","steam_id":85568392924469999,"keywords":["nocrits","nodmgspread","payload","uncletopia"],"game_id":440,"stv_port":27016,"stv_name":"Uncletopia | San Francisco | 1 | All Maps | STV","players":null},{"server_id":18,"name":"Uncletopia | San Francisco | 2 | All Maps","name_short":"sfo-2","host":"sfo-1.us.uncletopia.com","port":27025,"enabled":true,"region":"us-west","cc":"us","latitude":37.77397,"longitude":-122.4313,"reserved":0,"last_update":"0001-01-01T00:00:00Z","name_a2s":"Uncletopia | San Francisco | 2 | All Maps","protocol":17,"map":"cp_sunshine","folder":"tf","game":"Team Fortress","app_id":440,"player_count":0,"max_players":24,"Bots":0,"server_type":"Dedicated","server_os":"Linux","password":true,"vac":true,"version":"7708610","steam_id":85568392924470000,"keywords":["cp","nocrits","nodmgspread","uncletopia"],"game_id":440,"stv_port":27026,"stv_name":"Uncletopia | San Francisco | 2 | All Maps | STV","players":null},{"server_id":19,"name":"Uncletopia | San Francisco | 3 | No Payload","name_short":"sfo-3","host":"sfo-1.us.uncletopia.com","port":27035,"enabled":true,"region":"us-west","cc":"us","latitude":37.77397,"longitude":-122.4313,"reserved":0,"last_update":"0001-01-01T00:00:00Z","name_a2s":"Uncletopia | San Francisco | 3 | No Payload","protocol":17,"map":"cp_altitude","folder":"tf","game":"Team Fortress","app_id":440,"player_count":0,"max_players":24,"Bots":0,"server_type":"Dedicated","server_os":"Linux","password":true,"vac":true,"version":"7708610","steam_id":85568392924742824,"keywords":["cp","nocrits","nodmgspread","uncletopia"],"game_id":440,"stv_port":27036,"stv_name":"Uncletopia | San Francisco | 3 | No Payload | STV","players":null},{"server_id":20,"name":"Uncletopia | San Francisco | 4 | Community","name_short":"sfo-4","host":"sfo-1.us.uncletopia.com","port":27045,"enabled":true,"region":"us-west","cc":"us","latitude":37.77397,"longitude":-122.4313,"reserved":0,"last_update":"0001-01-01T00:00:00Z","name_a2s":"Uncletopia | San Francisco | 4 | Community","protocol":17,"map":"pl_frontier_final","folder":"tf","game":"Team Fortress","app_id":440,"player_count":0,"max_players":24,"Bots":0,"server_type":"Dedicated","server_os":"Linux","password":true,"vac":true,"version":"7708610","steam_id":85568392924742826,"keywords":["nocrits","nodmgspread","payload","uncletopia"],"game_id":440,"stv_port":27046,"stv_name":"Uncletopia | San Francisco | 4 | Community | STV","players":null},{"server_id":141,"name":"Uncletopia | Sydney | 1 | All Maps","name_short":"syd-1","host":"syd-1.au.uncletopia.com","port":27015,"enabled":true,"region":"au","cc":"au","latitude":-33.865143,"longitude":151.2099,"reserved":0,"last_update":"0001-01-01T00:00:00Z","name_a2s":"Uncletopia | Sydney | 1 | All Maps","protocol":17,"map":"cp_snakewater_final1","folder":"tf","game":"Team Fortress","app_id":440,"player_count":0,"max_players":24,"Bots":0,"server_type":"Dedicated","server_os":"Linux","password":true,"vac":true,"version":"7708610","steam_id":85568392924470001,"keywords":["cp","nocrits","nodmgspread","uncletopia"],"game_id":440,"stv_port":27016,"stv_name":"Uncletopia | Sydney | 1 | All Maps | STV","players":null},{"server_id":123,"name":"Uncletopia | Sydney | 2 | All Maps","name_short":"syd-2","host":"syd-1.au.uncletopia.com","port":27025,"enabled":true,"region":"au","cc":"au","latitude":-33.865143,"longitude":151.2099,"reserved":0,"last_update":"0001-01-01T00:00:00Z","name_a2s":"Uncletopia | Sydney | 2 | All Maps","protocol":17,"map":"pl_barnblitz","folder":"tf","game":"Team Fortress","app_id":440,"player_count":0,"max_players":24,"Bots":0,"server_type":"Dedicated","server_os":"Linux","password":true,"vac":true,"version":"7708610","steam_id":85568392924470002,"keywords":["nocrits","nodmgspread","payload","uncletopia"],"game_id":440,"stv_port":27026,"stv_name":"Uncletopia | Sydney | 2 | All Maps | STV","players":null},{"server_id":395,"name":"Uncletopia | Sydney | 3 | All Maps","name_short":"syd-3","host":"syd-1.au.uncletopia.com","port":27035,"enabled":true,"region":"au","cc":"au","latitude":-33.865143,"longitude":151.2099,"reserved":0,"last_update":"0001-01-01T00:00:00Z","name_a2s":"Uncletopia | Sydney | 3 | All Maps","protocol":17,"map":"koth_viaduct","folder":"tf","game":"Team Fortress","app_id":440,"player_count":0,"max_players":24,"Bots":0,"server_type":"Dedicated","server_os":"Linux","password":true,"vac":true,"version":"7708610","steam_id":85568392925194467,"keywords":["cp","nocrits","nodmgspread","uncletopia"],"game_id":440,"stv_port":27036,"stv_name":"Uncletopia | Sydney | 3 | All Maps | STV","players":null},{"server_id":396,"name":"Uncletopia | Sydney | 4 | All Maps","name_short":"syd-4","host":"syd-1.au.uncletopia.com","port":27045,"enabled":true,"region":"au","cc":"au","latitude":-33.865143,"longitude":151.2099,"reserved":0,"last_update":"0001-01-01T00:00:00Z","name_a2s":"Uncletopia | Sydney | 4 | All Maps","protocol":17,"map":"pl_frontier_final","folder":"tf","game":"Team Fortress","app_id":440,"player_count":0,"max_players":24,"Bots":0,"server_type":"Dedicated","server_os":"Linux","password":true,"vac":true,"version":"7708610","steam_id":85568392925397958,"keywords":["nocrits","nodmgspread","payload","uncletopia"],"game_id":440,"stv_port":27046,"stv_name":"Uncletopia | Sydney | 4 | All Maps | STV","players":null},{"server_id":58,"name":"Uncletopia | Sydney | 5 | No Payload","name_short":"syd-5","host":"syd-1.au.uncletopia.com","port":27055,"enabled":true,"region":"au","cc":"au","latitude":-33.865143,"longitude":151.2099,"reserved":0,"last_update":"0001-01-01T00:00:00Z","name_a2s":"Uncletopia | Sydney | 5 | No Payload","protocol":17,"map":"pl_pier","folder":"tf","game":"Team Fortress","app_id":440,"player_count":0,"max_players":24,"Bots":0,"server_type":"Dedicated","server_os":"Linux","password":true,"vac":true,"version":"7708610","steam_id":85568392925397959,"keywords":["nocrits","nodmgspread","payload","uncletopia"],"game_id":440,"stv_port":27056,"stv_name":"Uncletopia | Sydney | 5 | No Payload | STV","players":null},{"server_id":59,"name":"Uncletopia | Sydney | 6 | Community","name_short":"syd-6","host":"syd-1.au.uncletopia.com","port":27065,"enabled":true,"region":"au","cc":"au","latitude":-33.865143,"longitude":151.2099,"reserved":0,"last_update":"0001-01-01T00:00:00Z","name_a2s":"Uncletopia | Sydney | 6 | Community","protocol":17,"map":"workshop/pl_eruption_b8c.ugc2865677281","folder":"tf","game":"Team Fortress","app_id":440,"player_count":0,"max_players":24,"Bots":0,"server_type":"Dedicated","server_os":"Linux","password":true,"vac":true,"version":"7708610","steam_id":85568392925397960,"keywords":["nocrits","nodmgspread","payload","uncletopia"],"game_id":440,"stv_port":27066,"stv_name":"Uncletopia | Sydney | 6 | Community | STV","players":null},{"server_id":49,"name":"Uncletopia | Warsaw | 1 | All Maps","name_short":"waw-1","host":"waw-1.pl.uncletopia.com","port":27015,"enabled":true,"region":"eu","cc":"pl","latitude":52.2297,"longitude":21.017532,"reserved":0,"last_update":"0001-01-01T00:00:00Z","name_a2s":"Uncletopia | Warsaw | 1 | All Maps","protocol":17,"map":"koth_cascade","folder":"tf","game":"Team Fortress","app_id":440,"player_count":0,"max_players":24,"Bots":0,"server_type":"Dedicated","server_os":"Linux","password":true,"vac":true,"version":"7708610","steam_id":85568392925397850,"keywords":["cp","nocrits","nodmgspread","uncletopia"],"game_id":440,"stv_port":27016,"stv_name":"Uncletopia | Warsaw | 1 | All Maps | STV","players":null},{"server_id":50,"name":"Uncletopia | Warsaw | 2 | All Maps","name_short":"waw-2","host":"waw-1.pl.uncletopia.com","port":27025,"enabled":true,"region":"eu","cc":"pl","latitude":52.2297,"longitude":21.017532,"reserved":0,"last_update":"0001-01-01T00:00:00Z","name_a2s":"Uncletopia | Warsaw | 2 | All Maps","protocol":17,"map":"koth_lakeside_final","folder":"tf","game":"Team Fortress","app_id":440,"player_count":0,"max_players":24,"Bots":0,"server_type":"Dedicated","server_os":"Linux","password":true,"vac":true,"version":"7708610","steam_id":85568392925397851,"keywords":["cp","nocrits","nodmgspread","uncletopia"],"game_id":440,"stv_port":27026,"stv_name":"Uncletopia | Warsaw | 2 | All Maps | STV","players":null},{"server_id":51,"name":"Uncletopia | Warsaw | 3 | All Maps","name_short":"waw-3","host":"waw-1.pl.uncletopia.com","port":27035,"enabled":true,"region":"eu","cc":"pl","latitude":52.2297,"longitude":21.017532,"reserved":0,"last_update":"0001-01-01T00:00:00Z","name_a2s":"Uncletopia | Warsaw | 3 | All Maps","protocol":17,"map":"cp_dustbowl","folder":"tf","game":"Team Fortress","app_id":440,"player_count":0,"max_players":24,"Bots":0,"server_type":"Dedicated","server_os":"Linux","password":true,"vac":true,"version":"7708610","steam_id":85568392925397852,"keywords":["cp","nocrits","nodmgspread","uncletopia"],"game_id":440,"stv_port":27036,"stv_name":"Uncletopia | Warsaw | 3 | All Maps | STV","players":null},{"server_id":52,"name":"Uncletopia | Warsaw | 4 | All Maps","name_short":"waw-4","host":"waw-1.pl.uncletopia.com","port":27045,"enabled":true,"region":"eu","cc":"pl","latitude":52.2297,"longitude":21.017532,"reserved":0,"last_update":"0001-01-01T00:00:00Z","name_a2s":"Uncletopia | Warsaw | 4 | All Maps","protocol":17,"map":"pl_pier","folder":"tf","game":"Team Fortress","app_id":440,"player_count":0,"max_players":24,"Bots":0,"server_type":"Dedicated","server_os":"Linux","password":true,"vac":true,"version":"7708610","steam_id":85568392925397853,"keywords":["nocrits","nodmgspread","payload","uncletopia"],"game_id":440,"stv_port":27046,"stv_name":"Uncletopia | Warsaw | 4 | All Maps | STV","players":null},{"server_id":53,"name":"Uncletopia | Warsaw | 5 | No Payload","name_short":"waw-5","host":"waw-1.pl.uncletopia.com","port":27055,"enabled":true,"region":"eu","cc":"pl","latitude":52.2297,"longitude":21.017532,"reserved":0,"last_update":"0001-01-01T00:00:00Z","name_a2s":"Uncletopia | Warsaw | 5 | No Payload","protocol":17,"map":"cp_yukon_final","folder":"tf","game":"Team Fortress","app_id":440,"player_count":0,"max_players":24,"Bots":0,"server_type":"Dedicated","server_os":"Linux","password":true,"vac":true,"version":"7708610","steam_id":85568392925397854,"keywords":["cp","nocrits","nodmgspread","uncletopia"],"game_id":440,"stv_port":27056,"stv_name":"Uncletopia | Warsaw | 5 | No Payload | STV","players":null},{"server_id":54,"name":"Uncletopia | Warsaw | 6 | Community","name_short":"waw-6","host":"waw-1.pl.uncletopia.com","port":27065,"enabled":true,"region":"eu","cc":"pl","latitude":52.2297,"longitude":21.017532,"reserved":0,"last_update":"0001-01-01T00:00:00Z","name_a2s":"Uncletopia | Warsaw | 6 | Community","protocol":17,"map":"workshop/cp_villa_b19.ugc2113052569","folder":"tf","game":"Team Fortress","app_id":440,"player_count":0,"max_players":24,"Bots":0,"server_type":"Dedicated","server_os":"Linux","password":true,"vac":true,"version":"7708610","steam_id":85568392925397856,"keywords":["cp","nocrits","nodmgspread","uncletopia"],"game_id":440,"stv_port":27066,"stv_name":"Uncletopia | Warsaw | 6 | Community | STV","players":null}]}