{"status":true,"message":"","result":[{"server_id":9,"name":"Uncletopia | Atlanta | 1 | All Maps","name_short":"atl-1","host":"atl-1.us.uncletopia.com","port":27015,"enabled":true,"region":"us-east","cc":"us","latitude":33.753746,"longitude":-84.38633,"reserved":0,"last_update":"0001-01-01T00:00:00Z","name_a2s":"Uncletopia | Atlanta | 1 | All Maps","protocol":17,"map":"pl_barnblitz","folder":"tf","game":"Team Fortress","app_id":440,"player_count":4,"max_players":24,"Bots":0,"server_type":"Dedicated","server_os":"Linux","password":true,"vac":true,"version":"7757534","steam_id":85568392924469982,"keywords":["nocrits","nodmgspread","payload","uncletopia"],"game_id":440,"stv_port":27016,"stv_name":"Uncletopia | Atlanta | 1 | All Maps | STV","players":[{"user_id":13,"name":"the man of coom bob","steam_id":76561199082474364,"connected_time":627000000000,"state":"active","ping":69},{"user_id":14,"name":"lirio","steam_id":76561198102681457,"connected_time":476000000000,"state":"active","ping":66},{"user_id":16,"name":"Towns","steam_id":76561198984662863,"connected_time":266000000000,"state":"active","ping":52},{"user_id":17,"name":"Griffin","steam_id":76561198159339442,"connected_time":265000000000,"state":"active","ping":78}]},{"server_id":400,"name":"Uncletopia | Atlanta | 3 | Community","name_short":"atl-3","host":"atl-1.us.uncletopia.com","port":27035,"enabled":true,"region":"us-east","cc":"us","latitude":33.753746,"longitude":-84.38633,"reserved":0,"last_update":"0001-01-01T00:00:00Z","name_a2s":"Uncletopia | Atlanta | 3 | Community","protocol":17,"map":"workshop/cp_glacier_rc6.ugc2905735376","folder":"tf","game":"Team Fortress","app_id":440,"player_count":24,"max_players":32,"Bots":0,"server_type":"Dedicated","server_os":"Linux","password":true,"vac":true,"version":"7757534","steam_id":85568392924515187,"keywords":["cp","increased_maxplayers","nocrits","nodmgspread","uncletopia"],"game_id":440,"stv_port":27036,"stv_name":"Uncletopia | Atlanta | 3 | Community | STV","players":[{"user_id":60,"name":"ShyGreen","steam_id":76561198143446402,"connected_time":774000000000,"state":"active","ping":84},{"user_id":83,"name":"Needs McTherapy","steam_id":76561198168876878,"connected_time":189000000000,"state":"active","ping":72},{"user_id":61,"name":"Funny Street Legend","steam_id":76561198275625984,"connected_time":732000000000,"state":"active","ping":84},{"user_id":13,"name":"ｂ． －","steam_id":76561199058344175,"connected_time":2766000000000,"state":"active","ping":105},{"user_id":14,"name":"PadrePockets","steam_id":76561197993251606,"connected_time":2733000000000,"state":"active","ping":73},{"user_id":65,"name":"FloatingOnAar","steam_id":76561198201931515,"connected_time":615000000000,"state":"active","ping":106},{"user_id":55,"name":"I'm Only 4 Inches","steam_id":76561198055542546,"connected_time":894000000000,"state":"active","ping":69},{"user_id":26,"name":"Banaba Breab","steam_id":76561198250789086,"connected_time":1406000000000,"state":"active","ping":112},{"user_id":24,"name":"big gay bowacunga","steam_id":76561198389398163,"connected_time":1489000000000,"state":"active","ping":72},{"user_id":19,"name":"--_Cook_--","steam_id":76561198080855748,"connected_time":1754000000000,"state":"active","ping":49},{"user_id":20,"name":"aero","steam_id":76561198297202459,"connected_time":1607000000000,"state":"active","ping":77},{"user_id":36,"name":"fudo myoo","steam_id":76561198456258164,"connected_time":1189000000000,"state":"active","ping":56},{"user_id":66,"name":"boombox","steam_id":76561198237013798,"connected_time":587000000000,"state":"active","ping":77},{"user_id":67,"name":"FakeBot","steam_id":76561197961193303,"connected_time":574000000000,"state":"active","ping":144},{"user_id":28,"name":"cereal when no milk","steam_id":76561198104679689,"connected_time":1395000000000,"state":"active","ping":122},{"user_id":29,"name":"Avem","steam_id":76561198058763710,"connected_time":1376000000000,"state":"active","ping":104},{"user_id":30,"name":"Hi, I'm Jesus","steam_id":76561198015327152,"connected_time":1324000000000,"state":"active","ping":58},{"user_id":31,"name":"Raven","steam_id":76561198046552871,"connected_time":1320000000000,"state":"active","ping":70},{"user_id":32,"name":"Walmart Employee","steam_id":76561198840373909,"connected_time":1309000000000,"state":"active","ping":82},{"user_id":49,"name":"no vc no c","steam_id":76561197989503095,"connected_time":1013000000000,"state":"active","ping":191},{"user_id":75,"name":"Slashes","steam_id":76561197968573499,"connected_time":363000000000,"state":"active","ping":105},{"user_id":69,"name":"Kim Wexler","steam_id":76561199080236071,"connected_time":519000000000,"state":"active","ping":76},{"user_id":46,"name":"Titus Tyrwitt","steam_id":76561197990779673,"connected_time":1045000000000,"state":"active","ping":57},{"user_id":51,"name":"Dartel","steam_id":76561197963977254,"connected_time":988000000000,"state":"active","ping":74}]},{"server_id":401,"name":"Uncletopia | Atlanta | 4 | No Payload","name_short":"atl-4","host":"atl-1.us.uncletopia.com","port":27045,"enabled":true,"region":"us-east","cc":"us","latitude":33.753746,"longitude":-84.38633,"reserved":0,"last_update":"0001-01-01T00:00:00Z","name_a2s":"","protocol":0,"map":"","folder":"","game":"","app_id":0,"player_count":0,"max_players":0,"Bots":0,"server_type":"","server_os":"","password":false,"vac":false,"version":"","steam_id":0,"keywords":null,"game_id":0,"stv_port":0,"stv_name":"","players":null},{"server_id":2,"name":"Uncletopia | Chicago | 1 | All Maps","name_short":"chi-1","host":"chi-1.us.uncletopia.com","port":27015,"enabled":true,"region":"us-central","cc":"us","latitude":41.881832,"longitude":-87.62318,"reserved":0,"last_update":"0001-01-01T00:00:00Z","name_a2s":"Uncletopia | Chicago | 1 | All Maps","protocol":17,"map":"pl_frontier_final","folder":"tf","game":"Team Fortress","app_id":440,"player_count":0,"max_players":24,"Bots":0,"server_type":"Dedicated","server_os":"Linux","password":true,"vac":true,"version":"7757534","steam_id":85568392924469984,"keywords":["nocrits","nodmgspread","payload","uncletopia"],"game_id":440,"stv_port":27016,"stv_name":"Uncletopia | Chicago | 1 | All Maps | STV","players":null},{"server_id":106,"name":"Uncletopia | Chicago | 2 | All Maps","name_short":"chi-2","host":"chi-1.us.uncletopia.com","port":27025,"enabled":true,"region":"us-central","cc":"us","latitude":41.881832,"longitude":-87.62318,"reserved":0,"last_update":"0001-01-01T00:00:00Z","name_a2s":"Uncletopia | Chicago | 2 | All Maps","protocol":17,"map":"koth_viaduct","folder":"tf","game":"Team Fortress","app_id":440,"player_count":0,"max_players":24,"Bots":0,"server_type":"Dedicated","server_os":"Linux","password":true,"vac":true,"version":"7757534","steam_id":85568392924469985,"keywords":["cp","nocrits","nodmgspread","uncletopia"],"game_id":440,"stv_port":27026,"stv_name":"Uncletopia | Chicago | 2 | All Maps | STV","players":null},{"server_id":402,"name":"Uncletopia | Chicago | 3 | All Maps","name_short":"chi-3","host":"chi-1.us.uncletopia.com","port":27035,"enabled":true,"region":"us-central","cc":"us","latitude":41.881832,"longitude":-87.62318,"reserved":0,"last_update":"0001-01-01T00:00:00Z","name_a2s":"Uncletopia | Chicago | 3 | All Maps","protocol":17,"map":"pl_barnblitz","folder":"tf","game":"Team Fortress","app_id":440,"player_count":24,"max_players":24,"Bots":0,"server_type":"Dedicated","server_os":"Linux","password":true,"vac":true,"version":"7757534","steam_id":85568392924515191,"keywords":["nocrits","nodmgspread","payload","uncletopia"],"game_id":440,"stv_port":27036,"stv_name":"Uncletopia | Chicago | 3 | All Maps | STV","players":[{"user_id":126,"name":"Your Local Queer Librarian","steam_id":76561198013077080,"connected_time":840000000000,"state":"active","ping":55},{"user_id":96,"name":"Gumit","steam_id":76561198208126512,"connected_time":3509000000000,"state":"active","ping":83},{"user_id":110,"name":"Juubers","steam_id":76561198088229792,"connected_time":2802000000000,"state":"active","ping":48},{"user_id":118,"name":"BurgerPizza","steam_id":76561198151256410,"connected_time":1876000000000,"state":"active","ping":155},{"user_id":115,"name":"frank","steam_id":76561198045436159,"connected_time":2130000000000,"state":"active","ping":83},{"user_id":120,"name":"Peri","steam_id":76561198255311543,"connected_time":1864000000000,"state":"active","ping":65},{"user_id":13,"name":"leeeeeeeeeeeeeeeeeeeeeeeeeee","steam_id":76561199083322731,"connected_time":7757000000000,"state":"active","ping":94},{"user_id":128,"name":"Ziath","steam_id":76561198094009164,"connected_time":732000000000,"state":"active","ping":67},{"user_id":99,"name":"Gongus","steam_id":76561199199194177,"connected_time":3250000000000,"state":"active","ping":77},{"user_id":16,"name":"Deathninja952","steam_id":76561199066489355,"connected_time":7526000000000,"state":"active","ping":95},{"user_id":73,"name":"indi","steam_id":76561198045917538,"connected_time":4378000000000,"state":"active","ping":46},{"user_id":112,"name":"Bevan(The Manager)","steam_id":76561198073890273,"connected_time":2489000000000,"state":"active","ping":114},{"user_id":100,"name":"Lucky","steam_id":76561198102148904,"connected_time":3247000000000,"state":"active","ping":96},{"user_id":127,"name":"TheGreatDong","steam_id":76561198000634178,"connected_time":820000000000,"state":"active","ping":105},{"user_id":47,"name":"AmyPercent","steam_id":76561198071896932,"connected_time":6267000000000,"state":"active","ping":70},{"user_id":125,"name":"› snow","steam_id":76561198109783729,"connected_time":935000000000,"state":"active","ping":49},{"user_id":121,"name":"elyk37","steam_id":76561198124135253,"connected_time":1857000000000,"state":"active","ping":73},{"user_id":117,"name":"Naeole1","steam_id":76561198240378926,"connected_time":1907000000000,"state":"active","ping":142},{"user_id":97,"name":"LunarStorm","steam_id":76561198321826743,"connected_time":3387000000000,"state":"active","ping":64},{"user_id":102,"name":"ZeFizzyPop™","steam_id":76561198258104981,"connected_time":3236000000000,"state":"active","ping":44},{"user_id":113,"name":"ProjectSinclair","steam_id":76561198927854184,"connected_time":2463000000000,"state":"active","ping":68},{"user_id":124,"name":"Glory","steam_id":76561198013975080,"connected_time":1195000000000,"state":"active","ping":68},{"user_id":129,"name":"ted twenty-two ( Triple T )","steam_id":76561198121316868,"connected_time":693000000000,"state":"active","ping":95},{"user_id":123,"name":"Enderneer","steam_id":76561198012136653,"connected_time":1215000000000,"state":"active","ping":57}]},{"server_id":403,"name":"Uncletopia | Chicago | 4 | All Maps","name_short":"chi-4","host":"chi-1.us.uncletopia.com","port":27045,"enabled":true,"region":"us-central","cc":"us","latitude":41.881832,"longitude":-87.62318,"reserved":0,"last_update":"0001-01-01T00:00:00Z","name_a2s":"Uncletopia | Chicago | 4 | All Maps","protocol":17,"map":"pl_snowycoast","folder":"tf","game":"Team Fortress","app_id":440,"player_count":22,"max_players":24,"Bots":0,"server_type":"Dedicated","server_os":"Linux","password":true,"vac":true,"version":"7757534","steam_id":85568392924515193,"keywords":["nocrits","nodmgspread","payload","uncletopia"],"game_id":440,"stv_port":27046,"stv_name":"Uncletopia | Chicago | 4 | All Maps | STV","players":[{"user_id":114,"name":"The Big","steam_id":76561198078572184,"connected_time":4853000000000,"state":"active","ping":78},{"user_id":116,"name":"Sloppy John (Extra Sauce)","steam_id":76561198359703432,"connected_time":4827000000000,"state":"active","ping":90},{"user_id":133,"name":"e doctor","steam_id":76561198081851446,"connected_time":3592000000000,"state":"active","ping":45},{"user_id":134,"name":"Feesh","steam_id":76561198817024734,"connected_time":3571000000000,"state":"active","ping":60},{"user_id":165,"name":"kametro4","steam_id":76561198835430429,"connected_time":16000000000,"state":"active","ping":83},{"user_id":150,"name":"JennaShinx","steam_id":76561198074773762,"connected_time":2100000000000,"state":"active","ping":59},{"user_id":159,"name":"Sea raider","steam_id":76561198123982355,"connected_time":1508000000000,"state":"active","ping":90},{"user_id":72,"name":"Chemo","steam_id":76561197961308370,"connected_time":8165000000000,"state":"active","ping":67},{"user_id":139,"name":"Mr. Call You Back","steam_id":76561198025172811,"connected_time":2853000000000,"state":"active","ping":57},{"user_id":149,"name":"Cooki","steam_id":76561198051705314,"connected_time":2485000000000,"state":"active","ping":69},{"user_id":118,"name":"det","steam_id":76561198170859755,"connected_time":4779000000000,"state":"active","ping":45},{"user_id":147,"name":"cardboardwarrior1","steam_id":76561199145044693,"connected_time":2499000000000,"state":"active","ping":156},{"user_id":101,"name":"Riske","steam_id":76561198115840568,"connected_time":6168000000000,"state":"active","ping":72},{"user_id":155,"name":"bobdragon27","steam_id":76561198065833387,"connected_time":1681000000000,"state":"active","ping":57},{"user_id":153,"name":"Wolfe","steam_id":76561197997350470,"connected_time":1939000000000,"state":"active","ping":83},{"user_id":137,"name":"tony fantano 2","steam_id":76561197997139225,"connected_time":3206000000000,"state":"active","ping":53},{"user_id":164,"name":"ok computer","steam_id":76561198328109873,"connected_time":30000000000,"state":"active","ping":66},{"user_id":85,"name":"guh","steam_id":76561197972342286,"connected_time":7704000000000,"state":"active","ping":72},{"user_id":163,"name":"Bag","steam_id":76561198012395490,"connected_time":223000000000,"state":"active","ping":80},{"user_id":127,"name":"rlty","steam_id":76561198009395055,"connected_time":4258000000000,"state":"active","ping":66},{"user_id":115,"name":"The Great Eagle Scourge of 1822","steam_id":76561198325086209,"connected_time":4852000000000,"state":"active","ping":112},{"user_id":151,"name":"guyinatophat51","steam_id":76561198180230694,"connected_time":2076000000000,"state":"active","ping":69}]},{"server_id":36,"name":"Uncletopia | Chicago | 5 | All Maps","name_short":"chi-5","host":"chi-2.us.uncletopia.com","port":27015,"enabled":true,"region":"us-central","cc":"us","latitude":41.881832,"longitude":-87.62318,"reserved":0,"last_update":"0001-01-01T00:00:00Z","name_a2s":"Uncletopia | Chicago | 5 | All Maps","protocol":17,"map":"koth_cascade","folder":"tf","game":"Team Fortress","app_id":440,"player_count":0,"max_players":24,"Bots":0,"server_type":"Dedicated","server_os":"Linux","password":true,"vac":true,"version":"7757534","steam_id":85568392924866362,"keywords":["cp","nocrits","nodmgspread","uncletopia"],"game_id":440,"stv_port":27016,"stv_name":"Uncletopia | Chicago | 5 | All Maps | STV","players":null},{"server_id":37,"name":"Uncletopia | Chicago | 6 | All Maps","name_short":"chi-6","host":"chi-2.us.uncletopia.com","port":27025,"enabled":true,"region":"us-central","cc":"us","latitude":41.881832,"longitude":-87.62318,"reserved":0,"last_update":"0001-01-01T00:00:00Z","name_a2s":"Uncletopia | Chicago | 6 | All Maps","protocol":17,"map":"koth_cascade","folder":"tf","game":"Team Fortress","app_id":440,"player_count":0,"max_players":24,"Bots":0,"server_type":"Dedicated","server_os":"Linux","password":true,"vac":true,"version":"7757534","steam_id":85568392924866363,"keywords":["cp","nocrits","nodmgspread","uncletopia"],"game_id":440,"stv_port":27026,"stv_name":"Uncletopia | Chicago | 6 | All Maps | STV","players":null},{"server_id":38,"name":"Uncletopia | Chicago | 7 | Stopwatch Beta","name_short":"chi-7","host":"chi-2.us.uncletopia.com","port":27035,"enabled":true,"region":"us-central","cc":"us","latitude":41.881832,"longitude":-87.62318,"reserved":0,"last_update":"0001-01-01T00:00:00Z","name_a2s":"Uncletopia | Chicago | 7 | Stopwatch Beta","protocol":17,"map":"pl_upward","folder":"tf","game":"Team Fortress","app_id":440,"player_count":0,"max_players":24,"Bots":0,"server_type":"Dedicated","server_os":"Linux","password":true,"vac":true,"version":"7757534","steam_id":85568392924866364,"keywords":["nocrits","nodmgspread","payload","uncletopia"],"game_id":440,"stv_port":27036,"stv_name":"Uncletopia | Chicago | 7 | Stopwatch Beta | STV","players":null},{"server_id":39,"name":"Uncletopia | Chicago | 8 | Community","name_short":"chi-8","host":"chi-2.us.uncletopia.com","port":27045,"enabled":true,"region":"us-central","cc":"us","latitude":41.881832,"longitude":-87.62318,"reserved":0,"last_update":"0001-01-01T00:00:00Z","name_a2s":"Uncletopia | Chicago | 8 | Community","protocol":17,"map":"pl_barnblitz","folder":"tf","game":"Team Fortress","app_id":440,"player_count":0,"max_players":24,"Bots":0,"server_type":"Dedicated","server_os":"Linux","password":true,"vac":true,"version":"7757534","steam_id":85568392924866365,"keywords":["nocrits","nodmgspread","payload","uncletopia"],"game_id":440,"stv_port":27046,"stv_name":"Uncletopia | Chicago | 8 | Community | STV","players":null},{"server_id":8,"name":"Uncletopia | Dallas | 1 | All Maps","name_short":"dal-1","host":"dal-1.us.uncletopia.com","port":27015,"enabled":true,"region":"us-central","cc":"us","latitude":32.779167,"longitude":-96.80889,"reserved":0,"last_update":"0001-01-01T00:00:00Z","name_a2s":"Uncletopia | Dallas | 1 | All Maps","protocol":17,"map":"pl_upward","folder":"tf","game":"Team Fortress","app_id":440,"player_count":23,"max_players":24,"Bots":0,"server_type":"Dedicated","server_os":"Linux","password":true,"vac":true,"version":"7757534","steam_id":85568392924469986,"keywords":["nocrits","nodmgspread","payload","uncletopia"],"game_id":440,"stv_port":27016,"stv_name":"Uncletopia | Dallas | 1 | All Maps | STV","players":[{"user_id":254,"name":"sebjzy","steam_id":76561198009959034,"connected_time":66000000000,"state":"active","ping":55},{"user_id":116,"name":"4 Itchy Tasty","steam_id":76561198009869383,"connected_time":12340000000000,"state":"active","ping":75},{"user_id":253,"name":"Sam","steam_id":76561198146472900,"connected_time":90000000000,"state":"active","ping":105},{"user_id":248,"name":"Prinz Eugen","steam_id":76561198129154766,"connected_time":1009000000000,"state":"active","ping":157},{"user_id":233,"name":"trinqette","steam_id":76561198119543621,"connected_time":2597000000000,"state":"active","ping":53},{"user_id":235,"name":"Variell","steam_id":76561198164566278,"connected_time":2273000000000,"state":"spawning","ping":121},{"user_id":232,"name":"TI-83 Plus","steam_id":76561198316134443,"connected_time":2613000000000,"state":"active","ping":77},{"user_id":246,"name":"WalkinMan","steam_id":76561198047941142,"connected_time":1044000000000,"state":"active","ping":68},{"user_id":237,"name":"nerfington","steam_id":76561198062785419,"connected_time":2245000000000,"state":"active","ping":84},{"user_id":249,"name":"Faust main","steam_id":76561198971799149,"connected_time":513000000000,"state":"active","ping":62},{"user_id":238,"name":"PinguEnjoyer6","steam_id":76561199186723516,"connected_time":2243000000000,"state":"active","ping":71},{"user_id":224,"name":"Zobozo","steam_id":76561198028954297,"connected_time":3298000000000,"state":"active","ping":75},{"user_id":198,"name":"wooper","steam_id":76561198953870572,"connected_time":5508000000000,"state":"active","ping":82},{"user_id":149,"name":"Shuual","steam_id":76561198004395256,"connected_time":9598000000000,"state":"active","ping":67},{"user_id":255,"name":"Doctor Bear ʕ •ᴥ•ʔ","steam_id":76561197968103161,"connected_time":42000000000,"state":"spawning","ping":90},{"user_id":245,"name":"Cunny Warrior 77","steam_id":76561198811760680,"connected_time":1660000000000,"state":"active","ping":88},{"user_id":256,"name":"what weenies","steam_id":76561198986534519,"connected_time":35000000000,"state":"active","ping":88},{"user_id":259,"name":"EOAW","steam_id":76561198310451639,"connected_time":5000000000,"state":"spawning","ping":73},{"user_id":251,"name":"Path To Victory","steam_id":76561198026958898,"connected_time":231000000000,"state":"active","ping":101},{"user_id":186,"name":"Goobins McMichael","steam_id":76561198142772896,"connected_time":6652000000000,"state":"active","ping":135},{"user_id":252,"name":"Saulen","steam_id":76561198150726407,"connected_time":159000000000,"state":"active","ping":60},{"user_id":258,"name":"Milotic","steam_id":76561198047995713,"connected_time":16000000000,"state":"active","ping":115},{"user_id":230,"name":"177013","steam_id":76561198072303290,"connected_time":2746000000000,"state":"active","ping":81}]},{"server_id":108,"name":"Uncletopia | Dallas | 2 | All Maps","name_short":"dal-2","host":"dal-1.us.uncletopia.com","port":27025,"enabled":true,"region":"us-central","cc":"us","latitude":32.779167,"longitude":-96.80889,"reserved":0,"last_update":"0001-01-01T00:00:00Z","name_a2s":"Uncletopia | Dallas | 2 | All Maps","protocol":17,"map":"cp_altitude","folder":"tf","game":"Team Fortress","app_id":440,"player_count":0,"max_players":24,"Bots":0,"server_type":"Dedicated","server_os":"Linux","password":true,"vac":true,"version":"7757534","steam_id":85568392924469988,"keywords":["cp","nocrits","nodmgspread","uncletopia"],"game_id":440,"stv_port":27026,"stv_name":"Uncletopia | Dallas | 2 | All Maps | STV","players":null},{"server_id":5,"name":"Uncletopia | Frankfurt | 1 | All Maps","name_short":"frk-1","host":"frk-1.de.uncletopia.com","port":27015,"enabled":true,"region":"eu","cc":"de","latitude":50.110924,"longitude":8.682127,"reserved":0,"last_update":"0001-01-01T00:00:00Z","name_a2s":"Uncletopia | Frankfurt | 1 | All Maps","protocol":17,"map":"koth_cascade","folder":"tf","game":"Team Fortress","app_id":440,"player_count":23,"max_players":24,"Bots":0,"server_type":"Dedicated","server_os":"Linux","password":true,"vac":true,"version":"7757534","steam_id":85568392924469989,"keywords":["cp","nocrits","nodmgspread","uncletopia"],"game_id":440,"stv_port":27016,"stv_name":"Uncletopia | Frankfurt | 1 | All Maps | STV","players":[{"user_id":16,"name":"TheEventGuy","steam_id":76561197972797744,"connected_time":5644000000000,"state":"active","ping":55},{"user_id":88,"name":"Senator Armstrong","steam_id":76561198984346408,"connected_time":710000000000,"state":"active","ping":62},{"user_id":74,"name":"Prism","steam_id":76561198075538312,"connected_time":1407000000000,"state":"active","ping":31},{"user_id":94,"name":"Dr.Sees [F2P]","steam_id":76561199219233587,"connected_time":9000000000,"state":"active","ping":82},{"user_id":89,"name":"Darkmaen","steam_id":76561198060543390,"connected_time":710000000000,"state":"active","ping":45},{"user_id":22,"name":"♥♥♥","steam_id":76561198247907744,"connected_time":4512000000000,"state":"active","ping":82},{"user_id":83,"name":"Clamor_","steam_id":76561198104368295,"connected_time":1141000000000,"state":"active","ping":64},{"user_id":84,"name":"Dolcelatte","steam_id":76561198038501770,"connected_time":1098000000000,"state":"active","ping":45},{"user_id":62,"name":"Bumblebee","steam_id":76561198033551105,"connected_time":2192000000000,"state":"active","ping":56},{"user_id":85,"name":"goprit","steam_id":76561198072518761,"connected_time":983000000000,"state":"active","ping":67},{"user_id":92,"name":"anairat","steam_id":76561198863788240,"connected_time":557000000000,"state":"active","ping":74},{"user_id":90,"name":"-makina","steam_id":76561198273042780,"connected_time":708000000000,"state":"active","ping":60},{"user_id":77,"name":"paint","steam_id":76561199133080265,"connected_time":1255000000000,"state":"active","ping":103},{"user_id":78,"name":"DemoPanMan69","steam_id":76561199030759504,"connected_time":1235000000000,"state":"active","ping":62},{"user_id":93,"name":"yum็","steam_id":76561198350053321,"connected_time":380000000000,"state":"active","ping":64},{"user_id":49,"name":"poliakov.noam","steam_id":76561199259322961,"connected_time":3258000000000,"state":"active","ping":102},{"user_id":79,"name":"Bobo","steam_id":76561198052308399,"connected_time":1225000000000,"state":"active","ping":58},{"user_id":66,"name":"dfhfhjd #savetf2","steam_id":76561198170036665,"connected_time":1922000000000,"state":"active","ping":81},{"user_id":80,"name":"спаринг партнёр46","steam_id":76561197974177672,"connected_time":1200000000000,"state":"active","ping":75},{"user_id":82,"name":"Pwnedbyfatty - PMKBB","steam_id":76561197995037409,"connected_time":1167000000000,"state":"active","ping":145},{"user_id":91,"name":"Salih","steam_id":76561198287934839,"connected_time":705000000000,"state":"active","ping":51},{"user_id":67,"name":"The Wheel (Live on KEXP)","steam_id":76561199064350902,"connected_time":1902000000000,"state":"active","ping":120},{"user_id":70,"name":"InBox","steam_id":76561198122125341,"connected_time":1730000000000,"state":"active","ping":77}]},{"server_id":110,"name":"Uncletopia | Frankfurt | 2 | All Maps","name_short":"frk-2","host":"frk-1.de.uncletopia.com","port":27025,"enabled":true,"region":"eu","cc":"de","latitude":50.110924,"longitude":8.682127,"reserved":0,"last_update":"0001-01-01T00:00:00Z","name_a2s":"Uncletopia | Frankfurt | 2 | All Maps","protocol":17,"map":"pl_pier","folder":"tf","game":"Team Fortress","app_id":440,"player_count":24,"max_players":24,"Bots":0,"server_type":"Dedicated","server_os":"Linux","password":true,"vac":true,"version":"7757534","steam_id":85568392924469990,"keywords":["nocrits","nodmgspread","payload","uncletopia"],"game_id":440,"stv_port":27026,"stv_name":"Uncletopia | Frankfurt | 2 | All Maps | STV","players":[{"user_id":7,"name":"AviSheepie","steam_id":76561198154361272,"connected_time":2587000000000,"state":"active","ping":101},{"user_id":8,"name":"Dėdė Dwarfas","steam_id":76561199134491846,"connected_time":2554000000000,"state":"active","ping":108},{"user_id":52,"name":"SantiThePug #ReviveTheCaber","steam_id":76561199049615996,"connected_time":518000000000,"state":"active","ping":75},{"user_id":22,"name":"KillerQueen (he/they/she)","steam_id":76561199019399725,"connected_time":2018000000000,"state":"active","ping":61},{"user_id":46,"name":"7hero","steam_id":76561198118829945,"connected_time":962000000000,"state":"active","ping":106},{"user_id":19,"name":"Veile","steam_id":76561199007201531,"connected_time":2177000000000,"state":"active","ping":92},{"user_id":60,"name":"Big Noot","steam_id":76561198057707263,"connected_time":196000000000,"state":"active","ping":60},{"user_id":40,"name":"xd","steam_id":76561198066523881,"connected_time":1316000000000,"state":"active","ping":54},{"user_id":48,"name":"Rose-Marie","steam_id":76561198055611092,"connected_time":678000000000,"state":"active","ping":57},{"user_id":25,"name":"MgrunL","steam_id":76561198389947352,"connected_time":1994000000000,"state":"active","ping":110},{"user_id":26,"name":"Misctek","steam_id":76561199037541925,"connected_time":1992000000000,"state":"active","ping":74},{"user_id":53,"name":"mountaindrill","steam_id":76561198864327475,"connected_time":433000000000,"state":"active","ping":55},{"user_id":47,"name":"Cars","steam_id":76561198173329977,"connected_time":890000000000,"state":"active","ping":62},{"user_id":45,"name":"peshosalama16","steam_id":76561199104058150,"connected_time":1157000000000,"state":"active","ping":90},{"user_id":49,"name":"Kreisi Kreivi","steam_id":76561198066694311,"connected_time":654000000000,"state":"active","ping":90},{"user_id":64,"name":"ArikMor","steam_id":76561199124472513,"connected_time":22000000000,"state":"active","ping":201},{"user_id":50,"name":"♫★Xriasp★♫","steam_id":76561198104721321,"connected_time":538000000000,"state":"active","ping":69},{"user_id":62,"name":"jackchan37","steam_id":76561199084555750,"connected_time":173000000000,"state":"active","ping":66},{"user_id":51,"name":"Sniffz_2","steam_id":76561199433459491,"connected_time":531000000000,"state":"active","ping":69},{"user_id":38,"name":"Leibeigener","steam_id":76561199275478305,"connected_time":1488000000000,"state":"active","ping":41},{"user_id":39,"name":"Kruthal","steam_id":76561198245726582,"connected_time":1380000000000,"state":"active","ping":75},{"user_id":58,"name":"Gonzo","steam_id":76561198086821039,"connected_time":267000000000,"state":"active","ping":69},{"user_id":42,"name":"spearfishNL","steam_id":76561199077022985,"connected_time":1312000000000,"state":"active","ping":61},{"user_id":59,"name":"lettuce at 58p","steam_id":76561199401283123,"connected_time":213000000000,"state":"active","ping":62}]},{"server_id":308,"name":"Uncletopia | Frankfurt | 3 | All Maps","name_short":"frk-3","host":"frk-1.de.uncletopia.com","port":27035,"enabled":true,"region":"eu","cc":"de","latitude":50.110924,"longitude":8.682127,"reserved":0,"last_update":"0001-01-01T00:00:00Z","name_a2s":"Uncletopia | Frankfurt | 3 | All Maps","protocol":17,"map":"pl_barnblitz","folder":"tf","game":"Team Fortress","app_id":440,"player_count":24,"max_players":24,"Bots":0,"server_type":"Dedicated","server_os":"Linux","password":true,"vac":true,"version":"7757534","steam_id":85568392924504274,"keywords":["nocrits","nodmgspread","payload","uncletopia"],"game_id":440,"stv_port":27036,"stv_name":"Uncletopia | Frankfurt | 3 | All Maps | STV","players":[{"user_id":95,"name":"balls2","steam_id":76561198018757672,"connected_time":790000000000,"state":"active","ping":75},{"user_id":100,"name":"Mor'du","steam_id":76561198274105878,"connected_time":225000000000,"state":"active","ping":75},{"user_id":104,"name":"mimi","steam_id":76561198060648946,"connected_time":13000000000,"state":"active","ping":55},{"user_id":45,"name":"Rin-Nakaret","steam_id":76561197971051188,"connected_time":4932000000000,"state":"active","ping":60},{"user_id":98,"name":"Hydro","steam_id":76561199081791855,"connected_time":630000000000,"state":"active","ping":70},{"user_id":68,"name":"aura","steam_id":76561197991687793,"connected_time":2736000000000,"state":"active","ping":60},{"user_id":101,"name":"Temporon","steam_id":76561198035031928,"connected_time":209000000000,"state":"active","ping":54},{"user_id":82,"name":"After8","steam_id":76561198090750865,"connected_time":1466000000000,"state":"active","ping":71},{"user_id":92,"name":"War crime speedrunner","steam_id":76561198110470565,"connected_time":895000000000,"state":"active","ping":93},{"user_id":88,"name":"glyph","steam_id":76561197980736364,"connected_time":969000000000,"state":"active","ping":75},{"user_id":102,"name":"vahas","steam_id":76561198173818374,"connected_time":86000000000,"state":"active","ping":83},{"user_id":61,"name":"LeonCactus","steam_id":76561198102360825,"connected_time":2997000000000,"state":"active","ping":70},{"user_id":48,"name":"Topia","steam_id":76561198163571788,"connected_time":3992000000000,"state":"active","ping":96},{"user_id":65,"name":"Mr.Schnittlauch","steam_id":76561198295868113,"connected_time":2783000000000,"state":"active","ping":56},{"user_id":73,"name":"scorch shot main","steam_id":76561198083615367,"connected_time":2633000000000,"state":"active","ping":49},{"user_id":93,"name":"Mael\u003c3","steam_id":76561197996852498,"connected_time":881000000000,"state":"active","ping":60},{"user_id":94,"name":"mercenarypit","steam_id":76561198161935108,"connected_time":807000000000,"state":"active","ping":61},{"user_id":77,"name":"Xx_えななんxX69","steam_id":76561199427679148,"connected_time":1645000000000,"state":"active","ping":63},{"user_id":87,"name":"LOBZIK","steam_id":76561198114830120,"connected_time":1000000000000,"state":"active","ping":76},{"user_id":84,"name":"CaptainMac","steam_id":76561198273156139,"connected_time":1339000000000,"state":"active","ping":35},{"user_id":32,"name":"Pico","steam_id":76561198063552545,"connected_time":5708000000000,"state":"active","ping":101},{"user_id":96,"name":"redindy","steam_id":76561198070154445,"connected_time":737000000000,"state":"active","ping":168},{"user_id":34,"name":"galaxy","steam_id":76561198164819022,"connected_time":5692000000000,"state":"active","ping":55},{"user_id":97,"name":"Painfully Average","steam_id":76561198381881577,"connected_time":670000000000,"state":"active","ping":127}]},{"server_id":309,"name":"Uncletopia | Frankfurt | 4 | All Maps","name_short":"frk-4","host":"frk-1.de.uncletopia.com","port":27045,"enabled":true,"region":"eu","cc":"de","latitude":50.110924,"longitude":8.682127,"reserved":0,"last_update":"0001-01-01T00:00:00Z","name_a2s":"Uncletopia | Frankfurt | 4 | All Maps","protocol":17,"map":"pl_borneo","folder":"tf","game":"Team Fortress","app_id":440,"player_count":24,"max_players":24,"Bots":0,"server_type":"Dedicated","server_os":"Linux","password":true,"vac":true,"version":"7757534","steam_id":85568392924504275,"keywords":["nocrits","nodmgspread","payload","uncletopia"],"game_id":440,"stv_port":27046,"stv_name":"Uncletopia | Frankfurt | 4 | All Maps | STV","players":[{"user_id":358,"name":"Nightshade","steam_id":76561199075397133,"connected_time":2625000000000,"state":"active","ping":61},{"user_id":277,"name":"Seeker","steam_id":76561198873052772,"connected_time":8737000000000,"state":"active","ping":70},{"user_id":383,"name":"Lukas","steam_id":76561198009118452,"connected_time":783000000000,"state":"active","ping":55},{"user_id":392,"name":"Marw3","steam_id":76561197965539751,"connected_time":404000000000,"state":"active","ping":51},{"user_id":380,"name":"dirty","steam_id":76561197995572935,"connected_time":1045000000000,"state":"active","ping":76},{"user_id":389,"name":"Sparky","steam_id":76561198036754195,"connected_time":538000000000,"state":"active","ping":42},{"user_id":378,"name":"brtaba","steam_id":76561198796334790,"connected_time":1256000000000,"state":"active","ping":64},{"user_id":372,"name":"holykyckling","steam_id":76561198040661615,"connected_time":1709000000000,"state":"active","ping":75},{"user_id":384,"name":"Pingutaro","steam_id":76561198112803718,"connected_time":756000000000,"state":"active","ping":64},{"user_id":385,"name":"Explosive_kink","steam_id":76561198998702838,"connected_time":749000000000,"state":"active","ping":66},{"user_id":362,"name":"Daniel Day-Lewis","steam_id":76561198147249160,"connected_time":2551000000000,"state":"active","ping":95},{"user_id":365,"name":"Churaq Cyril","steam_id":76561198125381319,"connected_time":2329000000000,"state":"active","ping":89},{"user_id":363,"name":"posht0O \u003e:)","steam_id":76561198106182078,"connected_time":2548000000000,"state":"active","ping":97},{"user_id":387,"name":"Doctor Mobius","steam_id":76561197971281806,"connected_time":689000000000,"state":"active","ping":64},{"user_id":379,"name":"Sneikijs","steam_id":76561198052549308,"connected_time":1249000000000,"state":"active","ping":55},{"user_id":346,"name":"DrExplosive","steam_id":76561198063678579,"connected_time":3661000000000,"state":"active","ping":66},{"user_id":386,"name":"Wardruna96","steam_id":76561199057083828,"connected_time":729000000000,"state":"active","ping":79},{"user_id":369,"name":"Carrot","steam_id":76561198119340863,"connected_time":2224000000000,"state":"active","ping":57},{"user_id":394,"name":"KingofCubes","steam_id":76561198258037513,"connected_time":271000000000,"state":"active","ping":74},{"user_id":312,"name":"Mugelzz","steam_id":76561198048528709,"connected_time":6835000000000,"state":"active","ping":107},{"user_id":390,"name":"Fran","steam_id":76561199070516960,"connected_time":516000000000,"state":"active","ping":66},{"user_id":313,"name":"playing while wearing crocs.","steam_id":76561198139404261,"connected_time":6730000000000,"state":"active","ping":55},{"user_id":364,"name":"Cosmetic brain","steam_id":76561198055936410,"connected_time":2532000000000,"state":"active","ping":82},{"user_id":381,"name":"Spetse","steam_id":76561197990649972,"connected_time":1013000000000,"state":"active","ping":87}]},{"server_id":310,"name":"Uncletopia | Frankfurt | 5 | All Maps","name_short":"frk-5","host":"frk-1.de.uncletopia.com","port":27055,"enabled":true,"region":"eu","cc":"de","latitude":50.110924,"longitude":8.682127,"reserved":0,"last_update":"0001-01-01T00:00:00Z","name_a2s":"Uncletopia | Frankfurt | 5 | All Maps","protocol":17,"map":"koth_badlands","folder":"tf","game":"Team Fortress","app_id":440,"player_count":4,"max_players":24,"Bots":0,"server_type":"Dedicated","server_os":"Linux","password":true,"vac":true,"version":"7757534","steam_id":85568392924504277,"keywords":["cp","nocrits","nodmgspread","uncletopia"],"game_id":440,"stv_port":27056,"stv_name":"Uncletopia | Frankfurt | 5 | All Maps | STV","players":[{"user_id":18,"name":"RoboKugelfisch","steam_id":76561198871855734,"connected_time":229000000000,"state":"active","ping":58},{"user_id":19,"name":"twitch.tv/rudy_karma","steam_id":76561198349348738,"connected_time":210000000000,"state":"active","ping":49},{"user_id":20,"name":"butt tickling bandit","steam_id":76561198884449271,"connected_time":150000000000,"state":"active","ping":56},{"user_id":21,"name":"Truegr","steam_id":76561198811912339,"connected_time":142000000000,"state":"active","ping":60}]},{"server_id":311,"name":"Uncletopia | Frankfurt | 6 | All Maps","name_short":"frk-6","host":"frk-1.de.uncletopia.com","port":27065,"enabled":true,"region":"eu","cc":"de","latitude":50.110924,"longitude":8.682127,"reserved":0,"last_update":"0001-01-01T00:00:00Z","name_a2s":"Uncletopia | Frankfurt | 6 | All Maps","protocol":17,"map":"koth_highpass","folder":"tf","game":"Team Fortress","app_id":440,"player_count":2,"max_players":24,"Bots":0,"server_type":"Dedicated","server_os":"Linux","password":true,"vac":true,"version":"7757534","steam_id":85568392924504278,"keywords":["cp","nocrits","nodmgspread","uncletopia"],"game_id":440,"stv_port":27066,"stv_name":"Uncletopia | Frankfurt | 6 | All Maps | STV","players":[{"user_id":15,"name":"joe mama","steam_id":76561198162446976,"connected_time":652000000000,"state":"active","ping":47},{"user_id":16,"name":"WAGOOGUS","steam_id":76561198195893307,"connected_time":646000000000,"state":"active","ping":118}]},{"server_id":23,"name":"Uncletopia | Frankfurt | 7 | Stopwatch Beta","name_short":"frk-7","host":"frk-1.de.uncletopia.com","port":27075,"enabled":true,"region":"eu","cc":"de","latitude":50.110924,"longitude":8.682127,"reserved":0,"last_update":"0001-01-01T00:00:00Z","name_a2s":"Uncletopia | Frankfurt | 7 | Stopwatch Beta","protocol":17,"map":"pl_frontier_final","folder":"tf","game":"Team Fortress","app_id":440,"player_count":0,"max_players":24,"Bots":0,"server_type":"Dedicated","server_os":"Linux","password":true,"vac":true,"version":"7757534","steam_id":85568392924742827,"keywords":["nocrits","nodmgspread","payload","uncletopia"],"game_id":440,"stv_port":27076,"stv_name":"Uncletopia | Frankfurt | 7 | Stopwatch Beta | STV","players":null},{"server_id":24,"name":"Uncletopia | Frankfurt | 8 | Community","name_short":"frk-8","host":"frk-1.de.uncletopia.com","port":27085,"enabled":true,"region":"eu","cc":"de","latitude":50.110924,"longitude":8.682127,"reserved":0,"last_update":"0001-01-01T00:00:00Z","name_a2s":"Uncletopia | Frankfurt | 8 | Community","protocol":17,"map":"workshop/pl_barnblitz_pro7.ugc582280235","folder":"tf","game":"Team Fortress","app_id":440,"player_count":0,"max_players":24,"Bots":0,"server_type":"Dedicated","server_os":"Linux","password":true,"vac":true,"version":"7757534","steam_id":85568392924742828,"keywords":["nocrits","nodmgspread","payload","uncletopia"],"game_id":440,"stv_port":27086,"stv_name":"Uncletopia | Frankfurt | 8 | Community | STV","players":null},{"server_id":202,"name":"Uncletopia | Hong Kong | 1 | All Maps","name_short":"hgk-1","host":"hgk-1.hk.uncletopia.com","port":27015,"enabled":true,"region":"asia","cc":"hk","latitude":22.302711,"longitude":114.177216,"reserved":0,"last_update":"0001-01-01T00:00:00Z","name_a2s":"Uncletopia | Hong Kong | 1 | All Maps","protocol":17,"map":"pl_snowycoast","folder":"tf","game":"Team Fortress","app_id":440,"player_count":0,"max_players":24,"Bots":0,"server_type":"Dedicated","server_os":"Linux","password":true,"vac":true,"version":"7757534","steam_id":85568392924494504,"keywords":["nocrits","nodmgspread","payload","uncletopia"],"game_id":440,"stv_port":27016,"stv_name":"Uncletopia | Hong Kong | 1 | All Maps | STV","players":null},{"server_id":1,"name":"Uncletopia | Los Angeles | 1 | All Maps","name_short":"lax-1","host":"lax-1.us.uncletopia.com","port":27015,"enabled":true,"region":"us-west","cc":"us","latitude":33.94279,"longitude":-118.41004,"reserved":0,"last_update":"0001-01-01T00:00:00Z","name_a2s":"Uncletopia | Los Angeles | 1 | All Maps","protocol":17,"map":"koth_viaduct","folder":"tf","game":"Team Fortress","app_id":440,"player_count":0,"max_players":24,"Bots":0,"server_type":"Dedicated","server_os":"Linux","password":true,"vac":true,"version":"7757534","steam_id":85568392924469991,"keywords":["cp","nocrits","nodmgspread","uncletopia"],"game_id":440,"stv_port":27016,"stv_name":"Uncletopia | Los Angeles | 1 | All Maps | STV","players":null},{"server_id":112,"name":"Uncletopia | Los Angeles | 2 | All Maps","name_short":"lax-2","host":"lax-1.us.uncletopia.com","port":27025,"enabled":true,"region":"us-west","cc":"us","latitude":33.94279,"longitude":-118.41004,"reserved":0,"last_update":"0001-01-01T00:00:00Z","name_a2s":"Uncletopia | Los Angeles | 2 | All Maps","protocol":17,"map":"koth_cascade","folder":"tf","game":"Team Fortress","app_id":440,"player_count":0,"max_players":24,"Bots":0,"server_type":"Dedicated","server_os":"Linux","password":true,"vac":true,"version":"7757534","steam_id":85568392924469992,"keywords":["cp","nocrits","nodmgspread","uncletopia"],"game_id":440,"stv_port":27026,"stv_name":"Uncletopia | Los Angeles | 2 | All Maps | STV","players":null},{"server_id":324,"name":"Uncletopia | Los Angeles | 3 | All Maps","name_short":"lax-3","host":"lax-1.us.uncletopia.com","port":27035,"enabled":true,"region":"us-west","cc":"us","latitude":33.94279,"longitude":-118.41004,"reserved":0,"last_update":"0001-01-01T00:00:00Z","name_a2s":"Uncletopia | Los Angeles | 3 | All Maps","protocol":17,"map":"pl_pier","folder":"tf","game":"Team Fortress","app_id":440,"player_count":0,"max_players":24,"Bots":0,"server_type":"Dedicated","server_os":"Linux","password":true,"vac":true,"version":"7757534","steam_id":85568392924510198,"keywords":["nocrits","nodmgspread","payload","uncletopia"],"game_id":440,"stv_port":27036,"stv_name":"Uncletopia | Los Angeles | 3 | All Maps | STV","players":null},{"server_id":25,"name":"Uncletopia | Los Angeles | 4 | Stopwatch Beta","name_short":"lax-4","host":"lax-1.us.uncletopia.com","port":27045,"enabled":true,"region":"us-west","cc":"us","latitude":33.94279,"longitude":-118.41004,"reserved":0,"last_update":"0001-01-01T00:00:00Z","name_a2s":"Uncletopia | Los Angeles | 4 | Stopwatch Beta","protocol":17,"map":"pl_frontier_final","folder":"tf","game":"Team Fortress","app_id":440,"player_count":0,"max_players":24,"Bots":0,"server_type":"Dedicated","server_os":"Linux","password":true,"vac":true,"version":"7757534","steam_id":85568392924510199,"keywords":["nocrits","nodmgspread","payload","uncletopia"],"game_id":440,"stv_port":27046,"stv_name":"Uncletopia | Los Angeles | 4 | Stopwatch Beta | STV","players":null},{"server_id":11,"name":"Uncletopia | London | 1 | All Maps","name_short":"lon-1","host":"lon-1.uk.uncletopia.com","port":27015,"enabled":true,"region":"eu","cc":"gb","latitude":51.509865,"longitude":-0.118092,"reserved":0,"last_update":"0001-01-01T00:00:00Z","name_a2s":"Uncletopia | London | 1 | All Maps","protocol":17,"map":"pl_badwater","folder":"tf","game":"Team Fortress","app_id":440,"player_count":24,"max_players":24,"Bots":0,"server_type":"Dedicated","server_os":"Linux","password":true,"vac":true,"version":"7757534","steam_id":85568392924367362,"keywords":["nocrits","nodmgspread","payload","uncletopia"],"game_id":440,"stv_port":27016,"stv_name":"Uncletopia | London | 1 | All Maps | STV","players":[{"user_id":534,"name":"Chubbles","steam_id":76561198237619472,"connected_time":594000000000,"state":"active","ping":129},{"user_id":516,"name":"Sandshee","steam_id":76561198088574666,"connected_time":2039000000000,"state":"active","ping":39},{"user_id":485,"name":"naleksi","steam_id":76561198018391055,"connected_time":4939000000000,"state":"active","ping":103},{"user_id":545,"name":"jovi_","steam_id":76561198449280552,"connected_time":77000000000,"state":"active","ping":57},{"user_id":538,"name":"frosty","steam_id":76561198094560834,"connected_time":338000000000,"state":"active","ping":48},{"user_id":537,"name":"most sane mentalist","steam_id":76561198310095220,"connected_time":380000000000,"state":"active","ping":35},{"user_id":520,"name":"Croy","steam_id":76561197972552579,"connected_time":1504000000000,"state":"active","ping":45},{"user_id":536,"name":"heatburn","steam_id":76561198019001992,"connected_time":569000000000,"state":"active","ping":50},{"user_id":481,"name":"ThatGamingKiwi","steam_id":76561199170522237,"connected_time":5064000000000,"state":"active","ping":146},{"user_id":512,"name":"Andreyka","steam_id":76561198038447927,"connected_time":2466000000000,"state":"active","ping":118},{"user_id":533,"name":"Penis Contortionist","steam_id":76561198073663784,"connected_time":796000000000,"state":"active","ping":30},{"user_id":546,"name":"KhornateDoom","steam_id":76561198127530619,"connected_time":62000000000,"state":"active","ping":93},{"user_id":522,"name":"Alprazolam⁰²⁵ᵐᵍ","steam_id":76561198130529477,"connected_time":1452000000000,"state":"active","ping":65},{"user_id":442,"name":"Kwizine","steam_id":76561198147999400,"connected_time":8398000000000,"state":"active","ping":69},{"user_id":515,"name":"Tragedy+Time=Comedy","steam_id":76561199095819413,"connected_time":2073000000000,"state":"active","ping":126},{"user_id":541,"name":"Swift","steam_id":76561197998799889,"connected_time":289000000000,"state":"active","ping":45},{"user_id":540,"name":"Eternal_FAM","steam_id":76561198043013744,"connected_time":318000000000,"state":"active","ping":45},{"user_id":547,"name":"Mihuel Hairman#Savetf2","steam_id":76561199041992422,"connected_time":54000000000,"state":"active","ping":180},{"user_id":542,"name":"Uncle Owen","steam_id":76561198157999291,"connected_time":284000000000,"state":"active","ping":85},{"user_id":532,"name":"Clitorina","steam_id":76561198077570815,"connected_time":1187000000000,"state":"active","ping":43},{"user_id":543,"name":"Guy with squares as username","steam_id":76561198269524918,"connected_time":239000000000,"state":"active","ping":59},{"user_id":548,"name":"Hell Striker","steam_id":76561199023875942,"connected_time":50000000000,"state":"active","ping":112},{"user_id":531,"name":"Boyarishnik","steam_id":76561198986324207,"connected_time":1266000000000,"state":"active","ping":101},{"user_id":513,"name":"majora's boostio","steam_id":76561198392628642,"connected_time":2210000000000,"state":"active","ping":47}]},{"server_id":114,"name":"Uncletopia | London | 2 | All Maps","name_short":"lon-2","host":"lon-1.uk.uncletopia.com","port":27025,"enabled":true,"region":"eu","cc":"gb","latitude":51.509865,"longitude":-0.118092,"reserved":0,"last_update":"0001-01-01T00:00:00Z","name_a2s":"Uncletopia | London | 2 | All Maps","protocol":17,"map":"cp_mountainlab","folder":"tf","game":"Team Fortress","app_id":440,"player_count":8,"max_players":24,"Bots":0,"server_type":"Dedicated","server_os":"Linux","password":true,"vac":true,"version":"7757534","steam_id":85568392924470941,"keywords":["cp","nocrits","nodmgspread","uncletopia"],"game_id":440,"stv_port":27026,"stv_name":"Uncletopia | London | 2 | All Maps | STV","players":[{"user_id":11,"name":"Kalarad","steam_id":76561198981545517,"connected_time":969000000000,"state":"active","ping":83},{"user_id":14,"name":"Lunar","steam_id":76561199077495290,"connected_time":508000000000,"state":"active","ping":72},{"user_id":15,"name":"Shibe","steam_id":76561198071312153,"connected_time":377000000000,"state":"active","ping":72},{"user_id":16,"name":"Dr. Cox","steam_id":76561198246629218,"connected_time":371000000000,"state":"active","ping":92},{"user_id":17,"name":"cof","steam_id":76561199128417805,"connected_time":364000000000,"state":"active","ping":55},{"user_id":18,"name":"Speibsackerl","steam_id":76561198058135257,"connected_time":336000000000,"state":"active","ping":102},{"user_id":20,"name":"bannakafalatta","steam_id":76561198354452462,"connected_time":144000000000,"state":"active","ping":57},{"user_id":21,"name":"Dingus","steam_id":76561198140514058,"connected_time":81000000000,"state":"active","ping":36}]},{"server_id":320,"name":"Uncletopia | London | 3 | All Maps","name_short":"lon-3","host":"lon-1.uk.uncletopia.com","port":27035,"enabled":true,"region":"eu","cc":"gb","latitude":51.509865,"longitude":-0.118092,"reserved":0,"last_update":"0001-01-01T00:00:00Z","name_a2s":"Uncletopia | London | 3 | All Maps","protocol":17,"map":"pl_borneo","folder":"tf","game":"Team Fortress","app_id":440,"player_count":24,"max_players":24,"Bots":0,"server_type":"Dedicated","server_os":"Linux","password":true,"vac":true,"version":"7757534","steam_id":85568392924510192,"keywords":["nocrits","nodmgspread","payload","uncletopia"],"game_id":440,"stv_port":27036,"stv_name":"Uncletopia | London | 3 | All Maps | STV","players":[{"user_id":401,"name":"triangle","steam_id":76561198046838168,"connected_time":1915000000000,"state":"active","ping":61},{"user_id":387,"name":"Shibus","steam_id":76561198077328359,"connected_time":2790000000000,"state":"active","ping":57},{"user_id":419,"name":"going through hell","steam_id":76561199042470246,"connected_time":193000000000,"state":"active","ping":52},{"user_id":390,"name":"Lucoa Enjoyer","steam_id":76561198842622419,"connected_time":2394000000000,"state":"active","ping":92},{"user_id":421,"name":"KarlRanzeier","steam_id":76561198066281337,"connected_time":132000000000,"state":"active","ping":65},{"user_id":422,"name":"LeP0tato","steam_id":76561198077615937,"connected_time":120000000000,"state":"active","ping":60},{"user_id":418,"name":"CouT1nho","steam_id":76561198203926376,"connected_time":389000000000,"state":"active","ping":36},{"user_id":410,"name":"Mafew","steam_id":76561198119993886,"connected_time":1133000000000,"state":"active","ping":59},{"user_id":415,"name":"EEEEEH","steam_id":76561198126717413,"connected_time":679000000000,"state":"active","ping":86},{"user_id":361,"name":"sam","steam_id":76561199230709660,"connected_time":4171000000000,"state":"active","ping":61},{"user_id":412,"name":"Sch","steam_id":76561198071341689,"connected_time":928000000000,"state":"active","ping":57},{"user_id":420,"name":"Ander Escobar","steam_id":76561198335366902,"connected_time":136000000000,"state":"active","ping":90},{"user_id":414,"name":"john fortnite","steam_id":76561199196568965,"connected_time":806000000000,"state":"active","ping":86},{"user_id":365,"name":"meatsoupcube","steam_id":76561198276802249,"connected_time":4137000000000,"state":"active","ping":105},{"user_id":407,"name":"Jimmy","steam_id":76561198133680783,"connected_time":1600000000000,"state":"active","ping":67},{"user_id":371,"name":"Mad Cat Kivima","steam_id":76561198028959678,"connected_time":3860000000000,"state":"active","ping":105},{"user_id":423,"name":"SirVitek","steam_id":76561198142961758,"connected_time":76000000000,"state":"active","ping":63},{"user_id":334,"name":"john fortress","steam_id":76561198013237629,"connected_time":5174000000000,"state":"active","ping":87},{"user_id":424,"name":"dongus","steam_id":76561198042774930,"connected_time":74000000000,"state":"active","ping":68},{"user_id":425,"name":"kreeekz","steam_id":76561198014431602,"connected_time":65000000000,"state":"active","ping":78},{"user_id":383,"name":"Gio'sMonkey","steam_id":76561198892432223,"connected_time":3111000000000,"state":"active","ping":87},{"user_id":411,"name":"the real kenyes1!1!!!1!","steam_id":76561198129726064,"connected_time":987000000000,"state":"active","ping":65},{"user_id":408,"name":"combat collin","steam_id":76561198011450253,"connected_time":1435000000000,"state":"active","ping":55},{"user_id":426,"name":"Vaselineum","steam_id":76561199404585461,"connected_time":40000000000,"state":"spawning","ping":101}]},{"server_id":321,"name":"Uncletopia | London | 4 | All Maps","name_short":"lon-4","host":"lon-1.uk.uncletopia.com","port":27045,"enabled":true,"region":"eu","cc":"gb","latitude":51.509865,"longitude":-0.118092,"reserved":0,"last_update":"0001-01-01T00:00:00Z","name_a2s":"Uncletopia | London | 4 | All Maps","protocol":17,"map":"pl_upward","folder":"tf","game":"Team Fortress","app_id":440,"player_count":24,"max_players":24,"Bots":0,"server_type":"Dedicated","server_os":"Linux","password":true,"vac":true,"version":"7757534","steam_id":85568392924510193,"keywords":["nocrits","nodmgspread","payload","uncletopia"],"game_id":440,"stv_port":27046,"stv_name":"Uncletopia | London | 4 | All Maps | STV","players":[{"user_id":273,"name":"Wir suchen dich!","steam_id":76561198307613521,"connected_time":2788000000000,"state":"active","ping":60},{"user_id":274,"name":"Mr. Mundy","steam_id":76561198132008918,"connected_time":2762000000000,"state":"active","ping":88},{"user_id":262,"name":"Luuk","steam_id":76561198088266026,"connected_time":3385000000000,"state":"active","ping":38},{"user_id":296,"name":"ok","steam_id":76561198044451693,"connected_time":815000000000,"state":"active","ping":104},{"user_id":281,"name":"Bornzombie2016","steam_id":76561198273603440,"connected_time":1741000000000,"state":"active","ping":62},{"user_id":283,"name":"makiverem","steam_id":76561198425866216,"connected_time":1680000000000,"state":"active","ping":80},{"user_id":300,"name":"AviK","steam_id":76561198310822598,"connected_time":138000000000,"state":"active","ping":221},{"user_id":290,"name":"LegitACarWithAGun","steam_id":76561198081742337,"connected_time":968000000000,"state":"active","ping":101},{"user_id":172,"name":"Grillem Dafoe","steam_id":76561198306874574,"connected_time":9462000000000,"state":"active","ping":61},{"user_id":298,"name":"Haggabah,WhoPliesTheUmbralPath","steam_id":76561198846984399,"connected_time":787000000000,"state":"active","ping":89},{"user_id":288,"name":"Yessirskiii","steam_id":76561198179324075,"connected_time":1030000000000,"state":"active","ping":61},{"user_id":224,"name":"luma","steam_id":76561198081649669,"connected_time":6472000000000,"state":"active","ping":75},{"user_id":289,"name":"Ablativus","steam_id":76561198025698470,"connected_time":996000000000,"state":"active","ping":77},{"user_id":291,"name":"I SMOKE PCP","steam_id":76561198129866997,"connected_time":965000000000,"state":"active","ping":60},{"user_id":279,"name":"Festive Erma","steam_id":76561198038718342,"connected_time":2034000000000,"state":"active","ping":71},{"user_id":287,"name":"Boki","steam_id":76561198044553351,"connected_time":1125000000000,"state":"active","ping":67},{"user_id":270,"name":"Miczu555PL","steam_id":76561198058500895,"connected_time":2904000000000,"state":"active","ping":73},{"user_id":295,"name":"Krabs","steam_id":76561198161679477,"connected_time":864000000000,"state":"active","ping":45},{"user_id":264,"name":"Gman","steam_id":76561199135387666,"connected_time":3347000000000,"state":"active","ping":111},{"user_id":299,"name":"Zerfesh","steam_id":76561198117534358,"connected_time":714000000000,"state":"active","ping":101},{"user_id":293,"name":"Chambersite","steam_id":76561198197022399,"connected_time":949000000000,"state":"active","ping":78},{"user_id":294,"name":"Solrayo","steam_id":76561197993336779,"connected_time":937000000000,"state":"active","ping":92},{"user_id":285,"name":"Autumnsky","steam_id":76561198055161203,"connected_time":1500000000000,"state":"active","ping":61},{"user_id":277,"name":"ToniGAM3S","steam_id":76561198128605351,"connected_time":2221000000000,"state":"active","ping":77}]},{"server_id":21,"name":"Uncletopia | London | 5 | All Maps","name_short":"lon-5","host":"lon-1.uk.uncletopia.com","port":27055,"enabled":true,"region":"eu","cc":"gb","latitude":51.509865,"longitude":-0.118092,"reserved":0,"last_update":"0001-01-01T00:00:00Z","name_a2s":"Uncletopia | London | 5 | All Maps","protocol":17,"map":"plr_pipeline","folder":"tf","game":"Team Fortress","app_id":440,"player_count":0,"max_players":24,"Bots":0,"server_type":"Dedicated","server_os":"Linux","password":true,"vac":true,"version":"7757534","steam_id":85568392924742829,"keywords":["nocrits","nodmgspread","payload","uncletopia"],"game_id":440,"stv_port":27056,"stv_name":"Uncletopia | London | 5 | All Maps | STV","players":null},{"server_id":22,"name":"Uncletopia | London | 6 | All Maps","name_short":"lon-6","host":"lon-1.uk.uncletopia.com","port":27065,"enabled":true,"region":"eu","cc":"gb","latitude":51.509865,"longitude":-0.118092,"reserved":0,"last_update":"0001-01-01T00:00:00Z","name_a2s":"Uncletopia | London | 6 | All Maps","protocol":17,"map":"koth_cascade","folder":"tf","game":"Team Fortress","app_id":440,"player_count":0,"max_players":24,"Bots":0,"server_type":"Dedicated","server_os":"Linux","password":true,"vac":true,"version":"7757534","steam_id":85568392924742830,"keywords":["cp","nocrits","nodmgspread","uncletopia"],"game_id":440,"stv_port":27066,"stv_name":"Uncletopia | London | 6 | All Maps | STV","players":null},{"server_id":40,"name":"Uncletopia | London | 7 | No Payload","name_short":"lon-7","host":"lon-1.uk.uncletopia.com","port":27075,"enabled":true,"region":"eu","cc":"gb","latitude":51.509865,"longitude":-0.118092,"reserved":0,"last_update":"0001-01-01T00:00:00Z","name_a2s":"Uncletopia | London | 7 | No Payload","protocol":17,"map":"koth_brazil","folder":"tf","game":"Team Fortress","app_id":440,"player_count":24,"max_players":24,"Bots":0,"server_type":"Dedicated","server_os":"Linux","password":true,"vac":true,"version":"7757534","steam_id":85568392924964314,"keywords":["cp","nocrits","nodmgspread","uncletopia"],"game_id":440,"stv_port":27076,"stv_name":"Uncletopia | London | 7 | No Payload | STV","players":[{"user_id":210,"name":"Mefuu","steam_id":76561198287729818,"connected_time":3351000000000,"state":"active","ping":108},{"user_id":259,"name":"akakez","steam_id":76561198095432821,"connected_time":1592000000000,"state":"active","ping":115},{"user_id":258,"name":"Favi","steam_id":76561198013236935,"connected_time":1616000000000,"state":"active","ping":77},{"user_id":204,"name":"fume.","steam_id":76561197960476801,"connected_time":3971000000000,"state":"active","ping":45},{"user_id":267,"name":"FERME_TA_GUEULE","steam_id":76561198087713683,"connected_time":764000000000,"state":"active","ping":62},{"user_id":266,"name":"bad at tf2 episode 2","steam_id":76561198002451113,"connected_time":991000000000,"state":"active","ping":91},{"user_id":247,"name":"JohnTraveltime","steam_id":76561199244281754,"connected_time":2093000000000,"state":"active","ping":74},{"user_id":232,"name":"goblin","steam_id":76561198151122921,"connected_time":2551000000000,"state":"active","ping":73},{"user_id":239,"name":"ethan","steam_id":76561198119495513,"connected_time":2400000000000,"state":"active","ping":45},{"user_id":271,"name":"SneKeTo","steam_id":76561198199302578,"connected_time":607000000000,"state":"active","ping":78},{"user_id":261,"name":"Black Sheep","steam_id":76561198042244701,"connected_time":1390000000000,"state":"active","ping":62},{"user_id":268,"name":"OutOfRage","steam_id":76561198211205791,"connected_time":742000000000,"state":"active","ping":43},{"user_id":264,"name":"Kerrygold (454 grammes)","steam_id":76561197968575924,"connected_time":1106000000000,"state":"active","ping":49},{"user_id":166,"name":"Garden Freeman","steam_id":76561199073314677,"connected_time":5945000000000,"state":"active","ping":77},{"user_id":269,"name":"nitroglycerin","steam_id":76561199158447878,"connected_time":728000000000,"state":"active","ping":66},{"user_id":270,"name":"Fat Pigeon","steam_id":76561198817940142,"connected_time":643000000000,"state":"active","ping":57},{"user_id":253,"name":"Chipsy","steam_id":76561198271813588,"connected_time":1773000000000,"state":"active","ping":48},{"user_id":262,"name":"Faxter","steam_id":76561198011771605,"connected_time":1259000000000,"state":"active","ping":76},{"user_id":265,"name":"smoke","steam_id":76561198369002901,"connected_time":1097000000000,"state":"active","ping":45},{"user_id":275,"name":"Jara.","steam_id":76561197992207165,"connected_time":143000000000,"state":"active","ping":103},{"user_id":196,"name":"prcg","steam_id":76561198047619456,"connected_time":4599000000000,"state":"active","ping":69},{"user_id":274,"name":"trk","steam_id":76561198079111788,"connected_time":301000000000,"state":"active","ping":90},{"user_id":236,"name":"Mr. Caesar","steam_id":76561198166329161,"connected_time":2454000000000,"state":"active","ping":53},{"user_id":260,"name":"Laru","steam_id":76561197998838438,"connected_time":1497000000000,"state":"active","ping":81}]},{"server_id":41,"name":"Uncletopia | London | 8 | Community","name_short":"lon-8","host":"lon-1.uk.uncletopia.com","port":27085,"enabled":true,"region":"eu","cc":"gb","latitude":51.509865,"longitude":-0.118092,"reserved":0,"last_update":"0001-01-01T00:00:00Z","name_a2s":"Uncletopia | London | 8 | Community","protocol":17,"map":"workshop/rd_asteroid_redux_b1.ugc2154902912","folder":"tf","game":"Team Fortress","app_id":440,"player_count":0,"max_players":24,"Bots":0,"server_type":"Dedicated","server_os":"Linux","password":true,"vac":true,"version":"7757534","steam_id":85568392924964315,"keywords":["beta","nocrits","nodmgspread","rd","uncletopia"],"game_id":440,"stv_port":27086,"stv_name":"Uncletopia | London | 8 | Community | STV","players":null},{"server_id":300,"name":"Uncletopia | Montréal | 1 | All Maps","name_short":"mtl-1","host":"mtl-1.ca.uncletopia.com","port":27015,"enabled":true,"region":"us-east","cc":"ca","latitude":45.50889,"longitude":-73.56167,"reserved":0,"last_update":"0001-01-01T00:00:00Z","name_a2s":"Uncletopia | Montréal | 1 | All Maps","protocol":17,"map":"pl_snowycoast","folder":"tf","game":"Team Fortress","app_id":440,"player_count":0,"max_players":24,"Bots":0,"server_type":"Dedicated","server_os":"Linux","password":true,"vac":true,"version":"7757534","steam_id":85568392924500087,"keywords":["nocrits","nodmgspread","payload","uncletopia"],"game_id":440,"stv_port":27016,"stv_name":"Uncletopia | Montréal | 1 | All Maps | STV","players":null},{"server_id":301,"name":"Uncletopia | Montréal | 2 | All Maps","name_short":"mtl-2","host":"mtl-1.ca.uncletopia.com","port":27025,"enabled":true,"region":"us-east","cc":"ca","latitude":45.50889,"longitude":-73.56167,"reserved":0,"last_update":"0001-01-01T00:00:00Z","name_a2s":"Uncletopia | Montréal | 2 | All Maps","protocol":17,"map":"pl_snowycoast","folder":"tf","game":"Team Fortress","app_id":440,"player_count":0,"max_players":24,"Bots":0,"server_type":"Dedicated","server_os":"Linux","password":true,"vac":true,"version":"7757534","steam_id":85568392924500088,"keywords":["nocrits","nodmgspread","payload","uncletopia"],"game_id":440,"stv_port":27026,"stv_name":"Uncletopia | Montréal | 2 | All Maps | STV","players":null},{"server_id":302,"name":"Uncletopia | Montréal | 3 | All Maps","name_short":"mtl-3","host":"mtl-1.ca.uncletopia.com","port":27035,"enabled":true,"region":"us-east","cc":"ca","latitude":45.50889,"longitude":-73.56167,"reserved":0,"last_update":"0001-01-01T00:00:00Z","name_a2s":"Uncletopia | Montréal | 3 | All Maps","protocol":17,"map":"cp_dustbowl","folder":"tf","game":"Team Fortress","app_id":440,"player_count":0,"max_players":24,"Bots":0,"server_type":"Dedicated","server_os":"Linux","password":true,"vac":true,"version":"7757534","steam_id":85568392924500089,"keywords":["cp","nocrits","nodmgspread","uncletopia"],"game_id":440,"stv_port":27036,"stv_name":"Uncletopia | Montréal | 3 | All Maps | STV","players":null},{"server_id":303,"name":"Uncletopia | Montréal | 4 | No Payload","name_short":"mtl-4","host":"mtl-1.ca.uncletopia.com","port":27045,"enabled":true,"region":"us-east","cc":"ca","latitude":45.50889,"longitude":-73.56167,"reserved":0,"last_update":"0001-01-01T00:00:00Z","name_a2s":"Uncletopia | Montréal | 4 | No Payload","protocol":17,"map":"pl_borneo","folder":"tf","game":"Team Fortress","app_id":440,"player_count":0,"max_players":24,"Bots":0,"server_type":"Dedicated","server_os":"Linux","password":true,"vac":true,"version":"7757534","steam_id":85568392924500090,"keywords":["nocrits","nodmgspread","payload","uncletopia"],"game_id":440,"stv_port":27046,"stv_name":"Uncletopia | Montréal | 4 | No Payload | STV","players":null},{"server_id":13,"name":"Uncletopia | New York City | 1 | All Maps","name_short":"nyc-1","host":"nyc-1.us.uncletopia.com","port":27015,"enabled":true,"region":"us-east","cc":"us","latitude":40.73061,"longitude":-73.93524,"reserved":0,"last_update":"0001-01-01T00:00:00Z","name_a2s":"Uncletopia | New York City | 1 | All Maps","protocol":17,"map":"koth_viaduct","folder":"tf","game":"Team Fortress","app_id":440,"player_count":22,"max_players":24,"Bots":0,"server_type":"Dedicated","server_os":"Linux","password":true,"vac":true,"version":"7757534","steam_id":85568392924469993,"keywords":["cp","nocrits","nodmgspread","uncletopia"],"game_id":440,"stv_port":27016,"stv_name":"Uncletopia | New York City | 1 | All Maps | STV","players":[{"user_id":132,"name":"IPlayGamez","steam_id":76561198041387508,"connected_time":65000000000,"state":"active","ping":56},{"user_id":57,"name":"Josh Diddily","steam_id":76561198286957487,"connected_time":4512000000000,"state":"active","ping":125},{"user_id":128,"name":"furnace_user","steam_id":76561197995620232,"connected_time":123000000000,"state":"active","ping":37},{"user_id":125,"name":"Rein","steam_id":76561198300340427,"connected_time":406000000000,"state":"active","ping":69},{"user_id":119,"name":"FUNKY TOWN SLAYER","steam_id":76561198119489292,"connected_time":1103000000000,"state":"active","ping":75},{"user_id":127,"name":"Dilbert","steam_id":76561198195613682,"connected_time":145000000000,"state":"active","ping":74},{"user_id":121,"name":"God im so badas.............","steam_id":76561199037497493,"connected_time":916000000000,"state":"active","ping":70},{"user_id":77,"name":"G3rockwood","steam_id":76561198103583658,"connected_time":2957000000000,"state":"active","ping":76},{"user_id":134,"name":"Glammy!","steam_id":76561198042009171,"connected_time":33000000000,"state":"active","ping":72},{"user_id":126,"name":"Jnlaw","steam_id":76561198009307069,"connected_time":169000000000,"state":"active","ping":79},{"user_id":135,"name":"Takllin","steam_id":76561199289103007,"connected_time":16000000000,"state":"spawning","ping":100},{"user_id":93,"name":"THE CAPN","steam_id":76561198170210979,"connected_time":2368000000000,"state":"active","ping":123},{"user_id":102,"name":"Gotta get my ammo fix","steam_id":76561198039763676,"connected_time":1944000000000,"state":"active","ping":74},{"user_id":114,"name":"Hermit_","steam_id":76561198013807290,"connected_time":1671000000000,"state":"active","ping":92},{"user_id":130,"name":"Squid121","steam_id":76561198038832034,"connected_time":105000000000,"state":"active","ping":122},{"user_id":88,"name":"Crystallixed","steam_id":76561198072263515,"connected_time":2570000000000,"state":"active","ping":76},{"user_id":131,"name":"Emails","steam_id":76561198836919458,"connected_time":95000000000,"state":"active","ping":103},{"user_id":115,"name":"The Trash Man","steam_id":76561198071375772,"connected_time":1662000000000,"state":"active","ping":77},{"user_id":91,"name":"350cc","steam_id":76561198377320040,"connected_time":2534000000000,"state":"active","ping":76},{"user_id":123,"name":"CousinCarL","steam_id":76561198028421250,"connected_time":855000000000,"state":"active","ping":47},{"user_id":117,"name":"「Ryan」","steam_id":76561198056178518,"connected_time":1286000000000,"state":"active","ping":58},{"user_id":109,"name":"Jerry","steam_id":76561198253546017,"connected_time":1808000000000,"state":"active","ping":80}]},{"server_id":14,"name":"Uncletopia | New York City | 2 | All Maps","name_short":"nyc-2","host":"nyc-1.us.uncletopia.com","port":27025,"enabled":true,"region":"us-east","cc":"us","latitude":40.73061,"longitude":-73.93524,"reserved":0,"last_update":"0001-01-01T00:00:00Z","name_a2s":"Uncletopia | New York City | 2 | All Maps","protocol":17,"map":"pl_pier","folder":"tf","game":"Team Fortress","app_id":440,"player_count":0,"max_players":24,"Bots":0,"server_type":"Dedicated","server_os":"Linux","password":true,"vac":true,"version":"7757534","steam_id":85568392924469994,"keywords":["nocrits","nodmgspread","payload","uncletopia"],"game_id":440,"stv_port":27026,"stv_name":"Uncletopia | New York City | 2 | All Maps | STV","players":null},{"server_id":15,"name":"Uncletopia | New York City | 3 | Stopwatch Beta","name_short":"nyc-3","host":"nyc-1.us.uncletopia.com","port":27035,"enabled":true,"region":"us-east","cc":"us","latitude":40.73061,"longitude":-73.93524,"reserved":0,"last_update":"0001-01-01T00:00:00Z","name_a2s":"Uncletopia | New York City | 3 | Stopwatch Beta","protocol":17,"map":"cp_mountainlab","folder":"tf","game":"Team Fortress","app_id":440,"player_count":0,"max_players":24,"Bots":0,"server_type":"Dedicated","server_os":"Linux","password":true,"vac":true,"version":"7757534","steam_id":85568392924742820,"keywords":["cp","nocrits","nodmgspread","uncletopia"],"game_id":440,"stv_port":27036,"stv_name":"Uncletopia | New York City | 3 | Stopwatch Beta | STV","players":null},{"server_id":16,"name":"Uncletopia | New York City | 4 | Community","name_short":"nyc-4","host":"nyc-1.us.uncletopia.com","port":27045,"enabled":true,"region":"us-east","cc":"us","latitude":40.73061,"longitude":-73.93524,"reserved":0,"last_update":"0001-01-01T00:00:00Z","name_a2s":"Uncletopia | New York City | 4 | Community","protocol":17,"map":"pl_borneo","folder":"tf","game":"Team Fortress","app_id":440,"player_count":0,"max_players":24,"Bots":0,"server_type":"Dedicated","server_os":"Linux","password":true,"vac":true,"version":"7757534","steam_id":85568392924742821,"keywords":["nocrits","nodmgspread","payload","uncletopia"],"game_id":440,"stv_port":27046,"stv_name":"Uncletopia | New York City | 4 | Community | STV","players":null},{"server_id":142,"name":"Uncletopia | São Paulo | 1 | All Maps","name_short":"sao-1","host":"sao-1.br.uncletopia.com","port":27015,"enabled":true,"region":"sa","cc":"br","latitude":-23.533773,"longitude":-46.62529,"reserved":0,"last_update":"0001-01-01T00:00:00Z","name_a2s":"Uncletopia | São Paulo | 1 | All Maps","protocol":17,"map":"pl_snowycoast","folder":"tf","game":"Team Fortress","app_id":440,"player_count":0,"max_players":24,"Bots":0,"server_type":"Dedicated","server_os":"Linux","password":true,"vac":true,"version":"7757534","steam_id":85568392924469996,"keywords":["nocrits","nodmgspread","payload","uncletopia"],"game_id":440,"stv_port":27016,"stv_name":"Uncletopia | São Paulo | 1 | All Maps | STV","players":null},{"server_id":143,"name":"Uncletopia | São Paulo | 2 | All Maps","name_short":"sao-2","host":"sao-2.br.uncletopia.com","port":27015,"enabled":true,"region":"sa","cc":"br","latitude":-23.533773,"longitude":-46.62529,"reserved":0,"last_update":"0001-01-01T00:00:00Z","name_a2s":"Uncletopia | São Paulo | 2 | All Maps","protocol":17,"map":"pl_borneo","folder":"tf","game":"Team Fortress","app_id":440,"player_count":2,"max_players":24,"Bots":0,"server_type":"Dedicated","server_os":"Linux","password":true,"vac":true,"version":"7757534","steam_id":85568392924485349,"keywords":["nocrits","nodmgspread","payload","uncletopia"],"game_id":440,"stv_port":27016,"stv_name":"Uncletopia | São Paulo | 2 | All Maps | STV","players":[{"user_id":5,"name":"gordão foguetes","steam_id":76561198104055990,"connected_time":137000000000,"state":"active","ping":46},{"user_id":7,"name":"Peste negra \u003c3","steam_id":76561198406538802,"connected_time":94000000000,"state":"active","ping":59}]},{"server_id":7,"name":"Uncletopia | Seattle | 1 | All Maps","name_short":"sea-1","host":"sea-1.us.uncletopia.com","port":27015,"enabled":true,"region":"us-west","cc":"us","latitude":47.608013,"longitude":-122.33517,"reserved":0,"last_update":"0001-01-01T00:00:00Z","name_a2s":"Uncletopia | Seattle | 1 | All Maps","protocol":17,"map":"pl_pier","folder":"tf","game":"Team Fortress","app_id":440,"player_count":0,"max_players":24,"Bots":0,"server_type":"Dedicated","server_os":"Linux","password":true,"vac":true,"version":"7757534","steam_id":85568392924469997,"keywords":["nocrits","nodmgspread","payload","uncletopia"],"game_id":440,"stv_port":27016,"stv_name":"Uncletopia | Seattle | 1 | All Maps | STV","players":null},{"server_id":119,"name":"Uncletopia | Seattle | 2 | All Maps","name_short":"sea-2","host":"sea-1.us.uncletopia.com","port":27025,"enabled":true,"region":"us-west","cc":"us","latitude":47.608013,"longitude":-122.33517,"reserved":0,"last_update":"0001-01-01T00:00:00Z","name_a2s":"Uncletopia | Seattle | 2 | All Maps","protocol":17,"map":"koth_cascade","folder":"tf","game":"Team Fortress","app_id":440,"player_count":18,"max_players":24,"Bots":0,"server_type":"Dedicated","server_os":"Linux","password":true,"vac":true,"version":"7757534","steam_id":85568392924469998,"keywords":["cp","nocrits","nodmgspread","uncletopia"],"game_id":440,"stv_port":27026,"stv_name":"Uncletopia | Seattle | 2 | All Maps | STV","players":[{"user_id":6,"name":"volta","steam_id":76561199214283884,"connected_time":803000000000,"state":"active","ping":149},{"user_id":7,"name":"Lightatex","steam_id":76561199068097196,"connected_time":782000000000,"state":"active","ping":102},{"user_id":14,"name":"{907}DarkestFury","steam_id":76561198103662458,"connected_time":350000000000,"state":"active","ping":71},{"user_id":9,"name":"Lazy","steam_id":76561198802747832,"connected_time":485000000000,"state":"active","ping":56},{"user_id":10,"name":"laszlo","steam_id":76561198141198352,"connected_time":481000000000,"state":"active","ping":92},{"user_id":11,"name":"so-and-so","steam_id":76561198325306660,"connected_time":436000000000,"state":"active","ping":50},{"user_id":12,"name":"Stanley'sSuperSauce","steam_id":76561198057946400,"connected_time":414000000000,"state":"active","ping":89},{"user_id":13,"name":"Ulrich Stern","steam_id":76561198101739682,"connected_time":372000000000,"state":"active","ping":121},{"user_id":15,"name":"Socialist Warrior","steam_id":76561198085664421,"connected_time":335000000000,"state":"active","ping":106},{"user_id":19,"name":"Fraggerman222.02","steam_id":76561198091855057,"connected_time":185000000000,"state":"active","ping":124},{"user_id":17,"name":"DG","steam_id":76561198013844170,"connected_time":249000000000,"state":"active","ping":119},{"user_id":18,"name":"Dusk (little)","steam_id":76561198088681558,"connected_time":240000000000,"state":"active","ping":45},{"user_id":20,"name":"Grongus","steam_id":76561198871090340,"connected_time":182000000000,"state":"active","ping":138},{"user_id":21,"name":"TheKeronianGamer","steam_id":76561198062405391,"connected_time":168000000000,"state":"active","ping":88},{"user_id":22,"name":"Oscillating Fan","steam_id":76561198043936719,"connected_time":128000000000,"state":"active","ping":68},{"user_id":26,"name":"1000 Ping","steam_id":76561198098330939,"connected_time":29000000000,"state":"active","ping":102},{"user_id":24,"name":"Literally a Trans Woman","steam_id":76561198054639925,"connected_time":115000000000,"state":"active","ping":110},{"user_id":25,"name":"uzr","steam_id":76561198799343084,"connected_time":92000000000,"state":"active","ping":79}]},{"server_id":406,"name":"Uncletopia | Seattle | 3 | Stopwatch Beta","name_short":"sea-3","host":"sea-1.us.uncletopia.com","port":27035,"enabled":true,"region":"us-west","cc":"us","latitude":47.608013,"longitude":-122.33517,"reserved":0,"last_update":"0001-01-01T00:00:00Z","name_a2s":"Uncletopia | Seattle | 3 | Stopwatch Beta","protocol":17,"map":"pl_barnblitz","folder":"tf","game":"Team Fortress","app_id":440,"player_count":0,"max_players":24,"Bots":0,"server_type":"Dedicated","server_os":"Linux","password":true,"vac":true,"version":"7757534","steam_id":85568392924515217,"keywords":["nocrits","nodmgspread","payload","uncletopia"],"game_id":440,"stv_port":27036,"stv_name":"Uncletopia | Seattle | 3 | Stopwatch Beta | STV","players":null},{"server_id":17,"name":"Uncletopia | San Francisco | 1 | All Maps","name_short":"sfo-1","host":"sfo-1.us.uncletopia.com","port":27015,"enabled":true,"region":"us-west","cc":"us","latitude":37.77397,"longitude":-122.4313,"reserved":0,"last_update":"0001-01-01T00:00:00Z","name_a2s":"Uncletopia | San Francisco | 1 | All Maps","protocol":17,"map":"cp_process_final","folder":"tf","game":"Team Fortress","app_id":440,"player_count":0,"max_players":24,"Bots":0,"server_type":"Dedicated","server_os":"Linux","password":true,"vac":true,"version":"7757534","steam_id":85568392924469999,"keywords":["cp","nocrits","nodmgspread","uncletopia"],"game_id":440,"stv_port":27016,"stv_name":"Uncletopia | San Francisco | 1 | All Maps | STV","players":null},{"server_id":18,"name":"Uncletopia | San Francisco | 2 | All Maps","name_short":"sfo-2","host":"sfo-1.us.uncletopia.com","port":27025,"enabled":true,"region":"us-west","cc":"us","latitude":37.77397,"longitude":-122.4313,"reserved":0,"last_update":"0001-01-01T00:00:00Z","name_a2s":"Uncletopia | San Francisco | 2 | All Maps","protocol":17,"map":"cp_sunshine","folder":"tf","game":"Team Fortress","app_id":440,"player_count":0,"max_players":24,"Bots":0,"server_type":"Dedicated","server_os":"Linux","password":true,"vac":true,"version":"7757534","steam_id":85568392924470000,"keywords":["cp","nocrits","nodmgspread","uncletopia"],"game_id":440,"stv_port":27026,"stv_name":"Uncletopia | San Francisco | 2 | All Maps | STV","players":null},{"server_id":19,"name":"Uncletopia | San Francisco | 3 | Stopwatch Beta","name_short":"sfo-3","host":"sfo-1.us.uncletopia.com","port":27035,"enabled":true,"region":"us-west","cc":"us","latitude":37.77397,"longitude":-122.4313,"reserved":0,"last_update":"0001-01-01T00:00:00Z","name_a2s":"Uncletopia | San Francisco | 3 | Stopwatch Beta","protocol":17,"map":"pl_borneo","folder":"tf","game":"Team Fortress","app_id":440,"player_count":0,"max_players":24,"Bots":0,"server_type":"Dedicated","server_os":"Linux","password":true,"vac":true,"version":"7757534","steam_id":85568392924742824,"keywords":["nocrits","nodmgspread","payload","uncletopia"],"game_id":440,"stv_port":27036,"stv_name":"Uncletopia | San Francisco | 3 | Stopwatch Beta | STV","players":null},{"server_id":20,"name":"Uncletopia | San Francisco | 4 | Community","name_short":"sfo-4","host":"sfo-1.us.uncletopia.com","port":27045,"enabled":true,"region":"us-west","cc":"us","latitude":37.77397,"longitude":-122.4313,"reserved":0,"last_update":"0001-01-01T00:00:00Z","name_a2s":"Uncletopia | San Francisco | 4 | Community","protocol":17,"map":"koth_highpass","folder":"tf","game":"Team Fortress","app_id":440,"player_count":0,"max_players":24,"Bots":0,"server_type":"Dedicated","server_os":"Linux","password":true,"vac":true,"version":"7757534","steam_id":85568392924742826,"keywords":["cp","nocrits","nodmgspread","uncletopia"],"game_id":440,"stv_port":27046,"stv_name":"Uncletopia | San Francisco | 4 | Community | STV","players":null},{"server_id":141,"name":"Uncletopia | Sydney | 1 | All Maps","name_short":"syd-1","host":"syd-1.au.uncletopia.com","port":27015,"enabled":true,"region":"au","cc":"au","latitude":-33.865143,"longitude":151.2099,"reserved":0,"last_update":"0001-01-01T00:00:00Z","name_a2s":"Uncletopia | Sydney | 1 | All Maps","protocol":17,"map":"koth_highpass","folder":"tf","game":"Team Fortress","app_id":440,"player_count":0,"max_players":24,"Bots":0,"server_type":"Dedicated","server_os":"Linux","password":true,"vac":true,"version":"7757534","steam_id":85568392924470001,"keywords":["cp","nocrits","nodmgspread","uncletopia"],"game_id":440,"stv_port":27016,"stv_name":"Uncletopia | Sydney | 1 | All Maps | STV","players":null},{"server_id":123,"name":"Uncletopia | Sydney | 2 | All Maps","name_short":"syd-2","host":"syd-1.au.uncletopia.com","port":27025,"enabled":true,"region":"au","cc":"au","latitude":-33.865143,"longitude":151.2099,"reserved":0,"last_update":"0001-01-01T00:00:00Z","name_a2s":"Uncletopia | Sydney | 2 | All Maps","protocol":17,"map":"koth_lakeside_final","folder":"tf","game":"Team Fortress","app_id":440,"player_count":0,"max_players":24,"Bots":0,"server_type":"Dedicated","server_os":"Linux","password":true,"vac":true,"version":"7757534","steam_id":85568392924470002,"keywords":["cp","nocrits","nodmgspread","uncletopia"],"game_id":440,"stv_port":27026,"stv_name":"Uncletopia | Sydney | 2 | All Maps | STV","players":null},{"server_id":395,"name":"Uncletopia | Sydney | 3 | All Maps","name_short":"syd-3","host":"syd-1.au.uncletopia.com","port":27035,"enabled":true,"region":"au","cc":"au","latitude":-33.865143,"longitude":151.2099,"reserved":0,"last_update":"0001-01-01T00:00:00Z","name_a2s":"Uncletopia | Sydney | 3 | All Maps","protocol":17,"map":"pl_badwater","folder":"tf","game":"Team Fortress","app_id":440,"player_count":0,"max_players":24,"Bots":0,"server_type":"Dedicated","server_os":"Linux","password":true,"vac":true,"version":"7757534","steam_id":85568392925194467,"keywords":["nocrits","nodmgspread","payload","uncletopia"],"game_id":440,"stv_port":27036,"stv_name":"Uncletopia | Sydney | 3 | All Maps | STV","players":null},{"server_id":396,"name":"Uncletopia | Sydney | 4 | All Maps","name_short":"syd-4","host":"syd-1.au.uncletopia.com","port":27045,"enabled":true,"region":"au","cc":"au","latitude":-33.865143,"longitude":151.2099,"reserved":0,"last_update":"0001-01-01T00:00:00Z","name_a2s":"Uncletopia | Sydney | 4 | All Maps","protocol":17,"map":"koth_lakeside_final","folder":"tf","game":"Team Fortress","app_id":440,"player_count":0,"max_players":24,"Bots":0,"server_type":"Dedicated","server_os":"Linux","password":true,"vac":true,"version":"7757534","steam_id":85568392925397958,"keywords":["cp","nocrits","nodmgspread","uncletopia"],"game_id":440,"stv_port":27046,"stv_name":"Uncletopia | Sydney | 4 | All Maps | STV","players":null},{"server_id":58,"name":"Uncletopia | Sydney | 5 | Stopwatch Beta","name_short":"syd-5","host":"syd-1.au.uncletopia.com","port":27055,"enabled":true,"region":"au","cc":"au","latitude":-33.865143,"longitude":151.2099,"reserved":0,"last_update":"0001-01-01T00:00:00Z","name_a2s":"Uncletopia | Sydney | 5 | Stopwatch Beta","protocol":17,"map":"koth_lakeside_final","folder":"tf","game":"Team Fortress","app_id":440,"player_count":0,"max_players":24,"Bots":0,"server_type":"Dedicated","server_os":"Linux","password":true,"vac":true,"version":"7757534","steam_id":85568392925397959,"keywords":["cp","nocrits","nodmgspread","uncletopia"],"game_id":440,"stv_port":27056,"stv_name":"Uncletopia | Sydney | 5 | Stopwatch Beta | STV","players":null},{"server_id":59,"name":"Uncletopia | Sydney | 6 | Community","name_short":"syd-6","host":"syd-1.au.uncletopia.com","port":27065,"enabled":true,"region":"au","cc":"au","latitude":-33.865143,"longitude":151.2099,"reserved":0,"last_update":"0001-01-01T00:00:00Z","name_a2s":"Uncletopia | Sydney | 6 | Community","protocol":17,"map":"workshop/pl_badwater_pro_v12.ugc2142942074","folder":"tf","game":"Team Fortress","app_id":440,"player_count":0,"max_players":24,"Bots":0,"server_type":"Dedicated","server_os":"Linux","password":true,"vac":true,"version":"7757534","steam_id":85568392925397960,"keywords":["nocrits","nodmgspread","payload","uncletopia"],"game_id":440,"stv_port":27066,"stv_name":"Uncletopia | Sydney | 6 | Community | STV","players":null},{"server_id":49,"name":"Uncletopia | Warsaw | 1 | All Maps","name_short":"waw-1","host":"waw-1.pl.uncletopia.com","port":27015,"enabled":true,"region":"eu","cc":"pl","latitude":52.2297,"longitude":21.017532,"reserved":0,"last_update":"0001-01-01T00:00:00Z","name_a2s":"","protocol":0,"map":"","folder":"","game":"","app_id":0,"player_count":0,"max_players":0,"Bots":0,"server_type":"","server_os":"","password":false,"vac":false,"version":"","steam_id":0,"keywords":null,"game_id":0,"stv_port":0,"stv_name":"","players":null},{"server_id":50,"name":"Uncletopia | Warsaw | 2 | All Maps","name_short":"waw-2","host":"waw-1.pl.uncletopia.com","port":27025,"enabled":true,"region":"eu","cc":"pl","latitude":52.2297,"longitude":21.017532,"reserved":0,"last_update":"0001-01-01T00:00:00Z","name_a2s":"Uncletopia | Warsaw | 2 | All Maps","protocol":17,"map":"cp_sunshine","folder":"tf","game":"Team Fortress","app_id":440,"player_count":0,"max_players":24,"Bots":0,"server_type":"Dedicated","server_os":"Linux","password":true,"vac":true,"version":"7757534","steam_id":85568392925397851,"keywords":["cp","nocrits","nodmgspread","uncletopia"],"game_id":440,"stv_port":27026,"stv_name":"Uncletopia | Warsaw | 2 | All Maps | STV","players":null},{"server_id":51,"name":"Uncletopia | Warsaw | 3 | All Maps","name_short":"waw-3","host":"waw-1.pl.uncletopia.com","port":27035,"enabled":true,"region":"eu","cc":"pl","latitude":52.2297,"longitude":21.017532,"reserved":0,"last_update":"0001-01-01T00:00:00Z","name_a2s":"Uncletopia | Warsaw | 3 | All Maps","protocol":17,"map":"cp_dustbowl","folder":"tf","game":"Team Fortress","app_id":440,"player_count":0,"max_players":24,"Bots":0,"server_type":"Dedicated","server_os":"Linux","password":true,"vac":true,"version":"7757534","steam_id":85568392925397852,"keywords":["cp","nocrits","nodmgspread","uncletopia"],"game_id":440,"stv_port":27036,"stv_name":"Uncletopia | Warsaw | 3 | All Maps | STV","players":null},{"server_id":52,"name":"Uncletopia | Warsaw | 4 | All Maps","name_short":"waw-4","host":"waw-1.pl.uncletopia.com","port":27045,"enabled":true,"region":"eu","cc":"pl","latitude":52.2297,"longitude":21.017532,"reserved":0,"last_update":"0001-01-01T00:00:00Z","name_a2s":"Uncletopia | Warsaw | 4 | All Maps","protocol":17,"map":"pl_snowycoast","folder":"tf","game":"Team Fortress","app_id":440,"player_count":0,"max_players":24,"Bots":0,"server_type":"Dedicated","server_os":"Linux","password":true,"vac":true,"version":"7757534","steam_id":85568392925397853,"keywords":["nocrits","nodmgspread","payload","uncletopia"],"game_id":440,"stv_port":27046,"stv_name":"Uncletopia | Warsaw | 4 | All Maps | STV","players":null},{"server_id":53,"name":"Uncletopia | Warsaw | 5 | Stopwatch Beta","name_short":"waw-5","host":"waw-1.pl.uncletopia.com","port":27055,"enabled":true,"region":"eu","cc":"pl","latitude":52.2297,"longitude":21.017532,"reserved":0,"last_update":"0001-01-01T00:00:00Z","name_a2s":"Uncletopia | Warsaw | 5 | Stopwatch Beta","protocol":17,"map":"pl_barnblitz","folder":"tf","game":"Team Fortress","app_id":440,"player_count":0,"max_players":24,"Bots":0,"server_type":"Dedicated","server_os":"Linux","password":true,"vac":true,"version":"7757534","steam_id":85568392925397854,"keywords":["nocrits","nodmgspread","payload","uncletopia"],"game_id":440,"stv_port":27056,"stv_name":"Uncletopia | Warsaw | 5 | Stopwatch Beta | STV","players":null},{"server_id":54,"name":"Uncletopia | Warsaw | 6 | Community","name_short":"waw-6","host":"waw-1.pl.uncletopia.com","port":27065,"enabled":true,"region":"eu","cc":"pl","latitude":52.2297,"longitude":21.017532,"reserved":0,"last_update":"0001-01-01T00:00:00Z","name_a2s":"Uncletopia | Warsaw | 6 | Community","protocol":17,"map":"pl_swiftwater_final1","folder":"tf","game":"Team Fortress","app_id":440,"player_count":0,"max_players":24,"Bots":0,"server_type":"Dedicated","server_os":"Linux","password":true,"vac":true,"version":"7757534","steam_id":85568392925397856,"keywords":["nocrits","nodmgspread","payload","uncletopia"],"game_id":440,"stv_port":27066,"stv_name":"Uncletopia | Warsaw | 6 | Community | STV","players":null}]}