{"status":true,"message":"","result":[{"server_id":9,"name":"Uncletopia | Atlanta | 1 | All Maps","name_short":"atl-1","host":"atl-1.us.uncletopia.com","port":27015,"enabled":true,"region":"us-east","cc":"us","latitude":33.753746,"longitude":-84.38633,"reserved":0,"last_update":"0001-01-01T00:00:00Z","name_a2s":"Uncletopia | Atlanta | 1 | All Maps","protocol":17,"map":"koth_highpass","folder":"tf","game":"Team Fortress","app_id":440,"player_count":0,"max_players":24,"Bots":0,"server_type":"Dedicated","server_os":"Linux","password":true,"vac":true,"version":"7742253","steam_id":85568392924469982,"keywords":["cp","nocrits","nodmgspread","uncletopia"],"game_id":440,"stv_port":27016,"stv_name":"Uncletopia | Atlanta | 1 | All Maps | STV","players":null},{"server_id":400,"name":"Uncletopia | Atlanta | 3 | Stopwatch Beta","name_short":"atl-3","host":"atl-1.us.uncletopia.com","port":27035,"enabled":true,"region":"us-east","cc":"us","latitude":33.753746,"longitude":-84.38633,"reserved":0,"last_update":"0001-01-01T00:00:00Z","name_a2s":"Uncletopia | Atlanta | 3 | Stopwatch Beta","protocol":17,"map":"pl_upward","folder":"tf","game":"Team Fortress","app_id":440,"player_count":0,"max_players":24,"Bots":0,"server_type":"Dedicated","server_os":"Linux","password":true,"vac":true,"version":"7742253","steam_id":85568392924515187,"keywords":["nocrits","nodmgspread","payload","uncletopia"],"game_id":440,"stv_port":27036,"stv_name":"Uncletopia | Atlanta | 3 | Stopwatch Beta | STV","players":null},{"server_id":401,"name":"Uncletopia | Atlanta | 4 | No Payload","name_short":"atl-4","host":"atl-1.us.uncletopia.com","port":27045,"enabled":true,"region":"us-east","cc":"us","latitude":33.753746,"longitude":-84.38633,"reserved":0,"last_update":"0001-01-01T00:00:00Z","name_a2s":"Uncletopia | Atlanta | 4 | No Payload","protocol":17,"map":"pl_pier","folder":"tf","game":"Team Fortress","app_id":440,"player_count":0,"max_players":24,"Bots":0,"server_type":"Dedicated","server_os":"Linux","password":true,"vac":true,"version":"7723704","steam_id":85568392924515188,"keywords":["nocrits","nodmgspread","payload","uncletopia"],"game_id":440,"stv_port":27046,"stv_name":"Uncletopia | Atlanta | 4 | No Payload | STV","players":null},{"server_id":2,"name":"Uncletopia | Chicago | 1 | All Maps","name_short":"chi-1","host":"chi-1.us.uncletopia.com","port":27015,"enabled":true,"region":"us-central","cc":"us","latitude":41.881832,"longitude":-87.62318,"reserved":0,"last_update":"0001-01-01T00:00:00Z","name_a2s":"Uncletopia | Chicago | 1 | All Maps","protocol":17,"map":"koth_viaduct","folder":"tf","game":"Team Fortress","app_id":440,"player_count":0,"max_players":24,"Bots":0,"server_type":"Dedicated","server_os":"Linux","password":true,"vac":true,"version":"7742253","steam_id":85568392924469984,"keywords":["cp","nocrits","nodmgspread","uncletopia"],"game_id":440,"stv_port":27016,"stv_name":"Uncletopia | Chicago | 1 | All Maps | STV","players":null},{"server_id":106,"name":"Uncletopia | Chicago | 2 | All Maps","name_short":"chi-2","host":"chi-1.us.uncletopia.com","port":27025,"enabled":true,"region":"us-central","cc":"us","latitude":41.881832,"longitude":-87.62318,"reserved":0,"last_update":"0001-01-01T00:00:00Z","name_a2s":"Uncletopia | Chicago | 2 | All Maps","protocol":17,"map":"koth_cascade","folder":"tf","game":"Team Fortress","app_id":440,"player_count":0,"max_players":24,"Bots":0,"server_type":"Dedicated","server_os":"Linux","password":true,"vac":true,"version":"7742253","steam_id":85568392924469985,"keywords":["cp","nocrits","nodmgspread","uncletopia"],"game_id":440,"stv_port":27026,"stv_name":"Uncletopia | Chicago | 2 | All Maps | STV","players":null},{"server_id":402,"name":"Uncletopia | Chicago | 3 | All Maps","name_short":"chi-3","host":"chi-1.us.uncletopia.com","port":27035,"enabled":true,"region":"us-central","cc":"us","latitude":41.881832,"longitude":-87.62318,"reserved":0,"last_update":"0001-01-01T00:00:00Z","name_a2s":"Uncletopia | Chicago | 3 | All Maps","protocol":17,"map":"koth_harvest_final","folder":"tf","game":"Team Fortress","app_id":440,"player_count":1,"max_players":24,"Bots":0,"server_type":"Dedicated","server_os":"Linux","password":true,"vac":true,"version":"7742253","steam_id":85568392924515191,"keywords":["cp","nocrits","nodmgspread","uncletopia"],"game_id":440,"stv_port":27036,"stv_name":"Uncletopia | Chicago | 3 | All Maps | STV","players":[{"user_id":992,"name":"Lenny Ternil","steam_id":76561199096600266,"connected_time":73000000000,"state":"active","ping":50}]},{"server_id":403,"name":"Uncletopia | Chicago | 4 | All Maps","name_short":"chi-4","host":"chi-1.us.uncletopia.com","port":27045,"enabled":true,"region":"us-central","cc":"us","latitude":41.881832,"longitude":-87.62318,"reserved":0,"last_update":"0001-01-01T00:00:00Z","name_a2s":"Uncletopia | Chicago | 4 | All Maps","protocol":17,"map":"pl_snowycoast","folder":"tf","game":"Team Fortress","app_id":440,"player_count":23,"max_players":24,"Bots":0,"server_type":"Dedicated","server_os":"Linux","password":true,"vac":true,"version":"7742253","steam_id":85568392924515193,"keywords":["nocrits","nodmgspread","payload","uncletopia"],"game_id":440,"stv_port":27046,"stv_name":"Uncletopia | Chicago | 4 | All Maps | STV","players":[{"user_id":527,"name":"mommy hog","steam_id":76561199230929836,"connected_time":888000000000,"state":"active","ping":103},{"user_id":507,"name":"Red","steam_id":76561197998285162,"connected_time":2598000000000,"state":"active","ping":88},{"user_id":497,"name":"vedett","steam_id":76561198055433423,"connected_time":4105000000000,"state":"active","ping":101},{"user_id":529,"name":"Antwan","steam_id":76561198246200638,"connected_time":779000000000,"state":"active","ping":64},{"user_id":499,"name":"Scorpie Doodle","steam_id":76561198021845763,"connected_time":3840000000000,"state":"active","ping":53},{"user_id":504,"name":"zilly „ÉÑ","steam_id":76561198043873119,"connected_time":3287000000000,"state":"active","ping":54},{"user_id":526,"name":"Mythius","steam_id":76561198401392472,"connected_time":1001000000000,"state":"active","ping":82},{"user_id":521,"name":"Ifrit","steam_id":76561198044730782,"connected_time":1740000000000,"state":"active","ping":90},{"user_id":536,"name":"Doober","steam_id":76561198056661095,"connected_time":279000000000,"state":"active","ping":72},{"user_id":467,"name":"More yellow $keez","steam_id":76561198074956732,"connected_time":6052000000000,"state":"active","ping":134},{"user_id":415,"name":"NovaSc6ut","steam_id":76561198277163301,"connected_time":10798000000000,"state":"active","ping":81},{"user_id":531,"name":"Sex Luthor \u0026 the Legion of Poon","steam_id":76561198043246437,"connected_time":771000000000,"state":"active","ping":66},{"user_id":513,"name":"SpiderString","steam_id":76561198092409181,"connected_time":1961000000000,"state":"active","ping":94},{"user_id":522,"name":"Uncle enginer two.","steam_id":76561199363949613,"connected_time":1613000000000,"state":"active","ping":153},{"user_id":523,"name":"Intro Bonito","steam_id":76561198119478838,"connected_time":1601000000000,"state":"active","ping":75},{"user_id":532,"name":"PAdrian2009","steam_id":76561198413058571,"connected_time":762000000000,"state":"active","ping":168},{"user_id":525,"name":"Xylemon","steam_id":76561197965297420,"connected_time":1342000000000,"state":"active","ping":108},{"user_id":496,"name":"Gamut","steam_id":76561199185822800,"connected_time":4136000000000,"state":"active","ping":73},{"user_id":435,"name":"Brown $keez","steam_id":76561198053621664,"connected_time":9188000000000,"state":"active","ping":59},{"user_id":498,"name":"Yellow $keez","steam_id":76561198049461668,"connected_time":4105000000000,"state":"active","ping":45},{"user_id":535,"name":"tuturu üéµ","steam_id":76561198093687851,"connected_time":429000000000,"state":"active","ping":94},{"user_id":517,"name":"The Great Eagle Scourge of 1822","steam_id":76561198325086209,"connected_time":1888000000000,"state":"active","ping":108},{"user_id":437,"name":"MR. MODE","steam_id":76561198046775352,"connected_time":9118000000000,"state":"active","ping":97}]},{"server_id":36,"name":"Uncletopia | Chicago | 5 | All Maps","name_short":"chi-5","host":"chi-2.us.uncletopia.com","port":27015,"enabled":true,"region":"us-central","cc":"us","latitude":41.881832,"longitude":-87.62318,"reserved":0,"last_update":"0001-01-01T00:00:00Z","name_a2s":"Uncletopia | Chicago | 5 | All Maps","protocol":17,"map":"koth_highpass","folder":"tf","game":"Team Fortress","app_id":440,"player_count":0,"max_players":24,"Bots":0,"server_type":"Dedicated","server_os":"Linux","password":true,"vac":true,"version":"7742253","steam_id":85568392924866362,"keywords":["cp","nocrits","nodmgspread","uncletopia"],"game_id":440,"stv_port":27016,"stv_name":"Uncletopia | Chicago | 5 | All Maps | STV","players":null},{"server_id":37,"name":"Uncletopia | Chicago | 6 | All Maps","name_short":"chi-6","host":"chi-2.us.uncletopia.com","port":27025,"enabled":true,"region":"us-central","cc":"us","latitude":41.881832,"longitude":-87.62318,"reserved":0,"last_update":"0001-01-01T00:00:00Z","name_a2s":"Uncletopia | Chicago | 6 | All Maps","protocol":17,"map":"koth_cascade","folder":"tf","game":"Team Fortress","app_id":440,"player_count":0,"max_players":24,"Bots":0,"server_type":"Dedicated","server_os":"Linux","password":true,"vac":true,"version":"7742253","steam_id":85568392924866363,"keywords":["cp","nocrits","nodmgspread","uncletopia"],"game_id":440,"stv_port":27026,"stv_name":"Uncletopia | Chicago | 6 | All Maps | STV","players":null},{"server_id":38,"name":"Uncletopia | Chicago | 7 | Stopwatch Beta","name_short":"chi-7","host":"chi-2.us.uncletopia.com","port":27035,"enabled":true,"region":"us-central","cc":"us","latitude":41.881832,"longitude":-87.62318,"reserved":0,"last_update":"0001-01-01T00:00:00Z","name_a2s":"Uncletopia | Chicago | 7 | Stopwatch Beta","protocol":17,"map":"cp_altitude","folder":"tf","game":"Team Fortress","app_id":440,"player_count":0,"max_players":24,"Bots":0,"server_type":"Dedicated","server_os":"Linux","password":true,"vac":true,"version":"7742253","steam_id":85568392924866364,"keywords":["cp","nocrits","nodmgspread","uncletopia"],"game_id":440,"stv_port":27036,"stv_name":"Uncletopia | Chicago | 7 | Stopwatch Beta | STV","players":null},{"server_id":39,"name":"Uncletopia | Chicago | 8 | Community","name_short":"chi-8","host":"chi-2.us.uncletopia.com","port":27045,"enabled":true,"region":"us-central","cc":"us","latitude":41.881832,"longitude":-87.62318,"reserved":0,"last_update":"0001-01-01T00:00:00Z","name_a2s":"Uncletopia | Chicago | 8 | Community","protocol":17,"map":"workshop/koth_product_final.ugc454272353","folder":"tf","game":"Team Fortress","app_id":440,"player_count":0,"max_players":24,"Bots":0,"server_type":"Dedicated","server_os":"Linux","password":true,"vac":true,"version":"7742253","steam_id":85568392924866365,"keywords":["cp","nocrits","nodmgspread","uncletopia"],"game_id":440,"stv_port":27046,"stv_name":"Uncletopia | Chicago | 8 | Community | STV","players":null},{"server_id":8,"name":"Uncletopia | Dallas | 1 | All Maps","name_short":"dal-1","host":"dal-1.us.uncletopia.com","port":27015,"enabled":true,"region":"us-central","cc":"us","latitude":32.779167,"longitude":-96.80889,"reserved":0,"last_update":"0001-01-01T00:00:00Z","name_a2s":"Uncletopia | Dallas | 1 | All Maps","protocol":17,"map":"koth_highpass","folder":"tf","game":"Team Fortress","app_id":440,"player_count":0,"max_players":24,"Bots":0,"server_type":"Dedicated","server_os":"Linux","password":true,"vac":true,"version":"7742253","steam_id":85568392924469986,"keywords":["cp","nocrits","nodmgspread","uncletopia"],"game_id":440,"stv_port":27016,"stv_name":"Uncletopia | Dallas | 1 | All Maps | STV","players":null},{"server_id":108,"name":"Uncletopia | Dallas | 2 | All Maps","name_short":"dal-2","host":"dal-1.us.uncletopia.com","port":27025,"enabled":true,"region":"us-central","cc":"us","latitude":32.779167,"longitude":-96.80889,"reserved":0,"last_update":"0001-01-01T00:00:00Z","name_a2s":"Uncletopia | Dallas | 2 | All Maps","protocol":17,"map":"pl_borneo","folder":"tf","game":"Team Fortress","app_id":440,"player_count":0,"max_players":24,"Bots":0,"server_type":"Dedicated","server_os":"Linux","password":true,"vac":true,"version":"7742253","steam_id":85568392924469988,"keywords":["nocrits","nodmgspread","payload","uncletopia"],"game_id":440,"stv_port":27026,"stv_name":"Uncletopia | Dallas | 2 | All Maps | STV","players":null},{"server_id":5,"name":"Uncletopia | Frankfurt | 1 | All Maps","name_short":"frk-1","host":"frk-1.de.uncletopia.com","port":27015,"enabled":true,"region":"eu","cc":"de","latitude":50.110924,"longitude":8.682127,"reserved":0,"last_update":"0001-01-01T00:00:00Z","name_a2s":"Uncletopia | Frankfurt | 1 | All Maps","protocol":17,"map":"koth_highpass","folder":"tf","game":"Team Fortress","app_id":440,"player_count":0,"max_players":24,"Bots":0,"server_type":"Dedicated","server_os":"Linux","password":true,"vac":true,"version":"7742253","steam_id":85568392924469989,"keywords":["cp","nocrits","nodmgspread","uncletopia"],"game_id":440,"stv_port":27016,"stv_name":"Uncletopia | Frankfurt | 1 | All Maps | STV","players":null},{"server_id":110,"name":"Uncletopia | Frankfurt | 2 | All Maps","name_short":"frk-2","host":"frk-1.de.uncletopia.com","port":27025,"enabled":true,"region":"eu","cc":"de","latitude":50.110924,"longitude":8.682127,"reserved":0,"last_update":"0001-01-01T00:00:00Z","name_a2s":"Uncletopia | Frankfurt | 2 | All Maps","protocol":17,"map":"cp_steel","folder":"tf","game":"Team Fortress","app_id":440,"player_count":24,"max_players":24,"Bots":0,"server_type":"Dedicated","server_os":"Linux","password":true,"vac":true,"version":"7742253","steam_id":85568392924469990,"keywords":["cp","nocrits","nodmgspread","uncletopia"],"game_id":440,"stv_port":27026,"stv_name":"Uncletopia | Frankfurt | 2 | All Maps | STV","players":[{"user_id":167,"name":"certified hood classic","steam_id":76561198991661832,"connected_time":185000000000,"state":"active","ping":63},{"user_id":138,"name":"Liba","steam_id":76561198118006754,"connected_time":2400000000000,"state":"active","ping":67},{"user_id":127,"name":"zaza","steam_id":76561198890409949,"connected_time":3642000000000,"state":"active","ping":103},{"user_id":160,"name":"semi-homeless polish alcoholic","steam_id":76561199433578516,"connected_time":668000000000,"state":"active","ping":75},{"user_id":130,"name":"Koli","steam_id":76561197992428783,"connected_time":3390000000000,"state":"active","ping":54},{"user_id":172,"name":"stinkyeseses","steam_id":76561198402218127,"connected_time":0,"state":"spawning","ping":56},{"user_id":164,"name":"The all seeing four eye","steam_id":76561198372971096,"connected_time":231000000000,"state":"active","ping":75},{"user_id":149,"name":"PhantomStriker","steam_id":76561199116689935,"connected_time":1508000000000,"state":"active","ping":60},{"user_id":150,"name":"Toothpaste Milkshake","steam_id":76561198982674420,"connected_time":1460000000000,"state":"active","ping":47},{"user_id":158,"name":"you're pretty good","steam_id":76561198378235611,"connected_time":801000000000,"state":"active","ping":65},{"user_id":100,"name":"sway","steam_id":76561199031840977,"connected_time":6891000000000,"state":"active","ping":99},{"user_id":165,"name":"Frog","steam_id":76561198043981067,"connected_time":211000000000,"state":"active","ping":61},{"user_id":163,"name":"Avoonix","steam_id":76561198186954897,"connected_time":291000000000,"state":"active","ping":58},{"user_id":156,"name":"disturbing polish father","steam_id":76561198126398022,"connected_time":879000000000,"state":"active","ping":73},{"user_id":166,"name":"Joff-tchoff-tchoffo-tchoffo-tch","steam_id":76561198044167743,"connected_time":200000000000,"state":"active","ping":87},{"user_id":101,"name":"Mike Doe","steam_id":76561198331251922,"connected_time":6735000000000,"state":"active","ping":60},{"user_id":124,"name":"pathetic polish fat man","steam_id":76561198062107879,"connected_time":3862000000000,"state":"active","ping":71},{"user_id":168,"name":"Klik","steam_id":76561198891046692,"connected_time":171000000000,"state":"active","ping":75},{"user_id":154,"name":"Lukas","steam_id":76561198009118452,"connected_time":965000000000,"state":"active","ping":52},{"user_id":169,"name":"AviSheepie","steam_id":76561198154361272,"connected_time":164000000000,"state":"active","ping":99},{"user_id":171,"name":"St_dark","steam_id":76561199101198710,"connected_time":61000000000,"state":"active","ping":62},{"user_id":153,"name":"LesaP√°n","steam_id":76561198158691758,"connected_time":1203000000000,"state":"active","ping":84},{"user_id":157,"name":"Insain Bolt!","steam_id":76561198025687726,"connected_time":844000000000,"state":"active","ping":65}]},{"server_id":308,"name":"Uncletopia | Frankfurt | 3 | All Maps","name_short":"frk-3","host":"frk-1.de.uncletopia.com","port":27035,"enabled":true,"region":"eu","cc":"de","latitude":50.110924,"longitude":8.682127,"reserved":0,"last_update":"0001-01-01T00:00:00Z","name_a2s":"Uncletopia | Frankfurt | 3 | All Maps","protocol":17,"map":"pl_swiftwater_final1","folder":"tf","game":"Team Fortress","app_id":440,"player_count":24,"max_players":24,"Bots":0,"server_type":"Dedicated","server_os":"Linux","password":true,"vac":true,"version":"7742253","steam_id":85568392924504274,"keywords":["nocrits","nodmgspread","payload","uncletopia"],"game_id":440,"stv_port":27036,"stv_name":"Uncletopia | Frankfurt | 3 | All Maps | STV","players":[{"user_id":28,"name":"Rcki","steam_id":76561198164291462,"connected_time":4192000000000,"state":"active","ping":86},{"user_id":72,"name":"MtnDew","steam_id":76561199100059743,"connected_time":1336000000000,"state":"active","ping":104},{"user_id":29,"name":"?","steam_id":76561199114927025,"connected_time":4175000000000,"state":"active","ping":100},{"user_id":58,"name":"tealoverr.190","steam_id":76561199028497703,"connected_time":2603000000000,"state":"active","ping":101},{"user_id":66,"name":"Taipan66","steam_id":76561198154094423,"connected_time":1631000000000,"state":"active","ping":77},{"user_id":56,"name":"tristan","steam_id":76561198096097448,"connected_time":2679000000000,"state":"active","ping":56},{"user_id":92,"name":"Moebius","steam_id":76561198045069988,"connected_time":60000000000,"state":"active","ping":56},{"user_id":79,"name":"Virgil","steam_id":76561198248786778,"connected_time":1088000000000,"state":"active","ping":114},{"user_id":86,"name":"r4ngerr","steam_id":76561198111721072,"connected_time":676000000000,"state":"active","ping":95},{"user_id":53,"name":"5 noches con alfredo","steam_id":76561198420349969,"connected_time":2865000000000,"state":"active","ping":90},{"user_id":88,"name":"yeldad","steam_id":76561198447264153,"connected_time":604000000000,"state":"active","ping":125},{"user_id":60,"name":"casual zyzz praiser","steam_id":76561198022382969,"connected_time":2482000000000,"state":"active","ping":77},{"user_id":77,"name":"An unnecessary Jojo reference","steam_id":76561198121764825,"connected_time":1158000000000,"state":"active","ping":55},{"user_id":61,"name":"average ultiduo medic","steam_id":76561198103285012,"connected_time":2350000000000,"state":"active","ping":54},{"user_id":76,"name":"ek1n","steam_id":76561198076219289,"connected_time":1201000000000,"state":"active","ping":52},{"user_id":81,"name":"Lessoz","steam_id":76561199211572036,"connected_time":890000000000,"state":"active","ping":93},{"user_id":84,"name":"Elon","steam_id":76561198140751130,"connected_time":709000000000,"state":"active","ping":60},{"user_id":78,"name":"Jin","steam_id":76561198248878364,"connected_time":1143000000000,"state":"active","ping":47},{"user_id":80,"name":"Walsingham","steam_id":76561198022244457,"connected_time":986000000000,"state":"active","ping":76},{"user_id":89,"name":"am gon kill","steam_id":76561198842238362,"connected_time":577000000000,"state":"active","ping":87},{"user_id":90,"name":"Duda","steam_id":76561198306177608,"connected_time":543000000000,"state":"active","ping":100},{"user_id":91,"name":"jaime8D","steam_id":76561197980590671,"connected_time":188000000000,"state":"active","ping":80},{"user_id":93,"name":"vojta","steam_id":76561198014138033,"connected_time":38000000000,"state":"active","ping":50},{"user_id":70,"name":"lanzer","steam_id":76561198049983016,"connected_time":1452000000000,"state":"active","ping":100}]},{"server_id":309,"name":"Uncletopia | Frankfurt | 4 | All Maps","name_short":"frk-4","host":"frk-1.de.uncletopia.com","port":27045,"enabled":true,"region":"eu","cc":"de","latitude":50.110924,"longitude":8.682127,"reserved":0,"last_update":"0001-01-01T00:00:00Z","name_a2s":"Uncletopia | Frankfurt | 4 | All Maps","protocol":17,"map":"pl_frontier_final","folder":"tf","game":"Team Fortress","app_id":440,"player_count":0,"max_players":24,"Bots":0,"server_type":"Dedicated","server_os":"Linux","password":true,"vac":true,"version":"7742253","steam_id":85568392924504275,"keywords":["nocrits","nodmgspread","payload","uncletopia"],"game_id":440,"stv_port":27046,"stv_name":"Uncletopia | Frankfurt | 4 | All Maps | STV","players":null},{"server_id":310,"name":"Uncletopia | Frankfurt | 5 | All Maps","name_short":"frk-5","host":"frk-1.de.uncletopia.com","port":27055,"enabled":true,"region":"eu","cc":"de","latitude":50.110924,"longitude":8.682127,"reserved":0,"last_update":"0001-01-01T00:00:00Z","name_a2s":"Uncletopia | Frankfurt | 5 | All Maps","protocol":17,"map":"cp_sunshine","folder":"tf","game":"Team Fortress","app_id":440,"player_count":0,"max_players":24,"Bots":0,"server_type":"Dedicated","server_os":"Linux","password":true,"vac":true,"version":"7742253","steam_id":85568392924504277,"keywords":["cp","nocrits","nodmgspread","uncletopia"],"game_id":440,"stv_port":27056,"stv_name":"Uncletopia | Frankfurt | 5 | All Maps | STV","players":null},{"server_id":311,"name":"Uncletopia | Frankfurt | 6 | All Maps","name_short":"frk-6","host":"frk-1.de.uncletopia.com","port":27065,"enabled":true,"region":"eu","cc":"de","latitude":50.110924,"longitude":8.682127,"reserved":0,"last_update":"0001-01-01T00:00:00Z","name_a2s":"Uncletopia | Frankfurt | 6 | All Maps","protocol":17,"map":"pl_barnblitz","folder":"tf","game":"Team Fortress","app_id":440,"player_count":0,"max_players":24,"Bots":0,"server_type":"Dedicated","server_os":"Linux","password":true,"vac":true,"version":"7742253","steam_id":85568392924504278,"keywords":["nocrits","nodmgspread","payload","uncletopia"],"game_id":440,"stv_port":27066,"stv_name":"Uncletopia | Frankfurt | 6 | All Maps | STV","players":null},{"server_id":23,"name":"Uncletopia | Frankfurt | 7 | Stopwatch Beta","name_short":"frk-7","host":"frk-1.de.uncletopia.com","port":27075,"enabled":true,"region":"eu","cc":"de","latitude":50.110924,"longitude":8.682127,"reserved":0,"last_update":"0001-01-01T00:00:00Z","name_a2s":"Uncletopia | Frankfurt | 7 | Stopwatch Beta","protocol":17,"map":"workshop/koth_ramjam_v2_b2.ugc2865676487","folder":"tf","game":"Team Fortress","app_id":440,"player_count":0,"max_players":24,"Bots":0,"server_type":"Dedicated","server_os":"Linux","password":true,"vac":true,"version":"7742253","steam_id":85568392924742827,"keywords":["cp","nocrits","nodmgspread","uncletopia"],"game_id":440,"stv_port":27076,"stv_name":"Uncletopia | Frankfurt | 7 | Stopwatch Beta | STV","players":null},{"server_id":24,"name":"Uncletopia | Frankfurt | 8 | Community","name_short":"frk-8","host":"frk-1.de.uncletopia.com","port":27085,"enabled":true,"region":"eu","cc":"de","latitude":50.110924,"longitude":8.682127,"reserved":0,"last_update":"0001-01-01T00:00:00Z","name_a2s":"Uncletopia | Frankfurt | 8 | Community","protocol":17,"map":"pl_pier","folder":"tf","game":"Team Fortress","app_id":440,"player_count":0,"max_players":24,"Bots":0,"server_type":"Dedicated","server_os":"Linux","password":true,"vac":true,"version":"7742253","steam_id":85568392924742828,"keywords":["nocrits","nodmgspread","payload","uncletopia"],"game_id":440,"stv_port":27086,"stv_name":"Uncletopia | Frankfurt | 8 | Community | STV","players":null},{"server_id":202,"name":"Uncletopia | Hong Kong | 1 | All Maps","name_short":"hgk-1","host":"hgk-1.hk.uncletopia.com","port":27015,"enabled":true,"region":"asia","cc":"hk","latitude":22.302711,"longitude":114.177216,"reserved":0,"last_update":"0001-01-01T00:00:00Z","name_a2s":"Uncletopia | Hong Kong | 1 | All Maps","protocol":17,"map":"pl_pier","folder":"tf","game":"Team Fortress","app_id":440,"player_count":24,"max_players":24,"Bots":0,"server_type":"Dedicated","server_os":"Linux","password":true,"vac":true,"version":"7742253","steam_id":85568392924494504,"keywords":["nocrits","nodmgspread","payload","uncletopia"],"game_id":440,"stv_port":27016,"stv_name":"Uncletopia | Hong Kong | 1 | All Maps | STV","players":[{"user_id":364,"name":"Kyo","steam_id":76561198088550274,"connected_time":1194000000000,"state":"active","ping":40},{"user_id":348,"name":"Puddin","steam_id":76561198140052918,"connected_time":2864000000000,"state":"active","ping":90},{"user_id":338,"name":"Ëá¥ÂëΩÂÜ≤Âáª","steam_id":76561199182753352,"connected_time":3485000000000,"state":"active","ping":107},{"user_id":363,"name":"momosneakeradventure","steam_id":76561199046440440,"connected_time":1207000000000,"state":"active","ping":43},{"user_id":327,"name":"Wx","steam_id":76561199217780897,"connected_time":5102000000000,"state":"active","ping":67},{"user_id":357,"name":"Mimosa Samosa","steam_id":76561198435782222,"connected_time":1797000000000,"state":"active","ping":53},{"user_id":359,"name":"yw","steam_id":76561199382726488,"connected_time":1486000000000,"state":"active","ping":78},{"user_id":365,"name":"Pillboi","steam_id":76561198011172886,"connected_time":1193000000000,"state":"active","ping":44},{"user_id":337,"name":"'","steam_id":76561198413116920,"connected_time":3527000000000,"state":"active","ping":82},{"user_id":341,"name":"Michael Scott","steam_id":76561198023082794,"connected_time":3426000000000,"state":"active","ping":50},{"user_id":352,"name":"712","steam_id":76561198083122882,"connected_time":2267000000000,"state":"active","ping":44},{"user_id":356,"name":"goofy goober","steam_id":76561199010558927,"connected_time":1873000000000,"state":"active","ping":128},{"user_id":351,"name":"Adok.","steam_id":76561199237410893,"connected_time":2276000000000,"state":"active","ping":87},{"user_id":366,"name":"bad at everything","steam_id":76561199378524169,"connected_time":1152000000000,"state":"active","ping":74},{"user_id":370,"name":"Mystery cheese üßÄ","steam_id":76561198304002409,"connected_time":837000000000,"state":"active","ping":76},{"user_id":371,"name":"get that thong out yo bussy","steam_id":76561199080667060,"connected_time":473000000000,"state":"active","ping":74},{"user_id":361,"name":"Rev3lation","steam_id":76561198935157203,"connected_time":1226000000000,"state":"active","ping":94},{"user_id":326,"name":"can we get much higher","steam_id":76561199390507975,"connected_time":5400000000000,"state":"active","ping":49},{"user_id":373,"name":"lillalune","steam_id":76561198230213828,"connected_time":120000000000,"state":"active","ping":71},{"user_id":360,"name":"LudE","steam_id":76561198828840546,"connected_time":1435000000000,"state":"active","ping":77},{"user_id":368,"name":"yoda BOOL","steam_id":76561199099477033,"connected_time":1147000000000,"state":"active","ping":105},{"user_id":330,"name":"Wardaddy","steam_id":76561199229248492,"connected_time":4686000000000,"state":"active","ping":114},{"user_id":331,"name":"AmaiToxic","steam_id":76561199122491157,"connected_time":4545000000000,"state":"active","ping":64},{"user_id":354,"name":"TheSticky_Studio","steam_id":76561198428683022,"connected_time":2251000000000,"state":"active","ping":75}]},{"server_id":1,"name":"Uncletopia | Los Angeles | 1 | All Maps","name_short":"lax-1","host":"lax-1.us.uncletopia.com","port":27015,"enabled":true,"region":"us-west","cc":"us","latitude":33.94279,"longitude":-118.41004,"reserved":0,"last_update":"0001-01-01T00:00:00Z","name_a2s":"Uncletopia | Los Angeles | 1 | All Maps","protocol":17,"map":"koth_lakeside_final","folder":"tf","game":"Team Fortress","app_id":440,"player_count":0,"max_players":24,"Bots":0,"server_type":"Dedicated","server_os":"Linux","password":true,"vac":true,"version":"7742253","steam_id":85568392924469991,"keywords":["cp","nocrits","nodmgspread","uncletopia"],"game_id":440,"stv_port":27016,"stv_name":"Uncletopia | Los Angeles | 1 | All Maps | STV","players":null},{"server_id":112,"name":"Uncletopia | Los Angeles | 2 | All Maps","name_short":"lax-2","host":"lax-1.us.uncletopia.com","port":27025,"enabled":true,"region":"us-west","cc":"us","latitude":33.94279,"longitude":-118.41004,"reserved":0,"last_update":"0001-01-01T00:00:00Z","name_a2s":"Uncletopia | Los Angeles | 2 | All Maps","protocol":17,"map":"pl_frontier_final","folder":"tf","game":"Team Fortress","app_id":440,"player_count":22,"max_players":24,"Bots":0,"server_type":"Dedicated","server_os":"Linux","password":true,"vac":true,"version":"7742253","steam_id":85568392924469992,"keywords":["nocrits","nodmgspread","payload","uncletopia"],"game_id":440,"stv_port":27026,"stv_name":"Uncletopia | Los Angeles | 2 | All Maps | STV","players":[{"user_id":470,"name":"Antonpirulero10","steam_id":76561198253036781,"connected_time":714000000000,"state":"active","ping":75},{"user_id":473,"name":"sweaterfan","steam_id":76561199389567214,"connected_time":591000000000,"state":"active","ping":90},{"user_id":460,"name":"awesome","steam_id":76561198334059206,"connected_time":1268000000000,"state":"active","ping":57},{"user_id":471,"name":"festive jester","steam_id":76561198079609974,"connected_time":664000000000,"state":"active","ping":50},{"user_id":419,"name":"40 years of wageslavery","steam_id":76561198061040326,"connected_time":3954000000000,"state":"active","ping":51},{"user_id":441,"name":"Vladikr1","steam_id":76561198401495362,"connected_time":2534000000000,"state":"active","ping":108},{"user_id":396,"name":"[Œ¥] Delta","steam_id":76561198287190116,"connected_time":5511000000000,"state":"active","ping":75},{"user_id":400,"name":"TaterTot","steam_id":76561198087063804,"connected_time":5202000000000,"state":"active","ping":78},{"user_id":452,"name":"Zeemii","steam_id":76561198809299581,"connected_time":1531000000000,"state":"active","ping":90},{"user_id":444,"name":"33","steam_id":76561198894676484,"connected_time":2170000000000,"state":"active","ping":46},{"user_id":472,"name":"rlty","steam_id":76561198009395055,"connected_time":637000000000,"state":"active","ping":103},{"user_id":476,"name":"entirety of santas naughty list","steam_id":76561198295690725,"connected_time":249000000000,"state":"active","ping":99},{"user_id":467,"name":"Bergabuu","steam_id":76561198117801925,"connected_time":867000000000,"state":"active","ping":193},{"user_id":402,"name":"drifloy","steam_id":76561198153437083,"connected_time":5192000000000,"state":"active","ping":107},{"user_id":453,"name":"Jynx Ovr2","steam_id":76561198136487957,"connected_time":1521000000000,"state":"active","ping":95},{"user_id":457,"name":"teesung","steam_id":76561198054541387,"connected_time":1454000000000,"state":"active","ping":49},{"user_id":458,"name":"MistakesWereMade","steam_id":76561199059220481,"connected_time":1411000000000,"state":"active","ping":54},{"user_id":427,"name":"C papi","steam_id":76561198027779564,"connected_time":3413000000000,"state":"active","ping":91},{"user_id":463,"name":"earthtraveler413","steam_id":76561198865139926,"connected_time":1054000000000,"state":"active","ping":75},{"user_id":389,"name":"Testicular Torsion","steam_id":76561197968179862,"connected_time":6677000000000,"state":"active","ping":76},{"user_id":464,"name":"Be Gay, Do Crimes, Smoke Weed!","steam_id":76561198092419868,"connected_time":1019000000000,"state":"active","ping":72},{"user_id":465,"name":"[K.Y.L.L.]Pup (she/they)","steam_id":76561198027321950,"connected_time":1017000000000,"state":"active","ping":77}]},{"server_id":324,"name":"Uncletopia | Los Angeles | 3 | All Maps","name_short":"lax-3","host":"lax-1.us.uncletopia.com","port":27035,"enabled":true,"region":"us-west","cc":"us","latitude":33.94279,"longitude":-118.41004,"reserved":0,"last_update":"0001-01-01T00:00:00Z","name_a2s":"Uncletopia | Los Angeles | 3 | All Maps","protocol":17,"map":"cp_dustbowl","folder":"tf","game":"Team Fortress","app_id":440,"player_count":0,"max_players":24,"Bots":0,"server_type":"Dedicated","server_os":"Linux","password":true,"vac":true,"version":"7742253","steam_id":85568392924510198,"keywords":["cp","nocrits","nodmgspread","uncletopia"],"game_id":440,"stv_port":27036,"stv_name":"Uncletopia | Los Angeles | 3 | All Maps | STV","players":null},{"server_id":25,"name":"Uncletopia | Los Angeles | 4 | Stopwatch Beta","name_short":"lax-4","host":"lax-1.us.uncletopia.com","port":27045,"enabled":true,"region":"us-west","cc":"us","latitude":33.94279,"longitude":-118.41004,"reserved":0,"last_update":"0001-01-01T00:00:00Z","name_a2s":"Uncletopia | Los Angeles | 4 | Stopwatch Beta","protocol":17,"map":"cp_process_final","folder":"tf","game":"Team Fortress","app_id":440,"player_count":0,"max_players":24,"Bots":0,"server_type":"Dedicated","server_os":"Linux","password":true,"vac":true,"version":"7742253","steam_id":85568392924510199,"keywords":["cp","nocrits","nodmgspread","uncletopia"],"game_id":440,"stv_port":27046,"stv_name":"Uncletopia | Los Angeles | 4 | Stopwatch Beta | STV","players":null},{"server_id":11,"name":"Uncletopia | London | 1 | All Maps","name_short":"lon-1","host":"lon-1.uk.uncletopia.com","port":27015,"enabled":true,"region":"eu","cc":"gb","latitude":51.509865,"longitude":-0.118092,"reserved":0,"last_update":"0001-01-01T00:00:00Z","name_a2s":"Uncletopia | London | 1 | All Maps","protocol":17,"map":"pl_borneo","folder":"tf","game":"Team Fortress","app_id":440,"player_count":0,"max_players":24,"Bots":0,"server_type":"Dedicated","server_os":"Linux","password":true,"vac":true,"version":"7742253","steam_id":85568392924367362,"keywords":["nocrits","nodmgspread","payload","uncletopia"],"game_id":440,"stv_port":27016,"stv_name":"Uncletopia | London | 1 | All Maps | STV","players":null},{"server_id":114,"name":"Uncletopia | London | 2 | All Maps","name_short":"lon-2","host":"lon-1.uk.uncletopia.com","port":27025,"enabled":true,"region":"eu","cc":"gb","latitude":51.509865,"longitude":-0.118092,"reserved":0,"last_update":"0001-01-01T00:00:00Z","name_a2s":"Uncletopia | London | 2 | All Maps","protocol":17,"map":"cp_altitude","folder":"tf","game":"Team Fortress","app_id":440,"player_count":0,"max_players":24,"Bots":0,"server_type":"Dedicated","server_os":"Linux","password":true,"vac":true,"version":"7742253","steam_id":85568392924470941,"keywords":["cp","nocrits","nodmgspread","uncletopia"],"game_id":440,"stv_port":27026,"stv_name":"Uncletopia | London | 2 | All Maps | STV","players":null},{"server_id":320,"name":"Uncletopia | London | 3 | All Maps","name_short":"lon-3","host":"lon-1.uk.uncletopia.com","port":27035,"enabled":true,"region":"eu","cc":"gb","latitude":51.509865,"longitude":-0.118092,"reserved":0,"last_update":"0001-01-01T00:00:00Z","name_a2s":"Uncletopia | London | 3 | All Maps","protocol":17,"map":"cp_process_final","folder":"tf","game":"Team Fortress","app_id":440,"player_count":0,"max_players":24,"Bots":0,"server_type":"Dedicated","server_os":"Linux","password":true,"vac":true,"version":"7742253","steam_id":85568392924510192,"keywords":["cp","nocrits","nodmgspread","uncletopia"],"game_id":440,"stv_port":27036,"stv_name":"Uncletopia | London | 3 | All Maps | STV","players":null},{"server_id":321,"name":"Uncletopia | London | 4 | All Maps","name_short":"lon-4","host":"lon-1.uk.uncletopia.com","port":27045,"enabled":true,"region":"eu","cc":"gb","latitude":51.509865,"longitude":-0.118092,"reserved":0,"last_update":"0001-01-01T00:00:00Z","name_a2s":"Uncletopia | London | 4 | All Maps","protocol":17,"map":"pl_badwater","folder":"tf","game":"Team Fortress","app_id":440,"player_count":0,"max_players":24,"Bots":0,"server_type":"Dedicated","server_os":"Linux","password":true,"vac":true,"version":"7742253","steam_id":85568392924510193,"keywords":["nocrits","nodmgspread","payload","uncletopia"],"game_id":440,"stv_port":27046,"stv_name":"Uncletopia | London | 4 | All Maps | STV","players":null},{"server_id":21,"name":"Uncletopia | London | 5 | All Maps","name_short":"lon-5","host":"lon-1.uk.uncletopia.com","port":27055,"enabled":true,"region":"eu","cc":"gb","latitude":51.509865,"longitude":-0.118092,"reserved":0,"last_update":"0001-01-01T00:00:00Z","name_a2s":"Uncletopia | London | 5 | All Maps","protocol":17,"map":"cp_process_final","folder":"tf","game":"Team Fortress","app_id":440,"player_count":0,"max_players":24,"Bots":0,"server_type":"Dedicated","server_os":"Linux","password":true,"vac":true,"version":"7742253","steam_id":85568392924742829,"keywords":["cp","nocrits","nodmgspread","uncletopia"],"game_id":440,"stv_port":27056,"stv_name":"Uncletopia | London | 5 | All Maps | STV","players":null},{"server_id":22,"name":"Uncletopia | London | 6 | All Maps","name_short":"lon-6","host":"lon-1.uk.uncletopia.com","port":27065,"enabled":true,"region":"eu","cc":"gb","latitude":51.509865,"longitude":-0.118092,"reserved":0,"last_update":"0001-01-01T00:00:00Z","name_a2s":"Uncletopia | London | 6 | All Maps","protocol":17,"map":"cp_mountainlab","folder":"tf","game":"Team Fortress","app_id":440,"player_count":0,"max_players":24,"Bots":0,"server_type":"Dedicated","server_os":"Linux","password":true,"vac":true,"version":"7742253","steam_id":85568392924742830,"keywords":["cp","nocrits","nodmgspread","uncletopia"],"game_id":440,"stv_port":27066,"stv_name":"Uncletopia | London | 6 | All Maps | STV","players":null},{"server_id":40,"name":"Uncletopia | London | 7 | No Payload","name_short":"lon-7","host":"lon-1.uk.uncletopia.com","port":27075,"enabled":true,"region":"eu","cc":"gb","latitude":51.509865,"longitude":-0.118092,"reserved":0,"last_update":"0001-01-01T00:00:00Z","name_a2s":"Uncletopia | London | 7 | No Payload","protocol":17,"map":"pl_borneo","folder":"tf","game":"Team Fortress","app_id":440,"player_count":0,"max_players":24,"Bots":0,"server_type":"Dedicated","server_os":"Linux","password":true,"vac":true,"version":"7742253","steam_id":85568392924964314,"keywords":["nocrits","nodmgspread","payload","uncletopia"],"game_id":440,"stv_port":27076,"stv_name":"Uncletopia | London | 7 | No Payload | STV","players":null},{"server_id":41,"name":"Uncletopia | London | 8 | Community","name_short":"lon-8","host":"lon-1.uk.uncletopia.com","port":27085,"enabled":true,"region":"eu","cc":"gb","latitude":51.509865,"longitude":-0.118092,"reserved":0,"last_update":"0001-01-01T00:00:00Z","name_a2s":"Uncletopia | London | 8 | Community","protocol":17,"map":"cp_process_final","folder":"tf","game":"Team Fortress","app_id":440,"player_count":0,"max_players":24,"Bots":0,"server_type":"Dedicated","server_os":"Linux","password":true,"vac":true,"version":"7742253","steam_id":85568392924964315,"keywords":["cp","nocrits","nodmgspread","uncletopia"],"game_id":440,"stv_port":27086,"stv_name":"Uncletopia | London | 8 | Community | STV","players":null},{"server_id":300,"name":"Uncletopia | Montr√©al | 1 | All Maps","name_short":"mtl-1","host":"mtl-1.ca.uncletopia.com","port":27015,"enabled":true,"region":"us-east","cc":"ca","latitude":45.50889,"longitude":-73.56167,"reserved":0,"last_update":"0001-01-01T00:00:00Z","name_a2s":"Uncletopia | Montr√©al | 1 | All Maps","protocol":17,"map":"cp_sunshine","folder":"tf","game":"Team Fortress","app_id":440,"player_count":0,"max_players":24,"Bots":0,"server_type":"Dedicated","server_os":"Linux","password":true,"vac":true,"version":"7742253","steam_id":85568392924500087,"keywords":["cp","nocrits","nodmgspread","uncletopia"],"game_id":440,"stv_port":27016,"stv_name":"Uncletopia | Montr√©al | 1 | All Maps | STV","players":null},{"server_id":301,"name":"Uncletopia | Montr√©al | 2 | All Maps","name_short":"mtl-2","host":"mtl-1.ca.uncletopia.com","port":27025,"enabled":true,"region":"us-east","cc":"ca","latitude":45.50889,"longitude":-73.56167,"reserved":0,"last_update":"0001-01-01T00:00:00Z","name_a2s":"Uncletopia | Montr√©al | 2 | All Maps","protocol":17,"map":"koth_lakeside_final","folder":"tf","game":"Team Fortress","app_id":440,"player_count":0,"max_players":24,"Bots":0,"server_type":"Dedicated","server_os":"Linux","password":true,"vac":true,"version":"7742253","steam_id":85568392924500088,"keywords":["cp","nocrits","nodmgspread","uncletopia"],"game_id":440,"stv_port":27026,"stv_name":"Uncletopia | Montr√©al | 2 | All Maps | STV","players":null},{"server_id":302,"name":"Uncletopia | Montr√©al | 3 | All Maps","name_short":"mtl-3","host":"mtl-1.ca.uncletopia.com","port":27035,"enabled":true,"region":"us-east","cc":"ca","latitude":45.50889,"longitude":-73.56167,"reserved":0,"last_update":"0001-01-01T00:00:00Z","name_a2s":"Uncletopia | Montr√©al | 3 | All Maps","protocol":17,"map":"pl_snowycoast","folder":"tf","game":"Team Fortress","app_id":440,"player_count":0,"max_players":24,"Bots":0,"server_type":"Dedicated","server_os":"Linux","password":true,"vac":true,"version":"7742253","steam_id":85568392924500089,"keywords":["nocrits","nodmgspread","payload","uncletopia"],"game_id":440,"stv_port":27036,"stv_name":"Uncletopia | Montr√©al | 3 | All Maps | STV","players":null},{"server_id":303,"name":"Uncletopia | Montr√©al | 4 | No Payload","name_short":"mtl-4","host":"mtl-1.ca.uncletopia.com","port":27045,"enabled":true,"region":"us-east","cc":"ca","latitude":45.50889,"longitude":-73.56167,"reserved":0,"last_update":"0001-01-01T00:00:00Z","name_a2s":"Uncletopia | Montr√©al | 4 | No Payload","protocol":17,"map":"cp_mercenarypark","folder":"tf","game":"Team Fortress","app_id":440,"player_count":0,"max_players":24,"Bots":0,"server_type":"Dedicated","server_os":"Linux","password":true,"vac":true,"version":"7742253","steam_id":85568392924500090,"keywords":["cp","nocrits","nodmgspread","uncletopia"],"game_id":440,"stv_port":27046,"stv_name":"Uncletopia | Montr√©al | 4 | No Payload | STV","players":null},{"server_id":13,"name":"Uncletopia | New York City | 1 | All Maps","name_short":"nyc-1","host":"nyc-1.us.uncletopia.com","port":27015,"enabled":true,"region":"us-east","cc":"us","latitude":40.73061,"longitude":-73.93524,"reserved":0,"last_update":"0001-01-01T00:00:00Z","name_a2s":"Uncletopia | New York City | 1 | All Maps","protocol":17,"map":"cp_altitude","folder":"tf","game":"Team Fortress","app_id":440,"player_count":0,"max_players":24,"Bots":0,"server_type":"Dedicated","server_os":"Linux","password":true,"vac":true,"version":"7742253","steam_id":85568392924469993,"keywords":["cp","nocrits","nodmgspread","uncletopia"],"game_id":440,"stv_port":27016,"stv_name":"Uncletopia | New York City | 1 | All Maps | STV","players":null},{"server_id":14,"name":"Uncletopia | New York City | 2 | All Maps","name_short":"nyc-2","host":"nyc-1.us.uncletopia.com","port":27025,"enabled":true,"region":"us-east","cc":"us","latitude":40.73061,"longitude":-73.93524,"reserved":0,"last_update":"0001-01-01T00:00:00Z","name_a2s":"Uncletopia | New York City | 2 | All Maps","protocol":17,"map":"cp_sunshine","folder":"tf","game":"Team Fortress","app_id":440,"player_count":0,"max_players":24,"Bots":0,"server_type":"Dedicated","server_os":"Linux","password":true,"vac":true,"version":"7742253","steam_id":85568392924469994,"keywords":["cp","nocrits","nodmgspread","uncletopia"],"game_id":440,"stv_port":27026,"stv_name":"Uncletopia | New York City | 2 | All Maps | STV","players":null},{"server_id":15,"name":"Uncletopia | New York City | 3 | Stopwatch Beta","name_short":"nyc-3","host":"nyc-1.us.uncletopia.com","port":27035,"enabled":true,"region":"us-east","cc":"us","latitude":40.73061,"longitude":-73.93524,"reserved":0,"last_update":"0001-01-01T00:00:00Z","name_a2s":"Uncletopia | New York City | 3 | Stopwatch Beta","protocol":17,"map":"cp_altitude","folder":"tf","game":"Team Fortress","app_id":440,"player_count":0,"max_players":24,"Bots":0,"server_type":"Dedicated","server_os":"Linux","password":true,"vac":true,"version":"7742253","steam_id":85568392924742820,"keywords":["cp","nocrits","nodmgspread","uncletopia"],"game_id":440,"stv_port":27036,"stv_name":"Uncletopia | New York City | 3 | Stopwatch Beta | STV","players":null},{"server_id":16,"name":"Uncletopia | New York City | 4 | Community","name_short":"nyc-4","host":"nyc-1.us.uncletopia.com","port":27045,"enabled":true,"region":"us-east","cc":"us","latitude":40.73061,"longitude":-73.93524,"reserved":0,"last_update":"0001-01-01T00:00:00Z","name_a2s":"Uncletopia | New York City | 4 | Community","protocol":17,"map":"workshop/cp_reckoner_rc6.ugc674719999","folder":"tf","game":"Team Fortress","app_id":440,"player_count":0,"max_players":24,"Bots":0,"server_type":"Dedicated","server_os":"Linux","password":true,"vac":true,"version":"7742253","steam_id":85568392924742821,"keywords":["cp","nocrits","nodmgspread","uncletopia"],"game_id":440,"stv_port":27046,"stv_name":"Uncletopia | New York City | 4 | Community | STV","players":null},{"server_id":142,"name":"Uncletopia | S√£o Paulo | 1 | All Maps","name_short":"sao-1","host":"sao-1.br.uncletopia.com","port":27015,"enabled":true,"region":"sa","cc":"br","latitude":-23.533773,"longitude":-46.62529,"reserved":0,"last_update":"0001-01-01T00:00:00Z","name_a2s":"Uncletopia | S√£o Paulo | 1 | All Maps","protocol":17,"map":"pl_upward","folder":"tf","game":"Team Fortress","app_id":440,"player_count":0,"max_players":24,"Bots":0,"server_type":"Dedicated","server_os":"Linux","password":true,"vac":true,"version":"7742253","steam_id":85568392924469996,"keywords":["nocrits","nodmgspread","payload","uncletopia"],"game_id":440,"stv_port":27016,"stv_name":"Uncletopia | S√£o Paulo | 1 | All Maps | STV","players":null},{"server_id":143,"name":"Uncletopia | S√£o Paulo | 2 | All Maps","name_short":"sao-2","host":"sao-2.br.uncletopia.com","port":27015,"enabled":true,"region":"sa","cc":"br","latitude":-23.533773,"longitude":-46.62529,"reserved":0,"last_update":"0001-01-01T00:00:00Z","name_a2s":"Uncletopia | S√£o Paulo | 2 | All Maps","protocol":17,"map":"pl_upward","folder":"tf","game":"Team Fortress","app_id":440,"player_count":0,"max_players":24,"Bots":0,"server_type":"Dedicated","server_os":"Linux","password":true,"vac":true,"version":"7742253","steam_id":85568392924485349,"keywords":["nocrits","nodmgspread","payload","uncletopia"],"game_id":440,"stv_port":27016,"stv_name":"Uncletopia | S√£o Paulo | 2 | All Maps | STV","players":null},{"server_id":7,"name":"Uncletopia | Seattle | 1 | All Maps","name_short":"sea-1","host":"sea-1.us.uncletopia.com","port":27015,"enabled":true,"region":"us-west","cc":"us","latitude":47.608013,"longitude":-122.33517,"reserved":0,"last_update":"0001-01-01T00:00:00Z","name_a2s":"Uncletopia | Seattle | 1 | All Maps","protocol":17,"map":"koth_harvest_final","folder":"tf","game":"Team Fortress","app_id":440,"player_count":24,"max_players":24,"Bots":0,"server_type":"Dedicated","server_os":"Linux","password":true,"vac":true,"version":"7742253","steam_id":85568392924469997,"keywords":["cp","nocrits","nodmgspread","uncletopia"],"game_id":440,"stv_port":27016,"stv_name":"Uncletopia | Seattle | 1 | All Maps | STV","players":[{"user_id":774,"name":"lavender","steam_id":76561199069518286,"connected_time":8443000000000,"state":"active","ping":75},{"user_id":831,"name":"Doctor‚Ñ¢","steam_id":76561198134309750,"connected_time":797000000000,"state":"active","ping":105},{"user_id":836,"name":"Batman Grant Williams","steam_id":76561198115458307,"connected_time":303000000000,"state":"active","ping":76},{"user_id":834,"name":"BONG THREAT","steam_id":76561197988234127,"connected_time":544000000000,"state":"active","ping":31},{"user_id":825,"name":"rat gets the cheese","steam_id":76561198031234032,"connected_time":1023000000000,"state":"active","ping":95},{"user_id":740,"name":"Florist","steam_id":76561198009121060,"connected_time":12304000000000,"state":"active","ping":40},{"user_id":802,"name":"rorytherednosedreindeer","steam_id":76561198065825165,"connected_time":4439000000000,"state":"active","ping":103},{"user_id":823,"name":"Arsonist Goose","steam_id":76561198147441830,"connected_time":1041000000000,"state":"active","ping":70},{"user_id":837,"name":"bla.z/e","steam_id":76561198250998822,"connected_time":78000000000,"state":"active","ping":47},{"user_id":785,"name":"p=9HIGHjorts","steam_id":76561199041179985,"connected_time":6246000000000,"state":"active","ping":52},{"user_id":780,"name":"ed","steam_id":76561198080475712,"connected_time":8171000000000,"state":"active","ping":62},{"user_id":826,"name":"Maxx","steam_id":76561198045405304,"connected_time":949000000000,"state":"active","ping":45},{"user_id":835,"name":"Patio","steam_id":76561197986082608,"connected_time":518000000000,"state":"active","ping":50},{"user_id":812,"name":"Ayayahuasca","steam_id":76561199002906056,"connected_time":2863000000000,"state":"active","ping":45},{"user_id":782,"name":"squash","steam_id":76561198150281353,"connected_time":7334000000000,"state":"active","ping":63},{"user_id":809,"name":"–≥—Ä—É—Å—Ç–Ω—ã–π","steam_id":76561198274550638,"connected_time":3626000000000,"state":"active","ping":105},{"user_id":838,"name":"killette [diftd]","steam_id":76561198002521217,"connected_time":46000000000,"state":"active","ping":48},{"user_id":755,"name":"Sweets","steam_id":76561198998446307,"connected_time":9962000000000,"state":"active","ping":64},{"user_id":832,"name":"cheese v2","steam_id":76561198271995672,"connected_time":775000000000,"state":"active","ping":49},{"user_id":747,"name":"Pneumo.","steam_id":76561197987911883,"connected_time":11505000000000,"state":"active","ping":60},{"user_id":827,"name":"dosimeter","steam_id":76561198039608940,"connected_time":931000000000,"state":"active","ping":52},{"user_id":822,"name":"AceSea","steam_id":76561198851176490,"connected_time":1048000000000,"state":"active","ping":48},{"user_id":833,"name":"goldhed","steam_id":76561198051751133,"connected_time":663000000000,"state":"active","ping":58},{"user_id":818,"name":"BlookyBlock","steam_id":76561198117009300,"connected_time":2478000000000,"state":"active","ping":59}]},{"server_id":119,"name":"Uncletopia | Seattle | 2 | All Maps","name_short":"sea-2","host":"sea-1.us.uncletopia.com","port":27025,"enabled":true,"region":"us-west","cc":"us","latitude":47.608013,"longitude":-122.33517,"reserved":0,"last_update":"0001-01-01T00:00:00Z","name_a2s":"Uncletopia | Seattle | 2 | All Maps","protocol":17,"map":"pl_barnblitz","folder":"tf","game":"Team Fortress","app_id":440,"player_count":8,"max_players":24,"Bots":0,"server_type":"Dedicated","server_os":"Linux","password":true,"vac":true,"version":"7742253","steam_id":85568392924469998,"keywords":["nocrits","nodmgspread","payload","uncletopia"],"game_id":440,"stv_port":27026,"stv_name":"Uncletopia | Seattle | 2 | All Maps | STV","players":[{"user_id":557,"name":"Valioholi","steam_id":76561199206511274,"connected_time":121000000000,"state":"active","ping":255},{"user_id":527,"name":"Zorlovo","steam_id":76561198006443283,"connected_time":3709000000000,"state":"active","ping":72},{"user_id":554,"name":"Chii","steam_id":76561199210519016,"connected_time":839000000000,"state":"active","ping":245},{"user_id":550,"name":"eb","steam_id":76561198078577259,"connected_time":941000000000,"state":"active","ping":113},{"user_id":551,"name":"Santern","steam_id":76561198168944390,"connected_time":921000000000,"state":"active","ping":99},{"user_id":555,"name":"Gusbus","steam_id":76561199433033539,"connected_time":809000000000,"state":"active","ping":125},{"user_id":544,"name":"Soap Man","steam_id":76561198000490235,"connected_time":2194000000000,"state":"active","ping":68},{"user_id":458,"name":"Im feeling it now.","steam_id":76561198034785475,"connected_time":9323000000000,"state":"active","ping":45}]},{"server_id":406,"name":"Uncletopia | Seattle | 3 | Stopwatch Beta","name_short":"sea-3","host":"sea-1.us.uncletopia.com","port":27035,"enabled":true,"region":"us-west","cc":"us","latitude":47.608013,"longitude":-122.33517,"reserved":0,"last_update":"0001-01-01T00:00:00Z","name_a2s":"Uncletopia | Seattle | 3 | Stopwatch Beta","protocol":17,"map":"pl_upward","folder":"tf","game":"Team Fortress","app_id":440,"player_count":2,"max_players":24,"Bots":0,"server_type":"Dedicated","server_os":"Linux","password":true,"vac":false,"version":"7742253","steam_id":0,"keywords":["nocrits","nodmgspread","payload","uncletopia"],"game_id":440,"stv_port":27036,"stv_name":"Uncletopia | Seattle | 3 | Stopwatch Beta | STV","players":[{"user_id":10,"name":"N√©miscau","steam_id":76561198257979613,"connected_time":105000000000,"state":"active","ping":48},{"user_id":11,"name":"foura","steam_id":76561198181972739,"connected_time":101000000000,"state":"active","ping":58}]},{"server_id":17,"name":"Uncletopia | San Francisco | 1 | All Maps","name_short":"sfo-1","host":"sfo-1.us.uncletopia.com","port":27015,"enabled":true,"region":"us-west","cc":"us","latitude":37.77397,"longitude":-122.4313,"reserved":0,"last_update":"0001-01-01T00:00:00Z","name_a2s":"Uncletopia | San Francisco | 1 | All Maps","protocol":17,"map":"pl_barnblitz","folder":"tf","game":"Team Fortress","app_id":440,"player_count":18,"max_players":24,"Bots":0,"server_type":"Dedicated","server_os":"Linux","password":true,"vac":true,"version":"7742253","steam_id":85568392924469999,"keywords":["nocrits","nodmgspread","payload","uncletopia"],"game_id":440,"stv_port":27016,"stv_name":"Uncletopia | San Francisco | 1 | All Maps | STV","players":[{"user_id":820,"name":"am","steam_id":76561198345528370,"connected_time":2068000000000,"state":"active","ping":44},{"user_id":834,"name":"TheGibusGuy","steam_id":76561198437838940,"connected_time":879000000000,"state":"active","ping":104},{"user_id":835,"name":"Dauntless Duelist","steam_id":76561198025056018,"connected_time":820000000000,"state":"active","ping":51},{"user_id":837,"name":"big guapo","steam_id":76561198103228695,"connected_time":710000000000,"state":"active","ping":98},{"user_id":838,"name":"fish","steam_id":76561198274534190,"connected_time":671000000000,"state":"active","ping":105},{"user_id":825,"name":"Deadecho","steam_id":76561198099131643,"connected_time":1886000000000,"state":"active","ping":63},{"user_id":807,"name":"Pvt. Prinny Xerxes","steam_id":76561198089132722,"connected_time":3902000000000,"state":"active","ping":113},{"user_id":770,"name":"aisu","steam_id":76561198043768507,"connected_time":5920000000000,"state":"active","ping":102},{"user_id":801,"name":"Pacbub","steam_id":76561198165198874,"connected_time":4107000000000,"state":"active","ping":61},{"user_id":839,"name":"Saint Quincy","steam_id":76561198205900359,"connected_time":652000000000,"state":"active","ping":122},{"user_id":800,"name":"kebo","steam_id":76561198237159430,"connected_time":4232000000000,"state":"active","ping":59},{"user_id":802,"name":"toki","steam_id":76561199196943730,"connected_time":4107000000000,"state":"active","ping":68},{"user_id":832,"name":"üéÄ Mildred Speeb üéÄ","steam_id":76561198118740818,"connected_time":1240000000000,"state":"active","ping":122},{"user_id":844,"name":"Midwest emo is a gang","steam_id":76561198094281330,"connected_time":150000000000,"state":"active","ping":112},{"user_id":841,"name":"Kaelub","steam_id":76561198036180823,"connected_time":296000000000,"state":"active","ping":89},{"user_id":842,"name":"marcojonsson314","steam_id":76561198873302273,"connected_time":237000000000,"state":"active","ping":93},{"user_id":845,"name":"Acid","steam_id":76561199233285844,"connected_time":130000000000,"state":"active","ping":64},{"user_id":817,"name":"dog","steam_id":76561198257924603,"connected_time":3106000000000,"state":"active","ping":95}]},{"server_id":18,"name":"Uncletopia | San Francisco | 2 | All Maps","name_short":"sfo-2","host":"sfo-1.us.uncletopia.com","port":27025,"enabled":true,"region":"us-west","cc":"us","latitude":37.77397,"longitude":-122.4313,"reserved":0,"last_update":"0001-01-01T00:00:00Z","name_a2s":"Uncletopia | San Francisco | 2 | All Maps","protocol":17,"map":"pl_borneo","folder":"tf","game":"Team Fortress","app_id":440,"player_count":0,"max_players":24,"Bots":0,"server_type":"Dedicated","server_os":"Linux","password":true,"vac":true,"version":"7742253","steam_id":85568392924470000,"keywords":["nocrits","nodmgspread","payload","uncletopia"],"game_id":440,"stv_port":27026,"stv_name":"Uncletopia | San Francisco | 2 | All Maps | STV","players":null},{"server_id":19,"name":"Uncletopia | San Francisco | 3 | Stopwatch Beta","name_short":"sfo-3","host":"sfo-1.us.uncletopia.com","port":27035,"enabled":true,"region":"us-west","cc":"us","latitude":37.77397,"longitude":-122.4313,"reserved":0,"last_update":"0001-01-01T00:00:00Z","name_a2s":"Uncletopia | San Francisco | 3 | Stopwatch Beta","protocol":17,"map":"cp_snakewater_final1","folder":"tf","game":"Team Fortress","app_id":440,"player_count":0,"max_players":24,"Bots":0,"server_type":"Dedicated","server_os":"Linux","password":true,"vac":true,"version":"7742253","steam_id":85568392924742824,"keywords":["cp","nocrits","nodmgspread","uncletopia"],"game_id":440,"stv_port":27036,"stv_name":"Uncletopia | San Francisco | 3 | Stopwatch Beta | STV","players":null},{"server_id":20,"name":"Uncletopia | San Francisco | 4 | Community","name_short":"sfo-4","host":"sfo-1.us.uncletopia.com","port":27045,"enabled":true,"region":"us-west","cc":"us","latitude":37.77397,"longitude":-122.4313,"reserved":0,"last_update":"0001-01-01T00:00:00Z","name_a2s":"Uncletopia | San Francisco | 4 | Community","protocol":17,"map":"workshop/koth_synthetic_rc6a.ugc1549817316","folder":"tf","game":"Team Fortress","app_id":440,"player_count":0,"max_players":24,"Bots":0,"server_type":"Dedicated","server_os":"Linux","password":true,"vac":true,"version":"7742253","steam_id":85568392924742826,"keywords":["cp","nocrits","nodmgspread","uncletopia"],"game_id":440,"stv_port":27046,"stv_name":"Uncletopia | San Francisco | 4 | Community | STV","players":null},{"server_id":141,"name":"Uncletopia | Sydney | 1 | All Maps","name_short":"syd-1","host":"syd-1.au.uncletopia.com","port":27015,"enabled":true,"region":"au","cc":"au","latitude":-33.865143,"longitude":151.2099,"reserved":0,"last_update":"0001-01-01T00:00:00Z","name_a2s":"Uncletopia | Sydney | 1 | All Maps","protocol":17,"map":"pl_badwater","folder":"tf","game":"Team Fortress","app_id":440,"player_count":24,"max_players":24,"Bots":0,"server_type":"Dedicated","server_os":"Linux","password":true,"vac":true,"version":"7742253","steam_id":85568392924470001,"keywords":["nocrits","nodmgspread","payload","uncletopia"],"game_id":440,"stv_port":27016,"stv_name":"Uncletopia | Sydney | 1 | All Maps | STV","players":[{"user_id":520,"name":"Ok Mate","steam_id":76561198254922035,"connected_time":169000000000,"state":"active","ping":59},{"user_id":498,"name":"hawk","steam_id":76561198135164277,"connected_time":2737000000000,"state":"active","ping":61},{"user_id":408,"name":"nojnosbod11","steam_id":76561199176012151,"connected_time":9918000000000,"state":"active","ping":55},{"user_id":456,"name":"Average E Girl","steam_id":76561198354523762,"connected_time":5474000000000,"state":"active","ping":46},{"user_id":511,"name":"Fuzzy","steam_id":76561198081319798,"connected_time":1254000000000,"state":"active","ping":51},{"user_id":500,"name":"CrazyGlobe","steam_id":76561198992451299,"connected_time":2627000000000,"state":"active","ping":93},{"user_id":504,"name":"Dr Rags","steam_id":76561198179481430,"connected_time":2405000000000,"state":"active","ping":86},{"user_id":518,"name":"trash","steam_id":76561198110764631,"connected_time":784000000000,"state":"active","ping":46},{"user_id":496,"name":"Spicy Baguette","steam_id":76561198238030210,"connected_time":2892000000000,"state":"active","ping":45},{"user_id":517,"name":"Lv 9 Reborn Nubblet","steam_id":76561198069483103,"connected_time":835000000000,"state":"active","ping":90},{"user_id":503,"name":"femboy pybro","steam_id":76561198355125370,"connected_time":2423000000000,"state":"active","ping":45},{"user_id":514,"name":"Fnaf Map bot","steam_id":76561199232111143,"connected_time":842000000000,"state":"active","ping":45},{"user_id":478,"name":"doctor morbin' (real)","steam_id":76561199365241695,"connected_time":4212000000000,"state":"active","ping":137},{"user_id":519,"name":"idahs","steam_id":76561198073097952,"connected_time":213000000000,"state":"active","ping":75},{"user_id":490,"name":"canned tuna","steam_id":76561198420727269,"connected_time":3254000000000,"state":"active","ping":45},{"user_id":460,"name":"Gamma","steam_id":76561198281131757,"connected_time":5420000000000,"state":"active","ping":52},{"user_id":492,"name":"cimpact","steam_id":76561198452258917,"connected_time":2994000000000,"state":"active","ping":114},{"user_id":505,"name":"drunkspy22","steam_id":76561198042198744,"connected_time":2193000000000,"state":"active","ping":56},{"user_id":512,"name":"rastaFROG730","steam_id":76561198058812647,"connected_time":870000000000,"state":"active","ping":55},{"user_id":516,"name":"Diavolo Diablo","steam_id":76561198166295333,"connected_time":842000000000,"state":"active","ping":163},{"user_id":508,"name":"gon","steam_id":76561198059906626,"connected_time":1291000000000,"state":"active","ping":70},{"user_id":482,"name":"NewChris","steam_id":76561198254754182,"connected_time":3869000000000,"state":"active","ping":109},{"user_id":488,"name":"Jerry be packin","steam_id":76561199229962568,"connected_time":3341000000000,"state":"active","ping":64},{"user_id":510,"name":"james16","steam_id":76561198362678073,"connected_time":1271000000000,"state":"active","ping":41}]},{"server_id":123,"name":"Uncletopia | Sydney | 2 | All Maps","name_short":"syd-2","host":"syd-1.au.uncletopia.com","port":27025,"enabled":true,"region":"au","cc":"au","latitude":-33.865143,"longitude":151.2099,"reserved":0,"last_update":"0001-01-01T00:00:00Z","name_a2s":"Uncletopia | Sydney | 2 | All Maps","protocol":17,"map":"koth_lakeside_final","folder":"tf","game":"Team Fortress","app_id":440,"player_count":0,"max_players":24,"Bots":0,"server_type":"Dedicated","server_os":"Linux","password":true,"vac":true,"version":"7742253","steam_id":85568392924470002,"keywords":["cp","nocrits","nodmgspread","uncletopia"],"game_id":440,"stv_port":27026,"stv_name":"Uncletopia | Sydney | 2 | All Maps | STV","players":null},{"server_id":395,"name":"Uncletopia | Sydney | 3 | All Maps","name_short":"syd-3","host":"syd-1.au.uncletopia.com","port":27035,"enabled":true,"region":"au","cc":"au","latitude":-33.865143,"longitude":151.2099,"reserved":0,"last_update":"0001-01-01T00:00:00Z","name_a2s":"Uncletopia | Sydney | 3 | All Maps","protocol":17,"map":"cp_altitude","folder":"tf","game":"Team Fortress","app_id":440,"player_count":0,"max_players":24,"Bots":0,"server_type":"Dedicated","server_os":"Linux","password":true,"vac":true,"version":"7742253","steam_id":85568392925194467,"keywords":["cp","nocrits","nodmgspread","uncletopia"],"game_id":440,"stv_port":27036,"stv_name":"Uncletopia | Sydney | 3 | All Maps | STV","players":null},{"server_id":396,"name":"Uncletopia | Sydney | 4 | All Maps","name_short":"syd-4","host":"syd-1.au.uncletopia.com","port":27045,"enabled":true,"region":"au","cc":"au","latitude":-33.865143,"longitude":151.2099,"reserved":0,"last_update":"0001-01-01T00:00:00Z","name_a2s":"Uncletopia | Sydney | 4 | All Maps","protocol":17,"map":"pl_barnblitz","folder":"tf","game":"Team Fortress","app_id":440,"player_count":1,"max_players":24,"Bots":0,"server_type":"Dedicated","server_os":"Linux","password":true,"vac":true,"version":"7742253","steam_id":85568392925397958,"keywords":["nocrits","nodmgspread","payload","uncletopia"],"game_id":440,"stv_port":27046,"stv_name":"Uncletopia | Sydney | 4 | All Maps | STV","players":[{"user_id":14,"name":"Mission","steam_id":76561199218935728,"connected_time":87000000000,"state":"active","ping":105}]},{"server_id":58,"name":"Uncletopia | Sydney | 5 | Stopwatch Beta","name_short":"syd-5","host":"syd-1.au.uncletopia.com","port":27055,"enabled":true,"region":"au","cc":"au","latitude":-33.865143,"longitude":151.2099,"reserved":0,"last_update":"0001-01-01T00:00:00Z","name_a2s":"Uncletopia | Sydney | 5 | Stopwatch Beta","protocol":17,"map":"cp_snakewater_final1","folder":"tf","game":"Team Fortress","app_id":440,"player_count":0,"max_players":24,"Bots":0,"server_type":"Dedicated","server_os":"Linux","password":true,"vac":true,"version":"7742253","steam_id":85568392925397959,"keywords":["cp","nocrits","nodmgspread","uncletopia"],"game_id":440,"stv_port":27056,"stv_name":"Uncletopia | Sydney | 5 | Stopwatch Beta | STV","players":null},{"server_id":59,"name":"Uncletopia | Sydney | 6 | Community","name_short":"syd-6","host":"syd-1.au.uncletopia.com","port":27065,"enabled":true,"region":"au","cc":"au","latitude":-33.865143,"longitude":151.2099,"reserved":0,"last_update":"0001-01-01T00:00:00Z","name_a2s":"Uncletopia | Sydney | 6 | Community","protocol":17,"map":"workshop/koth_product_final.ugc454272353","folder":"tf","game":"Team Fortress","app_id":440,"player_count":0,"max_players":24,"Bots":0,"server_type":"Dedicated","server_os":"Linux","password":true,"vac":true,"version":"7742253","steam_id":85568392925397960,"keywords":["cp","nocrits","nodmgspread","uncletopia"],"game_id":440,"stv_port":27066,"stv_name":"Uncletopia | Sydney | 6 | Community | STV","players":null},{"server_id":49,"name":"Uncletopia | Warsaw | 1 | All Maps","name_short":"waw-1","host":"waw-1.pl.uncletopia.com","port":27015,"enabled":true,"region":"eu","cc":"pl","latitude":52.2297,"longitude":21.017532,"reserved":0,"last_update":"0001-01-01T00:00:00Z","name_a2s":"Uncletopia | Warsaw | 1 | All Maps","protocol":17,"map":"koth_lakeside_final","folder":"tf","game":"Team Fortress","app_id":440,"player_count":0,"max_players":24,"Bots":0,"server_type":"Dedicated","server_os":"Linux","password":true,"vac":true,"version":"7723704","steam_id":85568392925397850,"keywords":["cp","nocrits","nodmgspread","uncletopia"],"game_id":440,"stv_port":27016,"stv_name":"Uncletopia | Warsaw | 1 | All Maps | STV","players":null},{"server_id":50,"name":"Uncletopia | Warsaw | 2 | All Maps","name_short":"waw-2","host":"waw-1.pl.uncletopia.com","port":27025,"enabled":true,"region":"eu","cc":"pl","latitude":52.2297,"longitude":21.017532,"reserved":0,"last_update":"0001-01-01T00:00:00Z","name_a2s":"Uncletopia | Warsaw | 2 | All Maps","protocol":17,"map":"pl_frontier_final","folder":"tf","game":"Team Fortress","app_id":440,"player_count":0,"max_players":24,"Bots":0,"server_type":"Dedicated","server_os":"Linux","password":true,"vac":true,"version":"7742253","steam_id":85568392925397851,"keywords":["nocrits","nodmgspread","payload","uncletopia"],"game_id":440,"stv_port":27026,"stv_name":"Uncletopia | Warsaw | 2 | All Maps | STV","players":null},{"server_id":51,"name":"Uncletopia | Warsaw | 3 | All Maps","name_short":"waw-3","host":"waw-1.pl.uncletopia.com","port":27035,"enabled":true,"region":"eu","cc":"pl","latitude":52.2297,"longitude":21.017532,"reserved":0,"last_update":"0001-01-01T00:00:00Z","name_a2s":"Uncletopia | Warsaw | 3 | All Maps","protocol":17,"map":"pl_frontier_final","folder":"tf","game":"Team Fortress","app_id":440,"player_count":0,"max_players":24,"Bots":0,"server_type":"Dedicated","server_os":"Linux","password":true,"vac":true,"version":"7742253","steam_id":85568392925397852,"keywords":["nocrits","nodmgspread","payload","uncletopia"],"game_id":440,"stv_port":27036,"stv_name":"Uncletopia | Warsaw | 3 | All Maps | STV","players":null},{"server_id":52,"name":"Uncletopia | Warsaw | 4 | All Maps","name_short":"waw-4","host":"waw-1.pl.uncletopia.com","port":27045,"enabled":true,"region":"eu","cc":"pl","latitude":52.2297,"longitude":21.017532,"reserved":0,"last_update":"0001-01-01T00:00:00Z","name_a2s":"Uncletopia | Warsaw | 4 | All Maps","protocol":17,"map":"pl_swiftwater_final1","folder":"tf","game":"Team Fortress","app_id":440,"player_count":0,"max_players":24,"Bots":0,"server_type":"Dedicated","server_os":"Linux","password":true,"vac":true,"version":"7742253","steam_id":85568392925397853,"keywords":["nocrits","nodmgspread","payload","uncletopia"],"game_id":440,"stv_port":27046,"stv_name":"Uncletopia | Warsaw | 4 | All Maps | STV","players":null},{"server_id":53,"name":"Uncletopia | Warsaw | 5 | Stopwatch Beta","name_short":"waw-5","host":"waw-1.pl.uncletopia.com","port":27055,"enabled":true,"region":"eu","cc":"pl","latitude":52.2297,"longitude":21.017532,"reserved":0,"last_update":"0001-01-01T00:00:00Z","name_a2s":"Uncletopia | Warsaw | 5 | Stopwatch Beta","protocol":17,"map":"pl_pier","folder":"tf","game":"Team Fortress","app_id":440,"player_count":0,"max_players":24,"Bots":0,"server_type":"Dedicated","server_os":"Linux","password":true,"vac":true,"version":"7742253","steam_id":85568392925397854,"keywords":["nocrits","nodmgspread","payload","uncletopia"],"game_id":440,"stv_port":27056,"stv_name":"Uncletopia | Warsaw | 5 | Stopwatch Beta | STV","players":null},{"server_id":54,"name":"Uncletopia | Warsaw | 6 | Community","name_short":"waw-6","host":"waw-1.pl.uncletopia.com","port":27065,"enabled":true,"region":"eu","cc":"pl","latitude":52.2297,"longitude":21.017532,"reserved":0,"last_update":"0001-01-01T00:00:00Z","name_a2s":"Uncletopia | Warsaw | 6 | Community","protocol":17,"map":"cp_sunshine","folder":"tf","game":"Team Fortress","app_id":440,"player_count":0,"max_players":24,"Bots":0,"server_type":"Dedicated","server_os":"Linux","password":true,"vac":true,"version":"7742253","steam_id":85568392925397856,"keywords":["cp","nocrits","nodmgspread","uncletopia"],"game_id":440,"stv_port":27066,"stv_name":"Uncletopia | Warsaw | 6 | Community | STV","players":null}]}