{"status":true,"message":"","result":[{"server_id":9,"name":"Uncletopia | Atlanta | 1 | All Maps","name_short":"atl-1","host":"atl-1.us.uncletopia.com","port":27015,"enabled":true,"region":"us-east","cc":"us","latitude":33.753746,"longitude":-84.38633,"reserved":0,"last_update":"0001-01-01T00:00:00Z","name_a2s":"Uncletopia | Atlanta | 1 | All Maps","protocol":17,"map":"pl_snowycoast","folder":"tf","game":"Team Fortress","app_id":440,"player_count":24,"max_players":24,"Bots":0,"server_type":"Dedicated","server_os":"Linux","password":true,"vac":true,"version":"7757534","steam_id":85568392924469982,"keywords":["nocrits","nodmgspread","payload","uncletopia"],"game_id":440,"stv_port":27016,"stv_name":"Uncletopia | Atlanta | 1 | All Maps | STV","players":[{"user_id":385,"name":"paetho YT","steam_id":76561198152690003,"connected_time":2915000000000,"state":"active","ping":45},{"user_id":409,"name":"eish","steam_id":76561198089463603,"connected_time":961000000000,"state":"active","ping":116},{"user_id":359,"name":"Chimpish","steam_id":76561199263493270,"connected_time":5496000000000,"state":"active","ping":77},{"user_id":397,"name":"Lilith","steam_id":76561198125102885,"connected_time":1572000000000,"state":"active","ping":68},{"user_id":402,"name":"Kitt(eh) âˆ‘:3","steam_id":76561198110858518,"connected_time":1216000000000,"state":"active","ping":76},{"user_id":403,"name":"HarryjusttHarry","steam_id":76561198982810452,"connected_time":1215000000000,"state":"active","ping":74},{"user_id":370,"name":"marguerite","steam_id":76561198170873495,"connected_time":4318000000000,"state":"active","ping":57},{"user_id":412,"name":"something smells foul","steam_id":76561198098781227,"connected_time":448000000000,"state":"active","ping":85},{"user_id":406,"name":"Back_street_jack","steam_id":76561198362741311,"connected_time":1191000000000,"state":"active","ping":60},{"user_id":407,"name":"avantime","steam_id":76561199203175541,"connected_time":1167000000000,"state":"active","ping":107},{"user_id":399,"name":"Pulp Free Fiction","steam_id":76561198095396514,"connected_time":1350000000000,"state":"active","ping":71},{"user_id":387,"name":"BackwardsEagle","steam_id":76561199013712612,"connected_time":2552000000000,"state":"active","ping":82},{"user_id":400,"name":"FROTTING WORLD CHAMPION","steam_id":76561198249206656,"connected_time":1229000000000,"state":"active","ping":79},{"user_id":375,"name":"Oddball","steam_id":76561198040440984,"connected_time":4055000000000,"state":"active","ping":84},{"user_id":411,"name":"Bloo","steam_id":76561199015827567,"connected_time":779000000000,"state":"active","ping":82},{"user_id":374,"name":"town.midi","steam_id":76561198059041027,"connected_time":4281000000000,"state":"active","ping":120},{"user_id":413,"name":"mio","steam_id":76561198239286750,"connected_time":447000000000,"state":"active","ping":68},{"user_id":388,"name":"Toonice","steam_id":76561198402994885,"connected_time":2499000000000,"state":"active","ping":86},{"user_id":377,"name":"God's Sleepiest Puppy Girl","steam_id":76561198070315609,"connected_time":3902000000000,"state":"active","ping":46},{"user_id":395,"name":"Zeruel","steam_id":76561198149673080,"connected_time":1840000000000,"state":"active","ping":104},{"user_id":382,"name":"Ghetto Smosh Fan","steam_id":76561198097272509,"connected_time":2964000000000,"state":"active","ping":36},{"user_id":398,"name":"i smoke meth","steam_id":76561198381136912,"connected_time":1492000000000,"state":"active","ping":77},{"user_id":401,"name":"Higgle Poggers","steam_id":76561198043960257,"connected_time":1228000000000,"state":"active","ping":66},{"user_id":384,"name":"GKEmperor","steam_id":76561197995187011,"connected_time":2960000000000,"state":"active","ping":76}]},{"server_id":104,"name":"Uncletopia | Atlanta | 2 | All Maps","name_short":"atl-2","host":"atl-1.us.uncletopia.com","port":27025,"enabled":true,"region":"us-east","cc":"us","latitude":33.753746,"longitude":-84.38633,"reserved":0,"last_update":"0001-01-01T00:00:00Z","name_a2s":"Uncletopia | Atlanta | 2 | All Maps","protocol":17,"map":"cp_dustbowl","folder":"tf","game":"Team Fortress","app_id":440,"player_count":24,"max_players":24,"Bots":0,"server_type":"Dedicated","server_os":"Linux","password":true,"vac":true,"version":"7757534","steam_id":85568392924469983,"keywords":["cp","nocrits","nodmgspread","uncletopia"],"game_id":440,"stv_port":27026,"stv_name":"Uncletopia | Atlanta | 2 | All Maps | STV","players":[{"user_id":120,"name":"That one Noobslayer","steam_id":76561199151555893,"connected_time":3511000000000,"state":"active","ping":90},{"user_id":170,"name":"FreonAddict9x19","steam_id":76561198060010824,"connected_time":933000000000,"state":"active","ping":70},{"user_id":154,"name":"park","steam_id":76561198084055316,"connected_time":1341000000000,"state":"active","ping":56},{"user_id":167,"name":"xen","steam_id":76561198048568188,"connected_time":1084000000000,"state":"active","ping":58},{"user_id":168,"name":"BubbaBasher","steam_id":76561198829909547,"connected_time":1054000000000,"state":"active","ping":72},{"user_id":178,"name":"emily","steam_id":76561198051872256,"connected_time":656000000000,"state":"active","ping":73},{"user_id":171,"name":"jenitt.gotz","steam_id":76561198274258941,"connected_time":933000000000,"state":"active","ping":110},{"user_id":181,"name":"Pigeon","steam_id":76561198846193209,"connected_time":410000000000,"state":"active","ping":66},{"user_id":123,"name":"dog","steam_id":76561198263873491,"connected_time":3493000000000,"state":"active","ping":51},{"user_id":172,"name":"RavenwolF","steam_id":76561197963374354,"connected_time":928000000000,"state":"active","ping":139},{"user_id":138,"name":"Seen","steam_id":76561198846951422,"connected_time":2702000000000,"state":"active","ping":75},{"user_id":161,"name":"funny mexican dude","steam_id":76561199048391066,"connected_time":1227000000000,"state":"active","ping":99},{"user_id":105,"name":"apidUsurper","steam_id":76561198147941408,"connected_time":4544000000000,"state":"active","ping":174},{"user_id":186,"name":"Ximos","steam_id":76561197998512226,"connected_time":166000000000,"state":"active","ping":53},{"user_id":175,"name":"Soul_Intern","steam_id":76561198310238109,"connected_time":871000000000,"state":"active","ping":87},{"user_id":173,"name":"heimdall","steam_id":76561198069380992,"connected_time":924000000000,"state":"active","ping":80},{"user_id":182,"name":"Gandalf Gaming","steam_id":76561198368151490,"connected_time":338000000000,"state":"active","ping":59},{"user_id":153,"name":"Mr. Klauk","steam_id":76561199085666301,"connected_time":1353000000000,"state":"active","ping":56},{"user_id":149,"name":"FancyBones","steam_id":76561198180198885,"connected_time":1435000000000,"state":"active","ping":75},{"user_id":155,"name":"NBA Youngboy","steam_id":76561199118797200,"connected_time":1340000000000,"state":"active","ping":66},{"user_id":144,"name":"Marlboro Menthol 100s","steam_id":76561198263631055,"connected_time":2483000000000,"state":"active","ping":46},{"user_id":180,"name":"Partark","steam_id":76561198010265825,"connected_time":527000000000,"state":"active","ping":46},{"user_id":63,"name":"custodian","steam_id":76561198058793778,"connected_time":8034000000000,"state":"active","ping":76},{"user_id":185,"name":"crabapples","steam_id":76561198075818655,"connected_time":300000000000,"state":"active","ping":75}]},{"server_id":400,"name":"Uncletopia | Atlanta | 3 | Community","name_short":"atl-3","host":"atl-1.us.uncletopia.com","port":27035,"enabled":true,"region":"us-east","cc":"us","latitude":33.753746,"longitude":-84.38633,"reserved":0,"last_update":"0001-01-01T00:00:00Z","name_a2s":"Uncletopia | Atlanta | 3 | Community","protocol":17,"map":"workshop/koth_kemptown_rc1.ugc767410655","folder":"tf","game":"Team Fortress","app_id":440,"player_count":0,"max_players":24,"Bots":0,"server_type":"Dedicated","server_os":"Linux","password":true,"vac":true,"version":"7757534","steam_id":85568392924515187,"keywords":["cp","nocrits","nodmgspread","uncletopia"],"game_id":440,"stv_port":27036,"stv_name":"Uncletopia | Atlanta | 3 | Community | STV","players":null},{"server_id":401,"name":"Uncletopia | Atlanta | 4 | No Payload","name_short":"atl-4","host":"atl-1.us.uncletopia.com","port":27045,"enabled":true,"region":"us-east","cc":"us","latitude":33.753746,"longitude":-84.38633,"reserved":0,"last_update":"0001-01-01T00:00:00Z","name_a2s":"","protocol":0,"map":"","folder":"","game":"","app_id":0,"player_count":0,"max_players":0,"Bots":0,"server_type":"","server_os":"","password":false,"vac":false,"version":"","steam_id":0,"keywords":null,"game_id":0,"stv_port":0,"stv_name":"","players":null},{"server_id":2,"name":"Uncletopia | Chicago | 1 | All Maps","name_short":"chi-1","host":"chi-1.us.uncletopia.com","port":27015,"enabled":true,"region":"us-central","cc":"us","latitude":41.881832,"longitude":-87.62318,"reserved":0,"last_update":"0001-01-01T00:00:00Z","name_a2s":"Uncletopia | Chicago | 1 | All Maps","protocol":17,"map":"pl_borneo","folder":"tf","game":"Team Fortress","app_id":440,"player_count":24,"max_players":24,"Bots":0,"server_type":"Dedicated","server_os":"Linux","password":true,"vac":true,"version":"7757534","steam_id":85568392924469984,"keywords":["nocrits","nodmgspread","payload","uncletopia"],"game_id":440,"stv_port":27016,"stv_name":"Uncletopia | Chicago | 1 | All Maps | STV","players":[{"user_id":368,"name":"4 life","steam_id":76561198175961598,"connected_time":388000000000,"state":"active","ping":120},{"user_id":370,"name":"Demoman With One Joke","steam_id":76561197993467034,"connected_time":183000000000,"state":"active","ping":48},{"user_id":365,"name":"clack","steam_id":76561198966980576,"connected_time":439000000000,"state":"active","ping":60},{"user_id":366,"name":"Rukks","steam_id":76561197993918954,"connected_time":436000000000,"state":"active","ping":88},{"user_id":321,"name":"Chung","steam_id":76561198114928567,"connected_time":4097000000000,"state":"active","ping":78},{"user_id":307,"name":"an inebriated newt fancier","steam_id":76561197985428155,"connected_time":5127000000000,"state":"active","ping":66},{"user_id":317,"name":"Diatomaceous","steam_id":76561198333556852,"connected_time":4428000000000,"state":"active","ping":102},{"user_id":322,"name":"Yuri","steam_id":76561198071860907,"connected_time":4053000000000,"state":"active","ping":74},{"user_id":367,"name":"tr3@d0f4","steam_id":76561198000757362,"connected_time":425000000000,"state":"active","ping":62},{"user_id":344,"name":"scr//bble","steam_id":76561198117803411,"connected_time":2496000000000,"state":"active","ping":70},{"user_id":361,"name":"SpinetinglingToast","steam_id":76561198099470670,"connected_time":1241000000000,"state":"active","ping":73},{"user_id":362,"name":"AYAYA!!!","steam_id":76561198992102180,"connected_time":1131000000000,"state":"active","ping":48},{"user_id":369,"name":"Gian","steam_id":76561198041434512,"connected_time":355000000000,"state":"active","ping":113},{"user_id":337,"name":"slep.py","steam_id":76561197988287144,"connected_time":2578000000000,"state":"active","ping":56},{"user_id":299,"name":"350cc","steam_id":76561198377320040,"connected_time":5313000000000,"state":"active","ping":85},{"user_id":355,"name":"Red","steam_id":76561198001939529,"connected_time":1422000000000,"state":"active","ping":108},{"user_id":364,"name":"Backtotheeric","steam_id":76561198331228470,"connected_time":941000000000,"state":"active","ping":78},{"user_id":371,"name":"4+1MyriadFuturesCosMo@BousouFC","steam_id":76561198181929019,"connected_time":32000000000,"state":"active","ping":42},{"user_id":330,"name":"FROYO yumyum","steam_id":76561198150567198,"connected_time":3475000000000,"state":"active","ping":60},{"user_id":332,"name":"kite","steam_id":76561198346516392,"connected_time":2846000000000,"state":"active","ping":67},{"user_id":324,"name":"choccy milk","steam_id":76561198111370355,"connected_time":4051000000000,"state":"active","ping":67},{"user_id":335,"name":"Adam (Cursed Confetti Creature)","steam_id":76561198317690197,"connected_time":2592000000000,"state":"active","ping":48},{"user_id":346,"name":"Pennis the Menace","steam_id":76561198254878037,"connected_time":2423000000000,"state":"active","ping":101},{"user_id":357,"name":"DeadErebus","steam_id":76561198286117045,"connected_time":1419000000000,"state":"active","ping":36}]},{"server_id":106,"name":"Uncletopia | Chicago | 2 | All Maps","name_short":"chi-2","host":"chi-1.us.uncletopia.com","port":27025,"enabled":true,"region":"us-central","cc":"us","latitude":41.881832,"longitude":-87.62318,"reserved":0,"last_update":"0001-01-01T00:00:00Z","name_a2s":"Uncletopia | Chicago | 2 | All Maps","protocol":17,"map":"cp_powerhouse","folder":"tf","game":"Team Fortress","app_id":440,"player_count":25,"max_players":24,"Bots":0,"server_type":"Dedicated","server_os":"Linux","password":true,"vac":true,"version":"7757534","steam_id":85568392924469985,"keywords":["cp","nocrits","nodmgspread","uncletopia"],"game_id":440,"stv_port":27026,"stv_name":"Uncletopia | Chicago | 2 | All Maps | STV","players":[{"user_id":98,"name":"MrVegasAguitar","steam_id":76561198084466946,"connected_time":1233000000000,"state":"active","ping":90},{"user_id":113,"name":"PenjaminVT","steam_id":76561198058874021,"connected_time":378000000000,"state":"active","ping":63},{"user_id":73,"name":"motherfucker 2.0","steam_id":76561198141189209,"connected_time":2800000000000,"state":"active","ping":66},{"user_id":123,"name":"DJ Chalice","steam_id":76561197974872458,"connected_time":51000000000,"state":"active","ping":90},{"user_id":62,"name":"Walter White","steam_id":76561199030987614,"connected_time":3619000000000,"state":"active","ping":81},{"user_id":112,"name":"Prison Sal","steam_id":76561198355553673,"connected_time":392000000000,"state":"active","ping":52},{"user_id":114,"name":"Dr. Dick","steam_id":76561198138011922,"connected_time":375000000000,"state":"active","ping":72},{"user_id":115,"name":"FANGSTARKILLER","steam_id":76561199387254994,"connected_time":356000000000,"state":"active","ping":68},{"user_id":121,"name":"ryfith","steam_id":76561198878986398,"connected_time":86000000000,"state":"active","ping":64},{"user_id":87,"name":"avg. sized tobacco","steam_id":76561198118455606,"connected_time":2114000000000,"state":"active","ping":59},{"user_id":72,"name":"YASAI JUICE","steam_id":76561198131971992,"connected_time":2812000000000,"state":"active","ping":35},{"user_id":124,"name":"big fish","steam_id":76561198186479818,"connected_time":26000000000,"state":"active","ping":114},{"user_id":71,"name":"orcluvr69","steam_id":76561198068712028,"connected_time":2823000000000,"state":"active","ping":77},{"user_id":118,"name":"Mikael_01","steam_id":76561199080253129,"connected_time":289000000000,"state":"active","ping":179},{"user_id":103,"name":"threethree","steam_id":76561198177354155,"connected_time":841000000000,"state":"active","ping":45},{"user_id":94,"name":"TheConchinator","steam_id":76561199388149092,"connected_time":1604000000000,"state":"active","ping":58},{"user_id":126,"name":"Smokin' Joe Rudeboy","steam_id":76561198188268607,"connected_time":3000000000,"state":"spawning","ping":54},{"user_id":85,"name":"sansa musa","steam_id":76561198163723555,"connected_time":2409000000000,"state":"active","ping":74},{"user_id":120,"name":"Zeadros","steam_id":76561198170158482,"connected_time":119000000000,"state":"active","ping":60},{"user_id":83,"name":"test","steam_id":76561198197388678,"connected_time":2543000000000,"state":"active","ping":76},{"user_id":122,"name":"a little teapot","steam_id":76561198017131568,"connected_time":75000000000,"state":"connecting","ping":0},{"user_id":100,"name":"Kaluka","steam_id":76561198036861445,"connected_time":1197000000000,"state":"active","ping":68},{"user_id":119,"name":"canakblasteran","steam_id":76561199472518822,"connected_time":271000000000,"state":"active","ping":101},{"user_id":86,"name":"Donkski","steam_id":76561198406895347,"connected_time":2376000000000,"state":"active","ping":75},{"user_id":125,"name":"K.O.","steam_id":76561198114985074,"connected_time":25000000000,"state":"active","ping":60}]},{"server_id":402,"name":"Uncletopia | Chicago | 3 | All Maps","name_short":"chi-3","host":"chi-1.us.uncletopia.com","port":27035,"enabled":true,"region":"us-central","cc":"us","latitude":41.881832,"longitude":-87.62318,"reserved":0,"last_update":"0001-01-01T00:00:00Z","name_a2s":"Uncletopia | Chicago | 3 | All Maps","protocol":17,"map":"cp_snakewater_final1","folder":"tf","game":"Team Fortress","app_id":440,"player_count":24,"max_players":24,"Bots":0,"server_type":"Dedicated","server_os":"Linux","password":true,"vac":true,"version":"7757534","steam_id":85568392924515191,"keywords":["cp","nocrits","nodmgspread","uncletopia"],"game_id":440,"stv_port":27036,"stv_name":"Uncletopia | Chicago | 3 | All Maps | STV","players":[{"user_id":442,"name":"CHEEKY EUNUCH","steam_id":76561198990825232,"connected_time":112000000000,"state":"active","ping":58},{"user_id":431,"name":"Predicta","steam_id":76561198017630616,"connected_time":778000000000,"state":"active","ping":47},{"user_id":339,"name":"sweppy","steam_id":76561198035457667,"connected_time":8548000000000,"state":"active","ping":60},{"user_id":409,"name":"BOTBOT","steam_id":76561198271928618,"connected_time":2611000000000,"state":"active","ping":99},{"user_id":398,"name":"you need to leave","steam_id":76561198337692867,"connected_time":3873000000000,"state":"active","ping":72},{"user_id":428,"name":"the12xu","steam_id":76561198197086561,"connected_time":833000000000,"state":"active","ping":77},{"user_id":416,"name":"TFBot(1)","steam_id":76561198105538929,"connected_time":2096000000000,"state":"active","ping":53},{"user_id":426,"name":"RetroDsk | TTV","steam_id":76561198020646524,"connected_time":866000000000,"state":"active","ping":60},{"user_id":418,"name":"TFBot(2)","steam_id":76561198061284371,"connected_time":1584000000000,"state":"active","ping":44},{"user_id":406,"name":"DatFluffyPancake","steam_id":76561198271958697,"connected_time":2675000000000,"state":"active","ping":80},{"user_id":430,"name":"The Cool Man","steam_id":76561198096420556,"connected_time":805000000000,"state":"active","ping":95},{"user_id":400,"name":"khil","steam_id":76561198042455487,"connected_time":3636000000000,"state":"active","ping":43},{"user_id":429,"name":"pale","steam_id":76561198047797691,"connected_time":825000000000,"state":"active","ping":61},{"user_id":432,"name":"Synergy","steam_id":76561198365956073,"connected_time":757000000000,"state":"active","ping":64},{"user_id":433,"name":"DustBunny","steam_id":76561198056349047,"connected_time":737000000000,"state":"active","ping":74},{"user_id":434,"name":"B0otstrut beel","steam_id":76561198202457221,"connected_time":716000000000,"state":"active","ping":72},{"user_id":435,"name":"Sposeidon","steam_id":76561199044781490,"connected_time":712000000000,"state":"active","ping":63},{"user_id":436,"name":"Epic Rat Battles Of History","steam_id":76561197988539344,"connected_time":689000000000,"state":"active","ping":52},{"user_id":444,"name":"Majin Boo Radley","steam_id":76561198288471052,"connected_time":22000000000,"state":"active","ping":56},{"user_id":390,"name":"Reb, the Lord of Magic","steam_id":76561198144756713,"connected_time":4540000000000,"state":"active","ping":88},{"user_id":439,"name":"eggnog","steam_id":76561198439899407,"connected_time":605000000000,"state":"active","ping":93},{"user_id":411,"name":"sheep on da linux","steam_id":76561198076781979,"connected_time":2559000000000,"state":"active","ping":95},{"user_id":443,"name":"zapphique","steam_id":76561198083575802,"connected_time":70000000000,"state":"active","ping":75},{"user_id":417,"name":"That Guy","steam_id":76561198798973444,"connected_time":2024000000000,"state":"active","ping":71}]},{"server_id":403,"name":"Uncletopia | Chicago | 4 | All Maps","name_short":"chi-4","host":"chi-1.us.uncletopia.com","port":27045,"enabled":true,"region":"us-central","cc":"us","latitude":41.881832,"longitude":-87.62318,"reserved":0,"last_update":"0001-01-01T00:00:00Z","name_a2s":"Uncletopia | Chicago | 4 | All Maps","protocol":17,"map":"ctf_turbine","folder":"tf","game":"Team Fortress","app_id":440,"player_count":22,"max_players":24,"Bots":0,"server_type":"Dedicated","server_os":"Linux","password":true,"vac":true,"version":"7757534","steam_id":85568392924515193,"keywords":["ctf","nocrits","nodmgspread","uncletopia"],"game_id":440,"stv_port":27046,"stv_name":"Uncletopia | Chicago | 4 | All Maps | STV","players":[{"user_id":616,"name":"Bot Karma","steam_id":76561198422386331,"connected_time":325000000000,"state":"active","ping":137},{"user_id":597,"name":"George","steam_id":76561198020046873,"connected_time":1481000000000,"state":"active","ping":61},{"user_id":615,"name":"SkillfulDeezBanana","steam_id":76561199038468789,"connected_time":421000000000,"state":"active","ping":69},{"user_id":613,"name":"Distou","steam_id":76561198397886545,"connected_time":632000000000,"state":"active","ping":100},{"user_id":620,"name":"Landrow","steam_id":76561199156068210,"connected_time":98000000000,"state":"active","ping":112},{"user_id":598,"name":"ItsBakerboyJ","steam_id":76561198183654439,"connected_time":1464000000000,"state":"active","ping":63},{"user_id":611,"name":"Blud walked 0 miles ðŸ˜­ðŸ˜­\ufffd\ufffd\ufffd","steam_id":76561199285074344,"connected_time":716000000000,"state":"active","ping":65},{"user_id":575,"name":"Buttons :)","steam_id":76561198139478534,"connected_time":2769000000000,"state":"active","ping":106},{"user_id":538,"name":"Hipster Killer","steam_id":76561198068569249,"connected_time":5301000000000,"state":"active","ping":86},{"user_id":617,"name":"Purple Gibus","steam_id":76561199176594205,"connected_time":181000000000,"state":"active","ping":59},{"user_id":612,"name":"Uncle","steam_id":76561197988647705,"connected_time":693000000000,"state":"active","ping":65},{"user_id":554,"name":"WatchWill","steam_id":76561198157237945,"connected_time":4109000000000,"state":"active","ping":69},{"user_id":582,"name":"rbstat","steam_id":76561198050169034,"connected_time":2634000000000,"state":"active","ping":75},{"user_id":513,"name":"Barlon","steam_id":76561198023717515,"connected_time":6744000000000,"state":"active","ping":74},{"user_id":614,"name":"(Ã”)Ã”)Wandering Singer(Ã”(Ã”)","steam_id":76561198126477141,"connected_time":594000000000,"state":"active","ping":65},{"user_id":618,"name":"Ok then","steam_id":76561198891914787,"connected_time":144000000000,"state":"active","ping":105},{"user_id":584,"name":"|WS| Don't_Taze_Me_Bro","steam_id":76561198043289495,"connected_time":2623000000000,"state":"active","ping":76},{"user_id":586,"name":"ight gaming","steam_id":76561199196558677,"connected_time":2586000000000,"state":"active","ping":87},{"user_id":556,"name":"The Hoagie Hero","steam_id":76561198057569298,"connected_time":3810000000000,"state":"active","ping":78},{"user_id":608,"name":"Subderhenge","steam_id":76561198090955892,"connected_time":915000000000,"state":"active","ping":95},{"user_id":550,"name":"Fresh0c0","steam_id":76561198271933283,"connected_time":4690000000000,"state":"active","ping":62},{"user_id":602,"name":"Jambi","steam_id":76561198846091685,"connected_time":1338000000000,"state":"active","ping":66}]},{"server_id":36,"name":"Uncletopia | Chicago | 5 | All Maps","name_short":"chi-5","host":"chi-2.us.uncletopia.com","port":27015,"enabled":true,"region":"us-central","cc":"us","latitude":41.881832,"longitude":-87.62318,"reserved":0,"last_update":"0001-01-01T00:00:00Z","name_a2s":"Uncletopia | Chicago | 5 | All Maps","protocol":17,"map":"pl_borneo","folder":"tf","game":"Team Fortress","app_id":440,"player_count":24,"max_players":24,"Bots":0,"server_type":"Dedicated","server_os":"Linux","password":true,"vac":true,"version":"7757534","steam_id":85568392924866362,"keywords":["nocrits","nodmgspread","payload","uncletopia"],"game_id":440,"stv_port":27016,"stv_name":"Uncletopia | Chicago | 5 | All Maps | STV","players":[{"user_id":10,"name":"Drewey","steam_id":76561199258609863,"connected_time":1671000000000,"state":"active","ping":59},{"user_id":11,"name":"VampMonarch","steam_id":76561198358383710,"connected_time":1590000000000,"state":"active","ping":65},{"user_id":21,"name":"Kaprinae","steam_id":76561199260109617,"connected_time":972000000000,"state":"active","ping":73},{"user_id":15,"name":"cokersworld","steam_id":76561198039731344,"connected_time":1119000000000,"state":"active","ping":80},{"user_id":16,"name":"Doofy","steam_id":76561198417482150,"connected_time":1088000000000,"state":"active","ping":101},{"user_id":19,"name":"EpicGamer48484","steam_id":76561199230935031,"connected_time":1029000000000,"state":"active","ping":63},{"user_id":20,"name":"fan271","steam_id":76561198351919562,"connected_time":1017000000000,"state":"active","ping":69},{"user_id":22,"name":"griff928","steam_id":76561198149614679,"connected_time":968000000000,"state":"active","ping":47},{"user_id":41,"name":"Steven37890","steam_id":76561198073879090,"connected_time":74000000000,"state":"active","ping":55},{"user_id":24,"name":"BeakerofSalt","steam_id":76561198986000125,"connected_time":822000000000,"state":"active","ping":55},{"user_id":26,"name":"SpicyMints","steam_id":76561198856227330,"connected_time":657000000000,"state":"active","ping":110},{"user_id":27,"name":"Shmurg","steam_id":76561199368485421,"connected_time":636000000000,"state":"active","ping":45},{"user_id":28,"name":"NV.3e00","steam_id":76561198089671934,"connected_time":545000000000,"state":"active","ping":66},{"user_id":29,"name":"Ragnoratsu","steam_id":76561198189688723,"connected_time":528000000000,"state":"active","ping":41},{"user_id":30,"name":"unchi","steam_id":76561198130813230,"connected_time":518000000000,"state":"active","ping":55},{"user_id":31,"name":"Kirby Star Ally","steam_id":76561198237956438,"connected_time":493000000000,"state":"active","ping":66},{"user_id":32,"name":"ribbonborn","steam_id":76561198001195423,"connected_time":363000000000,"state":"active","ping":94},{"user_id":40,"name":"uzr","steam_id":76561198799343084,"connected_time":177000000000,"state":"active","ping":104},{"user_id":34,"name":"Voon","steam_id":76561198166843533,"connected_time":357000000000,"state":"active","ping":77},{"user_id":35,"name":"Dehydrated lft","steam_id":76561198970587989,"connected_time":343000000000,"state":"active","ping":167},{"user_id":36,"name":"Xtra","steam_id":76561198355594088,"connected_time":314000000000,"state":"active","ping":55},{"user_id":37,"name":"Xenowo","steam_id":76561198120574708,"connected_time":308000000000,"state":"active","ping":75},{"user_id":38,"name":"Weakest Dwarf Enjoyer","steam_id":76561197993227472,"connected_time":283000000000,"state":"active","ping":103},{"user_id":39,"name":"Dr. Delicate Touch","steam_id":76561199120483390,"connected_time":240000000000,"state":"active","ping":87}]},{"server_id":37,"name":"Uncletopia | Chicago | 6 | All Maps","name_short":"chi-6","host":"chi-2.us.uncletopia.com","port":27025,"enabled":true,"region":"us-central","cc":"us","latitude":41.881832,"longitude":-87.62318,"reserved":0,"last_update":"0001-01-01T00:00:00Z","name_a2s":"Uncletopia | Chicago | 6 | All Maps","protocol":17,"map":"pl_badwater","folder":"tf","game":"Team Fortress","app_id":440,"player_count":23,"max_players":24,"Bots":0,"server_type":"Dedicated","server_os":"Linux","password":true,"vac":true,"version":"7757534","steam_id":85568392924866363,"keywords":["cp","nocrits","nodmgspread","uncletopia"],"game_id":440,"stv_port":27026,"stv_name":"Uncletopia | Chicago | 6 | All Maps | STV","players":[{"user_id":472,"name":"The Assistant Regional Manager","steam_id":76561199221484936,"connected_time":3157000000000,"state":"connecting","ping":121},{"user_id":470,"name":"DiscoTraveler","steam_id":76561199240168088,"connected_time":3242000000000,"state":"connecting","ping":77},{"user_id":508,"name":"Potion seller (They/Them)","steam_id":76561199078306687,"connected_time":252000000000,"state":"connecting","ping":70},{"user_id":499,"name":"Jacket_","steam_id":76561198119576077,"connected_time":887000000000,"state":"connecting","ping":93},{"user_id":502,"name":"Candy Sparkles","steam_id":76561198126871264,"connected_time":489000000000,"state":"connecting","ping":89},{"user_id":495,"name":"doctor large","steam_id":76561199195836752,"connected_time":1291000000000,"state":"connecting","ping":89},{"user_id":479,"name":"Oh No! It's Twister!","steam_id":76561198016791916,"connected_time":2804000000000,"state":"connecting","ping":88},{"user_id":511,"name":"wes","steam_id":76561198273536400,"connected_time":20000000000,"state":"connecting","ping":89},{"user_id":496,"name":"SDL","steam_id":76561198859719985,"connected_time":1279000000000,"state":"connecting","ping":87},{"user_id":490,"name":"Queen Frau the Round","steam_id":76561197999942134,"connected_time":1836000000000,"state":"connecting","ping":48},{"user_id":478,"name":"Ejaculation Zach","steam_id":76561198203765200,"connected_time":2931000000000,"state":"connecting","ping":67},{"user_id":498,"name":"THE Bucket Man","steam_id":76561198851816161,"connected_time":1002000000000,"state":"connecting","ping":101},{"user_id":457,"name":"diarrhea.daniel (gamer)","steam_id":76561198117148323,"connected_time":3847000000000,"state":"connecting","ping":70},{"user_id":486,"name":"Bookmenot","steam_id":76561198153442084,"connected_time":2077000000000,"state":"connecting","ping":123},{"user_id":431,"name":"A Puppy","steam_id":76561198828184456,"connected_time":5068000000000,"state":"connecting","ping":82},{"user_id":497,"name":"captainspatklz","steam_id":76561198432167270,"connected_time":1252000000000,"state":"connecting","ping":78},{"user_id":504,"name":"Shrakn3l","steam_id":76561198131675625,"connected_time":366000000000,"state":"connecting","ping":64},{"user_id":500,"name":"The Guy For That","steam_id":76561198195208795,"connected_time":849000000000,"state":"connecting","ping":74},{"user_id":506,"name":"CthulUwU","steam_id":76561199216928261,"connected_time":314000000000,"state":"connecting","ping":102},{"user_id":422,"name":"Mr.Bady","steam_id":76561199094651706,"connected_time":6583000000000,"state":"connecting","ping":114},{"user_id":507,"name":"katryna","steam_id":76561198023440304,"connected_time":302000000000,"state":"connecting","ping":72},{"user_id":471,"name":"Unlock The Shock (She/They)","steam_id":76561198823616667,"connected_time":3197000000000,"state":"connecting","ping":94},{"user_id":484,"name":"ferin","steam_id":76561198137607046,"connected_time":2309000000000,"state":"connecting","ping":61}]},{"server_id":38,"name":"Uncletopia | Chicago | 7 | Stopwatch Beta","name_short":"chi-7","host":"chi-2.us.uncletopia.com","port":27035,"enabled":true,"region":"us-central","cc":"us","latitude":41.881832,"longitude":-87.62318,"reserved":0,"last_update":"0001-01-01T00:00:00Z","name_a2s":"Uncletopia | Chicago | 7 | Stopwatch Beta","protocol":17,"map":"pl_barnblitz","folder":"tf","game":"Team Fortress","app_id":440,"player_count":0,"max_players":24,"Bots":0,"server_type":"Dedicated","server_os":"Linux","password":true,"vac":true,"version":"7757534","steam_id":85568392924866364,"keywords":["nocrits","nodmgspread","payload","uncletopia"],"game_id":440,"stv_port":27036,"stv_name":"Uncletopia | Chicago | 7 | Stopwatch Beta | STV","players":null},{"server_id":39,"name":"Uncletopia | Chicago | 8 | Community","name_short":"chi-8","host":"chi-2.us.uncletopia.com","port":27045,"enabled":true,"region":"us-central","cc":"us","latitude":41.881832,"longitude":-87.62318,"reserved":0,"last_update":"0001-01-01T00:00:00Z","name_a2s":"Uncletopia | Chicago | 8 | Community","protocol":17,"map":"koth_cascade","folder":"tf","game":"Team Fortress","app_id":440,"player_count":0,"max_players":24,"Bots":0,"server_type":"Dedicated","server_os":"Linux","password":true,"vac":true,"version":"7757534","steam_id":85568392924866365,"keywords":["cp","nocrits","nodmgspread","uncletopia"],"game_id":440,"stv_port":27046,"stv_name":"Uncletopia | Chicago | 8 | Community | STV","players":null},{"server_id":8,"name":"Uncletopia | Dallas | 1 | All Maps","name_short":"dal-1","host":"dal-1.us.uncletopia.com","port":27015,"enabled":true,"region":"us-central","cc":"us","latitude":32.779167,"longitude":-96.80889,"reserved":0,"last_update":"0001-01-01T00:00:00Z","name_a2s":"Uncletopia | Dallas | 1 | All Maps","protocol":17,"map":"cp_snakewater_final1","folder":"tf","game":"Team Fortress","app_id":440,"player_count":24,"max_players":24,"Bots":0,"server_type":"Dedicated","server_os":"Linux","password":true,"vac":true,"version":"7757534","steam_id":85568392924469986,"keywords":["cp","nocrits","nodmgspread","uncletopia"],"game_id":440,"stv_port":27016,"stv_name":"Uncletopia | Dallas | 1 | All Maps | STV","players":[{"user_id":245,"name":"Duane","steam_id":76561198078392272,"connected_time":395000000000,"state":"active","ping":86},{"user_id":246,"name":"Leterq8","steam_id":76561198331432556,"connected_time":386000000000,"state":"active","ping":40},{"user_id":232,"name":"iluvtoust","steam_id":76561198869269207,"connected_time":1369000000000,"state":"active","ping":52},{"user_id":173,"name":"ThatGamingKiwi","steam_id":76561199170522237,"connected_time":6868000000000,"state":"active","ping":104},{"user_id":194,"name":"Punished Shitster","steam_id":76561198150452857,"connected_time":4510000000000,"state":"active","ping":50},{"user_id":241,"name":"a Salty Individual","steam_id":76561197979951077,"connected_time":926000000000,"state":"active","ping":125},{"user_id":229,"name":"Sigiferd","steam_id":76561198148788110,"connected_time":1559000000000,"state":"active","ping":140},{"user_id":238,"name":"matchmatch                     ","steam_id":76561198048925904,"connected_time":1009000000000,"state":"active","ping":84},{"user_id":252,"name":"Gà¶žMER","steam_id":76561198340389876,"connected_time":151000000000,"state":"active","ping":81},{"user_id":156,"name":"Slingwolf","steam_id":76561198132720460,"connected_time":7806000000000,"state":"active","ping":105},{"user_id":219,"name":"[DEEP]able","steam_id":76561198292552182,"connected_time":2128000000000,"state":"active","ping":65},{"user_id":249,"name":"TechnoBear2099","steam_id":76561198238863596,"connected_time":310000000000,"state":"active","ping":46},{"user_id":240,"name":"Cedric","steam_id":76561198072090580,"connected_time":958000000000,"state":"active","ping":102},{"user_id":184,"name":"lamadre07","steam_id":76561198067337453,"connected_time":5198000000000,"state":"active","ping":77},{"user_id":230,"name":"TheFail36","steam_id":76561199111552786,"connected_time":1553000000000,"state":"active","ping":154},{"user_id":236,"name":"LemonPoppyMuffin","steam_id":76561198044813750,"connected_time":1204000000000,"state":"active","ping":66},{"user_id":166,"name":"Owixan","steam_id":76561198074990070,"connected_time":7262000000000,"state":"active","ping":60},{"user_id":233,"name":"errant","steam_id":76561197961758410,"connected_time":1297000000000,"state":"active","ping":37},{"user_id":234,"name":"[rtrds]dgnr8s_evrywr_28","steam_id":76561198038080028,"connected_time":1288000000000,"state":"active","ping":77},{"user_id":248,"name":"Titan","steam_id":76561198281029883,"connected_time":326000000000,"state":"active","ping":113},{"user_id":243,"name":"Luminaro","steam_id":76561198237301228,"connected_time":787000000000,"state":"active","ping":62},{"user_id":253,"name":"austintacious","steam_id":76561198054118061,"connected_time":142000000000,"state":"active","ping":75},{"user_id":209,"name":"KFC Rat","steam_id":76561198135128086,"connected_time":3171000000000,"state":"active","ping":127},{"user_id":188,"name":"Karma","steam_id":76561199112057184,"connected_time":4585000000000,"state":"active","ping":70}]},{"server_id":108,"name":"Uncletopia | Dallas | 2 | All Maps","name_short":"dal-2","host":"dal-1.us.uncletopia.com","port":27025,"enabled":true,"region":"us-central","cc":"us","latitude":32.779167,"longitude":-96.80889,"reserved":0,"last_update":"0001-01-01T00:00:00Z","name_a2s":"Uncletopia | Dallas | 2 | All Maps","protocol":17,"map":"cp_mountainlab","folder":"tf","game":"Team Fortress","app_id":440,"player_count":24,"max_players":24,"Bots":0,"server_type":"Dedicated","server_os":"Linux","password":true,"vac":true,"version":"7757534","steam_id":85568392924469988,"keywords":["cp","nocrits","nodmgspread","uncletopia"],"game_id":440,"stv_port":27026,"stv_name":"Uncletopia | Dallas | 2 | All Maps | STV","players":[{"user_id":549,"name":"Mr. Bones","steam_id":76561198404846656,"connected_time":1185000000000,"state":"active","ping":70},{"user_id":533,"name":"Derply","steam_id":76561198871211642,"connected_time":1746000000000,"state":"active","ping":67},{"user_id":550,"name":"YouSeeIvan....","steam_id":76561198098417702,"connected_time":1174000000000,"state":"active","ping":58},{"user_id":509,"name":"Just_Red05","steam_id":76561198400296405,"connected_time":3259000000000,"state":"active","ping":98},{"user_id":542,"name":"Pluto","steam_id":76561198338593690,"connected_time":1352000000000,"state":"active","ping":79},{"user_id":543,"name":"Bombat","steam_id":76561198083096946,"connected_time":1322000000000,"state":"active","ping":91},{"user_id":557,"name":"Mr. Soupman","steam_id":76561198021649598,"connected_time":1063000000000,"state":"active","ping":75},{"user_id":546,"name":"spy","steam_id":76561198937717599,"connected_time":1284000000000,"state":"active","ping":40},{"user_id":563,"name":"Dr Smeggman","steam_id":76561197966614845,"connected_time":827000000000,"state":"active","ping":150},{"user_id":534,"name":"ChottoAMinute","steam_id":76561198873157775,"connected_time":1601000000000,"state":"active","ping":36},{"user_id":559,"name":"Look a Bird","steam_id":76561198016294724,"connected_time":1005000000000,"state":"active","ping":84},{"user_id":545,"name":"Jared In Target","steam_id":76561198372449718,"connected_time":1302000000000,"state":"active","ping":49},{"user_id":562,"name":"Kraftlos","steam_id":76561198074350350,"connected_time":874000000000,"state":"active","ping":99},{"user_id":551,"name":"bird doctor","steam_id":76561199144340440,"connected_time":1153000000000,"state":"active","ping":61},{"user_id":567,"name":"Joe Swanson","steam_id":76561199089907740,"connected_time":250000000000,"state":"active","ping":71},{"user_id":552,"name":"DannyM","steam_id":76561198351165570,"connected_time":1114000000000,"state":"active","ping":35},{"user_id":564,"name":"robot6226","steam_id":76561198849973320,"connected_time":513000000000,"state":"active","ping":83},{"user_id":561,"name":".-.","steam_id":76561198820617005,"connected_time":938000000000,"state":"active","ping":108},{"user_id":456,"name":"picnic blanket","steam_id":76561198308186037,"connected_time":6664000000000,"state":"active","ping":74},{"user_id":566,"name":"Centipede on a Game Boy","steam_id":76561199016285746,"connected_time":373000000000,"state":"active","ping":72},{"user_id":565,"name":"Sky!","steam_id":76561198141953747,"connected_time":494000000000,"state":"active","ping":66},{"user_id":554,"name":"JustLooking","steam_id":76561198207877387,"connected_time":1106000000000,"state":"active","ping":83},{"user_id":555,"name":"forktails","steam_id":76561198046185082,"connected_time":1104000000000,"state":"active","ping":75},{"user_id":560,"name":"digiorno","steam_id":76561198220073852,"connected_time":1001000000000,"state":"active","ping":62}]},{"server_id":5,"name":"Uncletopia | Frankfurt | 1 | All Maps","name_short":"frk-1","host":"frk-1.de.uncletopia.com","port":27015,"enabled":true,"region":"eu","cc":"de","latitude":50.110924,"longitude":8.682127,"reserved":0,"last_update":"0001-01-01T00:00:00Z","name_a2s":"Uncletopia | Frankfurt | 1 | All Maps","protocol":17,"map":"koth_viaduct","folder":"tf","game":"Team Fortress","app_id":440,"player_count":0,"max_players":24,"Bots":0,"server_type":"Dedicated","server_os":"Linux","password":true,"vac":true,"version":"7757534","steam_id":85568392924469989,"keywords":["cp","nocrits","nodmgspread","uncletopia"],"game_id":440,"stv_port":27016,"stv_name":"Uncletopia | Frankfurt | 1 | All Maps | STV","players":null},{"server_id":110,"name":"Uncletopia | Frankfurt | 2 | All Maps","name_short":"frk-2","host":"frk-1.de.uncletopia.com","port":27025,"enabled":true,"region":"eu","cc":"de","latitude":50.110924,"longitude":8.682127,"reserved":0,"last_update":"0001-01-01T00:00:00Z","name_a2s":"Uncletopia | Frankfurt | 2 | All Maps","protocol":17,"map":"koth_lakeside_final","folder":"tf","game":"Team Fortress","app_id":440,"player_count":4,"max_players":24,"Bots":0,"server_type":"Dedicated","server_os":"Linux","password":true,"vac":true,"version":"7757534","steam_id":85568392924469990,"keywords":["cp","nocrits","nodmgspread","uncletopia"],"game_id":440,"stv_port":27026,"stv_name":"Uncletopia | Frankfurt | 2 | All Maps | STV","players":[{"user_id":648,"name":"ja","steam_id":76561199228540618,"connected_time":1349000000000,"state":"active","ping":71},{"user_id":628,"name":"heavy sings (real)","steam_id":76561199023804405,"connected_time":4356000000000,"state":"active","ping":75},{"user_id":644,"name":"RBV","steam_id":76561198370445644,"connected_time":2326000000000,"state":"active","ping":67},{"user_id":650,"name":"katana on the trains","steam_id":76561198202464032,"connected_time":272000000000,"state":"active","ping":71}]},{"server_id":308,"name":"Uncletopia | Frankfurt | 3 | All Maps","name_short":"frk-3","host":"frk-1.de.uncletopia.com","port":27035,"enabled":true,"region":"eu","cc":"de","latitude":50.110924,"longitude":8.682127,"reserved":0,"last_update":"0001-01-01T00:00:00Z","name_a2s":"Uncletopia | Frankfurt | 3 | All Maps","protocol":17,"map":"koth_highpass","folder":"tf","game":"Team Fortress","app_id":440,"player_count":0,"max_players":24,"Bots":0,"server_type":"Dedicated","server_os":"Linux","password":true,"vac":true,"version":"7757534","steam_id":85568392924504274,"keywords":["cp","nocrits","nodmgspread","uncletopia"],"game_id":440,"stv_port":27036,"stv_name":"Uncletopia | Frankfurt | 3 | All Maps | STV","players":null},{"server_id":309,"name":"Uncletopia | Frankfurt | 4 | All Maps","name_short":"frk-4","host":"frk-1.de.uncletopia.com","port":27045,"enabled":true,"region":"eu","cc":"de","latitude":50.110924,"longitude":8.682127,"reserved":0,"last_update":"0001-01-01T00:00:00Z","name_a2s":"Uncletopia | Frankfurt | 4 | All Maps","protocol":17,"map":"pl_badwater","folder":"tf","game":"Team Fortress","app_id":440,"player_count":24,"max_players":24,"Bots":0,"server_type":"Dedicated","server_os":"Linux","password":true,"vac":true,"version":"7757534","steam_id":85568392924504275,"keywords":["nocrits","nodmgspread","payload","uncletopia"],"game_id":440,"stv_port":27046,"stv_name":"Uncletopia | Frankfurt | 4 | All Maps | STV","players":[{"user_id":516,"name":"Nyhde","steam_id":76561198012771416,"connected_time":4447000000000,"state":"active","ping":81},{"user_id":522,"name":"saderhesz","steam_id":76561197992287330,"connected_time":3923000000000,"state":"active","ping":59},{"user_id":570,"name":"wher iz updeit?","steam_id":76561198102125260,"connected_time":517000000000,"state":"active","ping":73},{"user_id":551,"name":"Vershal Smershal","steam_id":76561198116223995,"connected_time":2499000000000,"state":"active","ping":59},{"user_id":561,"name":"schaffi","steam_id":76561198061369274,"connected_time":1960000000000,"state":"active","ping":75},{"user_id":571,"name":"Goose of Wisdom","steam_id":76561198233465044,"connected_time":509000000000,"state":"active","ping":159},{"user_id":529,"name":"The Punch","steam_id":76561198212488780,"connected_time":3654000000000,"state":"active","ping":57},{"user_id":548,"name":"Quacksterhand","steam_id":76561197999080808,"connected_time":2641000000000,"state":"active","ping":36},{"user_id":523,"name":"Fat Juicy Girlcock","steam_id":76561198022584980,"connected_time":3920000000000,"state":"active","ping":68},{"user_id":524,"name":"Wren","steam_id":76561198046292179,"connected_time":3902000000000,"state":"active","ping":73},{"user_id":552,"name":"He could be any one of us","steam_id":76561198320506848,"connected_time":2495000000000,"state":"active","ping":58},{"user_id":532,"name":"saywoo","steam_id":76561198904469197,"connected_time":3467000000000,"state":"active","ping":73},{"user_id":560,"name":"Holy f stewie, I am shÃ­tting.","steam_id":76561198147173457,"connected_time":2377000000000,"state":"active","ping":62},{"user_id":569,"name":"autism's strongest sodlier.","steam_id":76561198317434881,"connected_time":969000000000,"state":"active","ping":55},{"user_id":555,"name":"Aaron","steam_id":76561198324775476,"connected_time":2447000000000,"state":"active","ping":79},{"user_id":533,"name":"Dash","steam_id":76561198041329823,"connected_time":3436000000000,"state":"active","ping":81},{"user_id":546,"name":"Jmen","steam_id":76561198000501096,"connected_time":3056000000000,"state":"active","ping":71},{"user_id":572,"name":"Samus","steam_id":76561198045943019,"connected_time":508000000000,"state":"active","ping":47},{"user_id":543,"name":"/ffÂª rilookp","steam_id":76561198143529110,"connected_time":3160000000000,"state":"active","ping":60},{"user_id":553,"name":"agent youppii","steam_id":76561198055264447,"connected_time":2494000000000,"state":"active","ping":70},{"user_id":549,"name":"Mr.B","steam_id":76561199204478925,"connected_time":2577000000000,"state":"active","ping":124},{"user_id":556,"name":"Lennox","steam_id":76561198069063554,"connected_time":2440000000000,"state":"active","ping":45},{"user_id":567,"name":"luis_rodrigues","steam_id":76561198012768802,"connected_time":1169000000000,"state":"active","ping":74},{"user_id":559,"name":"lilly","steam_id":76561199441196540,"connected_time":2416000000000,"state":"active","ping":69}]},{"server_id":310,"name":"Uncletopia | Frankfurt | 5 | All Maps","name_short":"frk-5","host":"frk-1.de.uncletopia.com","port":27055,"enabled":true,"region":"eu","cc":"de","latitude":50.110924,"longitude":8.682127,"reserved":0,"last_update":"0001-01-01T00:00:00Z","name_a2s":"Uncletopia | Frankfurt | 5 | All Maps","protocol":17,"map":"pl_badwater","folder":"tf","game":"Team Fortress","app_id":440,"player_count":0,"max_players":24,"Bots":0,"server_type":"Dedicated","server_os":"Linux","password":true,"vac":true,"version":"7757534","steam_id":85568392924504277,"keywords":["nocrits","nodmgspread","payload","uncletopia"],"game_id":440,"stv_port":27056,"stv_name":"Uncletopia | Frankfurt | 5 | All Maps | STV","players":null},{"server_id":311,"name":"Uncletopia | Frankfurt | 6 | All Maps","name_short":"frk-6","host":"frk-1.de.uncletopia.com","port":27065,"enabled":true,"region":"eu","cc":"de","latitude":50.110924,"longitude":8.682127,"reserved":0,"last_update":"0001-01-01T00:00:00Z","name_a2s":"Uncletopia | Frankfurt | 6 | All Maps","protocol":17,"map":"plr_nightfall_final","folder":"tf","game":"Team Fortress","app_id":440,"player_count":0,"max_players":24,"Bots":0,"server_type":"Dedicated","server_os":"Linux","password":true,"vac":true,"version":"7757534","steam_id":85568392924504278,"keywords":["nocrits","nodmgspread","payload","uncletopia"],"game_id":440,"stv_port":27066,"stv_name":"Uncletopia | Frankfurt | 6 | All Maps | STV","players":null},{"server_id":23,"name":"Uncletopia | Frankfurt | 7 | Stopwatch Beta","name_short":"frk-7","host":"frk-1.de.uncletopia.com","port":27075,"enabled":true,"region":"eu","cc":"de","latitude":50.110924,"longitude":8.682127,"reserved":0,"last_update":"0001-01-01T00:00:00Z","name_a2s":"Uncletopia | Frankfurt | 7 | Stopwatch Beta","protocol":17,"map":"workshop/koth_clearcut_b15.ugc2107050255","folder":"tf","game":"Team Fortress","app_id":440,"player_count":0,"max_players":24,"Bots":0,"server_type":"Dedicated","server_os":"Linux","password":true,"vac":true,"version":"7757534","steam_id":85568392924742827,"keywords":["cp","nocrits","nodmgspread","uncletopia"],"game_id":440,"stv_port":27076,"stv_name":"Uncletopia | Frankfurt | 7 | Stopwatch Beta | STV","players":null},{"server_id":24,"name":"Uncletopia | Frankfurt | 8 | Community","name_short":"frk-8","host":"frk-1.de.uncletopia.com","port":27085,"enabled":true,"region":"eu","cc":"de","latitude":50.110924,"longitude":8.682127,"reserved":0,"last_update":"0001-01-01T00:00:00Z","name_a2s":"Uncletopia | Frankfurt | 8 | Community","protocol":17,"map":"workshop/cp_kalinka_rc6a.ugc1272700588","folder":"tf","game":"Team Fortress","app_id":440,"player_count":0,"max_players":24,"Bots":0,"server_type":"Dedicated","server_os":"Linux","password":true,"vac":true,"version":"7757534","steam_id":85568392924742828,"keywords":["cp","nocrits","nodmgspread","uncletopia"],"game_id":440,"stv_port":27086,"stv_name":"Uncletopia | Frankfurt | 8 | Community | STV","players":null},{"server_id":202,"name":"Uncletopia | Hong Kong | 1 | All Maps","name_short":"hgk-1","host":"hgk-1.hk.uncletopia.com","port":27015,"enabled":true,"region":"asia","cc":"hk","latitude":22.302711,"longitude":114.177216,"reserved":0,"last_update":"0001-01-01T00:00:00Z","name_a2s":"Uncletopia | Hong Kong | 1 | All Maps","protocol":17,"map":"pl_borneo","folder":"tf","game":"Team Fortress","app_id":440,"player_count":0,"max_players":24,"Bots":0,"server_type":"Dedicated","server_os":"Linux","password":true,"vac":true,"version":"7757534","steam_id":85568392924494504,"keywords":["nocrits","nodmgspread","payload","uncletopia"],"game_id":440,"stv_port":27016,"stv_name":"Uncletopia | Hong Kong | 1 | All Maps | STV","players":null},{"server_id":1,"name":"Uncletopia | Los Angeles | 1 | All Maps","name_short":"lax-1","host":"lax-1.us.uncletopia.com","port":27015,"enabled":true,"region":"us-west","cc":"us","latitude":33.94279,"longitude":-118.41004,"reserved":0,"last_update":"0001-01-01T00:00:00Z","name_a2s":"Uncletopia | Los Angeles | 1 | All Maps","protocol":17,"map":"pl_snowycoast","folder":"tf","game":"Team Fortress","app_id":440,"player_count":2,"max_players":24,"Bots":0,"server_type":"Dedicated","server_os":"Linux","password":true,"vac":true,"version":"7757534","steam_id":85568392924469991,"keywords":["nocrits","nodmgspread","payload","uncletopia"],"game_id":440,"stv_port":27016,"stv_name":"Uncletopia | Los Angeles | 1 | All Maps | STV","players":[{"user_id":15,"name":"Prof. Oli","steam_id":76561198980241587,"connected_time":665000000000,"state":"active","ping":109},{"user_id":17,"name":"DevDaKitsune","steam_id":76561198035298119,"connected_time":579000000000,"state":"active","ping":58}]},{"server_id":112,"name":"Uncletopia | Los Angeles | 2 | All Maps","name_short":"lax-2","host":"lax-1.us.uncletopia.com","port":27025,"enabled":true,"region":"us-west","cc":"us","latitude":33.94279,"longitude":-118.41004,"reserved":0,"last_update":"0001-01-01T00:00:00Z","name_a2s":"Uncletopia | Los Angeles | 2 | All Maps","protocol":17,"map":"cp_snakewater_final1","folder":"tf","game":"Team Fortress","app_id":440,"player_count":0,"max_players":24,"Bots":0,"server_type":"Dedicated","server_os":"Linux","password":true,"vac":true,"version":"7757534","steam_id":85568392924469992,"keywords":["cp","nocrits","nodmgspread","uncletopia"],"game_id":440,"stv_port":27026,"stv_name":"Uncletopia | Los Angeles | 2 | All Maps | STV","players":null},{"server_id":324,"name":"Uncletopia | Los Angeles | 3 | All Maps","name_short":"lax-3","host":"lax-1.us.uncletopia.com","port":27035,"enabled":true,"region":"us-west","cc":"us","latitude":33.94279,"longitude":-118.41004,"reserved":0,"last_update":"0001-01-01T00:00:00Z","name_a2s":"Uncletopia | Los Angeles | 3 | All Maps","protocol":17,"map":"pl_barnblitz","folder":"tf","game":"Team Fortress","app_id":440,"player_count":0,"max_players":24,"Bots":0,"server_type":"Dedicated","server_os":"Linux","password":true,"vac":true,"version":"7757534","steam_id":85568392924510198,"keywords":["nocrits","nodmgspread","payload","uncletopia"],"game_id":440,"stv_port":27036,"stv_name":"Uncletopia | Los Angeles | 3 | All Maps | STV","players":null},{"server_id":25,"name":"Uncletopia | Los Angeles | 4 | Stopwatch Beta","name_short":"lax-4","host":"lax-1.us.uncletopia.com","port":27045,"enabled":true,"region":"us-west","cc":"us","latitude":33.94279,"longitude":-118.41004,"reserved":0,"last_update":"0001-01-01T00:00:00Z","name_a2s":"Uncletopia | Los Angeles | 4 | Stopwatch Beta","protocol":17,"map":"pl_swiftwater_final1","folder":"tf","game":"Team Fortress","app_id":440,"player_count":0,"max_players":24,"Bots":0,"server_type":"Dedicated","server_os":"Linux","password":true,"vac":true,"version":"7757534","steam_id":85568392924510199,"keywords":["nocrits","nodmgspread","payload","uncletopia"],"game_id":440,"stv_port":27046,"stv_name":"Uncletopia | Los Angeles | 4 | Stopwatch Beta | STV","players":null},{"server_id":11,"name":"Uncletopia | London | 1 | All Maps","name_short":"lon-1","host":"lon-1.uk.uncletopia.com","port":27015,"enabled":true,"region":"eu","cc":"gb","latitude":51.509865,"longitude":-0.118092,"reserved":0,"last_update":"0001-01-01T00:00:00Z","name_a2s":"Uncletopia | London | 1 | All Maps","protocol":17,"map":"koth_harvest_final","folder":"tf","game":"Team Fortress","app_id":440,"player_count":12,"max_players":24,"Bots":0,"server_type":"Dedicated","server_os":"Linux","password":true,"vac":true,"version":"7757534","steam_id":85568392924367362,"keywords":["cp","nocrits","nodmgspread","uncletopia"],"game_id":440,"stv_port":27016,"stv_name":"Uncletopia | London | 1 | All Maps | STV","players":[{"user_id":689,"name":"Zepta","steam_id":76561199001659666,"connected_time":1619000000000,"state":"active","ping":105},{"user_id":701,"name":"19raic","steam_id":76561199093514786,"connected_time":72000000000,"state":"active","ping":69},{"user_id":681,"name":"[RC] GalacticFantasy","steam_id":76561198072077658,"connected_time":3086000000000,"state":"active","ping":78},{"user_id":666,"name":"Peanut","steam_id":76561198018865486,"connected_time":4923000000000,"state":"active","ping":67},{"user_id":695,"name":"yung arzneimittel","steam_id":76561198044165284,"connected_time":504000000000,"state":"active","ping":45},{"user_id":702,"name":"a dollop of bird","steam_id":76561198089003514,"connected_time":27000000000,"state":"active","ping":47},{"user_id":686,"name":"Joy","steam_id":76561198155314925,"connected_time":2128000000000,"state":"active","ping":53},{"user_id":694,"name":"triangles in the desert","steam_id":76561198083505031,"connected_time":529000000000,"state":"active","ping":30},{"user_id":698,"name":"Hermitcrack","steam_id":76561198149216441,"connected_time":290000000000,"state":"active","ping":63},{"user_id":654,"name":"nedilya","steam_id":76561198039692077,"connected_time":5650000000000,"state":"active","ping":61},{"user_id":688,"name":"brainrot","steam_id":76561199414716848,"connected_time":1650000000000,"state":"active","ping":75},{"user_id":616,"name":"UltimateSlayer","steam_id":76561198384109309,"connected_time":8216000000000,"state":"active","ping":45}]},{"server_id":114,"name":"Uncletopia | London | 2 | All Maps","name_short":"lon-2","host":"lon-1.uk.uncletopia.com","port":27025,"enabled":true,"region":"eu","cc":"gb","latitude":51.509865,"longitude":-0.118092,"reserved":0,"last_update":"0001-01-01T00:00:00Z","name_a2s":"Uncletopia | London | 2 | All Maps","protocol":17,"map":"pl_upward","folder":"tf","game":"Team Fortress","app_id":440,"player_count":9,"max_players":24,"Bots":0,"server_type":"Dedicated","server_os":"Linux","password":true,"vac":true,"version":"7757534","steam_id":85568392924470941,"keywords":["nocrits","nodmgspread","payload","uncletopia"],"game_id":440,"stv_port":27026,"stv_name":"Uncletopia | London | 2 | All Maps | STV","players":[{"user_id":301,"name":"Mr Toxic","steam_id":76561198040057167,"connected_time":134000000000,"state":"active","ping":166},{"user_id":272,"name":"LucyLime","steam_id":76561198262258698,"connected_time":3303000000000,"state":"active","ping":45},{"user_id":288,"name":"NOM","steam_id":76561198062033234,"connected_time":1576000000000,"state":"active","ping":72},{"user_id":300,"name":"It's a me Malario","steam_id":76561198176546013,"connected_time":315000000000,"state":"active","ping":45},{"user_id":291,"name":"multiflex","steam_id":76561198049639319,"connected_time":1308000000000,"state":"active","ping":73},{"user_id":292,"name":"khamba","steam_id":76561198054783240,"connected_time":1287000000000,"state":"active","ping":116},{"user_id":302,"name":"jinkies","steam_id":76561198199950729,"connected_time":54000000000,"state":"active","ping":152},{"user_id":299,"name":"BarbÃ€trou","steam_id":76561199439141531,"connected_time":324000000000,"state":"active","ping":53},{"user_id":303,"name":"Moja jaja Å¡lajdraju","steam_id":76561198280390098,"connected_time":53000000000,"state":"active","ping":79}]},{"server_id":320,"name":"Uncletopia | London | 3 | All Maps","name_short":"lon-3","host":"lon-1.uk.uncletopia.com","port":27035,"enabled":true,"region":"eu","cc":"gb","latitude":51.509865,"longitude":-0.118092,"reserved":0,"last_update":"0001-01-01T00:00:00Z","name_a2s":"Uncletopia | London | 3 | All Maps","protocol":17,"map":"pl_snowycoast","folder":"tf","game":"Team Fortress","app_id":440,"player_count":24,"max_players":24,"Bots":0,"server_type":"Dedicated","server_os":"Linux","password":true,"vac":true,"version":"7757534","steam_id":85568392924510192,"keywords":["nocrits","nodmgspread","payload","uncletopia"],"game_id":440,"stv_port":27036,"stv_name":"Uncletopia | London | 3 | All Maps | STV","players":[{"user_id":720,"name":"Kros","steam_id":76561198803159222,"connected_time":1024000000000,"state":"active","ping":116},{"user_id":738,"name":"SuperBob103","steam_id":76561199175360012,"connected_time":528000000000,"state":"active","ping":50},{"user_id":723,"name":"grandpa's post-mortem photo","steam_id":76561198130116078,"connected_time":809000000000,"state":"active","ping":102},{"user_id":711,"name":"Sabour","steam_id":76561197963965445,"connected_time":1806000000000,"state":"active","ping":71},{"user_id":724,"name":"mike\"3loavesofbread\"jones","steam_id":76561198064342804,"connected_time":791000000000,"state":"active","ping":79},{"user_id":712,"name":"Evil weed wizard","steam_id":76561198076137526,"connected_time":1788000000000,"state":"active","ping":49},{"user_id":725,"name":"Penguinoverlord999","steam_id":76561199231051116,"connected_time":789000000000,"state":"active","ping":119},{"user_id":726,"name":"Samplee","steam_id":76561198063406140,"connected_time":778000000000,"state":"active","ping":51},{"user_id":709,"name":"Cahl","steam_id":76561198980863125,"connected_time":1839000000000,"state":"active","ping":44},{"user_id":745,"name":"Turtle Fuckers 2","steam_id":76561198071938027,"connected_time":188000000000,"state":"active","ping":38},{"user_id":734,"name":"sunset","steam_id":76561197994492154,"connected_time":616000000000,"state":"active","ping":78},{"user_id":744,"name":"Traylie","steam_id":76561198050797796,"connected_time":345000000000,"state":"active","ping":57},{"user_id":740,"name":"OffMilky","steam_id":76561198831440921,"connected_time":454000000000,"state":"active","ping":26},{"user_id":701,"name":"Roonieboi","steam_id":76561199143450094,"connected_time":2797000000000,"state":"active","ping":76},{"user_id":722,"name":"The Fellow Feller","steam_id":76561198188864306,"connected_time":838000000000,"state":"active","ping":74},{"user_id":741,"name":"Edgebug Earl","steam_id":76561197970114051,"connected_time":428000000000,"state":"active","ping":45},{"user_id":743,"name":"TekkiShodanPL","steam_id":76561198047064015,"connected_time":363000000000,"state":"active","ping":48},{"user_id":691,"name":"Krimmblz","steam_id":76561198326488448,"connected_time":3698000000000,"state":"active","ping":84},{"user_id":736,"name":"MorrisYourFriend","steam_id":76561198109855016,"connected_time":586000000000,"state":"active","ping":102},{"user_id":707,"name":"Lord_Admiral_General_Picnic","steam_id":76561198361994819,"connected_time":2100000000000,"state":"active","ping":63},{"user_id":732,"name":"hedon/","steam_id":76561198249832770,"connected_time":653000000000,"state":"active","ping":46},{"user_id":742,"name":"Magnificent Medic","steam_id":76561198388750592,"connected_time":417000000000,"state":"active","ping":69},{"user_id":737,"name":"fshfkr","steam_id":76561198095979282,"connected_time":552000000000,"state":"active","ping":44},{"user_id":746,"name":"Clay Pot","steam_id":76561199030644557,"connected_time":171000000000,"state":"active","ping":156}]},{"server_id":321,"name":"Uncletopia | London | 4 | All Maps","name_short":"lon-4","host":"lon-1.uk.uncletopia.com","port":27045,"enabled":true,"region":"eu","cc":"gb","latitude":51.509865,"longitude":-0.118092,"reserved":0,"last_update":"0001-01-01T00:00:00Z","name_a2s":"Uncletopia | London | 4 | All Maps","protocol":17,"map":"koth_viaduct","folder":"tf","game":"Team Fortress","app_id":440,"player_count":0,"max_players":24,"Bots":0,"server_type":"Dedicated","server_os":"Linux","password":true,"vac":true,"version":"7757534","steam_id":85568392924510193,"keywords":["cp","nocrits","nodmgspread","uncletopia"],"game_id":440,"stv_port":27046,"stv_name":"Uncletopia | London | 4 | All Maps | STV","players":null},{"server_id":21,"name":"Uncletopia | London | 5 | All Maps","name_short":"lon-5","host":"lon-1.uk.uncletopia.com","port":27055,"enabled":true,"region":"eu","cc":"gb","latitude":51.509865,"longitude":-0.118092,"reserved":0,"last_update":"0001-01-01T00:00:00Z","name_a2s":"Uncletopia | London | 5 | All Maps","protocol":17,"map":"cp_granary","folder":"tf","game":"Team Fortress","app_id":440,"player_count":0,"max_players":24,"Bots":0,"server_type":"Dedicated","server_os":"Linux","password":true,"vac":true,"version":"7757534","steam_id":85568392924742829,"keywords":["cp","nocrits","nodmgspread","uncletopia"],"game_id":440,"stv_port":27056,"stv_name":"Uncletopia | London | 5 | All Maps | STV","players":null},{"server_id":22,"name":"Uncletopia | London | 6 | All Maps","name_short":"lon-6","host":"lon-1.uk.uncletopia.com","port":27065,"enabled":true,"region":"eu","cc":"gb","latitude":51.509865,"longitude":-0.118092,"reserved":0,"last_update":"0001-01-01T00:00:00Z","name_a2s":"Uncletopia | London | 6 | All Maps","protocol":17,"map":"pl_upward","folder":"tf","game":"Team Fortress","app_id":440,"player_count":0,"max_players":24,"Bots":0,"server_type":"Dedicated","server_os":"Linux","password":true,"vac":true,"version":"7757534","steam_id":85568392924742830,"keywords":["nocrits","nodmgspread","payload","uncletopia"],"game_id":440,"stv_port":27066,"stv_name":"Uncletopia | London | 6 | All Maps | STV","players":null},{"server_id":40,"name":"Uncletopia | London | 7 | No Payload","name_short":"lon-7","host":"lon-1.uk.uncletopia.com","port":27075,"enabled":true,"region":"eu","cc":"gb","latitude":51.509865,"longitude":-0.118092,"reserved":0,"last_update":"0001-01-01T00:00:00Z","name_a2s":"Uncletopia | London | 7 | No Payload","protocol":17,"map":"cp_process_final","folder":"tf","game":"Team Fortress","app_id":440,"player_count":0,"max_players":24,"Bots":0,"server_type":"Dedicated","server_os":"Linux","password":true,"vac":true,"version":"7757534","steam_id":85568392924964314,"keywords":["cp","nocrits","nodmgspread","uncletopia"],"game_id":440,"stv_port":27076,"stv_name":"Uncletopia | London | 7 | No Payload | STV","players":null},{"server_id":41,"name":"Uncletopia | London | 8 | Community","name_short":"lon-8","host":"lon-1.uk.uncletopia.com","port":27085,"enabled":true,"region":"eu","cc":"gb","latitude":51.509865,"longitude":-0.118092,"reserved":0,"last_update":"0001-01-01T00:00:00Z","name_a2s":"Uncletopia | London | 8 | Community","protocol":17,"map":"workshop/cp_indulge.ugc528106646","folder":"tf","game":"Team Fortress","app_id":440,"player_count":0,"max_players":24,"Bots":0,"server_type":"Dedicated","server_os":"Linux","password":true,"vac":true,"version":"7757534","steam_id":85568392924964315,"keywords":["cp","nocrits","nodmgspread","uncletopia"],"game_id":440,"stv_port":27086,"stv_name":"Uncletopia | London | 8 | Community | STV","players":null},{"server_id":300,"name":"Uncletopia | MontrÃ©al | 1 | All Maps","name_short":"mtl-1","host":"mtl-1.ca.uncletopia.com","port":27015,"enabled":true,"region":"us-east","cc":"ca","latitude":45.50889,"longitude":-73.56167,"reserved":0,"last_update":"0001-01-01T00:00:00Z","name_a2s":"Uncletopia | MontrÃ©al | 1 | All Maps","protocol":17,"map":"cp_dustbowl","folder":"tf","game":"Team Fortress","app_id":440,"player_count":0,"max_players":24,"Bots":0,"server_type":"Dedicated","server_os":"Linux","password":true,"vac":true,"version":"7757534","steam_id":85568392924500087,"keywords":["cp","nocrits","nodmgspread","uncletopia"],"game_id":440,"stv_port":27016,"stv_name":"Uncletopia | MontrÃ©al | 1 | All Maps | STV","players":null},{"server_id":301,"name":"Uncletopia | MontrÃ©al | 2 | All Maps","name_short":"mtl-2","host":"mtl-1.ca.uncletopia.com","port":27025,"enabled":true,"region":"us-east","cc":"ca","latitude":45.50889,"longitude":-73.56167,"reserved":0,"last_update":"0001-01-01T00:00:00Z","name_a2s":"Uncletopia | MontrÃ©al | 2 | All Maps","protocol":17,"map":"pl_upward","folder":"tf","game":"Team Fortress","app_id":440,"player_count":24,"max_players":24,"Bots":0,"server_type":"Dedicated","server_os":"Linux","password":true,"vac":true,"version":"7757534","steam_id":85568392924500088,"keywords":["nocrits","nodmgspread","payload","uncletopia"],"game_id":440,"stv_port":27026,"stv_name":"Uncletopia | MontrÃ©al | 2 | All Maps | STV","players":[{"user_id":48,"name":"Hildreth","steam_id":76561197995254867,"connected_time":949000000000,"state":"active","ping":120},{"user_id":40,"name":"JACOB","steam_id":76561198211874895,"connected_time":1622000000000,"state":"active","ping":66},{"user_id":14,"name":"a mass hallucination","steam_id":76561198259092181,"connected_time":2457000000000,"state":"active","ping":56},{"user_id":52,"name":"Kevin Cox","steam_id":76561198075658052,"connected_time":694000000000,"state":"active","ping":33},{"user_id":41,"name":"rwrangler05","steam_id":76561198922899122,"connected_time":1606000000000,"state":"active","ping":114},{"user_id":49,"name":"Kumori","steam_id":76561198016333163,"connected_time":939000000000,"state":"active","ping":59},{"user_id":16,"name":"Soldie","steam_id":76561198118414372,"connected_time":2282000000000,"state":"active","ping":94},{"user_id":18,"name":"CreeperCatBengal","steam_id":76561198213193221,"connected_time":2253000000000,"state":"active","ping":68},{"user_id":59,"name":"Monsieur l'INGENIEUR","steam_id":76561198090504334,"connected_time":330000000000,"state":"active","ping":52},{"user_id":47,"name":"RebelScum","steam_id":76561199231752872,"connected_time":1220000000000,"state":"active","ping":100},{"user_id":23,"name":"Recursive Gamer","steam_id":76561198042102952,"connected_time":2028000000000,"state":"active","ping":77},{"user_id":43,"name":"Forrest702","steam_id":76561198029218298,"connected_time":1442000000000,"state":"active","ping":112},{"user_id":25,"name":"Room_237","steam_id":76561199135081315,"connected_time":2011000000000,"state":"active","ping":70},{"user_id":44,"name":"Vin","steam_id":76561198042514817,"connected_time":1440000000000,"state":"active","ping":138},{"user_id":29,"name":"ThySirSlime","steam_id":76561199083193027,"connected_time":1894000000000,"state":"active","ping":109},{"user_id":63,"name":"yaldabaoth","steam_id":76561198084606869,"connected_time":88000000000,"state":"active","ping":50},{"user_id":62,"name":"Bird","steam_id":76561198247484514,"connected_time":298000000000,"state":"active","ping":64},{"user_id":33,"name":"Dacoda999","steam_id":76561198092203780,"connected_time":1838000000000,"state":"active","ping":69},{"user_id":45,"name":"Acceleratorsouls","steam_id":76561197999775065,"connected_time":1412000000000,"state":"active","ping":110},{"user_id":53,"name":"Sprucelass","steam_id":76561197998391724,"connected_time":669000000000,"state":"active","ping":45},{"user_id":54,"name":"lemongirl96","steam_id":76561198078731479,"connected_time":656000000000,"state":"active","ping":42},{"user_id":55,"name":"Ginger Jesus","steam_id":76561198052386458,"connected_time":648000000000,"state":"active","ping":58},{"user_id":56,"name":"andrevv","steam_id":76561198003694920,"connected_time":620000000000,"state":"active","ping":49},{"user_id":61,"name":"Reaper","steam_id":76561198435826103,"connected_time":315000000000,"state":"active","ping":91}]},{"server_id":302,"name":"Uncletopia | MontrÃ©al | 3 | All Maps","name_short":"mtl-3","host":"mtl-1.ca.uncletopia.com","port":27035,"enabled":true,"region":"us-east","cc":"ca","latitude":45.50889,"longitude":-73.56167,"reserved":0,"last_update":"0001-01-01T00:00:00Z","name_a2s":"Uncletopia | MontrÃ©al | 3 | All Maps","protocol":17,"map":"koth_cascade","folder":"tf","game":"Team Fortress","app_id":440,"player_count":0,"max_players":24,"Bots":0,"server_type":"Dedicated","server_os":"Linux","password":true,"vac":true,"version":"7757534","steam_id":85568392924500089,"keywords":["cp","nocrits","nodmgspread","uncletopia"],"game_id":440,"stv_port":27036,"stv_name":"Uncletopia | MontrÃ©al | 3 | All Maps | STV","players":null},{"server_id":303,"name":"Uncletopia | MontrÃ©al | 4 | No Payload","name_short":"mtl-4","host":"mtl-1.ca.uncletopia.com","port":27045,"enabled":true,"region":"us-east","cc":"ca","latitude":45.50889,"longitude":-73.56167,"reserved":0,"last_update":"0001-01-01T00:00:00Z","name_a2s":"Uncletopia | MontrÃ©al | 4 | No Payload","protocol":17,"map":"cp_mercenarypark","folder":"tf","game":"Team Fortress","app_id":440,"player_count":0,"max_players":24,"Bots":0,"server_type":"Dedicated","server_os":"Linux","password":true,"vac":true,"version":"7757534","steam_id":85568392924500090,"keywords":["cp","nocrits","nodmgspread","uncletopia"],"game_id":440,"stv_port":27046,"stv_name":"Uncletopia | MontrÃ©al | 4 | No Payload | STV","players":null},{"server_id":13,"name":"Uncletopia | New York City | 1 | All Maps","name_short":"nyc-1","host":"nyc-1.us.uncletopia.com","port":27015,"enabled":true,"region":"us-east","cc":"us","latitude":40.73061,"longitude":-73.93524,"reserved":0,"last_update":"0001-01-01T00:00:00Z","name_a2s":"Uncletopia | New York City | 1 | All Maps","protocol":17,"map":"cp_dustbowl","folder":"tf","game":"Team Fortress","app_id":440,"player_count":24,"max_players":24,"Bots":0,"server_type":"Dedicated","server_os":"Linux","password":true,"vac":true,"version":"7757534","steam_id":85568392924469993,"keywords":["cp","nocrits","nodmgspread","uncletopia"],"game_id":440,"stv_port":27016,"stv_name":"Uncletopia | New York City | 1 | All Maps | STV","players":[{"user_id":163,"name":"alex","steam_id":76561198095203229,"connected_time":562000000000,"state":"active","ping":103},{"user_id":137,"name":"Phocae (She/Her)","steam_id":76561199317584594,"connected_time":1593000000000,"state":"active","ping":54},{"user_id":150,"name":"ChefMike","steam_id":76561198414034069,"connected_time":1030000000000,"state":"active","ping":83},{"user_id":158,"name":"hashbang1","steam_id":76561198025558514,"connected_time":769000000000,"state":"active","ping":114},{"user_id":140,"name":"Rex","steam_id":76561198138365053,"connected_time":1509000000000,"state":"active","ping":119},{"user_id":159,"name":"A Shiny Meat Bicycle","steam_id":76561198358757709,"connected_time":766000000000,"state":"active","ping":95},{"user_id":133,"name":"Louie Kahooie","steam_id":76561198419614877,"connected_time":1705000000000,"state":"active","ping":69},{"user_id":136,"name":"Sternward","steam_id":76561198342969184,"connected_time":1624000000000,"state":"active","ping":180},{"user_id":143,"name":"The magic doo bus","steam_id":76561198243387974,"connected_time":1214000000000,"state":"active","ping":55},{"user_id":144,"name":"PackedGorgon","steam_id":76561198042686806,"connected_time":1175000000000,"state":"active","ping":89},{"user_id":145,"name":"Chris P. Bacon","steam_id":76561198000851038,"connected_time":1175000000000,"state":"active","ping":52},{"user_id":162,"name":"JellyParrot","steam_id":76561199190990163,"connected_time":583000000000,"state":"active","ping":72},{"user_id":148,"name":"Zero","steam_id":76561199383267408,"connected_time":1079000000000,"state":"active","ping":85},{"user_id":149,"name":"M16A1Sauce","steam_id":76561199058049384,"connected_time":1052000000000,"state":"active","ping":63},{"user_id":168,"name":"Theodore Roosevelt","steam_id":76561197993295656,"connected_time":381000000000,"state":"active","ping":64},{"user_id":85,"name":"Bootes","steam_id":76561197968255551,"connected_time":6857000000000,"state":"active","ping":49},{"user_id":122,"name":"IAmAProfesonal","steam_id":76561199171858953,"connected_time":2213000000000,"state":"active","ping":63},{"user_id":152,"name":"GoldtoothFour","steam_id":76561198055529332,"connected_time":986000000000,"state":"active","ping":71},{"user_id":165,"name":"Eden","steam_id":76561198075587475,"connected_time":542000000000,"state":"active","ping":66},{"user_id":154,"name":"Azuknow","steam_id":76561199229518180,"connected_time":942000000000,"state":"active","ping":69},{"user_id":166,"name":"Goomby","steam_id":76561198079416561,"connected_time":537000000000,"state":"active","ping":82},{"user_id":160,"name":"Hue Balue","steam_id":76561198153070362,"connected_time":744000000000,"state":"active","ping":123},{"user_id":170,"name":"Alexthegreat","steam_id":76561197996796222,"connected_time":49000000000,"state":"active","ping":46},{"user_id":167,"name":"CRAZY engineer","steam_id":76561198887937902,"connected_time":477000000000,"state":"active","ping":62}]},{"server_id":14,"name":"Uncletopia | New York City | 2 | All Maps","name_short":"nyc-2","host":"nyc-1.us.uncletopia.com","port":27025,"enabled":true,"region":"us-east","cc":"us","latitude":40.73061,"longitude":-73.93524,"reserved":0,"last_update":"0001-01-01T00:00:00Z","name_a2s":"Uncletopia | New York City | 2 | All Maps","protocol":17,"map":"cp_dustbowl","folder":"tf","game":"Team Fortress","app_id":440,"player_count":22,"max_players":24,"Bots":0,"server_type":"Dedicated","server_os":"Linux","password":true,"vac":true,"version":"7757534","steam_id":85568392924469994,"keywords":["cp","nocrits","nodmgspread","uncletopia"],"game_id":440,"stv_port":27026,"stv_name":"Uncletopia | New York City | 2 | All Maps | STV","players":[{"user_id":91,"name":"Sableye","steam_id":76561198061247147,"connected_time":1500000000000,"state":"active","ping":92},{"user_id":99,"name":"DaMultiversalist","steam_id":76561198239552412,"connected_time":487000000000,"state":"active","ping":118},{"user_id":60,"name":"guyinatophat51","steam_id":76561198180230694,"connected_time":4237000000000,"state":"active","ping":54},{"user_id":110,"name":"nup noodle","steam_id":76561198101278181,"connected_time":200000000000,"state":"active","ping":90},{"user_id":58,"name":"Diarrhea Gaming","steam_id":76561198090589784,"connected_time":4334000000000,"state":"active","ping":75},{"user_id":109,"name":"KentYardAssociate","steam_id":76561198290499758,"connected_time":342000000000,"state":"active","ping":124},{"user_id":101,"name":"Fuzzy Toast","steam_id":76561198028067781,"connected_time":480000000000,"state":"active","ping":78},{"user_id":102,"name":"THE BURGER","steam_id":76561198311704368,"connected_time":414000000000,"state":"active","ping":55},{"user_id":103,"name":"bean goblin","steam_id":76561199185148234,"connected_time":412000000000,"state":"active","ping":134},{"user_id":105,"name":"BasicPeaches","steam_id":76561198190890150,"connected_time":405000000000,"state":"active","ping":61},{"user_id":37,"name":"surrender to the void","steam_id":76561198055494039,"connected_time":4972000000000,"state":"active","ping":69},{"user_id":90,"name":"cannibalistic rival archetype.","steam_id":76561198294013916,"connected_time":1580000000000,"state":"active","ping":46},{"user_id":106,"name":"Coke Himmy","steam_id":76561198397459211,"connected_time":368000000000,"state":"active","ping":70},{"user_id":107,"name":"knuckle sandwich","steam_id":76561198801214349,"connected_time":368000000000,"state":"active","ping":68},{"user_id":52,"name":"Tophu","steam_id":76561198380229671,"connected_time":4805000000000,"state":"active","ping":78},{"user_id":97,"name":"Oopsie Daisy â‹","steam_id":76561198042144492,"connected_time":527000000000,"state":"active","ping":71},{"user_id":88,"name":"noided","steam_id":76561198353924837,"connected_time":1677000000000,"state":"active","ping":112},{"user_id":89,"name":"mammott toy","steam_id":76561199148512586,"connected_time":1665000000000,"state":"active","ping":44},{"user_id":95,"name":"Midlife Crisis Jotaro","steam_id":76561199023562280,"connected_time":1189000000000,"state":"active","ping":46},{"user_id":94,"name":"SuperNovaFox","steam_id":76561198052172564,"connected_time":1233000000000,"state":"active","ping":95},{"user_id":65,"name":"kametro4","steam_id":76561198835430429,"connected_time":3182000000000,"state":"active","ping":69},{"user_id":80,"name":"â˜…â˜…thastephenâ˜…â˜…","steam_id":76561198080289775,"connected_time":2298000000000,"state":"active","ping":120}]},{"server_id":15,"name":"Uncletopia | New York City | 3 | Stopwatch Beta","name_short":"nyc-3","host":"nyc-1.us.uncletopia.com","port":27035,"enabled":true,"region":"us-east","cc":"us","latitude":40.73061,"longitude":-73.93524,"reserved":0,"last_update":"0001-01-01T00:00:00Z","name_a2s":"Uncletopia | New York City | 3 | Stopwatch Beta","protocol":17,"map":"pl_upward","folder":"tf","game":"Team Fortress","app_id":440,"player_count":0,"max_players":24,"Bots":0,"server_type":"Dedicated","server_os":"Linux","password":true,"vac":true,"version":"7757534","steam_id":85568392924742820,"keywords":["nocrits","nodmgspread","payload","uncletopia"],"game_id":440,"stv_port":27036,"stv_name":"Uncletopia | New York City | 3 | Stopwatch Beta | STV","players":null},{"server_id":16,"name":"Uncletopia | New York City | 4 | Community","name_short":"nyc-4","host":"nyc-1.us.uncletopia.com","port":27045,"enabled":true,"region":"us-east","cc":"us","latitude":40.73061,"longitude":-73.93524,"reserved":0,"last_update":"0001-01-01T00:00:00Z","name_a2s":"Uncletopia | New York City | 4 | Community","protocol":17,"map":"workshop/cp_indulge.ugc528106646","folder":"tf","game":"Team Fortress","app_id":440,"player_count":24,"max_players":24,"Bots":0,"server_type":"Dedicated","server_os":"Linux","password":true,"vac":true,"version":"7757534","steam_id":85568392924742821,"keywords":["cp","nocrits","nodmgspread","uncletopia"],"game_id":440,"stv_port":27046,"stv_name":"Uncletopia | New York City | 4 | Community | STV","players":[{"user_id":66,"name":"[TF2Apples] Intense Green Apple","steam_id":76561198803561622,"connected_time":1683000000000,"state":"active","ping":76},{"user_id":89,"name":"Seven","steam_id":76561198259947055,"connected_time":1091000000000,"state":"active","ping":107},{"user_id":65,"name":"MelonLikeAFelon","steam_id":76561198060170336,"connected_time":1862000000000,"state":"active","ping":111},{"user_id":100,"name":"Lost CS player","steam_id":76561198892387723,"connected_time":583000000000,"state":"active","ping":55},{"user_id":68,"name":"PinkLemonade","steam_id":76561198799286228,"connected_time":1541000000000,"state":"active","ping":51},{"user_id":101,"name":"MrFrost","steam_id":76561198800061541,"connected_time":454000000000,"state":"active","ping":151},{"user_id":72,"name":"Joltin Jethro","steam_id":76561198041893915,"connected_time":1483000000000,"state":"active","ping":85},{"user_id":103,"name":"kramer","steam_id":76561198117761965,"connected_time":388000000000,"state":"active","ping":56},{"user_id":104,"name":"jibby","steam_id":76561198046872382,"connected_time":325000000000,"state":"active","ping":40},{"user_id":73,"name":"TheGhostThatWas","steam_id":76561198055836483,"connected_time":1459000000000,"state":"active","ping":44},{"user_id":30,"name":"Dr. FeelGoose","steam_id":76561198029496191,"connected_time":3400000000000,"state":"active","ping":111},{"user_id":90,"name":"chronicjockey","steam_id":76561198117694535,"connected_time":995000000000,"state":"active","ping":118},{"user_id":115,"name":"Frost â™¥","steam_id":76561198168870617,"connected_time":88000000000,"state":"active","ping":47},{"user_id":40,"name":"chrischrischris3018@yahoo.com","steam_id":76561198137316053,"connected_time":3086000000000,"state":"active","ping":61},{"user_id":106,"name":"Bee","steam_id":76561198074681324,"connected_time":308000000000,"state":"active","ping":50},{"user_id":93,"name":"Capn. Wing Ding","steam_id":76561198076068424,"connected_time":864000000000,"state":"active","ping":68},{"user_id":55,"name":"Spectrilis","steam_id":76561198816047324,"connected_time":2539000000000,"state":"active","ping":112},{"user_id":76,"name":"junktodelete","steam_id":76561199055054866,"connected_time":1400000000000,"state":"active","ping":120},{"user_id":47,"name":"thxdeeply","steam_id":76561199000786530,"connected_time":2916000000000,"state":"active","ping":99},{"user_id":107,"name":"fishydeluxe","steam_id":76561198032182301,"connected_time":288000000000,"state":"active","ping":119},{"user_id":108,"name":"Ribbered","steam_id":76561198242118240,"connected_time":169000000000,"state":"active","ping":71},{"user_id":113,"name":"Redwing 225","steam_id":76561198450151606,"connected_time":112000000000,"state":"active","ping":146},{"user_id":53,"name":"Jerlutz","steam_id":76561198351784703,"connected_time":2795000000000,"state":"active","ping":81},{"user_id":87,"name":"Two-Teste Tommy","steam_id":76561198064308936,"connected_time":1213000000000,"state":"active","ping":56}]},{"server_id":142,"name":"Uncletopia | SÃ£o Paulo | 1 | All Maps","name_short":"sao-1","host":"sao-1.br.uncletopia.com","port":27015,"enabled":true,"region":"sa","cc":"br","latitude":-23.533773,"longitude":-46.62529,"reserved":0,"last_update":"0001-01-01T00:00:00Z","name_a2s":"Uncletopia | SÃ£o Paulo | 1 | All Maps","protocol":17,"map":"koth_viaduct","folder":"tf","game":"Team Fortress","app_id":440,"player_count":17,"max_players":24,"Bots":0,"server_type":"Dedicated","server_os":"Linux","password":true,"vac":true,"version":"7757534","steam_id":85568392924469996,"keywords":["cp","nocrits","nodmgspread","uncletopia"],"game_id":440,"stv_port":27016,"stv_name":"Uncletopia | SÃ£o Paulo | 1 | All Maps | STV","players":[{"user_id":114,"name":"Purificador","steam_id":76561198285203432,"connected_time":1123000000000,"state":"active","ping":96},{"user_id":100,"name":"RÃ¢ndrey","steam_id":76561198302119344,"connected_time":2245000000000,"state":"active","ping":119},{"user_id":116,"name":"Stoopid","steam_id":76561198126485401,"connected_time":1082000000000,"state":"active","ping":51},{"user_id":117,"name":"Ronildo 2077","steam_id":76561198964560976,"connected_time":1080000000000,"state":"active","ping":84},{"user_id":110,"name":"HeadShotGamerBR","steam_id":76561198116856702,"connected_time":1491000000000,"state":"active","ping":77},{"user_id":77,"name":"Cley the Engie Main","steam_id":76561198142839368,"connected_time":4342000000000,"state":"active","ping":55},{"user_id":118,"name":"Skukuy","steam_id":76561198279907521,"connected_time":949000000000,"state":"active","ping":74},{"user_id":119,"name":"Copa PistÃ£o","steam_id":76561199240099576,"connected_time":699000000000,"state":"active","ping":32},{"user_id":78,"name":"Miel","steam_id":76561199442213560,"connected_time":4135000000000,"state":"active","ping":53},{"user_id":105,"name":"Tigas","steam_id":76561198151597169,"connected_time":1922000000000,"state":"active","ping":44},{"user_id":120,"name":"Ace","steam_id":76561198112033120,"connected_time":573000000000,"state":"active","ping":42},{"user_id":87,"name":"Lizzy","steam_id":76561198280334272,"connected_time":3533000000000,"state":"active","ping":53},{"user_id":122,"name":"Anders575","steam_id":76561198220386384,"connected_time":535000000000,"state":"active","ping":48},{"user_id":123,"name":"sir lawrence","steam_id":76561198978669658,"connected_time":502000000000,"state":"active","ping":49},{"user_id":94,"name":"castelo_45#SAVE tf2","steam_id":76561199078529501,"connected_time":2800000000000,"state":"active","ping":32},{"user_id":95,"name":"MatatosTF","steam_id":76561199235318074,"connected_time":2716000000000,"state":"active","ping":39},{"user_id":124,"name":"Tyrone","steam_id":76561198977849688,"connected_time":460000000000,"state":"active","ping":43}]},{"server_id":143,"name":"Uncletopia | SÃ£o Paulo | 2 | All Maps","name_short":"sao-2","host":"sao-2.br.uncletopia.com","port":27015,"enabled":true,"region":"sa","cc":"br","latitude":-23.533773,"longitude":-46.62529,"reserved":0,"last_update":"0001-01-01T00:00:00Z","name_a2s":"Uncletopia | SÃ£o Paulo | 2 | All Maps","protocol":17,"map":"koth_viaduct","folder":"tf","game":"Team Fortress","app_id":440,"player_count":0,"max_players":24,"Bots":0,"server_type":"Dedicated","server_os":"Linux","password":true,"vac":true,"version":"7757534","steam_id":85568392924485349,"keywords":["cp","nocrits","nodmgspread","uncletopia"],"game_id":440,"stv_port":27016,"stv_name":"Uncletopia | SÃ£o Paulo | 2 | All Maps | STV","players":null},{"server_id":7,"name":"Uncletopia | Seattle | 1 | All Maps","name_short":"sea-1","host":"sea-1.us.uncletopia.com","port":27015,"enabled":true,"region":"us-west","cc":"us","latitude":47.608013,"longitude":-122.33517,"reserved":0,"last_update":"0001-01-01T00:00:00Z","name_a2s":"Uncletopia | Seattle | 1 | All Maps","protocol":17,"map":"pl_barnblitz","folder":"tf","game":"Team Fortress","app_id":440,"player_count":24,"max_players":24,"Bots":0,"server_type":"Dedicated","server_os":"Linux","password":true,"vac":true,"version":"7757534","steam_id":85568392924469997,"keywords":["nocrits","nodmgspread","payload","uncletopia"],"game_id":440,"stv_port":27016,"stv_name":"Uncletopia | Seattle | 1 | All Maps | STV","players":[{"user_id":627,"name":"cigarette baby","steam_id":76561198317827526,"connected_time":803000000000,"state":"active","ping":127},{"user_id":576,"name":"HDI","steam_id":76561199062715724,"connected_time":4749000000000,"state":"active","ping":62},{"user_id":598,"name":"NOOT","steam_id":76561199060432770,"connected_time":2334000000000,"state":"active","ping":78},{"user_id":566,"name":"[TrC] Dackstrus","steam_id":76561197973518509,"connected_time":5440000000000,"state":"active","ping":56},{"user_id":633,"name":"squash","steam_id":76561198150281353,"connected_time":497000000000,"state":"active","ping":54},{"user_id":591,"name":"American Dad Funny Moments #32","steam_id":76561198254874328,"connected_time":3595000000000,"state":"active","ping":60},{"user_id":639,"name":"Sinn","steam_id":76561199013434543,"connected_time":208000000000,"state":"active","ping":70},{"user_id":619,"name":"AmyPercent","steam_id":76561198071896932,"connected_time":1244000000000,"state":"active","ping":87},{"user_id":625,"name":"Dongus","steam_id":76561197979056451,"connected_time":864000000000,"state":"active","ping":47},{"user_id":622,"name":"LILIUM","steam_id":76561198086591493,"connected_time":1052000000000,"state":"active","ping":88},{"user_id":581,"name":"[TrC] Nosy","steam_id":76561197978859310,"connected_time":4236000000000,"state":"active","ping":59},{"user_id":599,"name":"HiFivr","steam_id":76561198285190162,"connected_time":2307000000000,"state":"active","ping":61},{"user_id":629,"name":"NotAWeeb","steam_id":76561198165530739,"connected_time":748000000000,"state":"active","ping":64},{"user_id":628,"name":"chanoc","steam_id":76561198026734746,"connected_time":787000000000,"state":"active","ping":61},{"user_id":620,"name":"rjsly","steam_id":76561198036573271,"connected_time":1232000000000,"state":"active","ping":130},{"user_id":610,"name":"Lucky7","steam_id":76561199084623109,"connected_time":1550000000000,"state":"active","ping":60},{"user_id":638,"name":"trashbro","steam_id":76561199417993197,"connected_time":363000000000,"state":"active","ping":79},{"user_id":595,"name":"Karl Wheezer","steam_id":76561198848722936,"connected_time":2979000000000,"state":"active","ping":52},{"user_id":636,"name":"Spooky_cone_game","steam_id":76561198999458789,"connected_time":406000000000,"state":"active","ping":134},{"user_id":637,"name":"Solifuga","steam_id":76561198119569902,"connected_time":376000000000,"state":"active","ping":58},{"user_id":606,"name":"Dry","steam_id":76561198124135416,"connected_time":2100000000000,"state":"active","ping":71},{"user_id":605,"name":"amsung","steam_id":76561198205756163,"connected_time":2206000000000,"state":"active","ping":89},{"user_id":641,"name":"o o o o o o o o o","steam_id":76561197993757506,"connected_time":88000000000,"state":"active","ping":74},{"user_id":597,"name":"à¸¸","steam_id":76561198084134025,"connected_time":2495000000000,"state":"active","ping":64}]},{"server_id":119,"name":"Uncletopia | Seattle | 2 | All Maps","name_short":"sea-2","host":"sea-1.us.uncletopia.com","port":27025,"enabled":true,"region":"us-west","cc":"us","latitude":47.608013,"longitude":-122.33517,"reserved":0,"last_update":"0001-01-01T00:00:00Z","name_a2s":"Uncletopia | Seattle | 2 | All Maps","protocol":17,"map":"pl_frontier_final","folder":"tf","game":"Team Fortress","app_id":440,"player_count":24,"max_players":24,"Bots":0,"server_type":"Dedicated","server_os":"Linux","password":true,"vac":true,"version":"7757534","steam_id":85568392924469998,"keywords":["nocrits","nodmgspread","payload","uncletopia"],"game_id":440,"stv_port":27026,"stv_name":"Uncletopia | Seattle | 2 | All Maps | STV","players":[{"user_id":292,"name":"WEAPON OF ASS DESTRUCTION","steam_id":76561199475507686,"connected_time":366000000000,"state":"active","ping":140},{"user_id":271,"name":"Harry Hotcock","steam_id":76561197999209779,"connected_time":1407000000000,"state":"active","ping":59},{"user_id":266,"name":"Kir","steam_id":76561198057745344,"connected_time":1591000000000,"state":"active","ping":102},{"user_id":242,"name":"Krome","steam_id":76561198087317232,"connected_time":3181000000000,"state":"active","ping":95},{"user_id":268,"name":"Hotdog Goblin","steam_id":76561198004133638,"connected_time":1530000000000,"state":"active","ping":93},{"user_id":284,"name":"Rat","steam_id":76561198330059340,"connected_time":633000000000,"state":"active","ping":70},{"user_id":262,"name":"Viper_Ray","steam_id":76561199068788737,"connected_time":2656000000000,"state":"active","ping":58},{"user_id":270,"name":"god approaches","steam_id":76561198081617990,"connected_time":1484000000000,"state":"active","ping":127},{"user_id":269,"name":"cringe","steam_id":76561198104086771,"connected_time":1501000000000,"state":"active","ping":74},{"user_id":285,"name":"TheSecretNewbie","steam_id":76561198194671218,"connected_time":597000000000,"state":"active","ping":100},{"user_id":283,"name":"Chuck Tucson`","steam_id":76561197991896434,"connected_time":693000000000,"state":"active","ping":76},{"user_id":293,"name":"Java3dition","steam_id":76561198157880479,"connected_time":282000000000,"state":"active","ping":54},{"user_id":290,"name":"Puppeteer","steam_id":76561198159928108,"connected_time":421000000000,"state":"active","ping":60},{"user_id":281,"name":"greens beans","steam_id":76561198153611491,"connected_time":949000000000,"state":"active","ping":45},{"user_id":272,"name":"MisterManne","steam_id":76561198106598600,"connected_time":1403000000000,"state":"active","ping":60},{"user_id":273,"name":"Starkiller","steam_id":76561198101643120,"connected_time":1392000000000,"state":"active","ping":59},{"user_id":280,"name":"Butterfly Pancakes","steam_id":76561198286158414,"connected_time":1022000000000,"state":"active","ping":70},{"user_id":291,"name":"The Bombinomicon","steam_id":76561198209881263,"connected_time":415000000000,"state":"active","ping":87},{"user_id":276,"name":"MacchuPeachu","steam_id":76561199093242587,"connected_time":1290000000000,"state":"active","ping":66},{"user_id":277,"name":"Soft \u0026 Lily","steam_id":76561198048736247,"connected_time":1271000000000,"state":"active","ping":53},{"user_id":294,"name":"Tritium","steam_id":76561198043305626,"connected_time":232000000000,"state":"active","ping":81},{"user_id":295,"name":"Just A Red Cultist","steam_id":76561198369543102,"connected_time":127000000000,"state":"active","ping":125},{"user_id":231,"name":"Jack Celliers","steam_id":76561198060983357,"connected_time":4199000000000,"state":"active","ping":104},{"user_id":253,"name":"Your kinky Onee-san","steam_id":76561199146582356,"connected_time":2993000000000,"state":"active","ping":66}]},{"server_id":406,"name":"Uncletopia | Seattle | 3 | Stopwatch Beta","name_short":"sea-3","host":"sea-1.us.uncletopia.com","port":27035,"enabled":true,"region":"us-west","cc":"us","latitude":47.608013,"longitude":-122.33517,"reserved":0,"last_update":"0001-01-01T00:00:00Z","name_a2s":"Uncletopia | Seattle | 3 | Stopwatch Beta","protocol":17,"map":"workshop/koth_clearcut_b15.ugc2107050255","folder":"tf","game":"Team Fortress","app_id":440,"player_count":0,"max_players":24,"Bots":0,"server_type":"Dedicated","server_os":"Linux","password":true,"vac":true,"version":"7757534","steam_id":85568392924515217,"keywords":["cp","nocrits","nodmgspread","uncletopia"],"game_id":440,"stv_port":27036,"stv_name":"Uncletopia | Seattle | 3 | Stopwatch Beta | STV","players":null},{"server_id":17,"name":"Uncletopia | San Francisco | 1 | All Maps","name_short":"sfo-1","host":"sfo-1.us.uncletopia.com","port":27015,"enabled":true,"region":"us-west","cc":"us","latitude":37.77397,"longitude":-122.4313,"reserved":0,"last_update":"0001-01-01T00:00:00Z","name_a2s":"Uncletopia | San Francisco | 1 | All Maps","protocol":17,"map":"cp_altitude","folder":"tf","game":"Team Fortress","app_id":440,"player_count":3,"max_players":24,"Bots":0,"server_type":"Dedicated","server_os":"Linux","password":true,"vac":true,"version":"7757534","steam_id":85568392924469999,"keywords":["cp","nocrits","nodmgspread","uncletopia"],"game_id":440,"stv_port":27016,"stv_name":"Uncletopia | San Francisco | 1 | All Maps | STV","players":[{"user_id":13,"name":"JS","steam_id":76561198149183514,"connected_time":384000000000,"state":"active","ping":55},{"user_id":14,"name":"INCOMPETENT","steam_id":76561198079401635,"connected_time":361000000000,"state":"active","ping":128},{"user_id":15,"name":"POTaTO","steam_id":76561199435451093,"connected_time":291000000000,"state":"active","ping":163}]},{"server_id":18,"name":"Uncletopia | San Francisco | 2 | All Maps","name_short":"sfo-2","host":"sfo-1.us.uncletopia.com","port":27025,"enabled":true,"region":"us-west","cc":"us","latitude":37.77397,"longitude":-122.4313,"reserved":0,"last_update":"0001-01-01T00:00:00Z","name_a2s":"Uncletopia | San Francisco | 2 | All Maps","protocol":17,"map":"koth_highpass","folder":"tf","game":"Team Fortress","app_id":440,"player_count":0,"max_players":24,"Bots":0,"server_type":"Dedicated","server_os":"Linux","password":true,"vac":true,"version":"7757534","steam_id":85568392924470000,"keywords":["cp","nocrits","nodmgspread","uncletopia"],"game_id":440,"stv_port":27026,"stv_name":"Uncletopia | San Francisco | 2 | All Maps | STV","players":null},{"server_id":19,"name":"Uncletopia | San Francisco | 3 | Stopwatch Beta","name_short":"sfo-3","host":"sfo-1.us.uncletopia.com","port":27035,"enabled":true,"region":"us-west","cc":"us","latitude":37.77397,"longitude":-122.4313,"reserved":0,"last_update":"0001-01-01T00:00:00Z","name_a2s":"Uncletopia | San Francisco | 3 | Stopwatch Beta","protocol":17,"map":"koth_lakeside_final","folder":"tf","game":"Team Fortress","app_id":440,"player_count":0,"max_players":24,"Bots":0,"server_type":"Dedicated","server_os":"Linux","password":true,"vac":true,"version":"7757534","steam_id":85568392924742824,"keywords":["cp","nocrits","nodmgspread","uncletopia"],"game_id":440,"stv_port":27036,"stv_name":"Uncletopia | San Francisco | 3 | Stopwatch Beta | STV","players":null},{"server_id":20,"name":"Uncletopia | San Francisco | 4 | Community","name_short":"sfo-4","host":"sfo-1.us.uncletopia.com","port":27045,"enabled":true,"region":"us-west","cc":"us","latitude":37.77397,"longitude":-122.4313,"reserved":0,"last_update":"0001-01-01T00:00:00Z","name_a2s":"Uncletopia | San Francisco | 4 | Community","protocol":17,"map":"workshop/cp_hazyfort_rc6.ugc1365963729","folder":"tf","game":"Team Fortress","app_id":440,"player_count":24,"max_players":24,"Bots":0,"server_type":"Dedicated","server_os":"Linux","password":true,"vac":true,"version":"7757534","steam_id":85568392924742826,"keywords":["cp","nocrits","nodmgspread","uncletopia"],"game_id":440,"stv_port":27046,"stv_name":"Uncletopia | San Francisco | 4 | Community | STV","players":[{"user_id":293,"name":"barbara","steam_id":76561198072417792,"connected_time":1526000000000,"state":"active","ping":131},{"user_id":153,"name":"ConiferCarver(#SaveTF2)","steam_id":76561198195875845,"connected_time":7372000000000,"state":"active","ping":50},{"user_id":277,"name":"Dov-Ah-Bob","steam_id":76561198147798338,"connected_time":3066000000000,"state":"active","ping":63},{"user_id":233,"name":"snezhnaya","steam_id":76561198076395081,"connected_time":4264000000000,"state":"active","ping":60},{"user_id":229,"name":"Falcon","steam_id":76561198084582082,"connected_time":4474000000000,"state":"active","ping":63},{"user_id":276,"name":"GaleForce","steam_id":76561198196531122,"connected_time":3149000000000,"state":"active","ping":87},{"user_id":271,"name":"gardener","steam_id":76561198018449559,"connected_time":3338000000000,"state":"active","ping":48},{"user_id":227,"name":"Cpt. Dingle","steam_id":76561198025720199,"connected_time":4638000000000,"state":"active","ping":90},{"user_id":289,"name":"carp","steam_id":76561198042865147,"connected_time":1819000000000,"state":"active","ping":104},{"user_id":275,"name":"Bern","steam_id":76561198294032289,"connected_time":3210000000000,"state":"active","ping":77},{"user_id":157,"name":"Sly Marbo","steam_id":76561198135271741,"connected_time":7263000000000,"state":"active","ping":72},{"user_id":295,"name":"nosieman","steam_id":76561198068307876,"connected_time":1115000000000,"state":"active","ping":75},{"user_id":291,"name":"_normal","steam_id":76561198338505734,"connected_time":1673000000000,"state":"active","ping":91},{"user_id":228,"name":"Thomas Goblin-man Yorke","steam_id":76561197999658755,"connected_time":4634000000000,"state":"active","ping":102},{"user_id":273,"name":"Winter the Witchie","steam_id":76561198151971178,"connected_time":3305000000000,"state":"active","ping":109},{"user_id":282,"name":"Pah-Wraith Gul Dukat","steam_id":76561198033918106,"connected_time":2563000000000,"state":"active","ping":61},{"user_id":286,"name":"\u003c`)))))\u003c fish","steam_id":76561198410078962,"connected_time":1948000000000,"state":"active","ping":70},{"user_id":290,"name":"Aeris","steam_id":76561198287271028,"connected_time":1688000000000,"state":"active","ping":108},{"user_id":294,"name":"stoned jester","steam_id":76561198079609974,"connected_time":1308000000000,"state":"active","ping":68},{"user_id":235,"name":"Bocchi the Cock","steam_id":76561198152455316,"connected_time":4148000000000,"state":"active","ping":158},{"user_id":303,"name":"Schnitz","steam_id":76561198265484253,"connected_time":217000000000,"state":"active","ping":64},{"user_id":247,"name":"GKumo","steam_id":76561198023175868,"connected_time":3921000000000,"state":"active","ping":56},{"user_id":299,"name":"Ixcarsis","steam_id":76561198880674783,"connected_time":737000000000,"state":"active","ping":130},{"user_id":302,"name":"Wacks","steam_id":76561198079476100,"connected_time":453000000000,"state":"active","ping":58}]},{"server_id":141,"name":"Uncletopia | Sydney | 1 | All Maps","name_short":"syd-1","host":"syd-1.au.uncletopia.com","port":27015,"enabled":true,"region":"au","cc":"au","latitude":-33.865143,"longitude":151.2099,"reserved":0,"last_update":"0001-01-01T00:00:00Z","name_a2s":"Uncletopia | Sydney | 1 | All Maps","protocol":17,"map":"cp_mountainlab","folder":"tf","game":"Team Fortress","app_id":440,"player_count":0,"max_players":24,"Bots":0,"server_type":"Dedicated","server_os":"Linux","password":true,"vac":true,"version":"7757534","steam_id":85568392924470001,"keywords":["cp","nocrits","nodmgspread","uncletopia"],"game_id":440,"stv_port":27016,"stv_name":"Uncletopia | Sydney | 1 | All Maps | STV","players":null},{"server_id":123,"name":"Uncletopia | Sydney | 2 | All Maps","name_short":"syd-2","host":"syd-1.au.uncletopia.com","port":27025,"enabled":true,"region":"au","cc":"au","latitude":-33.865143,"longitude":151.2099,"reserved":0,"last_update":"0001-01-01T00:00:00Z","name_a2s":"Uncletopia | Sydney | 2 | All Maps","protocol":17,"map":"koth_cascade","folder":"tf","game":"Team Fortress","app_id":440,"player_count":0,"max_players":24,"Bots":0,"server_type":"Dedicated","server_os":"Linux","password":true,"vac":true,"version":"7757534","steam_id":85568392924470002,"keywords":["cp","nocrits","nodmgspread","uncletopia"],"game_id":440,"stv_port":27026,"stv_name":"Uncletopia | Sydney | 2 | All Maps | STV","players":null},{"server_id":395,"name":"Uncletopia | Sydney | 3 | All Maps","name_short":"syd-3","host":"syd-1.au.uncletopia.com","port":27035,"enabled":true,"region":"au","cc":"au","latitude":-33.865143,"longitude":151.2099,"reserved":0,"last_update":"0001-01-01T00:00:00Z","name_a2s":"Uncletopia | Sydney | 3 | All Maps","protocol":17,"map":"pl_swiftwater_final1","folder":"tf","game":"Team Fortress","app_id":440,"player_count":0,"max_players":24,"Bots":0,"server_type":"Dedicated","server_os":"Linux","password":true,"vac":true,"version":"7757534","steam_id":85568392925194467,"keywords":["nocrits","nodmgspread","payload","uncletopia"],"game_id":440,"stv_port":27036,"stv_name":"Uncletopia | Sydney | 3 | All Maps | STV","players":null},{"server_id":396,"name":"Uncletopia | Sydney | 4 | All Maps","name_short":"syd-4","host":"syd-1.au.uncletopia.com","port":27045,"enabled":true,"region":"au","cc":"au","latitude":-33.865143,"longitude":151.2099,"reserved":0,"last_update":"0001-01-01T00:00:00Z","name_a2s":"Uncletopia | Sydney | 4 | All Maps","protocol":17,"map":"koth_highpass","folder":"tf","game":"Team Fortress","app_id":440,"player_count":0,"max_players":24,"Bots":0,"server_type":"Dedicated","server_os":"Linux","password":true,"vac":true,"version":"7757534","steam_id":85568392925397958,"keywords":["cp","nocrits","nodmgspread","uncletopia"],"game_id":440,"stv_port":27046,"stv_name":"Uncletopia | Sydney | 4 | All Maps | STV","players":null},{"server_id":58,"name":"Uncletopia | Sydney | 5 | Stopwatch Beta","name_short":"syd-5","host":"syd-1.au.uncletopia.com","port":27055,"enabled":true,"region":"au","cc":"au","latitude":-33.865143,"longitude":151.2099,"reserved":0,"last_update":"0001-01-01T00:00:00Z","name_a2s":"Uncletopia | Sydney | 5 | Stopwatch Beta","protocol":17,"map":"koth_cascade","folder":"tf","game":"Team Fortress","app_id":440,"player_count":0,"max_players":24,"Bots":0,"server_type":"Dedicated","server_os":"Linux","password":true,"vac":true,"version":"7757534","steam_id":85568392925397959,"keywords":["cp","nocrits","nodmgspread","uncletopia"],"game_id":440,"stv_port":27056,"stv_name":"Uncletopia | Sydney | 5 | Stopwatch Beta | STV","players":null},{"server_id":59,"name":"Uncletopia | Sydney | 6 | Community","name_short":"syd-6","host":"syd-1.au.uncletopia.com","port":27065,"enabled":true,"region":"au","cc":"au","latitude":-33.865143,"longitude":151.2099,"reserved":0,"last_update":"0001-01-01T00:00:00Z","name_a2s":"Uncletopia | Sydney | 6 | Community","protocol":17,"map":"cp_snakewater_final1","folder":"tf","game":"Team Fortress","app_id":440,"player_count":0,"max_players":24,"Bots":0,"server_type":"Dedicated","server_os":"Linux","password":true,"vac":true,"version":"7757534","steam_id":85568392925397960,"keywords":["cp","nocrits","nodmgspread","uncletopia"],"game_id":440,"stv_port":27066,"stv_name":"Uncletopia | Sydney | 6 | Community | STV","players":null},{"server_id":49,"name":"Uncletopia | Warsaw | 1 | All Maps","name_short":"waw-1","host":"waw-1.pl.uncletopia.com","port":27015,"enabled":true,"region":"eu","cc":"pl","latitude":52.2297,"longitude":21.017532,"reserved":0,"last_update":"0001-01-01T00:00:00Z","name_a2s":"","protocol":0,"map":"","folder":"","game":"","app_id":0,"player_count":0,"max_players":0,"Bots":0,"server_type":"","server_os":"","password":false,"vac":false,"version":"","steam_id":0,"keywords":null,"game_id":0,"stv_port":0,"stv_name":"","players":null},{"server_id":50,"name":"Uncletopia | Warsaw | 2 | All Maps","name_short":"waw-2","host":"waw-1.pl.uncletopia.com","port":27025,"enabled":true,"region":"eu","cc":"pl","latitude":52.2297,"longitude":21.017532,"reserved":0,"last_update":"0001-01-01T00:00:00Z","name_a2s":"Uncletopia | Warsaw | 2 | All Maps","protocol":17,"map":"pl_barnblitz","folder":"tf","game":"Team Fortress","app_id":440,"player_count":0,"max_players":24,"Bots":0,"server_type":"Dedicated","server_os":"Linux","password":true,"vac":true,"version":"7757534","steam_id":85568392925397851,"keywords":["nocrits","nodmgspread","payload","uncletopia"],"game_id":440,"stv_port":27026,"stv_name":"Uncletopia | Warsaw | 2 | All Maps | STV","players":null},{"server_id":51,"name":"Uncletopia | Warsaw | 3 | All Maps","name_short":"waw-3","host":"waw-1.pl.uncletopia.com","port":27035,"enabled":true,"region":"eu","cc":"pl","latitude":52.2297,"longitude":21.017532,"reserved":0,"last_update":"0001-01-01T00:00:00Z","name_a2s":"Uncletopia | Warsaw | 3 | All Maps","protocol":17,"map":"koth_lakeside_final","folder":"tf","game":"Team Fortress","app_id":440,"player_count":0,"max_players":24,"Bots":0,"server_type":"Dedicated","server_os":"Linux","password":true,"vac":true,"version":"7757534","steam_id":85568392925397852,"keywords":["cp","nocrits","nodmgspread","uncletopia"],"game_id":440,"stv_port":27036,"stv_name":"Uncletopia | Warsaw | 3 | All Maps | STV","players":null},{"server_id":52,"name":"Uncletopia | Warsaw | 4 | All Maps","name_short":"waw-4","host":"waw-1.pl.uncletopia.com","port":27045,"enabled":true,"region":"eu","cc":"pl","latitude":52.2297,"longitude":21.017532,"reserved":0,"last_update":"0001-01-01T00:00:00Z","name_a2s":"Uncletopia | Warsaw | 4 | All Maps","protocol":17,"map":"koth_lakeside_final","folder":"tf","game":"Team Fortress","app_id":440,"player_count":0,"max_players":24,"Bots":0,"server_type":"Dedicated","server_os":"Linux","password":true,"vac":true,"version":"7757534","steam_id":85568392925397853,"keywords":["cp","nocrits","nodmgspread","uncletopia"],"game_id":440,"stv_port":27046,"stv_name":"Uncletopia | Warsaw | 4 | All Maps | STV","players":null},{"server_id":53,"name":"Uncletopia | Warsaw | 5 | Stopwatch Beta","name_short":"waw-5","host":"waw-1.pl.uncletopia.com","port":27055,"enabled":true,"region":"eu","cc":"pl","latitude":52.2297,"longitude":21.017532,"reserved":0,"last_update":"0001-01-01T00:00:00Z","name_a2s":"Uncletopia | Warsaw | 5 | Stopwatch Beta","protocol":17,"map":"pl_borneo","folder":"tf","game":"Team Fortress","app_id":440,"player_count":0,"max_players":24,"Bots":0,"server_type":"Dedicated","server_os":"Linux","password":true,"vac":true,"version":"7757534","steam_id":85568392925397854,"keywords":["nocrits","nodmgspread","payload","uncletopia"],"game_id":440,"stv_port":27056,"stv_name":"Uncletopia | Warsaw | 5 | Stopwatch Beta | STV","players":null},{"server_id":54,"name":"Uncletopia | Warsaw | 6 | Community","name_short":"waw-6","host":"waw-1.pl.uncletopia.com","port":27065,"enabled":true,"region":"eu","cc":"pl","latitude":52.2297,"longitude":21.017532,"reserved":0,"last_update":"0001-01-01T00:00:00Z","name_a2s":"Uncletopia | Warsaw | 6 | Community","protocol":17,"map":"koth_lakeside_final","folder":"tf","game":"Team Fortress","app_id":440,"player_count":0,"max_players":24,"Bots":0,"server_type":"Dedicated","server_os":"Linux","password":true,"vac":true,"version":"7757534","steam_id":85568392925397856,"keywords":["cp","nocrits","nodmgspread","uncletopia"],"game_id":440,"stv_port":27066,"stv_name":"Uncletopia | Warsaw | 6 | Community | STV","players":null}]}