{"status":true,"message":"","result":[{"server_id":9,"name":"Uncletopia | Atlanta | 1 | All Maps","name_short":"atl-1","host":"atl-1.us.uncletopia.com","port":27015,"enabled":true,"region":"us-east","cc":"us","latitude":33.753746,"longitude":-84.38633,"reserved":0,"last_update":"0001-01-01T00:00:00Z","name_a2s":"Uncletopia | Atlanta | 1 | All Maps","protocol":17,"map":"pl_barnblitz","folder":"tf","game":"Team Fortress","app_id":440,"player_count":24,"max_players":24,"Bots":0,"server_type":"Dedicated","server_os":"Linux","password":true,"vac":true,"version":"7757534","steam_id":85568392924469982,"keywords":["nocrits","nodmgspread","payload","uncletopia"],"game_id":440,"stv_port":27016,"stv_name":"Uncletopia | Atlanta | 1 | All Maps | STV","players":[{"user_id":420,"name":"thomasdee725","steam_id":76561199189526173,"connected_time":866000000000,"state":"active","ping":91},{"user_id":413,"name":"drain.pablo.2005","steam_id":76561198303963691,"connected_time":1256000000000,"state":"active","ping":63},{"user_id":407,"name":"Monkery Man","steam_id":76561199083374021,"connected_time":2141000000000,"state":"active","ping":70},{"user_id":382,"name":"Mage","steam_id":76561198285026879,"connected_time":5778000000000,"state":"active","ping":78},{"user_id":406,"name":"cheeks","steam_id":76561197993371179,"connected_time":2369000000000,"state":"active","ping":57},{"user_id":423,"name":"PerpetuaForever","steam_id":76561198347444353,"connected_time":388000000000,"state":"active","ping":68},{"user_id":421,"name":"Ossy-3","steam_id":76561198272078550,"connected_time":709000000000,"state":"active","ping":54},{"user_id":409,"name":"BotchyAlarm8","steam_id":76561198092682129,"connected_time":1659000000000,"state":"active","ping":126},{"user_id":399,"name":"lil hog protector","steam_id":76561198174806758,"connected_time":2851000000000,"state":"active","ping":60},{"user_id":427,"name":"Doominic","steam_id":76561198259172209,"connected_time":47000000000,"state":"active","ping":99},{"user_id":391,"name":"ATL1 | Kramer","steam_id":76561198083595936,"connected_time":3865000000000,"state":"active","ping":73},{"user_id":416,"name":"HARRY","steam_id":76561198842067238,"connected_time":1081000000000,"state":"active","ping":63},{"user_id":415,"name":"harry gooch","steam_id":76561198024817457,"connected_time":1097000000000,"state":"active","ping":67},{"user_id":418,"name":"MIA1 | TuaTooter","steam_id":76561198133033974,"connected_time":1049000000000,"state":"active","ping":83},{"user_id":357,"name":"sansa musa","steam_id":76561198163723555,"connected_time":8023000000000,"state":"active","ping":79},{"user_id":422,"name":"FreonAddict9x19","steam_id":76561198060010824,"connected_time":694000000000,"state":"active","ping":69},{"user_id":396,"name":"The Professor","steam_id":76561198113760863,"connected_time":3037000000000,"state":"active","ping":65},{"user_id":426,"name":"loninho_","steam_id":76561198219057264,"connected_time":193000000000,"state":"active","ping":191},{"user_id":389,"name":"floofy","steam_id":76561198389769098,"connected_time":4339000000000,"state":"active","ping":89},{"user_id":408,"name":"LadyAnon","steam_id":76561198014709418,"connected_time":2092000000000,"state":"active","ping":57},{"user_id":378,"name":"Anna","steam_id":76561197999657118,"connected_time":5867000000000,"state":"active","ping":84},{"user_id":425,"name":"stapler","steam_id":76561198145380652,"connected_time":229000000000,"state":"active","ping":84},{"user_id":424,"name":"Tarbis","steam_id":76561198032529704,"connected_time":297000000000,"state":"active","ping":90},{"user_id":412,"name":"NEM","steam_id":76561199241131104,"connected_time":1400000000000,"state":"active","ping":79}]},{"server_id":400,"name":"Uncletopia | Atlanta | 3 | Community","name_short":"atl-3","host":"atl-1.us.uncletopia.com","port":27035,"enabled":true,"region":"us-east","cc":"us","latitude":33.753746,"longitude":-84.38633,"reserved":0,"last_update":"0001-01-01T00:00:00Z","name_a2s":"Uncletopia | Atlanta | 3 | Community","protocol":17,"map":"workshop/pl_cactuscanyon_redux_rc4b.ugc2579644293","folder":"tf","game":"Team Fortress","app_id":440,"player_count":14,"max_players":32,"Bots":0,"server_type":"Dedicated","server_os":"Linux","password":true,"vac":true,"version":"7757534","steam_id":85568392924515187,"keywords":["increased_maxplayers","nocrits","nodmgspread","payload","uncletopia"],"game_id":440,"stv_port":27036,"stv_name":"Uncletopia | Atlanta | 3 | Community | STV","players":[{"user_id":536,"name":"Nickson1","steam_id":76561198175839309,"connected_time":1662000000000,"state":"active","ping":82},{"user_id":561,"name":"Mr. Poliedro","steam_id":76561198873854696,"connected_time":1057000000000,"state":"active","ping":150},{"user_id":560,"name":"Nukalaunch","steam_id":76561199255653942,"connected_time":1258000000000,"state":"active","ping":109},{"user_id":562,"name":"Coach McFish","steam_id":76561198210456405,"connected_time":1019000000000,"state":"active","ping":102},{"user_id":570,"name":"FluffyStiV","steam_id":76561198418577874,"connected_time":528000000000,"state":"active","ping":94},{"user_id":564,"name":"ribs","steam_id":76561198044018409,"connected_time":985000000000,"state":"active","ping":126},{"user_id":568,"name":"Ocean","steam_id":76561198862723526,"connected_time":832000000000,"state":"active","ping":78},{"user_id":571,"name":"knip","steam_id":76561198147061182,"connected_time":512000000000,"state":"active","ping":83},{"user_id":513,"name":"Honda Element","steam_id":76561198086907573,"connected_time":2396000000000,"state":"active","ping":64},{"user_id":514,"name":"Snow","steam_id":76561198151556270,"connected_time":2390000000000,"state":"active","ping":119},{"user_id":573,"name":"foot pricess","steam_id":76561198090412935,"connected_time":371000000000,"state":"active","ping":85},{"user_id":574,"name":"Salmon","steam_id":76561198285883040,"connected_time":361000000000,"state":"active","ping":117},{"user_id":576,"name":"BobSoup89","steam_id":76561198908566221,"connected_time":315000000000,"state":"active","ping":74},{"user_id":579,"name":"Jailbreak","steam_id":76561198802085218,"connected_time":282000000000,"state":"active","ping":87}]},{"server_id":401,"name":"Uncletopia | Atlanta | 4 | No Payload","name_short":"atl-4","host":"atl-1.us.uncletopia.com","port":27045,"enabled":true,"region":"us-east","cc":"us","latitude":33.753746,"longitude":-84.38633,"reserved":0,"last_update":"0001-01-01T00:00:00Z","name_a2s":"","protocol":0,"map":"","folder":"","game":"","app_id":0,"player_count":0,"max_players":0,"Bots":0,"server_type":"","server_os":"","password":false,"vac":false,"version":"","steam_id":0,"keywords":null,"game_id":0,"stv_port":0,"stv_name":"","players":null},{"server_id":2,"name":"Uncletopia | Chicago | 1 | All Maps","name_short":"chi-1","host":"chi-1.us.uncletopia.com","port":27015,"enabled":true,"region":"us-central","cc":"us","latitude":41.881832,"longitude":-87.62318,"reserved":0,"last_update":"0001-01-01T00:00:00Z","name_a2s":"Uncletopia | Chicago | 1 | All Maps","protocol":17,"map":"pl_frontier_final","folder":"tf","game":"Team Fortress","app_id":440,"player_count":24,"max_players":24,"Bots":0,"server_type":"Dedicated","server_os":"Linux","password":true,"vac":true,"version":"7757534","steam_id":85568392924469984,"keywords":["nocrits","nodmgspread","payload","uncletopia"],"game_id":440,"stv_port":27016,"stv_name":"Uncletopia | Chicago | 1 | All Maps | STV","players":[{"user_id":298,"name":"Ragnoratsu","steam_id":76561198189688723,"connected_time":167000000000,"state":"active","ping":47},{"user_id":306,"name":"the Good Guy","steam_id":76561198416759211,"connected_time":83000000000,"state":"active","ping":196},{"user_id":274,"name":"Snom","steam_id":76561198333827920,"connected_time":1927000000000,"state":"active","ping":125},{"user_id":296,"name":"CroMaLaka","steam_id":76561198380926090,"connected_time":217000000000,"state":"active","ping":58},{"user_id":241,"name":"PKBEAST_7","steam_id":76561198177136537,"connected_time":4900000000000,"state":"active","ping":89},{"user_id":307,"name":"Shichinitzi","steam_id":76561198003833732,"connected_time":43000000000,"state":"active","ping":49},{"user_id":275,"name":"hummus in my tummus","steam_id":76561199438698036,"connected_time":1927000000000,"state":"active","ping":52},{"user_id":299,"name":"somied","steam_id":76561198148357768,"connected_time":167000000000,"state":"active","ping":62},{"user_id":278,"name":"Nolan","steam_id":76561198169648081,"connected_time":1902000000000,"state":"active","ping":85},{"user_id":291,"name":"Cousin Corn on the Cob","steam_id":76561198049837377,"connected_time":1106000000000,"state":"active","ping":45},{"user_id":277,"name":"ʕ•ᴥ•ʔ the bear","steam_id":76561197989591976,"connected_time":1906000000000,"state":"active","ping":70},{"user_id":297,"name":"travis cheese","steam_id":76561198193405221,"connected_time":213000000000,"state":"active","ping":45},{"user_id":300,"name":"CivilWarMike","steam_id":76561198141188839,"connected_time":158000000000,"state":"active","ping":79},{"user_id":301,"name":"Carson","steam_id":76561198076771071,"connected_time":158000000000,"state":"active","ping":50},{"user_id":273,"name":"A Pyro Main","steam_id":76561198421760112,"connected_time":1936000000000,"state":"active","ping":50},{"user_id":302,"name":"Bip","steam_id":76561199022962204,"connected_time":154000000000,"state":"active","ping":75},{"user_id":282,"name":"the bulldozer","steam_id":76561198800334545,"connected_time":1879000000000,"state":"active","ping":95},{"user_id":305,"name":"wongo","steam_id":76561198064420072,"connected_time":108000000000,"state":"active","ping":61},{"user_id":249,"name":"Sudiak","steam_id":76561198119246214,"connected_time":4075000000000,"state":"active","ping":69},{"user_id":293,"name":"Snugboo","steam_id":76561198147970327,"connected_time":322000000000,"state":"active","ping":60},{"user_id":242,"name":"Astoriae!","steam_id":76561199090168858,"connected_time":4897000000000,"state":"active","ping":65},{"user_id":283,"name":"Buddyram5","steam_id":76561198409858620,"connected_time":1854000000000,"state":"active","ping":64},{"user_id":288,"name":"Dispenser (Twan)","steam_id":76561197991064908,"connected_time":1561000000000,"state":"active","ping":67},{"user_id":303,"name":"averagesoldiermain","steam_id":76561198158447466,"connected_time":151000000000,"state":"active","ping":76}]},{"server_id":106,"name":"Uncletopia | Chicago | 2 | All Maps","name_short":"chi-2","host":"chi-1.us.uncletopia.com","port":27025,"enabled":true,"region":"us-central","cc":"us","latitude":41.881832,"longitude":-87.62318,"reserved":0,"last_update":"0001-01-01T00:00:00Z","name_a2s":"Uncletopia | Chicago | 2 | All Maps","protocol":17,"map":"cp_sunshine","folder":"tf","game":"Team Fortress","app_id":440,"player_count":24,"max_players":24,"Bots":0,"server_type":"Dedicated","server_os":"Linux","password":true,"vac":true,"version":"7757534","steam_id":85568392924469985,"keywords":["cp","nocrits","nodmgspread","uncletopia"],"game_id":440,"stv_port":27026,"stv_name":"Uncletopia | Chicago | 2 | All Maps | STV","players":[{"user_id":200,"name":"Meki","steam_id":76561198108279631,"connected_time":1828000000000,"state":"active","ping":167},{"user_id":203,"name":"monsterkill4567","steam_id":76561198272986367,"connected_time":963000000000,"state":"active","ping":115},{"user_id":183,"name":"michaelgaupp281","steam_id":76561199467412609,"connected_time":2930000000000,"state":"active","ping":56},{"user_id":204,"name":"The Farting Cow","steam_id":76561198307830749,"connected_time":917000000000,"state":"active","ping":62},{"user_id":181,"name":"BeefChuck MuscleFuck","steam_id":76561198023361567,"connected_time":3035000000000,"state":"active","ping":51},{"user_id":215,"name":"Spazzid","steam_id":76561199445100850,"connected_time":460000000000,"state":"active","ping":91},{"user_id":155,"name":"tabasco","steam_id":76561198355094896,"connected_time":4553000000000,"state":"active","ping":76},{"user_id":197,"name":"grassman","steam_id":76561197972835907,"connected_time":2162000000000,"state":"active","ping":81},{"user_id":194,"name":"miner","steam_id":76561198073035221,"connected_time":2728000000000,"state":"active","ping":60},{"user_id":207,"name":"bobbyreinman2009","steam_id":76561198804763186,"connected_time":804000000000,"state":"active","ping":66},{"user_id":149,"name":"Puke Skyfucker","steam_id":76561198012846213,"connected_time":5135000000000,"state":"active","ping":69},{"user_id":208,"name":"GamingGandhi","steam_id":76561198799937288,"connected_time":789000000000,"state":"active","ping":81},{"user_id":175,"name":"MeKaso TropStar","steam_id":76561199109895840,"connected_time":3549000000000,"state":"active","ping":73},{"user_id":209,"name":"Big_Pichu","steam_id":76561198881106529,"connected_time":592000000000,"state":"active","ping":83},{"user_id":189,"name":"Jöhn Smith","steam_id":76561198996230924,"connected_time":2810000000000,"state":"active","ping":69},{"user_id":211,"name":"sufferboyy20","steam_id":76561199145873772,"connected_time":585000000000,"state":"active","ping":114},{"user_id":191,"name":"BannedMist","steam_id":76561198905992575,"connected_time":2791000000000,"state":"active","ping":58},{"user_id":212,"name":"Diesel","steam_id":76561198448815852,"connected_time":566000000000,"state":"active","ping":101},{"user_id":160,"name":"Congo","steam_id":76561198219267845,"connected_time":4457000000000,"state":"active","ping":89},{"user_id":213,"name":"not having a good day","steam_id":76561199059257565,"connected_time":551000000000,"state":"active","ping":100},{"user_id":192,"name":"Fleetway","steam_id":76561198392105594,"connected_time":2787000000000,"state":"active","ping":75},{"user_id":196,"name":"Based Jvnko Fan","steam_id":76561198355290984,"connected_time":2315000000000,"state":"active","ping":90},{"user_id":214,"name":"Fraggerman222.02","steam_id":76561198091855057,"connected_time":547000000000,"state":"active","ping":73},{"user_id":150,"name":"chloe","steam_id":76561198369849908,"connected_time":4721000000000,"state":"active","ping":116}]},{"server_id":402,"name":"Uncletopia | Chicago | 3 | All Maps","name_short":"chi-3","host":"chi-1.us.uncletopia.com","port":27035,"enabled":true,"region":"us-central","cc":"us","latitude":41.881832,"longitude":-87.62318,"reserved":0,"last_update":"0001-01-01T00:00:00Z","name_a2s":"Uncletopia | Chicago | 3 | All Maps","protocol":17,"map":"pl_badwater","folder":"tf","game":"Team Fortress","app_id":440,"player_count":24,"max_players":24,"Bots":0,"server_type":"Dedicated","server_os":"Linux","password":true,"vac":true,"version":"7757534","steam_id":85568392924515191,"keywords":["nocrits","nodmgspread","payload","uncletopia"],"game_id":440,"stv_port":27036,"stv_name":"Uncletopia | Chicago | 3 | All Maps | STV","players":[{"user_id":550,"name":"tooth","steam_id":76561197986437643,"connected_time":2917000000000,"state":"active","ping":65},{"user_id":538,"name":"Kakyōin Noriaki","steam_id":76561198123809642,"connected_time":3449000000000,"state":"active","ping":65},{"user_id":569,"name":"Hylic","steam_id":76561199051314589,"connected_time":1697000000000,"state":"active","ping":63},{"user_id":542,"name":"Dacia Sandero","steam_id":76561198106762185,"connected_time":3259000000000,"state":"active","ping":115},{"user_id":575,"name":"Sydney","steam_id":76561198797603297,"connected_time":932000000000,"state":"active","ping":62},{"user_id":561,"name":"ckris","steam_id":76561198061167278,"connected_time":1769000000000,"state":"active","ping":105},{"user_id":558,"name":"cotton candy thief","steam_id":76561198058998371,"connected_time":1914000000000,"state":"active","ping":67},{"user_id":582,"name":"KEEN","steam_id":76561197988436984,"connected_time":671000000000,"state":"active","ping":62},{"user_id":562,"name":"wheresgeorge","steam_id":76561198986281248,"connected_time":1756000000000,"state":"active","ping":85},{"user_id":587,"name":"Saikou!!!","steam_id":76561198044045406,"connected_time":44000000000,"state":"active","ping":76},{"user_id":588,"name":"superwarm07","steam_id":76561199196313157,"connected_time":7000000000,"state":"spawning","ping":69},{"user_id":537,"name":"Delta","steam_id":76561198086026192,"connected_time":3632000000000,"state":"active","ping":143},{"user_id":530,"name":"Yam Jazzy Jim","steam_id":76561198000788950,"connected_time":4217000000000,"state":"active","ping":72},{"user_id":551,"name":"ShitsandGiggles™","steam_id":76561198058708019,"connected_time":2915000000000,"state":"active","ping":56},{"user_id":554,"name":"Frost","steam_id":76561198953970191,"connected_time":2800000000000,"state":"active","ping":61},{"user_id":510,"name":"an inebriated newt fancier","steam_id":76561197985428155,"connected_time":5766000000000,"state":"active","ping":55},{"user_id":565,"name":"mack.purinun","steam_id":76561199276541020,"connected_time":1747000000000,"state":"active","ping":110},{"user_id":532,"name":"SKULL GOODMAN","steam_id":76561198062560907,"connected_time":4188000000000,"state":"active","ping":69},{"user_id":585,"name":"Backtotheeric","steam_id":76561198331228470,"connected_time":609000000000,"state":"active","ping":85},{"user_id":579,"name":"Wug","steam_id":76561198084112264,"connected_time":765000000000,"state":"active","ping":75},{"user_id":580,"name":"fairydemonheavendragon","steam_id":76561198065815132,"connected_time":764000000000,"state":"active","ping":116},{"user_id":581,"name":"Hulkster","steam_id":76561198278156353,"connected_time":753000000000,"state":"active","ping":113},{"user_id":568,"name":"a crazy hobo","steam_id":76561198289650060,"connected_time":1735000000000,"state":"active","ping":86},{"user_id":586,"name":"CJDGuy","steam_id":76561198213009545,"connected_time":608000000000,"state":"active","ping":77}]},{"server_id":403,"name":"Uncletopia | Chicago | 4 | All Maps","name_short":"chi-4","host":"chi-1.us.uncletopia.com","port":27045,"enabled":true,"region":"us-central","cc":"us","latitude":41.881832,"longitude":-87.62318,"reserved":0,"last_update":"0001-01-01T00:00:00Z","name_a2s":"Uncletopia | Chicago | 4 | All Maps","protocol":17,"map":"pl_badwater","folder":"tf","game":"Team Fortress","app_id":440,"player_count":24,"max_players":24,"Bots":0,"server_type":"Dedicated","server_os":"Linux","password":true,"vac":true,"version":"7757534","steam_id":85568392924515193,"keywords":["nocrits","nodmgspread","payload","uncletopia"],"game_id":440,"stv_port":27046,"stv_name":"Uncletopia | Chicago | 4 | All Maps | STV","players":[{"user_id":601,"name":"Level 1 Crook","steam_id":76561198441098132,"connected_time":898000000000,"state":"active","ping":58},{"user_id":578,"name":"banana man","steam_id":76561199385170644,"connected_time":2620000000000,"state":"active","ping":53},{"user_id":602,"name":"lofileBOOYAH :)","steam_id":76561198083798918,"connected_time":893000000000,"state":"active","ping":62},{"user_id":603,"name":"Rx Auntie","steam_id":76561198051618393,"connected_time":883000000000,"state":"active","ping":66},{"user_id":604,"name":"mike","steam_id":76561198163265338,"connected_time":873000000000,"state":"active","ping":89},{"user_id":605,"name":"Slippery","steam_id":76561199469441947,"connected_time":855000000000,"state":"active","ping":57},{"user_id":615,"name":"Chase McCain","steam_id":76561198314538469,"connected_time":469000000000,"state":"active","ping":83},{"user_id":502,"name":"HumFreY","steam_id":76561198076639682,"connected_time":8409000000000,"state":"active","ping":75},{"user_id":606,"name":"George","steam_id":76561198020046873,"connected_time":756000000000,"state":"active","ping":60},{"user_id":607,"name":"bash -lc ./asshat.sh","steam_id":76561198004584315,"connected_time":748000000000,"state":"active","ping":74},{"user_id":597,"name":"Dieu-Sama","steam_id":76561198002075862,"connected_time":2096000000000,"state":"active","ping":102},{"user_id":608,"name":"❤♡･ﾟBubbles･ﾟ♡❤","steam_id":76561198041057042,"connected_time":746000000000,"state":"active","ping":72},{"user_id":609,"name":"Wii Sports guap","steam_id":76561199082610233,"connected_time":692000000000,"state":"active","ping":57},{"user_id":612,"name":"Wengatang","steam_id":76561198021747059,"connected_time":519000000000,"state":"active","ping":47},{"user_id":610,"name":"Roberto Del Fuego","steam_id":76561198043458554,"connected_time":651000000000,"state":"active","ping":52},{"user_id":567,"name":"Bozanimal","steam_id":76561198044096897,"connected_time":4349000000000,"state":"active","ping":69},{"user_id":611,"name":"Stock Medic","steam_id":76561198065479730,"connected_time":618000000000,"state":"active","ping":45},{"user_id":613,"name":"TheGameGuy","steam_id":76561198039321143,"connected_time":517000000000,"state":"active","ping":55},{"user_id":600,"name":"morbissey","steam_id":76561198072592880,"connected_time":1167000000000,"state":"active","ping":44},{"user_id":491,"name":"Ghost","steam_id":76561198110914180,"connected_time":9824000000000,"state":"active","ping":169},{"user_id":614,"name":"Dundramino","steam_id":76561198196976154,"connected_time":477000000000,"state":"active","ping":72},{"user_id":618,"name":"breadtangle of pizza","steam_id":76561198045832398,"connected_time":447000000000,"state":"active","ping":86},{"user_id":616,"name":"the monkey's paw curls","steam_id":76561198039909187,"connected_time":465000000000,"state":"active","ping":57},{"user_id":617,"name":"Tyrone","steam_id":76561198189429665,"connected_time":465000000000,"state":"active","ping":73}]},{"server_id":36,"name":"Uncletopia | Chicago | 5 | All Maps","name_short":"chi-5","host":"chi-2.us.uncletopia.com","port":27015,"enabled":true,"region":"us-central","cc":"us","latitude":41.881832,"longitude":-87.62318,"reserved":0,"last_update":"0001-01-01T00:00:00Z","name_a2s":"Uncletopia | Chicago | 5 | All Maps","protocol":17,"map":"cp_metalworks","folder":"tf","game":"Team Fortress","app_id":440,"player_count":24,"max_players":24,"Bots":0,"server_type":"Dedicated","server_os":"Linux","password":true,"vac":true,"version":"7757534","steam_id":85568392924866362,"keywords":["cp","nocrits","nodmgspread","uncletopia"],"game_id":440,"stv_port":27016,"stv_name":"Uncletopia | Chicago | 5 | All Maps | STV","players":[{"user_id":13,"name":"Shaper Loks","steam_id":76561198207958144,"connected_time":9357000000000,"state":"active","ping":94},{"user_id":101,"name":"goombinus","steam_id":76561198136164826,"connected_time":3356000000000,"state":"active","ping":64},{"user_id":102,"name":"Buffalo Soldier","steam_id":76561198089364545,"connected_time":3351000000000,"state":"active","ping":40},{"user_id":131,"name":"[S]Mr. X [No Monitor]","steam_id":76561197963746035,"connected_time":1220000000000,"state":"active","ping":107},{"user_id":135,"name":"minecraft","steam_id":76561198023595873,"connected_time":454000000000,"state":"active","ping":100},{"user_id":144,"name":"leumas","steam_id":76561198240408540,"connected_time":147000000000,"state":"active","ping":79},{"user_id":119,"name":"Professional Zoo Tycoon Player","steam_id":76561198013026044,"connected_time":1977000000000,"state":"active","ping":83},{"user_id":143,"name":"Kuddly Kay (She/Her)","steam_id":76561198353432576,"connected_time":215000000000,"state":"active","ping":93},{"user_id":132,"name":"mr.edderkopper","steam_id":76561198152614478,"connected_time":603000000000,"state":"active","ping":50},{"user_id":52,"name":"Chee33e","steam_id":76561198242486440,"connected_time":6846000000000,"state":"active","ping":73},{"user_id":142,"name":"Bottle","steam_id":76561198044031558,"connected_time":278000000000,"state":"active","ping":69},{"user_id":136,"name":"Cornelius","steam_id":76561198123447388,"connected_time":445000000000,"state":"active","ping":45},{"user_id":145,"name":"ItsTanleyCrunch","steam_id":76561198037915942,"connected_time":142000000000,"state":"active","ping":79},{"user_id":126,"name":"Hot Milk + Sweet Delight","steam_id":76561197988989149,"connected_time":1275000000000,"state":"active","ping":84},{"user_id":138,"name":"Menachem","steam_id":76561198041226420,"connected_time":388000000000,"state":"active","ping":50},{"user_id":51,"name":"Lucon","steam_id":76561198067147724,"connected_time":6862000000000,"state":"active","ping":55},{"user_id":129,"name":"bananalover5","steam_id":76561199143854578,"connected_time":1267000000000,"state":"active","ping":94},{"user_id":140,"name":"warewarewa","steam_id":76561197965022076,"connected_time":322000000000,"state":"active","ping":59},{"user_id":139,"name":"Gubbington","steam_id":76561198959381302,"connected_time":356000000000,"state":"active","ping":83},{"user_id":122,"name":"Balerion the Black Dread","steam_id":76561198003728369,"connected_time":1967000000000,"state":"active","ping":69},{"user_id":117,"name":"AKconner","steam_id":76561198312569787,"connected_time":2111000000000,"state":"active","ping":70},{"user_id":42,"name":"3713biggest:bug:FEAR:IT","steam_id":76561198126386686,"connected_time":7590000000000,"state":"active","ping":55},{"user_id":133,"name":"cornshot","steam_id":76561198043496387,"connected_time":593000000000,"state":"active","ping":107},{"user_id":147,"name":"Reisen","steam_id":76561199174579733,"connected_time":67000000000,"state":"active","ping":74}]},{"server_id":37,"name":"Uncletopia | Chicago | 6 | All Maps","name_short":"chi-6","host":"chi-2.us.uncletopia.com","port":27025,"enabled":true,"region":"us-central","cc":"us","latitude":41.881832,"longitude":-87.62318,"reserved":0,"last_update":"0001-01-01T00:00:00Z","name_a2s":"Uncletopia | Chicago | 6 | All Maps","protocol":17,"map":"pl_frontier_final","folder":"tf","game":"Team Fortress","app_id":440,"player_count":24,"max_players":24,"Bots":0,"server_type":"Dedicated","server_os":"Linux","password":true,"vac":true,"version":"7757534","steam_id":85568392924866363,"keywords":["nocrits","nodmgspread","payload","uncletopia"],"game_id":440,"stv_port":27026,"stv_name":"Uncletopia | Chicago | 6 | All Maps | STV","players":[{"user_id":281,"name":"I DO DRUGS GAMING","steam_id":76561199013414654,"connected_time":1335000000000,"state":"active","ping":58},{"user_id":187,"name":"Cool Bird Facts","steam_id":76561198105613110,"connected_time":8531000000000,"state":"active","ping":60},{"user_id":288,"name":"Starman","steam_id":76561198030375684,"connected_time":56000000000,"state":"active","ping":79},{"user_id":285,"name":"Feldspar","steam_id":76561198027437590,"connected_time":706000000000,"state":"active","ping":85},{"user_id":269,"name":"vmoney160","steam_id":76561198053516110,"connected_time":2415000000000,"state":"active","ping":67},{"user_id":272,"name":"Peepster","steam_id":76561198297854733,"connected_time":2295000000000,"state":"active","ping":75},{"user_id":219,"name":"Iron","steam_id":76561198247918478,"connected_time":5213000000000,"state":"active","ping":65},{"user_id":262,"name":"Lemon Demon Enthusiast","steam_id":76561199026721822,"connected_time":2580000000000,"state":"active","ping":105},{"user_id":211,"name":"Accidental Fall","steam_id":76561198840019488,"connected_time":5526000000000,"state":"active","ping":93},{"user_id":228,"name":"Chumber","steam_id":76561198098433947,"connected_time":4272000000000,"state":"active","ping":116},{"user_id":289,"name":"!!","steam_id":76561198174021898,"connected_time":47000000000,"state":"active","ping":62},{"user_id":237,"name":"fish","steam_id":76561198059510391,"connected_time":3999000000000,"state":"active","ping":95},{"user_id":273,"name":"MrrPickle","steam_id":76561198122046514,"connected_time":2286000000000,"state":"active","ping":71},{"user_id":231,"name":"Prippo","steam_id":76561198064721301,"connected_time":4203000000000,"state":"active","ping":102},{"user_id":274,"name":"Bandit","steam_id":76561199087543553,"connected_time":2243000000000,"state":"active","ping":115},{"user_id":291,"name":"LEGO Technic Forklift","steam_id":76561198004855678,"connected_time":32000000000,"state":"spawning","ping":56},{"user_id":287,"name":"KB","steam_id":76561198314767260,"connected_time":181000000000,"state":"active","ping":85},{"user_id":283,"name":"eyepen","steam_id":76561198381154476,"connected_time":942000000000,"state":"active","ping":75},{"user_id":193,"name":"Cool Lobster Facts","steam_id":76561198247484514,"connected_time":8498000000000,"state":"active","ping":77},{"user_id":234,"name":"zeroB","steam_id":76561198072808987,"connected_time":4127000000000,"state":"active","ping":87},{"user_id":284,"name":"Shmeat","steam_id":76561199057199891,"connected_time":936000000000,"state":"active","ping":72},{"user_id":268,"name":"Vladikr1","steam_id":76561198401495362,"connected_time":2429000000000,"state":"active","ping":66},{"user_id":286,"name":"Merch","steam_id":76561198063865897,"connected_time":664000000000,"state":"active","ping":42},{"user_id":235,"name":"Jakkuzzi","steam_id":76561198097256820,"connected_time":4118000000000,"state":"active","ping":103}]},{"server_id":38,"name":"Uncletopia | Chicago | 7 | Stopwatch Beta","name_short":"chi-7","host":"chi-2.us.uncletopia.com","port":27035,"enabled":true,"region":"us-central","cc":"us","latitude":41.881832,"longitude":-87.62318,"reserved":0,"last_update":"0001-01-01T00:00:00Z","name_a2s":"Uncletopia | Chicago | 7 | Stopwatch Beta","protocol":17,"map":"cp_sunshine","folder":"tf","game":"Team Fortress","app_id":440,"player_count":24,"max_players":24,"Bots":0,"server_type":"Dedicated","server_os":"Linux","password":true,"vac":true,"version":"7757534","steam_id":85568392924866364,"keywords":["cp","nocrits","nodmgspread","uncletopia"],"game_id":440,"stv_port":27036,"stv_name":"Uncletopia | Chicago | 7 | Stopwatch Beta | STV","players":[{"user_id":54,"name":"evnobev","steam_id":76561198038966462,"connected_time":4488000000000,"state":"active","ping":56},{"user_id":100,"name":"aeop","steam_id":76561198153671643,"connected_time":1543000000000,"state":"active","ping":70},{"user_id":130,"name":"WAKEUP!","steam_id":76561198254479725,"connected_time":97000000000,"state":"active","ping":45},{"user_id":13,"name":"X_Sniper7","steam_id":76561198081097640,"connected_time":6953000000000,"state":"active","ping":74},{"user_id":125,"name":"Fun Stuff","steam_id":76561198052241655,"connected_time":421000000000,"state":"active","ping":62},{"user_id":126,"name":"Soda","steam_id":76561198219209367,"connected_time":322000000000,"state":"active","ping":66},{"user_id":116,"name":"haxxorman","steam_id":76561199155156400,"connected_time":1046000000000,"state":"active","ping":57},{"user_id":120,"name":"FireQuiz","steam_id":76561198107357249,"connected_time":714000000000,"state":"active","ping":101},{"user_id":20,"name":"leonardo doujinshi","steam_id":76561198025810326,"connected_time":5849000000000,"state":"active","ping":60},{"user_id":107,"name":"smocc","steam_id":76561197993726746,"connected_time":1400000000000,"state":"active","ping":61},{"user_id":99,"name":"Zhenaj","steam_id":76561199209016136,"connected_time":1645000000000,"state":"active","ping":48},{"user_id":104,"name":"rude boi","steam_id":76561198006783260,"connected_time":1531000000000,"state":"active","ping":62},{"user_id":39,"name":"picnic blanket","steam_id":76561198308186037,"connected_time":5212000000000,"state":"active","ping":69},{"user_id":121,"name":"Mega","steam_id":76561198067217593,"connected_time":683000000000,"state":"active","ping":62},{"user_id":124,"name":"We happy ?","steam_id":76561197996107723,"connected_time":576000000000,"state":"active","ping":174},{"user_id":112,"name":"Cru7nchy","steam_id":76561199071555562,"connected_time":1336000000000,"state":"active","ping":98},{"user_id":87,"name":"checkswing","steam_id":76561198999816132,"connected_time":2418000000000,"state":"active","ping":62},{"user_id":41,"name":"neet","steam_id":76561197968115168,"connected_time":5127000000000,"state":"active","ping":60},{"user_id":105,"name":"t.tv/FamilyGuyFunnyMoments277","steam_id":76561198416047580,"connected_time":1529000000000,"state":"active","ping":72},{"user_id":122,"name":"doozy","steam_id":76561198033106776,"connected_time":620000000000,"state":"active","ping":135},{"user_id":123,"name":"Ember The Femboy","steam_id":76561198139630565,"connected_time":606000000000,"state":"active","ping":141},{"user_id":117,"name":"ape (real)","steam_id":76561198379444671,"connected_time":1032000000000,"state":"active","ping":65},{"user_id":94,"name":"Jkbh1","steam_id":76561198093449670,"connected_time":2048000000000,"state":"active","ping":97},{"user_id":129,"name":"The Juice","steam_id":76561198065307144,"connected_time":178000000000,"state":"active","ping":71}]},{"server_id":39,"name":"Uncletopia | Chicago | 8 | Community","name_short":"chi-8","host":"chi-2.us.uncletopia.com","port":27045,"enabled":true,"region":"us-central","cc":"us","latitude":41.881832,"longitude":-87.62318,"reserved":0,"last_update":"0001-01-01T00:00:00Z","name_a2s":"Uncletopia | Chicago | 8 | Community","protocol":17,"map":"workshop/cp_sulfur_rc2.ugc619869471","folder":"tf","game":"Team Fortress","app_id":440,"player_count":0,"max_players":24,"Bots":0,"server_type":"Dedicated","server_os":"Linux","password":true,"vac":true,"version":"7757534","steam_id":85568392924866365,"keywords":["cp","nocrits","nodmgspread","uncletopia"],"game_id":440,"stv_port":27046,"stv_name":"Uncletopia | Chicago | 8 | Community | STV","players":null},{"server_id":8,"name":"Uncletopia | Dallas | 1 | All Maps","name_short":"dal-1","host":"dal-1.us.uncletopia.com","port":27015,"enabled":true,"region":"us-central","cc":"us","latitude":32.779167,"longitude":-96.80889,"reserved":0,"last_update":"0001-01-01T00:00:00Z","name_a2s":"Uncletopia | Dallas | 1 | All Maps","protocol":17,"map":"cp_sunshine","folder":"tf","game":"Team Fortress","app_id":440,"player_count":19,"max_players":24,"Bots":0,"server_type":"Dedicated","server_os":"Linux","password":true,"vac":true,"version":"7757534","steam_id":85568392924469986,"keywords":["cp","nocrits","nodmgspread","uncletopia"],"game_id":440,"stv_port":27016,"stv_name":"Uncletopia | Dallas | 1 | All Maps | STV","players":[{"user_id":725,"name":"Devoid","steam_id":76561198254039012,"connected_time":1898000000000,"state":"active","ping":66},{"user_id":746,"name":"Lazarust","steam_id":76561198355322731,"connected_time":37000000000,"state":"active","ping":68},{"user_id":744,"name":"Hulkworm","steam_id":76561198263964808,"connected_time":515000000000,"state":"active","ping":51},{"user_id":710,"name":"Anyar","steam_id":76561198160174097,"connected_time":3396000000000,"state":"active","ping":38},{"user_id":718,"name":"cheeto dorito","steam_id":76561198107941274,"connected_time":2600000000000,"state":"active","ping":77},{"user_id":717,"name":"DeckofDragons","steam_id":76561198057398213,"connected_time":2933000000000,"state":"active","ping":70},{"user_id":723,"name":"ya boi","steam_id":76561198420218460,"connected_time":1983000000000,"state":"active","ping":51},{"user_id":747,"name":"Trans Bumblebee","steam_id":76561198119393205,"connected_time":8000000000,"state":"spawning","ping":302},{"user_id":745,"name":"§loth","steam_id":76561197998378462,"connected_time":438000000000,"state":"active","ping":97},{"user_id":737,"name":"Gull","steam_id":76561198161560332,"connected_time":1213000000000,"state":"active","ping":103},{"user_id":683,"name":"Local Talent","steam_id":76561199053290637,"connected_time":5179000000000,"state":"active","ping":83},{"user_id":738,"name":"butcher pete","steam_id":76561197963872739,"connected_time":1201000000000,"state":"active","ping":74},{"user_id":659,"name":"A Can of Arizona Green Tea","steam_id":76561198062481133,"connected_time":6408000000000,"state":"active","ping":71},{"user_id":739,"name":"Hero8171","steam_id":76561199239824271,"connected_time":1172000000000,"state":"active","ping":80},{"user_id":687,"name":"Mellon","steam_id":76561198092509893,"connected_time":4998000000000,"state":"active","ping":54},{"user_id":729,"name":"REQQIR","steam_id":76561199151509765,"connected_time":1843000000000,"state":"active","ping":74},{"user_id":740,"name":"Romo","steam_id":76561198243101572,"connected_time":1134000000000,"state":"active","ping":69},{"user_id":743,"name":"Snoogs","steam_id":76561198444880931,"connected_time":571000000000,"state":"active","ping":79},{"user_id":714,"name":"deskmedic","steam_id":76561198295640486,"connected_time":3312000000000,"state":"active","ping":74}]},{"server_id":108,"name":"Uncletopia | Dallas | 2 | All Maps","name_short":"dal-2","host":"dal-1.us.uncletopia.com","port":27025,"enabled":true,"region":"us-central","cc":"us","latitude":32.779167,"longitude":-96.80889,"reserved":0,"last_update":"0001-01-01T00:00:00Z","name_a2s":"Uncletopia | Dallas | 2 | All Maps","protocol":17,"map":"cp_process_final","folder":"tf","game":"Team Fortress","app_id":440,"player_count":22,"max_players":24,"Bots":0,"server_type":"Dedicated","server_os":"Linux","password":true,"vac":true,"version":"7757534","steam_id":85568392924469988,"keywords":["cp","nocrits","nodmgspread","uncletopia"],"game_id":440,"stv_port":27026,"stv_name":"Uncletopia | Dallas | 2 | All Maps | STV","players":[{"user_id":410,"name":"Autogyro","steam_id":76561198047943679,"connected_time":839000000000,"state":"active","ping":52},{"user_id":349,"name":"The Dead Weight","steam_id":76561198056694098,"connected_time":6520000000000,"state":"active","ping":64},{"user_id":411,"name":"Genius Meme","steam_id":76561198162911254,"connected_time":747000000000,"state":"active","ping":83},{"user_id":375,"name":"Dragons\u003eEverything","steam_id":76561199140784635,"connected_time":3999000000000,"state":"active","ping":70},{"user_id":422,"name":"420blzItM8","steam_id":76561198137983285,"connected_time":261000000000,"state":"active","ping":143},{"user_id":373,"name":"Bullwinkle J. Moose","steam_id":76561198075977196,"connected_time":4186000000000,"state":"active","ping":59},{"user_id":419,"name":"radiohead enjoyer","steam_id":76561198397662124,"connected_time":356000000000,"state":"active","ping":57},{"user_id":414,"name":"NGsterson","steam_id":76561198162108154,"connected_time":670000000000,"state":"active","ping":99},{"user_id":415,"name":"barker bill","steam_id":76561198018451994,"connected_time":655000000000,"state":"active","ping":55},{"user_id":396,"name":"Cassius","steam_id":76561198146163328,"connected_time":1176000000000,"state":"active","ping":102},{"user_id":377,"name":"bolainassr0","steam_id":76561199079078845,"connected_time":3955000000000,"state":"active","ping":105},{"user_id":416,"name":"Ironaka","steam_id":76561198029993183,"connected_time":647000000000,"state":"active","ping":91},{"user_id":391,"name":"vcx","steam_id":76561198139371143,"connected_time":1353000000000,"state":"active","ping":60},{"user_id":344,"name":"Tribute","steam_id":76561198081594043,"connected_time":6847000000000,"state":"active","ping":57},{"user_id":402,"name":"Hey","steam_id":76561198447517893,"connected_time":1109000000000,"state":"active","ping":70},{"user_id":408,"name":"Royal Birb","steam_id":76561198124184158,"connected_time":923000000000,"state":"active","ping":72},{"user_id":354,"name":"James","steam_id":76561198081313916,"connected_time":6216000000000,"state":"active","ping":75},{"user_id":283,"name":"Onyx","steam_id":76561198275349640,"connected_time":12366000000000,"state":"active","ping":56},{"user_id":401,"name":"Bacon Hoodie","steam_id":76561198843822629,"connected_time":1115000000000,"state":"active","ping":57},{"user_id":405,"name":"heimdall","steam_id":76561198069380992,"connected_time":1035000000000,"state":"active","ping":66},{"user_id":418,"name":"Toon","steam_id":76561198395437335,"connected_time":580000000000,"state":"active","ping":119},{"user_id":421,"name":"Chicken_Teriyaki","steam_id":76561199387433577,"connected_time":328000000000,"state":"active","ping":66}]},{"server_id":5,"name":"Uncletopia | Frankfurt | 1 | All Maps","name_short":"frk-1","host":"frk-1.de.uncletopia.com","port":27015,"enabled":true,"region":"eu","cc":"de","latitude":50.110924,"longitude":8.682127,"reserved":0,"last_update":"0001-01-01T00:00:00Z","name_a2s":"Uncletopia | Frankfurt | 1 | All Maps","protocol":17,"map":"cp_mountainlab","folder":"tf","game":"Team Fortress","app_id":440,"player_count":0,"max_players":24,"Bots":0,"server_type":"Dedicated","server_os":"Linux","password":true,"vac":true,"version":"7757534","steam_id":85568392924469989,"keywords":["cp","nocrits","nodmgspread","uncletopia"],"game_id":440,"stv_port":27016,"stv_name":"Uncletopia | Frankfurt | 1 | All Maps | STV","players":null},{"server_id":110,"name":"Uncletopia | Frankfurt | 2 | All Maps","name_short":"frk-2","host":"frk-1.de.uncletopia.com","port":27025,"enabled":true,"region":"eu","cc":"de","latitude":50.110924,"longitude":8.682127,"reserved":0,"last_update":"0001-01-01T00:00:00Z","name_a2s":"Uncletopia | Frankfurt | 2 | All Maps","protocol":17,"map":"pl_upward","folder":"tf","game":"Team Fortress","app_id":440,"player_count":4,"max_players":24,"Bots":0,"server_type":"Dedicated","server_os":"Linux","password":true,"vac":true,"version":"7757534","steam_id":85568392924469990,"keywords":["nocrits","nodmgspread","payload","uncletopia"],"game_id":440,"stv_port":27026,"stv_name":"Uncletopia | Frankfurt | 2 | All Maps | STV","players":[{"user_id":485,"name":"Whomstr","steam_id":76561198871432675,"connected_time":2124000000000,"state":"active","ping":51},{"user_id":479,"name":"^2GT*Cha^1sodey","steam_id":76561198076668126,"connected_time":3295000000000,"state":"active","ping":83},{"user_id":355,"name":"Femboy Gaming","steam_id":76561198174108515,"connected_time":12952000000000,"state":"active","ping":50},{"user_id":385,"name":"Zero","steam_id":76561199383267408,"connected_time":10674000000000,"state":"active","ping":171}]},{"server_id":308,"name":"Uncletopia | Frankfurt | 3 | All Maps","name_short":"frk-3","host":"frk-1.de.uncletopia.com","port":27035,"enabled":true,"region":"eu","cc":"de","latitude":50.110924,"longitude":8.682127,"reserved":0,"last_update":"0001-01-01T00:00:00Z","name_a2s":"Uncletopia | Frankfurt | 3 | All Maps","protocol":17,"map":"cp_mountainlab","folder":"tf","game":"Team Fortress","app_id":440,"player_count":0,"max_players":24,"Bots":0,"server_type":"Dedicated","server_os":"Linux","password":true,"vac":true,"version":"7757534","steam_id":85568392924504274,"keywords":["cp","nocrits","nodmgspread","uncletopia"],"game_id":440,"stv_port":27036,"stv_name":"Uncletopia | Frankfurt | 3 | All Maps | STV","players":null},{"server_id":309,"name":"Uncletopia | Frankfurt | 4 | All Maps","name_short":"frk-4","host":"frk-1.de.uncletopia.com","port":27045,"enabled":true,"region":"eu","cc":"de","latitude":50.110924,"longitude":8.682127,"reserved":0,"last_update":"0001-01-01T00:00:00Z","name_a2s":"Uncletopia | Frankfurt | 4 | All Maps","protocol":17,"map":"koth_highpass","folder":"tf","game":"Team Fortress","app_id":440,"player_count":0,"max_players":24,"Bots":0,"server_type":"Dedicated","server_os":"Linux","password":true,"vac":true,"version":"7757534","steam_id":85568392924504275,"keywords":["cp","nocrits","nodmgspread","uncletopia"],"game_id":440,"stv_port":27046,"stv_name":"Uncletopia | Frankfurt | 4 | All Maps | STV","players":null},{"server_id":310,"name":"Uncletopia | Frankfurt | 5 | All Maps","name_short":"frk-5","host":"frk-1.de.uncletopia.com","port":27055,"enabled":true,"region":"eu","cc":"de","latitude":50.110924,"longitude":8.682127,"reserved":0,"last_update":"0001-01-01T00:00:00Z","name_a2s":"Uncletopia | Frankfurt | 5 | All Maps","protocol":17,"map":"koth_viaduct","folder":"tf","game":"Team Fortress","app_id":440,"player_count":0,"max_players":24,"Bots":0,"server_type":"Dedicated","server_os":"Linux","password":true,"vac":true,"version":"7757534","steam_id":85568392924504277,"keywords":["cp","nocrits","nodmgspread","uncletopia"],"game_id":440,"stv_port":27056,"stv_name":"Uncletopia | Frankfurt | 5 | All Maps | STV","players":null},{"server_id":311,"name":"Uncletopia | Frankfurt | 6 | All Maps","name_short":"frk-6","host":"frk-1.de.uncletopia.com","port":27065,"enabled":true,"region":"eu","cc":"de","latitude":50.110924,"longitude":8.682127,"reserved":0,"last_update":"0001-01-01T00:00:00Z","name_a2s":"Uncletopia | Frankfurt | 6 | All Maps","protocol":17,"map":"koth_viaduct","folder":"tf","game":"Team Fortress","app_id":440,"player_count":0,"max_players":24,"Bots":0,"server_type":"Dedicated","server_os":"Linux","password":true,"vac":true,"version":"7757534","steam_id":85568392924504278,"keywords":["cp","nocrits","nodmgspread","uncletopia"],"game_id":440,"stv_port":27066,"stv_name":"Uncletopia | Frankfurt | 6 | All Maps | STV","players":null},{"server_id":23,"name":"Uncletopia | Frankfurt | 7 | Stopwatch Beta","name_short":"frk-7","host":"frk-1.de.uncletopia.com","port":27075,"enabled":true,"region":"eu","cc":"de","latitude":50.110924,"longitude":8.682127,"reserved":0,"last_update":"0001-01-01T00:00:00Z","name_a2s":"Uncletopia | Frankfurt | 7 | Stopwatch Beta","protocol":17,"map":"workshop/koth_ramjam_rc1.ugc459778887","folder":"tf","game":"Team Fortress","app_id":440,"player_count":0,"max_players":24,"Bots":0,"server_type":"Dedicated","server_os":"Linux","password":true,"vac":true,"version":"7757534","steam_id":85568392924742827,"keywords":["cp","nocrits","nodmgspread","uncletopia"],"game_id":440,"stv_port":27076,"stv_name":"Uncletopia | Frankfurt | 7 | Stopwatch Beta | STV","players":null},{"server_id":24,"name":"Uncletopia | Frankfurt | 8 | Community","name_short":"frk-8","host":"frk-1.de.uncletopia.com","port":27085,"enabled":true,"region":"eu","cc":"de","latitude":50.110924,"longitude":8.682127,"reserved":0,"last_update":"0001-01-01T00:00:00Z","name_a2s":"Uncletopia | Frankfurt | 8 | Community","protocol":17,"map":"workshop/pl_shoreleave_rc1.ugc1238849347","folder":"tf","game":"Team Fortress","app_id":440,"player_count":0,"max_players":24,"Bots":0,"server_type":"Dedicated","server_os":"Linux","password":true,"vac":true,"version":"7757534","steam_id":85568392924742828,"keywords":["nocrits","nodmgspread","payload","uncletopia"],"game_id":440,"stv_port":27086,"stv_name":"Uncletopia | Frankfurt | 8 | Community | STV","players":null},{"server_id":202,"name":"Uncletopia | Hong Kong | 1 | All Maps","name_short":"hgk-1","host":"hgk-1.hk.uncletopia.com","port":27015,"enabled":true,"region":"asia","cc":"hk","latitude":22.302711,"longitude":114.177216,"reserved":0,"last_update":"0001-01-01T00:00:00Z","name_a2s":"Uncletopia | Hong Kong | 1 | All Maps","protocol":17,"map":"plr_hightower","folder":"tf","game":"Team Fortress","app_id":440,"player_count":0,"max_players":24,"Bots":0,"server_type":"Dedicated","server_os":"Linux","password":true,"vac":true,"version":"7757534","steam_id":85568392924494504,"keywords":["nocrits","nodmgspread","payload","uncletopia"],"game_id":440,"stv_port":27016,"stv_name":"Uncletopia | Hong Kong | 1 | All Maps | STV","players":null},{"server_id":1,"name":"Uncletopia | Los Angeles | 1 | All Maps","name_short":"lax-1","host":"lax-1.us.uncletopia.com","port":27015,"enabled":true,"region":"us-west","cc":"us","latitude":33.94279,"longitude":-118.41004,"reserved":0,"last_update":"0001-01-01T00:00:00Z","name_a2s":"Uncletopia | Los Angeles | 1 | All Maps","protocol":17,"map":"cp_mountainlab","folder":"tf","game":"Team Fortress","app_id":440,"player_count":24,"max_players":24,"Bots":0,"server_type":"Dedicated","server_os":"Linux","password":true,"vac":true,"version":"7757534","steam_id":85568392924469991,"keywords":["cp","nocrits","nodmgspread","uncletopia"],"game_id":440,"stv_port":27016,"stv_name":"Uncletopia | Los Angeles | 1 | All Maps | STV","players":[{"user_id":397,"name":"Killerofzombie23","steam_id":76561198799173778,"connected_time":954000000000,"state":"active","ping":74},{"user_id":355,"name":"JiminyJustin","steam_id":76561198103623389,"connected_time":4700000000000,"state":"active","ping":67},{"user_id":384,"name":"Type Three Dabeetus","steam_id":76561198062710038,"connected_time":1955000000000,"state":"active","ping":69},{"user_id":398,"name":"Stapler","steam_id":76561198099295077,"connected_time":919000000000,"state":"active","ping":59},{"user_id":387,"name":"tie dye die guy","steam_id":76561198049845337,"connected_time":1646000000000,"state":"active","ping":59},{"user_id":395,"name":"IKEA Meatballs","steam_id":76561198025012508,"connected_time":1138000000000,"state":"active","ping":41},{"user_id":370,"name":"Tako","steam_id":76561199264073138,"connected_time":2420000000000,"state":"active","ping":40},{"user_id":357,"name":"bigman1","steam_id":76561198050225055,"connected_time":3879000000000,"state":"active","ping":44},{"user_id":382,"name":"lana_del_Rei.com","steam_id":76561198172447621,"connected_time":2065000000000,"state":"active","ping":47},{"user_id":394,"name":"GGN","steam_id":76561198233603808,"connected_time":1312000000000,"state":"active","ping":55},{"user_id":399,"name":"3 kids in a coat (Jacox98)","steam_id":76561198128799894,"connected_time":861000000000,"state":"active","ping":119},{"user_id":405,"name":"Chafn","steam_id":76561197969386702,"connected_time":322000000000,"state":"active","ping":59},{"user_id":371,"name":"Knock on the sky and listen","steam_id":76561198077597130,"connected_time":2398000000000,"state":"active","ping":62},{"user_id":401,"name":"Pogpogthe3rd (F2P)","steam_id":76561198979554460,"connected_time":839000000000,"state":"active","ping":53},{"user_id":374,"name":"The Hoagie Hero","steam_id":76561198057569298,"connected_time":2184000000000,"state":"active","ping":132},{"user_id":402,"name":"ForAPessimistImPrettyOptimistic","steam_id":76561198170128009,"connected_time":782000000000,"state":"active","ping":70},{"user_id":396,"name":"Esue Ijae","steam_id":76561199268519057,"connected_time":1136000000000,"state":"active","ping":49},{"user_id":406,"name":"adolf tickler","steam_id":76561198163120788,"connected_time":122000000000,"state":"active","ping":45},{"user_id":363,"name":"Len","steam_id":76561199141913673,"connected_time":3117000000000,"state":"active","ping":30},{"user_id":354,"name":"Egretious #transrights","steam_id":76561199115467998,"connected_time":4894000000000,"state":"active","ping":66},{"user_id":365,"name":"Stargazer A.","steam_id":76561198035479925,"connected_time":2731000000000,"state":"active","ping":44},{"user_id":379,"name":"North","steam_id":76561199173696836,"connected_time":2087000000000,"state":"active","ping":102},{"user_id":361,"name":"Risky","steam_id":76561198231029328,"connected_time":3393000000000,"state":"active","ping":55},{"user_id":404,"name":"Rae ❤","steam_id":76561199082727505,"connected_time":678000000000,"state":"active","ping":48}]},{"server_id":112,"name":"Uncletopia | Los Angeles | 2 | All Maps","name_short":"lax-2","host":"lax-1.us.uncletopia.com","port":27025,"enabled":true,"region":"us-west","cc":"us","latitude":33.94279,"longitude":-118.41004,"reserved":0,"last_update":"0001-01-01T00:00:00Z","name_a2s":"Uncletopia | Los Angeles | 2 | All Maps","protocol":17,"map":"koth_cascade","folder":"tf","game":"Team Fortress","app_id":440,"player_count":0,"max_players":24,"Bots":0,"server_type":"Dedicated","server_os":"Linux","password":true,"vac":true,"version":"7757534","steam_id":85568392924469992,"keywords":["cp","nocrits","nodmgspread","uncletopia"],"game_id":440,"stv_port":27026,"stv_name":"Uncletopia | Los Angeles | 2 | All Maps | STV","players":null},{"server_id":324,"name":"Uncletopia | Los Angeles | 3 | All Maps","name_short":"lax-3","host":"lax-1.us.uncletopia.com","port":27035,"enabled":true,"region":"us-west","cc":"us","latitude":33.94279,"longitude":-118.41004,"reserved":0,"last_update":"0001-01-01T00:00:00Z","name_a2s":"Uncletopia | Los Angeles | 3 | All Maps","protocol":17,"map":"pl_borneo","folder":"tf","game":"Team Fortress","app_id":440,"player_count":3,"max_players":24,"Bots":0,"server_type":"Dedicated","server_os":"Linux","password":true,"vac":true,"version":"7757534","steam_id":85568392924510198,"keywords":["nocrits","nodmgspread","payload","uncletopia"],"game_id":440,"stv_port":27036,"stv_name":"Uncletopia | Los Angeles | 3 | All Maps | STV","players":[{"user_id":13,"name":"Verily","steam_id":76561198200558318,"connected_time":397000000000,"state":"active","ping":105},{"user_id":14,"name":"Green™","steam_id":76561198136522734,"connected_time":373000000000,"state":"active","ping":103},{"user_id":15,"name":"MuZe","steam_id":76561198096212604,"connected_time":366000000000,"state":"active","ping":118}]},{"server_id":25,"name":"Uncletopia | Los Angeles | 4 | Stopwatch Beta","name_short":"lax-4","host":"lax-1.us.uncletopia.com","port":27045,"enabled":true,"region":"us-west","cc":"us","latitude":33.94279,"longitude":-118.41004,"reserved":0,"last_update":"0001-01-01T00:00:00Z","name_a2s":"Uncletopia | Los Angeles | 4 | Stopwatch Beta","protocol":17,"map":"pl_frontier_final","folder":"tf","game":"Team Fortress","app_id":440,"player_count":0,"max_players":24,"Bots":0,"server_type":"Dedicated","server_os":"Linux","password":true,"vac":true,"version":"7757534","steam_id":85568392924510199,"keywords":["nocrits","nodmgspread","payload","uncletopia"],"game_id":440,"stv_port":27046,"stv_name":"Uncletopia | Los Angeles | 4 | Stopwatch Beta | STV","players":null},{"server_id":11,"name":"Uncletopia | London | 1 | All Maps","name_short":"lon-1","host":"lon-1.uk.uncletopia.com","port":27015,"enabled":true,"region":"eu","cc":"gb","latitude":51.509865,"longitude":-0.118092,"reserved":0,"last_update":"0001-01-01T00:00:00Z","name_a2s":"Uncletopia | London | 1 | All Maps","protocol":17,"map":"koth_lakeside_final","folder":"tf","game":"Team Fortress","app_id":440,"player_count":0,"max_players":24,"Bots":0,"server_type":"Dedicated","server_os":"Linux","password":true,"vac":true,"version":"7757534","steam_id":85568392924367362,"keywords":["cp","nocrits","nodmgspread","uncletopia"],"game_id":440,"stv_port":27016,"stv_name":"Uncletopia | London | 1 | All Maps | STV","players":null},{"server_id":114,"name":"Uncletopia | London | 2 | All Maps","name_short":"lon-2","host":"lon-1.uk.uncletopia.com","port":27025,"enabled":true,"region":"eu","cc":"gb","latitude":51.509865,"longitude":-0.118092,"reserved":0,"last_update":"0001-01-01T00:00:00Z","name_a2s":"Uncletopia | London | 2 | All Maps","protocol":17,"map":"koth_cascade","folder":"tf","game":"Team Fortress","app_id":440,"player_count":0,"max_players":24,"Bots":0,"server_type":"Dedicated","server_os":"Linux","password":true,"vac":true,"version":"7757534","steam_id":85568392924470941,"keywords":["cp","nocrits","nodmgspread","uncletopia"],"game_id":440,"stv_port":27026,"stv_name":"Uncletopia | London | 2 | All Maps | STV","players":null},{"server_id":320,"name":"Uncletopia | London | 3 | All Maps","name_short":"lon-3","host":"lon-1.uk.uncletopia.com","port":27035,"enabled":true,"region":"eu","cc":"gb","latitude":51.509865,"longitude":-0.118092,"reserved":0,"last_update":"0001-01-01T00:00:00Z","name_a2s":"Uncletopia | London | 3 | All Maps","protocol":17,"map":"pl_upward","folder":"tf","game":"Team Fortress","app_id":440,"player_count":0,"max_players":24,"Bots":0,"server_type":"Dedicated","server_os":"Linux","password":true,"vac":true,"version":"7757534","steam_id":85568392924510192,"keywords":["nocrits","nodmgspread","payload","uncletopia"],"game_id":440,"stv_port":27036,"stv_name":"Uncletopia | London | 3 | All Maps | STV","players":null},{"server_id":321,"name":"Uncletopia | London | 4 | All Maps","name_short":"lon-4","host":"lon-1.uk.uncletopia.com","port":27045,"enabled":true,"region":"eu","cc":"gb","latitude":51.509865,"longitude":-0.118092,"reserved":0,"last_update":"0001-01-01T00:00:00Z","name_a2s":"Uncletopia | London | 4 | All Maps","protocol":17,"map":"koth_highpass","folder":"tf","game":"Team Fortress","app_id":440,"player_count":0,"max_players":24,"Bots":0,"server_type":"Dedicated","server_os":"Linux","password":true,"vac":true,"version":"7757534","steam_id":85568392924510193,"keywords":["cp","nocrits","nodmgspread","uncletopia"],"game_id":440,"stv_port":27046,"stv_name":"Uncletopia | London | 4 | All Maps | STV","players":null},{"server_id":21,"name":"Uncletopia | London | 5 | All Maps","name_short":"lon-5","host":"lon-1.uk.uncletopia.com","port":27055,"enabled":true,"region":"eu","cc":"gb","latitude":51.509865,"longitude":-0.118092,"reserved":0,"last_update":"0001-01-01T00:00:00Z","name_a2s":"Uncletopia | London | 5 | All Maps","protocol":17,"map":"koth_lakeside_final","folder":"tf","game":"Team Fortress","app_id":440,"player_count":0,"max_players":24,"Bots":0,"server_type":"Dedicated","server_os":"Linux","password":true,"vac":true,"version":"7757534","steam_id":85568392924742829,"keywords":["cp","nocrits","nodmgspread","uncletopia"],"game_id":440,"stv_port":27056,"stv_name":"Uncletopia | London | 5 | All Maps | STV","players":null},{"server_id":22,"name":"Uncletopia | London | 6 | All Maps","name_short":"lon-6","host":"lon-1.uk.uncletopia.com","port":27065,"enabled":true,"region":"eu","cc":"gb","latitude":51.509865,"longitude":-0.118092,"reserved":0,"last_update":"0001-01-01T00:00:00Z","name_a2s":"Uncletopia | London | 6 | All Maps","protocol":17,"map":"cp_dustbowl","folder":"tf","game":"Team Fortress","app_id":440,"player_count":0,"max_players":24,"Bots":0,"server_type":"Dedicated","server_os":"Linux","password":true,"vac":true,"version":"7757534","steam_id":85568392924742830,"keywords":["cp","nocrits","nodmgspread","uncletopia"],"game_id":440,"stv_port":27066,"stv_name":"Uncletopia | London | 6 | All Maps | STV","players":null},{"server_id":40,"name":"Uncletopia | London | 7 | No Payload","name_short":"lon-7","host":"lon-1.uk.uncletopia.com","port":27075,"enabled":true,"region":"eu","cc":"gb","latitude":51.509865,"longitude":-0.118092,"reserved":0,"last_update":"0001-01-01T00:00:00Z","name_a2s":"Uncletopia | London | 7 | No Payload","protocol":17,"map":"koth_suijin","folder":"tf","game":"Team Fortress","app_id":440,"player_count":0,"max_players":24,"Bots":0,"server_type":"Dedicated","server_os":"Linux","password":true,"vac":true,"version":"7757534","steam_id":85568392924964314,"keywords":["cp","nocrits","nodmgspread","uncletopia"],"game_id":440,"stv_port":27076,"stv_name":"Uncletopia | London | 7 | No Payload | STV","players":null},{"server_id":41,"name":"Uncletopia | London | 8 | Community","name_short":"lon-8","host":"lon-1.uk.uncletopia.com","port":27085,"enabled":true,"region":"eu","cc":"gb","latitude":51.509865,"longitude":-0.118092,"reserved":0,"last_update":"0001-01-01T00:00:00Z","name_a2s":"Uncletopia | London | 8 | Community","protocol":17,"map":"workshop/pl_cactuscanyon_redux_rc4b.ugc2579644293","folder":"tf","game":"Team Fortress","app_id":440,"player_count":0,"max_players":24,"Bots":0,"server_type":"Dedicated","server_os":"Linux","password":true,"vac":true,"version":"7757534","steam_id":85568392924964315,"keywords":["nocrits","nodmgspread","payload","uncletopia"],"game_id":440,"stv_port":27086,"stv_name":"Uncletopia | London | 8 | Community | STV","players":null},{"server_id":300,"name":"Uncletopia | Montréal | 1 | All Maps","name_short":"mtl-1","host":"mtl-1.ca.uncletopia.com","port":27015,"enabled":true,"region":"us-east","cc":"ca","latitude":45.50889,"longitude":-73.56167,"reserved":0,"last_update":"0001-01-01T00:00:00Z","name_a2s":"Uncletopia | Montréal | 1 | All Maps","protocol":17,"map":"pl_borneo","folder":"tf","game":"Team Fortress","app_id":440,"player_count":24,"max_players":24,"Bots":0,"server_type":"Dedicated","server_os":"Linux","password":true,"vac":true,"version":"7757534","steam_id":85568392924500087,"keywords":["nocrits","nodmgspread","payload","uncletopia"],"game_id":440,"stv_port":27016,"stv_name":"Uncletopia | Montréal | 1 | All Maps | STV","players":[{"user_id":255,"name":"jjsamachama","steam_id":76561198964488850,"connected_time":6128000000000,"state":"active","ping":84},{"user_id":328,"name":"Impresio","steam_id":76561198129127347,"connected_time":851000000000,"state":"active","ping":74},{"user_id":252,"name":"Invisorum","steam_id":76561198051902115,"connected_time":6570000000000,"state":"active","ping":142},{"user_id":316,"name":"Heropon","steam_id":76561198105224481,"connected_time":2056000000000,"state":"active","ping":73},{"user_id":272,"name":"The Drunk Clown","steam_id":76561197986850426,"connected_time":5315000000000,"state":"active","ping":46},{"user_id":323,"name":"Smet19","steam_id":76561198118455606,"connected_time":1093000000000,"state":"active","ping":47},{"user_id":332,"name":"fear","steam_id":76561198063170079,"connected_time":4000000000,"state":"spawning","ping":59},{"user_id":307,"name":"Spruce Heffertippin","steam_id":76561198002435069,"connected_time":2650000000000,"state":"active","ping":105},{"user_id":333,"name":"Horse","steam_id":76561199112075552,"connected_time":1000000000,"state":"spawning","ping":33},{"user_id":321,"name":"kentuckyfriedsocks","steam_id":76561198311122883,"connected_time":1111000000000,"state":"active","ping":90},{"user_id":329,"name":"22' x-max cratex","steam_id":76561198251054454,"connected_time":501000000000,"state":"active","ping":88},{"user_id":327,"name":"Warkeidan","steam_id":76561198118805546,"connected_time":1010000000000,"state":"active","ping":46},{"user_id":310,"name":"Fobby #Savetf2","steam_id":76561198047681469,"connected_time":2509000000000,"state":"active","ping":70},{"user_id":287,"name":"Winter the Witchie","steam_id":76561198151971178,"connected_time":4769000000000,"state":"active","ping":70},{"user_id":324,"name":"DededeMain | trade.tf","steam_id":76561198310951632,"connected_time":1081000000000,"state":"active","ping":68},{"user_id":326,"name":"lfty","steam_id":76561198283841707,"connected_time":1059000000000,"state":"active","ping":72},{"user_id":294,"name":"Kirbaby","steam_id":76561198134947895,"connected_time":4116000000000,"state":"active","ping":65},{"user_id":311,"name":"Omni","steam_id":76561198035774007,"connected_time":2500000000000,"state":"active","ping":93},{"user_id":253,"name":"Nyrator","steam_id":76561198018640479,"connected_time":6505000000000,"state":"active","ping":85},{"user_id":312,"name":"Yada #savetf2","steam_id":76561199103981181,"connected_time":2494000000000,"state":"active","ping":54},{"user_id":313,"name":"Chaz","steam_id":76561198041807601,"connected_time":2440000000000,"state":"active","ping":68},{"user_id":320,"name":"golem","steam_id":76561198355040593,"connected_time":1471000000000,"state":"active","ping":67},{"user_id":330,"name":"tools","steam_id":76561199010542612,"connected_time":441000000000,"state":"active","ping":59}]},{"server_id":301,"name":"Uncletopia | Montréal | 2 | All Maps","name_short":"mtl-2","host":"mtl-1.ca.uncletopia.com","port":27025,"enabled":true,"region":"us-east","cc":"ca","latitude":45.50889,"longitude":-73.56167,"reserved":0,"last_update":"0001-01-01T00:00:00Z","name_a2s":"Uncletopia | Montréal | 2 | All Maps","protocol":17,"map":"pl_frontier_final","folder":"tf","game":"Team Fortress","app_id":440,"player_count":0,"max_players":24,"Bots":0,"server_type":"Dedicated","server_os":"Linux","password":true,"vac":true,"version":"7757534","steam_id":85568392924500088,"keywords":["nocrits","nodmgspread","payload","uncletopia"],"game_id":440,"stv_port":27026,"stv_name":"Uncletopia | Montréal | 2 | All Maps | STV","players":null},{"server_id":302,"name":"Uncletopia | Montréal | 3 | All Maps","name_short":"mtl-3","host":"mtl-1.ca.uncletopia.com","port":27035,"enabled":true,"region":"us-east","cc":"ca","latitude":45.50889,"longitude":-73.56167,"reserved":0,"last_update":"0001-01-01T00:00:00Z","name_a2s":"Uncletopia | Montréal | 3 | All Maps","protocol":17,"map":"cp_dustbowl","folder":"tf","game":"Team Fortress","app_id":440,"player_count":0,"max_players":24,"Bots":0,"server_type":"Dedicated","server_os":"Linux","password":true,"vac":true,"version":"7757534","steam_id":85568392924500089,"keywords":["cp","nocrits","nodmgspread","uncletopia"],"game_id":440,"stv_port":27036,"stv_name":"Uncletopia | Montréal | 3 | All Maps | STV","players":null},{"server_id":303,"name":"Uncletopia | Montréal | 4 | No Payload","name_short":"mtl-4","host":"mtl-1.ca.uncletopia.com","port":27045,"enabled":true,"region":"us-east","cc":"ca","latitude":45.50889,"longitude":-73.56167,"reserved":0,"last_update":"0001-01-01T00:00:00Z","name_a2s":"Uncletopia | Montréal | 4 | No Payload","protocol":17,"map":"pl_borneo","folder":"tf","game":"Team Fortress","app_id":440,"player_count":0,"max_players":24,"Bots":0,"server_type":"Dedicated","server_os":"Linux","password":true,"vac":true,"version":"7757534","steam_id":85568392924500090,"keywords":["nocrits","nodmgspread","payload","uncletopia"],"game_id":440,"stv_port":27046,"stv_name":"Uncletopia | Montréal | 4 | No Payload | STV","players":null},{"server_id":13,"name":"Uncletopia | New York City | 1 | All Maps","name_short":"nyc-1","host":"nyc-1.us.uncletopia.com","port":27015,"enabled":true,"region":"us-east","cc":"us","latitude":40.73061,"longitude":-73.93524,"reserved":0,"last_update":"0001-01-01T00:00:00Z","name_a2s":"Uncletopia | New York City | 1 | All Maps","protocol":17,"map":"koth_harvest_final","folder":"tf","game":"Team Fortress","app_id":440,"player_count":16,"max_players":24,"Bots":0,"server_type":"Dedicated","server_os":"Linux","password":true,"vac":true,"version":"7757534","steam_id":85568392924469993,"keywords":["cp","nocrits","nodmgspread","uncletopia"],"game_id":440,"stv_port":27016,"stv_name":"Uncletopia | New York City | 1 | All Maps | STV","players":[{"user_id":541,"name":"crackingcorn","steam_id":76561198281690779,"connected_time":1340000000000,"state":"active","ping":58},{"user_id":431,"name":"Baron von Whoopsie","steam_id":76561197996691013,"connected_time":9363000000000,"state":"active","ping":53},{"user_id":557,"name":"Sodemo","steam_id":76561198074987146,"connected_time":401000000000,"state":"active","ping":69},{"user_id":555,"name":"Phillip Jeffries","steam_id":76561198064052174,"connected_time":594000000000,"state":"active","ping":54},{"user_id":548,"name":"ndvr","steam_id":76561199379200102,"connected_time":1193000000000,"state":"active","ping":54},{"user_id":513,"name":"🎃Bunny🎃","steam_id":76561198074872531,"connected_time":3064000000000,"state":"active","ping":84},{"user_id":561,"name":"Booz Lityar","steam_id":76561199056842761,"connected_time":110000000000,"state":"active","ping":105},{"user_id":554,"name":"qjkxkcd","steam_id":76561198035922283,"connected_time":823000000000,"state":"active","ping":56},{"user_id":562,"name":"basilberry","steam_id":76561198145275937,"connected_time":8000000000,"state":"spawning","ping":105},{"user_id":507,"name":"brake pipe","steam_id":76561198056330171,"connected_time":3148000000000,"state":"active","ping":80},{"user_id":508,"name":"Pineapple Pancakes","steam_id":76561198860470713,"connected_time":3133000000000,"state":"active","ping":91},{"user_id":504,"name":"cooltool21","steam_id":76561197996817585,"connected_time":3301000000000,"state":"active","ping":56},{"user_id":558,"name":"F0restFerret","steam_id":76561199112458876,"connected_time":395000000000,"state":"active","ping":50},{"user_id":382,"name":"Elixir","steam_id":76561198166786809,"connected_time":13233000000000,"state":"active","ping":54},{"user_id":560,"name":"Lv4 Gnoll Magus","steam_id":76561198042068995,"connected_time":209000000000,"state":"active","ping":87},{"user_id":539,"name":"Rockguy21","steam_id":76561198121303359,"connected_time":1469000000000,"state":"active","ping":56}]},{"server_id":14,"name":"Uncletopia | New York City | 2 | All Maps","name_short":"nyc-2","host":"nyc-1.us.uncletopia.com","port":27025,"enabled":true,"region":"us-east","cc":"us","latitude":40.73061,"longitude":-73.93524,"reserved":0,"last_update":"0001-01-01T00:00:00Z","name_a2s":"Uncletopia | New York City | 2 | All Maps","protocol":17,"map":"pl_snowycoast","folder":"tf","game":"Team Fortress","app_id":440,"player_count":24,"max_players":24,"Bots":0,"server_type":"Dedicated","server_os":"Linux","password":true,"vac":true,"version":"7757534","steam_id":85568392924469994,"keywords":["nocrits","nodmgspread","payload","uncletopia"],"game_id":440,"stv_port":27026,"stv_name":"Uncletopia | New York City | 2 | All Maps | STV","players":[{"user_id":70,"name":"WhoIsFrosty","steam_id":76561198880588117,"connected_time":3439000000000,"state":"active","ping":68},{"user_id":111,"name":"slacer","steam_id":76561198363596851,"connected_time":832000000000,"state":"active","ping":88},{"user_id":74,"name":"Mango","steam_id":76561199209533440,"connected_time":2910000000000,"state":"active","ping":74},{"user_id":84,"name":"Walmart Employee","steam_id":76561198840373909,"connected_time":2599000000000,"state":"active","ping":97},{"user_id":109,"name":"craf","steam_id":76561198163535075,"connected_time":914000000000,"state":"active","ping":61},{"user_id":117,"name":"Braamklauw","steam_id":76561198283287697,"connected_time":277000000000,"state":"active","ping":148},{"user_id":81,"name":"Pancreas Enjoyer","steam_id":76561199438598904,"connected_time":2649000000000,"state":"active","ping":96},{"user_id":106,"name":"Ghost5x1","steam_id":76561198117418164,"connected_time":1314000000000,"state":"active","ping":56},{"user_id":86,"name":"Great Chinaman","steam_id":76561198409907417,"connected_time":2502000000000,"state":"active","ping":129},{"user_id":46,"name":"LordOfTheNoobs","steam_id":76561197962697523,"connected_time":4725000000000,"state":"active","ping":82},{"user_id":104,"name":"Ewah","steam_id":76561198057912166,"connected_time":1567000000000,"state":"active","ping":67},{"user_id":116,"name":"weedcat","steam_id":76561198346054736,"connected_time":615000000000,"state":"active","ping":65},{"user_id":103,"name":"retinz","steam_id":76561198135563495,"connected_time":1879000000000,"state":"active","ping":51},{"user_id":98,"name":"DO NOT call me BART SIMPSON!!","steam_id":76561198069113375,"connected_time":2180000000000,"state":"active","ping":86},{"user_id":91,"name":"JHLO","steam_id":76561198074359967,"connected_time":2414000000000,"state":"active","ping":60},{"user_id":53,"name":"Shuu","steam_id":76561199199180558,"connected_time":4630000000000,"state":"active","ping":57},{"user_id":107,"name":"Broadway Rose","steam_id":76561198046083342,"connected_time":1083000000000,"state":"active","ping":41},{"user_id":112,"name":"Kairos","steam_id":76561198326366917,"connected_time":832000000000,"state":"active","ping":55},{"user_id":105,"name":"vncnt","steam_id":76561198046113319,"connected_time":1460000000000,"state":"active","ping":88},{"user_id":114,"name":"sarcastrophe99","steam_id":76561199096190518,"connected_time":820000000000,"state":"active","ping":85},{"user_id":93,"name":"Normalux","steam_id":76561198293891426,"connected_time":2377000000000,"state":"active","ping":88},{"user_id":61,"name":"Bali","steam_id":76561198038693845,"connected_time":4509000000000,"state":"active","ping":71},{"user_id":115,"name":"GarboBeans","steam_id":76561198089127316,"connected_time":789000000000,"state":"active","ping":126}]},{"server_id":15,"name":"Uncletopia | New York City | 3 | Stopwatch Beta","name_short":"nyc-3","host":"nyc-1.us.uncletopia.com","port":27035,"enabled":true,"region":"us-east","cc":"us","latitude":40.73061,"longitude":-73.93524,"reserved":0,"last_update":"0001-01-01T00:00:00Z","name_a2s":"Uncletopia | New York City | 3 | Stopwatch Beta","protocol":17,"map":"workshop/cp_reckoner_rc6.ugc674719999","folder":"tf","game":"Team Fortress","app_id":440,"player_count":0,"max_players":24,"Bots":0,"server_type":"Dedicated","server_os":"Linux","password":true,"vac":true,"version":"7757534","steam_id":85568392924742820,"keywords":["cp","nocrits","nodmgspread","uncletopia"],"game_id":440,"stv_port":27036,"stv_name":"Uncletopia | New York City | 3 | Stopwatch Beta | STV","players":null},{"server_id":16,"name":"Uncletopia | New York City | 4 | Community","name_short":"nyc-4","host":"nyc-1.us.uncletopia.com","port":27045,"enabled":true,"region":"us-east","cc":"us","latitude":40.73061,"longitude":-73.93524,"reserved":0,"last_update":"0001-01-01T00:00:00Z","name_a2s":"Uncletopia | New York City | 4 | Community","protocol":17,"map":"workshop/koth_product_final.ugc454272353","folder":"tf","game":"Team Fortress","app_id":440,"player_count":0,"max_players":24,"Bots":0,"server_type":"Dedicated","server_os":"Linux","password":true,"vac":true,"version":"7757534","steam_id":85568392924742821,"keywords":["cp","nocrits","nodmgspread","uncletopia"],"game_id":440,"stv_port":27046,"stv_name":"Uncletopia | New York City | 4 | Community | STV","players":null},{"server_id":142,"name":"Uncletopia | São Paulo | 1 | All Maps","name_short":"sao-1","host":"sao-1.br.uncletopia.com","port":27015,"enabled":true,"region":"sa","cc":"br","latitude":-23.533773,"longitude":-46.62529,"reserved":0,"last_update":"0001-01-01T00:00:00Z","name_a2s":"Uncletopia | São Paulo | 1 | All Maps","protocol":17,"map":"cp_altitude","folder":"tf","game":"Team Fortress","app_id":440,"player_count":0,"max_players":24,"Bots":0,"server_type":"Dedicated","server_os":"Linux","password":true,"vac":true,"version":"7757534","steam_id":85568392924469996,"keywords":["cp","nocrits","nodmgspread","uncletopia"],"game_id":440,"stv_port":27016,"stv_name":"Uncletopia | São Paulo | 1 | All Maps | STV","players":null},{"server_id":143,"name":"Uncletopia | São Paulo | 2 | All Maps","name_short":"sao-2","host":"sao-2.br.uncletopia.com","port":27015,"enabled":true,"region":"sa","cc":"br","latitude":-23.533773,"longitude":-46.62529,"reserved":0,"last_update":"0001-01-01T00:00:00Z","name_a2s":"Uncletopia | São Paulo | 2 | All Maps","protocol":17,"map":"koth_viaduct","folder":"tf","game":"Team Fortress","app_id":440,"player_count":1,"max_players":24,"Bots":0,"server_type":"Dedicated","server_os":"Linux","password":true,"vac":true,"version":"7757534","steam_id":85568392924485349,"keywords":["cp","nocrits","nodmgspread","uncletopia"],"game_id":440,"stv_port":27016,"stv_name":"Uncletopia | São Paulo | 2 | All Maps | STV","players":[{"user_id":89,"name":"Warrenator","steam_id":76561198132094572,"connected_time":2549000000000,"state":"active","ping":191}]},{"server_id":7,"name":"Uncletopia | Seattle | 1 | All Maps","name_short":"sea-1","host":"sea-1.us.uncletopia.com","port":27015,"enabled":true,"region":"us-west","cc":"us","latitude":47.608013,"longitude":-122.33517,"reserved":0,"last_update":"0001-01-01T00:00:00Z","name_a2s":"Uncletopia | Seattle | 1 | All Maps","protocol":17,"map":"pl_snowycoast","folder":"tf","game":"Team Fortress","app_id":440,"player_count":24,"max_players":24,"Bots":0,"server_type":"Dedicated","server_os":"Linux","password":true,"vac":true,"version":"7757534","steam_id":85568392924469997,"keywords":["nocrits","nodmgspread","payload","uncletopia"],"game_id":440,"stv_port":27016,"stv_name":"Uncletopia | Seattle | 1 | All Maps | STV","players":[{"user_id":257,"name":"ORANGE","steam_id":76561198000401769,"connected_time":598000000000,"state":"active","ping":45},{"user_id":263,"name":"Bendidy","steam_id":76561198041964300,"connected_time":194000000000,"state":"active","ping":77},{"user_id":215,"name":"arsenic","steam_id":76561198176391550,"connected_time":2168000000000,"state":"active","ping":96},{"user_id":239,"name":"bbbbb","steam_id":76561198095480838,"connected_time":1331000000000,"state":"active","ping":45},{"user_id":236,"name":"lker","steam_id":76561197976975075,"connected_time":1576000000000,"state":"active","ping":106},{"user_id":264,"name":"KingTinkerer","steam_id":76561198226856548,"connected_time":193000000000,"state":"active","ping":78},{"user_id":238,"name":"LILIUM","steam_id":76561198086591493,"connected_time":1486000000000,"state":"active","ping":103},{"user_id":258,"name":"jpuck","steam_id":76561198025018960,"connected_time":524000000000,"state":"active","ping":129},{"user_id":248,"name":"mooney","steam_id":76561199110622484,"connected_time":764000000000,"state":"active","ping":72},{"user_id":223,"name":"TheTruthOfTheCessationOfDukkha","steam_id":76561198214370515,"connected_time":1983000000000,"state":"active","ping":140},{"user_id":229,"name":"SHADOW (he/him)","steam_id":76561198207768148,"connected_time":1929000000000,"state":"active","ping":86},{"user_id":249,"name":"Lonestar827","steam_id":76561198035533639,"connected_time":762000000000,"state":"active","ping":60},{"user_id":237,"name":"Confirmed Bachelor","steam_id":76561198441041496,"connected_time":1518000000000,"state":"active","ping":57},{"user_id":256,"name":"〣dust〣 -she/her-","steam_id":76561198045218909,"connected_time":621000000000,"state":"active","ping":39},{"user_id":259,"name":"SHIADYNE","steam_id":76561198271939793,"connected_time":515000000000,"state":"active","ping":46},{"user_id":260,"name":"Playfiendss","steam_id":76561198026186354,"connected_time":331000000000,"state":"active","ping":97},{"user_id":202,"name":"ejschild745","steam_id":76561199013388867,"connected_time":3441000000000,"state":"active","ping":69},{"user_id":251,"name":"Themasterman75","steam_id":76561199385573293,"connected_time":761000000000,"state":"active","ping":75},{"user_id":230,"name":"chunkysquare","steam_id":76561199076468383,"connected_time":1921000000000,"state":"active","ping":63},{"user_id":254,"name":"Sloppy John (Extra Sauce)","steam_id":76561198359703432,"connected_time":641000000000,"state":"active","ping":77},{"user_id":231,"name":"Crake","steam_id":76561198001959071,"connected_time":1916000000000,"state":"active","ping":63},{"user_id":212,"name":"Known","steam_id":76561198069842586,"connected_time":2437000000000,"state":"active","ping":85},{"user_id":255,"name":"AmiableNebula","steam_id":76561198094306627,"connected_time":640000000000,"state":"active","ping":80},{"user_id":262,"name":"Cam(era)","steam_id":76561198285054047,"connected_time":215000000000,"state":"active","ping":77}]},{"server_id":119,"name":"Uncletopia | Seattle | 2 | All Maps","name_short":"sea-2","host":"sea-1.us.uncletopia.com","port":27025,"enabled":true,"region":"us-west","cc":"us","latitude":47.608013,"longitude":-122.33517,"reserved":0,"last_update":"0001-01-01T00:00:00Z","name_a2s":"Uncletopia | Seattle | 2 | All Maps","protocol":17,"map":"pl_borneo","folder":"tf","game":"Team Fortress","app_id":440,"player_count":24,"max_players":24,"Bots":0,"server_type":"Dedicated","server_os":"Linux","password":true,"vac":true,"version":"7757534","steam_id":85568392924469998,"keywords":["nocrits","nodmgspread","payload","uncletopia"],"game_id":440,"stv_port":27026,"stv_name":"Uncletopia | Seattle | 2 | All Maps | STV","players":[{"user_id":511,"name":"Grammaring","steam_id":76561198867366139,"connected_time":742000000000,"state":"active","ping":81},{"user_id":507,"name":"captain red","steam_id":76561198191587983,"connected_time":1007000000000,"state":"active","ping":77},{"user_id":474,"name":"EEBIGAA","steam_id":76561198056535988,"connected_time":3062000000000,"state":"active","ping":68},{"user_id":517,"name":"Tot4L Gridlock","steam_id":76561197999816631,"connected_time":222000000000,"state":"active","ping":56},{"user_id":512,"name":"LAB8","steam_id":76561198047743526,"connected_time":612000000000,"state":"active","ping":45},{"user_id":491,"name":"Harry Hotcock","steam_id":76561197999209779,"connected_time":1738000000000,"state":"active","ping":65},{"user_id":514,"name":"Merach","steam_id":76561197994544587,"connected_time":313000000000,"state":"active","ping":47},{"user_id":462,"name":"Gift_Card","steam_id":76561197995405617,"connected_time":3744000000000,"state":"active","ping":102},{"user_id":516,"name":"Kaiser Scoopy","steam_id":76561199122649727,"connected_time":241000000000,"state":"active","ping":69},{"user_id":518,"name":"TheFallenFox","steam_id":76561199074190919,"connected_time":147000000000,"state":"active","ping":191},{"user_id":482,"name":"Tibetan Pop Star","steam_id":76561198844903984,"connected_time":2293000000000,"state":"active","ping":88},{"user_id":510,"name":"Ⓩre","steam_id":76561198044941294,"connected_time":856000000000,"state":"active","ping":65},{"user_id":519,"name":"Lil' Urban Achiever","steam_id":76561197970450546,"connected_time":132000000000,"state":"active","ping":65},{"user_id":485,"name":"God","steam_id":76561198148447846,"connected_time":2210000000000,"state":"active","ping":83},{"user_id":520,"name":"kyleyang17","steam_id":76561199183465717,"connected_time":109000000000,"state":"active","ping":125},{"user_id":493,"name":"Limp Pumpo Discography Fan Club","steam_id":76561198145748479,"connected_time":1664000000000,"state":"active","ping":50},{"user_id":473,"name":"YahYeeterson","steam_id":76561198120480906,"connected_time":3185000000000,"state":"active","ping":69},{"user_id":432,"name":"rbstat","steam_id":76561198050169034,"connected_time":5210000000000,"state":"active","ping":99},{"user_id":504,"name":"MarshallMellows","steam_id":76561198231561020,"connected_time":1158000000000,"state":"active","ping":58},{"user_id":513,"name":"FellowCum","steam_id":76561198809618726,"connected_time":354000000000,"state":"active","ping":98},{"user_id":509,"name":"John Johnson","steam_id":76561198347510093,"connected_time":880000000000,"state":"active","ping":60},{"user_id":497,"name":"Segalow","steam_id":76561197964919979,"connected_time":1642000000000,"state":"active","ping":58},{"user_id":515,"name":"dirty30","steam_id":76561198021226566,"connected_time":297000000000,"state":"active","ping":45},{"user_id":489,"name":"Strikerbolt","steam_id":76561199095622897,"connected_time":1848000000000,"state":"active","ping":90}]},{"server_id":406,"name":"Uncletopia | Seattle | 3 | Stopwatch Beta","name_short":"sea-3","host":"sea-1.us.uncletopia.com","port":27035,"enabled":true,"region":"us-west","cc":"us","latitude":47.608013,"longitude":-122.33517,"reserved":0,"last_update":"0001-01-01T00:00:00Z","name_a2s":"Uncletopia | Seattle | 3 | Stopwatch Beta","protocol":17,"map":"workshop/koth_ashville_final.ugc2130459942","folder":"tf","game":"Team Fortress","app_id":440,"player_count":17,"max_players":24,"Bots":0,"server_type":"Dedicated","server_os":"Linux","password":true,"vac":true,"version":"7757534","steam_id":85568392924515217,"keywords":["cp","nocrits","nodmgspread","uncletopia"],"game_id":440,"stv_port":27036,"stv_name":"Uncletopia | Seattle | 3 | Stopwatch Beta | STV","players":[{"user_id":238,"name":"oo","steam_id":76561198119626492,"connected_time":202000000000,"state":"active","ping":78},{"user_id":235,"name":"viciousbeatmaker","steam_id":76561198086876652,"connected_time":259000000000,"state":"active","ping":78},{"user_id":231,"name":"HarambeCBT","steam_id":76561198963065339,"connected_time":465000000000,"state":"active","ping":113},{"user_id":233,"name":"ihavetapeworms","steam_id":76561198357040313,"connected_time":324000000000,"state":"active","ping":66},{"user_id":229,"name":"Ozikarv","steam_id":76561199386853186,"connected_time":719000000000,"state":"active","ping":237},{"user_id":236,"name":"HoboNoah","steam_id":76561197998236540,"connected_time":231000000000,"state":"active","ping":75},{"user_id":209,"name":"buckets","steam_id":76561199204925749,"connected_time":1619000000000,"state":"active","ping":114},{"user_id":210,"name":"Temperance","steam_id":76561198051060103,"connected_time":1602000000000,"state":"active","ping":48},{"user_id":237,"name":"Frongus","steam_id":76561197979056451,"connected_time":218000000000,"state":"active","ping":47},{"user_id":239,"name":"GugaBa","steam_id":76561198975049650,"connected_time":178000000000,"state":"active","ping":256},{"user_id":212,"name":"lord foog the 2st","steam_id":76561198827772463,"connected_time":1425000000000,"state":"active","ping":59},{"user_id":213,"name":"Festive Bastard","steam_id":76561198094512904,"connected_time":1417000000000,"state":"active","ping":96},{"user_id":225,"name":"BasedGod","steam_id":76561198061177973,"connected_time":843000000000,"state":"active","ping":62},{"user_id":220,"name":"Raccoon","steam_id":76561198978422268,"connected_time":1085000000000,"state":"active","ping":145},{"user_id":187,"name":"The Wiffle","steam_id":76561199222392579,"connected_time":3560000000000,"state":"active","ping":72},{"user_id":188,"name":"Quon Grene for Vice Prez","steam_id":76561198127545817,"connected_time":3545000000000,"state":"active","ping":75},{"user_id":219,"name":"76561198193688585","steam_id":76561198193688585,"connected_time":1118000000000,"state":"active","ping":139}]},{"server_id":17,"name":"Uncletopia | San Francisco | 1 | All Maps","name_short":"sfo-1","host":"sfo-1.us.uncletopia.com","port":27015,"enabled":true,"region":"us-west","cc":"us","latitude":37.77397,"longitude":-122.4313,"reserved":0,"last_update":"0001-01-01T00:00:00Z","name_a2s":"Uncletopia | San Francisco | 1 | All Maps","protocol":17,"map":"koth_highpass","folder":"tf","game":"Team Fortress","app_id":440,"player_count":0,"max_players":24,"Bots":0,"server_type":"Dedicated","server_os":"Linux","password":true,"vac":true,"version":"7757534","steam_id":85568392924469999,"keywords":["cp","nocrits","nodmgspread","uncletopia"],"game_id":440,"stv_port":27016,"stv_name":"Uncletopia | San Francisco | 1 | All Maps | STV","players":null},{"server_id":18,"name":"Uncletopia | San Francisco | 2 | All Maps","name_short":"sfo-2","host":"sfo-1.us.uncletopia.com","port":27025,"enabled":true,"region":"us-west","cc":"us","latitude":37.77397,"longitude":-122.4313,"reserved":0,"last_update":"0001-01-01T00:00:00Z","name_a2s":"Uncletopia | San Francisco | 2 | All Maps","protocol":17,"map":"koth_cascade","folder":"tf","game":"Team Fortress","app_id":440,"player_count":24,"max_players":24,"Bots":0,"server_type":"Dedicated","server_os":"Linux","password":true,"vac":true,"version":"7757534","steam_id":85568392924470000,"keywords":["cp","nocrits","nodmgspread","uncletopia"],"game_id":440,"stv_port":27026,"stv_name":"Uncletopia | San Francisco | 2 | All Maps | STV","players":[{"user_id":70,"name":"Saulce","steam_id":76561198066142119,"connected_time":1137000000000,"state":"active","ping":63},{"user_id":88,"name":"Lambchop","steam_id":76561198043900363,"connected_time":266000000000,"state":"active","ping":58},{"user_id":89,"name":"MantisTobboggan","steam_id":76561197969447887,"connected_time":262000000000,"state":"active","ping":88},{"user_id":83,"name":"mush","steam_id":76561198310089797,"connected_time":558000000000,"state":"active","ping":109},{"user_id":84,"name":"jawnymac","steam_id":76561198179529599,"connected_time":545000000000,"state":"active","ping":53},{"user_id":25,"name":"Booty Warrior","steam_id":76561199197289548,"connected_time":3310000000000,"state":"active","ping":74},{"user_id":33,"name":"Griff","steam_id":76561198067311267,"connected_time":2897000000000,"state":"active","ping":146},{"user_id":90,"name":"The Angel of Death","steam_id":76561198026079349,"connected_time":67000000000,"state":"active","ping":82},{"user_id":72,"name":"Shoggoth","steam_id":76561198117892299,"connected_time":1102000000000,"state":"active","ping":85},{"user_id":28,"name":"Milk","steam_id":76561198004362373,"connected_time":3226000000000,"state":"active","ping":72},{"user_id":31,"name":"Phloppy Phish","steam_id":76561198103500849,"connected_time":3018000000000,"state":"active","ping":56},{"user_id":67,"name":"Aeront","steam_id":76561198072032723,"connected_time":1572000000000,"state":"active","ping":131},{"user_id":85,"name":"mr.meaner","steam_id":76561199468236392,"connected_time":540000000000,"state":"active","ping":69},{"user_id":91,"name":"Chrisscar","steam_id":76561198086298130,"connected_time":14000000000,"state":"spawning","ping":53},{"user_id":55,"name":"me","steam_id":76561199468285784,"connected_time":1980000000000,"state":"active","ping":44},{"user_id":66,"name":"GඞMER","steam_id":76561198340389876,"connected_time":1610000000000,"state":"active","ping":52},{"user_id":86,"name":"Mr.Bones","steam_id":76561198205170595,"connected_time":503000000000,"state":"active","ping":68},{"user_id":74,"name":"Scarlett (Trans)","steam_id":76561197999367029,"connected_time":1047000000000,"state":"active","ping":109},{"user_id":75,"name":"Evil Ed","steam_id":76561198020055546,"connected_time":1029000000000,"state":"active","ping":103},{"user_id":52,"name":"Matte :)","steam_id":76561198070631073,"connected_time":2276000000000,"state":"active","ping":45},{"user_id":87,"name":"Swag6","steam_id":76561198064110837,"connected_time":449000000000,"state":"active","ping":46},{"user_id":77,"name":"loyaldandan0764","steam_id":76561199231020424,"connected_time":970000000000,"state":"active","ping":167},{"user_id":78,"name":"whimmu","steam_id":76561198370839794,"connected_time":930000000000,"state":"active","ping":121},{"user_id":79,"name":"simon gaming","steam_id":76561199205054332,"connected_time":926000000000,"state":"active","ping":94}]},{"server_id":19,"name":"Uncletopia | San Francisco | 3 | Stopwatch Beta","name_short":"sfo-3","host":"sfo-1.us.uncletopia.com","port":27035,"enabled":true,"region":"us-west","cc":"us","latitude":37.77397,"longitude":-122.4313,"reserved":0,"last_update":"0001-01-01T00:00:00Z","name_a2s":"Uncletopia | San Francisco | 3 | Stopwatch Beta","protocol":17,"map":"pl_borneo","folder":"tf","game":"Team Fortress","app_id":440,"player_count":0,"max_players":24,"Bots":0,"server_type":"Dedicated","server_os":"Linux","password":true,"vac":true,"version":"7757534","steam_id":85568392924742824,"keywords":["nocrits","nodmgspread","payload","uncletopia"],"game_id":440,"stv_port":27036,"stv_name":"Uncletopia | San Francisco | 3 | Stopwatch Beta | STV","players":null},{"server_id":20,"name":"Uncletopia | San Francisco | 4 | Community","name_short":"sfo-4","host":"sfo-1.us.uncletopia.com","port":27045,"enabled":true,"region":"us-west","cc":"us","latitude":37.77397,"longitude":-122.4313,"reserved":0,"last_update":"0001-01-01T00:00:00Z","name_a2s":"Uncletopia | San Francisco | 4 | Community","protocol":17,"map":"koth_highpass","folder":"tf","game":"Team Fortress","app_id":440,"player_count":0,"max_players":24,"Bots":0,"server_type":"Dedicated","server_os":"Linux","password":true,"vac":true,"version":"7757534","steam_id":85568392924742826,"keywords":["cp","nocrits","nodmgspread","uncletopia"],"game_id":440,"stv_port":27046,"stv_name":"Uncletopia | San Francisco | 4 | Community | STV","players":null},{"server_id":141,"name":"Uncletopia | Sydney | 1 | All Maps","name_short":"syd-1","host":"syd-1.au.uncletopia.com","port":27015,"enabled":true,"region":"au","cc":"au","latitude":-33.865143,"longitude":151.2099,"reserved":0,"last_update":"0001-01-01T00:00:00Z","name_a2s":"Uncletopia | Sydney | 1 | All Maps","protocol":17,"map":"cp_mountainlab","folder":"tf","game":"Team Fortress","app_id":440,"player_count":0,"max_players":24,"Bots":0,"server_type":"Dedicated","server_os":"Linux","password":true,"vac":true,"version":"7757534","steam_id":85568392924470001,"keywords":["cp","nocrits","nodmgspread","uncletopia"],"game_id":440,"stv_port":27016,"stv_name":"Uncletopia | Sydney | 1 | All Maps | STV","players":null},{"server_id":123,"name":"Uncletopia | Sydney | 2 | All Maps","name_short":"syd-2","host":"syd-1.au.uncletopia.com","port":27025,"enabled":true,"region":"au","cc":"au","latitude":-33.865143,"longitude":151.2099,"reserved":0,"last_update":"0001-01-01T00:00:00Z","name_a2s":"Uncletopia | Sydney | 2 | All Maps","protocol":17,"map":"pl_pier","folder":"tf","game":"Team Fortress","app_id":440,"player_count":21,"max_players":24,"Bots":0,"server_type":"Dedicated","server_os":"Linux","password":true,"vac":true,"version":"7757534","steam_id":85568392924470002,"keywords":["nocrits","nodmgspread","payload","uncletopia"],"game_id":440,"stv_port":27026,"stv_name":"Uncletopia | Sydney | 2 | All Maps | STV","players":[{"user_id":33,"name":"CrowPBS1 PC","steam_id":76561198943274401,"connected_time":2874000000000,"state":"active","ping":82},{"user_id":89,"name":"Fresh Produce Gaming","steam_id":76561198358483352,"connected_time":193000000000,"state":"active","ping":64},{"user_id":83,"name":"tell 'em","steam_id":76561198341012549,"connected_time":492000000000,"state":"active","ping":53},{"user_id":19,"name":"Hona","steam_id":76561198221809496,"connected_time":4578000000000,"state":"active","ping":55},{"user_id":39,"name":"Lord Oink","steam_id":76561198125237921,"connected_time":2727000000000,"state":"active","ping":35},{"user_id":21,"name":"Wake'n'Bake'n'Make'n'Bacon","steam_id":76561198061960926,"connected_time":3972000000000,"state":"active","ping":95},{"user_id":90,"name":"HornHook44","steam_id":76561199443068966,"connected_time":93000000000,"state":"active","ping":45},{"user_id":91,"name":"Cris.p bacon","steam_id":76561199230423491,"connected_time":58000000000,"state":"active","ping":106},{"user_id":92,"name":"Ninjanoah5","steam_id":76561198858613596,"connected_time":56000000000,"state":"active","ping":59},{"user_id":88,"name":"Brownie","steam_id":76561198392672345,"connected_time":229000000000,"state":"active","ping":71},{"user_id":93,"name":"Morgenstern","steam_id":76561198253080474,"connected_time":40000000000,"state":"active","ping":64},{"user_id":32,"name":"Cofwee","steam_id":76561198072414195,"connected_time":2905000000000,"state":"active","ping":80},{"user_id":34,"name":"AquaticPanda","steam_id":76561198130836308,"connected_time":2865000000000,"state":"active","ping":62},{"user_id":85,"name":"Q","steam_id":76561198055600105,"connected_time":262000000000,"state":"active","ping":64},{"user_id":94,"name":"Zeron","steam_id":76561198125778202,"connected_time":39000000000,"state":"active","ping":48},{"user_id":81,"name":"Zort","steam_id":76561198056414289,"connected_time":530000000000,"state":"active","ping":66},{"user_id":62,"name":"Sover blw.tf","steam_id":76561198136347837,"connected_time":1491000000000,"state":"active","ping":130},{"user_id":63,"name":"Lancer","steam_id":76561198122813810,"connected_time":1474000000000,"state":"active","ping":67},{"user_id":66,"name":"pooparse","steam_id":76561198217959591,"connected_time":1430000000000,"state":"active","ping":60},{"user_id":82,"name":"dad","steam_id":76561198063032696,"connected_time":523000000000,"state":"active","ping":58},{"user_id":65,"name":"cullen","steam_id":76561198128695488,"connected_time":1469000000000,"state":"active","ping":59}]},{"server_id":395,"name":"Uncletopia | Sydney | 3 | All Maps","name_short":"syd-3","host":"syd-1.au.uncletopia.com","port":27035,"enabled":true,"region":"au","cc":"au","latitude":-33.865143,"longitude":151.2099,"reserved":0,"last_update":"0001-01-01T00:00:00Z","name_a2s":"Uncletopia | Sydney | 3 | All Maps","protocol":17,"map":"pl_upward","folder":"tf","game":"Team Fortress","app_id":440,"player_count":0,"max_players":24,"Bots":0,"server_type":"Dedicated","server_os":"Linux","password":true,"vac":true,"version":"7757534","steam_id":85568392925194467,"keywords":["nocrits","nodmgspread","payload","uncletopia"],"game_id":440,"stv_port":27036,"stv_name":"Uncletopia | Sydney | 3 | All Maps | STV","players":null},{"server_id":396,"name":"Uncletopia | Sydney | 4 | All Maps","name_short":"syd-4","host":"syd-1.au.uncletopia.com","port":27045,"enabled":true,"region":"au","cc":"au","latitude":-33.865143,"longitude":151.2099,"reserved":0,"last_update":"0001-01-01T00:00:00Z","name_a2s":"Uncletopia | Sydney | 4 | All Maps","protocol":17,"map":"cp_altitude","folder":"tf","game":"Team Fortress","app_id":440,"player_count":0,"max_players":24,"Bots":0,"server_type":"Dedicated","server_os":"Linux","password":true,"vac":true,"version":"7757534","steam_id":85568392925397958,"keywords":["cp","nocrits","nodmgspread","uncletopia"],"game_id":440,"stv_port":27046,"stv_name":"Uncletopia | Sydney | 4 | All Maps | STV","players":null},{"server_id":58,"name":"Uncletopia | Sydney | 5 | Stopwatch Beta","name_short":"syd-5","host":"syd-1.au.uncletopia.com","port":27055,"enabled":true,"region":"au","cc":"au","latitude":-33.865143,"longitude":151.2099,"reserved":0,"last_update":"0001-01-01T00:00:00Z","name_a2s":"Uncletopia | Sydney | 5 | Stopwatch Beta","protocol":17,"map":"koth_highpass","folder":"tf","game":"Team Fortress","app_id":440,"player_count":0,"max_players":24,"Bots":0,"server_type":"Dedicated","server_os":"Linux","password":true,"vac":true,"version":"7757534","steam_id":85568392925397959,"keywords":["cp","nocrits","nodmgspread","uncletopia"],"game_id":440,"stv_port":27056,"stv_name":"Uncletopia | Sydney | 5 | Stopwatch Beta | STV","players":null},{"server_id":59,"name":"Uncletopia | Sydney | 6 | Community","name_short":"syd-6","host":"syd-1.au.uncletopia.com","port":27065,"enabled":true,"region":"au","cc":"au","latitude":-33.865143,"longitude":151.2099,"reserved":0,"last_update":"0001-01-01T00:00:00Z","name_a2s":"Uncletopia | Sydney | 6 | Community","protocol":17,"map":"cp_sunshine","folder":"tf","game":"Team Fortress","app_id":440,"player_count":0,"max_players":24,"Bots":0,"server_type":"Dedicated","server_os":"Linux","password":true,"vac":true,"version":"7757534","steam_id":85568392925397960,"keywords":["cp","nocrits","nodmgspread","uncletopia"],"game_id":440,"stv_port":27066,"stv_name":"Uncletopia | Sydney | 6 | Community | STV","players":null},{"server_id":49,"name":"Uncletopia | Warsaw | 1 | All Maps","name_short":"waw-1","host":"waw-1.pl.uncletopia.com","port":27015,"enabled":true,"region":"eu","cc":"pl","latitude":52.2297,"longitude":21.017532,"reserved":0,"last_update":"0001-01-01T00:00:00Z","name_a2s":"","protocol":0,"map":"","folder":"","game":"","app_id":0,"player_count":0,"max_players":0,"Bots":0,"server_type":"","server_os":"","password":false,"vac":false,"version":"","steam_id":0,"keywords":null,"game_id":0,"stv_port":0,"stv_name":"","players":null},{"server_id":50,"name":"Uncletopia | Warsaw | 2 | All Maps","name_short":"waw-2","host":"waw-1.pl.uncletopia.com","port":27025,"enabled":true,"region":"eu","cc":"pl","latitude":52.2297,"longitude":21.017532,"reserved":0,"last_update":"0001-01-01T00:00:00Z","name_a2s":"Uncletopia | Warsaw | 2 | All Maps","protocol":17,"map":"koth_lakeside_final","folder":"tf","game":"Team Fortress","app_id":440,"player_count":0,"max_players":24,"Bots":0,"server_type":"Dedicated","server_os":"Linux","password":true,"vac":true,"version":"7757534","steam_id":85568392925397851,"keywords":["cp","nocrits","nodmgspread","uncletopia"],"game_id":440,"stv_port":27026,"stv_name":"Uncletopia | Warsaw | 2 | All Maps | STV","players":null},{"server_id":51,"name":"Uncletopia | Warsaw | 3 | All Maps","name_short":"waw-3","host":"waw-1.pl.uncletopia.com","port":27035,"enabled":true,"region":"eu","cc":"pl","latitude":52.2297,"longitude":21.017532,"reserved":0,"last_update":"0001-01-01T00:00:00Z","name_a2s":"Uncletopia | Warsaw | 3 | All Maps","protocol":17,"map":"cp_dustbowl","folder":"tf","game":"Team Fortress","app_id":440,"player_count":0,"max_players":24,"Bots":0,"server_type":"Dedicated","server_os":"Linux","password":true,"vac":true,"version":"7757534","steam_id":85568392925397852,"keywords":["cp","nocrits","nodmgspread","uncletopia"],"game_id":440,"stv_port":27036,"stv_name":"Uncletopia | Warsaw | 3 | All Maps | STV","players":null},{"server_id":52,"name":"Uncletopia | Warsaw | 4 | All Maps","name_short":"waw-4","host":"waw-1.pl.uncletopia.com","port":27045,"enabled":true,"region":"eu","cc":"pl","latitude":52.2297,"longitude":21.017532,"reserved":0,"last_update":"0001-01-01T00:00:00Z","name_a2s":"Uncletopia | Warsaw | 4 | All Maps","protocol":17,"map":"pl_snowycoast","folder":"tf","game":"Team Fortress","app_id":440,"player_count":0,"max_players":24,"Bots":0,"server_type":"Dedicated","server_os":"Linux","password":true,"vac":true,"version":"7757534","steam_id":85568392925397853,"keywords":["nocrits","nodmgspread","payload","uncletopia"],"game_id":440,"stv_port":27046,"stv_name":"Uncletopia | Warsaw | 4 | All Maps | STV","players":null},{"server_id":53,"name":"Uncletopia | Warsaw | 5 | Stopwatch Beta","name_short":"waw-5","host":"waw-1.pl.uncletopia.com","port":27055,"enabled":true,"region":"eu","cc":"pl","latitude":52.2297,"longitude":21.017532,"reserved":0,"last_update":"0001-01-01T00:00:00Z","name_a2s":"Uncletopia | Warsaw | 5 | Stopwatch Beta","protocol":17,"map":"pl_barnblitz","folder":"tf","game":"Team Fortress","app_id":440,"player_count":0,"max_players":24,"Bots":0,"server_type":"Dedicated","server_os":"Linux","password":true,"vac":true,"version":"7757534","steam_id":85568392925397854,"keywords":["nocrits","nodmgspread","payload","uncletopia"],"game_id":440,"stv_port":27056,"stv_name":"Uncletopia | Warsaw | 5 | Stopwatch Beta | STV","players":null},{"server_id":54,"name":"Uncletopia | Warsaw | 6 | Community","name_short":"waw-6","host":"waw-1.pl.uncletopia.com","port":27065,"enabled":true,"region":"eu","cc":"pl","latitude":52.2297,"longitude":21.017532,"reserved":0,"last_update":"0001-01-01T00:00:00Z","name_a2s":"Uncletopia | Warsaw | 6 | Community","protocol":17,"map":"workshop/cp_sulfur_rc2.ugc619869471","folder":"tf","game":"Team Fortress","app_id":440,"player_count":0,"max_players":24,"Bots":0,"server_type":"Dedicated","server_os":"Linux","password":true,"vac":true,"version":"7757534","steam_id":85568392925397856,"keywords":["cp","nocrits","nodmgspread","uncletopia"],"game_id":440,"stv_port":27066,"stv_name":"Uncletopia | Warsaw | 6 | Community | STV","players":null}]}