{"status":true,"message":"","result":[{"server_id":9,"name":"Uncletopia | Atlanta | 1 | All Maps","name_short":"atl-1","host":"atl-1.us.uncletopia.com","port":27015,"enabled":true,"region":"us-east","cc":"us","latitude":33.753746,"longitude":-84.38633,"reserved":0,"last_update":"0001-01-01T00:00:00Z","name_a2s":"Uncletopia | Atlanta | 1 | All Maps","protocol":17,"map":"pl_badwater","folder":"tf","game":"Team Fortress","app_id":440,"player_count":24,"max_players":24,"Bots":0,"server_type":"Dedicated","server_os":"Linux","password":true,"vac":true,"version":"7882260","steam_id":85568392924469982,"keywords":["nocrits","nodmgspread","payload","uncletopia"],"game_id":440,"stv_port":27016,"stv_name":"Uncletopia | Atlanta | 1 | All Maps | STV","players":[{"user_id":630,"name":"FISH PLATINUM","steam_id":76561198443518811,"connected_time":1771000000000,"state":"active","ping":129},{"user_id":619,"name":"Monkey Mode","steam_id":76561197961267543,"connected_time":2818000000000,"state":"active","ping":59},{"user_id":655,"name":"CheeseLikeSubstance","steam_id":76561197977170646,"connected_time":32000000000,"state":"active","ping":65},{"user_id":637,"name":"Mossed Ball","steam_id":76561199031256509,"connected_time":1140000000000,"state":"active","ping":79},{"user_id":624,"name":"Javelin","steam_id":76561198068782818,"connected_time":2038000000000,"state":"active","ping":72},{"user_id":643,"name":"BIG HOG","steam_id":76561198079923652,"connected_time":689000000000,"state":"active","ping":70},{"user_id":635,"name":"chubbbo","steam_id":76561198943598378,"connected_time":1575000000000,"state":"active","ping":45},{"user_id":628,"name":"jandajanda","steam_id":76561198235722476,"connected_time":1881000000000,"state":"active","ping":53},{"user_id":653,"name":"chexo4","steam_id":76561198150532531,"connected_time":191000000000,"state":"active","ping":50},{"user_id":625,"name":"♥Bunny♥Slut♥","steam_id":76561198206376851,"connected_time":2036000000000,"state":"active","ping":107},{"user_id":601,"name":"like enterprise ill pull up","steam_id":76561198040675606,"connected_time":5136000000000,"state":"active","ping":77},{"user_id":645,"name":"hashmap","steam_id":76561198043794014,"connected_time":633000000000,"state":"active","ping":69},{"user_id":632,"name":"Rickbot","steam_id":76561198036798608,"connected_time":1697000000000,"state":"active","ping":77},{"user_id":591,"name":"lil hog","steam_id":76561199230929836,"connected_time":6260000000000,"state":"active","ping":85},{"user_id":610,"name":"pull up in that wtf","steam_id":76561198143132686,"connected_time":3807000000000,"state":"active","ping":105},{"user_id":615,"name":"dem a. lition","steam_id":76561198021308963,"connected_time":3314000000000,"state":"active","ping":89},{"user_id":636,"name":"Car Door Video Tour","steam_id":76561198023119534,"connected_time":1346000000000,"state":"active","ping":62},{"user_id":616,"name":"Mobius","steam_id":76561199121973450,"connected_time":3233000000000,"state":"active","ping":68},{"user_id":654,"name":"Yukon Cornelius","steam_id":76561198261512781,"connected_time":104000000000,"state":"active","ping":52},{"user_id":644,"name":"Scorpianswag","steam_id":76561198260651036,"connected_time":683000000000,"state":"active","ping":82},{"user_id":651,"name":"Dreszerg","steam_id":76561198838757422,"connected_time":247000000000,"state":"active","ping":89},{"user_id":413,"name":"bkiller","steam_id":76561198029265697,"connected_time":18853000000000,"state":"active","ping":64},{"user_id":600,"name":"Onyx","steam_id":76561198275349640,"connected_time":5235000000000,"state":"active","ping":83},{"user_id":623,"name":"nat","steam_id":76561198111914797,"connected_time":2059000000000,"state":"active","ping":71}]},{"server_id":104,"name":"Uncletopia | Atlanta | 2 | All Maps","name_short":"atl-2","host":"atl-1.us.uncletopia.com","port":27025,"enabled":true,"region":"us-east","cc":"us","latitude":33.753746,"longitude":-84.38633,"reserved":0,"last_update":"0001-01-01T00:00:00Z","name_a2s":"Uncletopia | Atlanta | 2 | All Maps","protocol":17,"map":"pl_frontier_final","folder":"tf","game":"Team Fortress","app_id":440,"player_count":24,"max_players":24,"Bots":0,"server_type":"Dedicated","server_os":"Linux","password":true,"vac":true,"version":"7882260","steam_id":85568392924469983,"keywords":["nocrits","nodmgspread","payload","uncletopia"],"game_id":440,"stv_port":27026,"stv_name":"Uncletopia | Atlanta | 2 | All Maps | STV","players":[{"user_id":523,"name":"PhatBoiAP","steam_id":76561198020483817,"connected_time":3980000000000,"state":"active","ping":91},{"user_id":553,"name":"LerN","steam_id":76561198083463877,"connected_time":927000000000,"state":"active","ping":64},{"user_id":504,"name":"C Papi","steam_id":76561198027779564,"connected_time":5362000000000,"state":"active","ping":49},{"user_id":537,"name":"Sibbs","steam_id":76561198099021235,"connected_time":2460000000000,"state":"active","ping":58},{"user_id":550,"name":"Tattletails","steam_id":76561198055690341,"connected_time":1096000000000,"state":"active","ping":160},{"user_id":557,"name":"MortusMelee","steam_id":76561198038434895,"connected_time":751000000000,"state":"active","ping":81},{"user_id":525,"name":"Gm_Trash","steam_id":76561199445091548,"connected_time":3945000000000,"state":"active","ping":85},{"user_id":555,"name":"Skellacat","steam_id":76561199090786845,"connected_time":892000000000,"state":"active","ping":60},{"user_id":551,"name":"Neclipse","steam_id":76561197986244028,"connected_time":984000000000,"state":"active","ping":78},{"user_id":501,"name":"Flame","steam_id":76561198880041297,"connected_time":5519000000000,"state":"active","ping":83},{"user_id":561,"name":"Huey","steam_id":76561198972816386,"connected_time":25000000000,"state":"active","ping":62},{"user_id":458,"name":"riSygneD","steam_id":76561198331618687,"connected_time":8970000000000,"state":"active","ping":88},{"user_id":548,"name":"ATLS 1 | Krissy","steam_id":76561197960848174,"connected_time":1407000000000,"state":"active","ping":71},{"user_id":531,"name":"Abu Hajar the Delhi Dominator","steam_id":76561198091352205,"connected_time":3253000000000,"state":"active","ping":94},{"user_id":526,"name":"Frosum","steam_id":76561198041672289,"connected_time":3885000000000,"state":"active","ping":94},{"user_id":541,"name":"Aloha :3","steam_id":76561198148517055,"connected_time":2165000000000,"state":"active","ping":113},{"user_id":529,"name":"The Shaqtus","steam_id":76561198154663468,"connected_time":3810000000000,"state":"active","ping":99},{"user_id":533,"name":"DwarfMan","steam_id":76561198058422001,"connected_time":2561000000000,"state":"active","ping":91},{"user_id":543,"name":"Donnie Blasto","steam_id":76561198043432005,"connected_time":2048000000000,"state":"active","ping":68},{"user_id":556,"name":"AverageRundownJoe","steam_id":76561198059359620,"connected_time":870000000000,"state":"active","ping":111},{"user_id":545,"name":"the silly","steam_id":76561198850632709,"connected_time":1620000000000,"state":"active","ping":74},{"user_id":559,"name":"Drapph","steam_id":76561199384213314,"connected_time":78000000000,"state":"active","ping":86},{"user_id":515,"name":"TheGhostThatWas","steam_id":76561198055836483,"connected_time":4413000000000,"state":"active","ping":62},{"user_id":535,"name":"SleepyT","steam_id":76561198042272576,"connected_time":2557000000000,"state":"active","ping":60}]},{"server_id":400,"name":"Uncletopia | Atlanta | 3 | Community","name_short":"atl-3","host":"atl-1.us.uncletopia.com","port":27035,"enabled":true,"region":"us-east","cc":"us","latitude":33.753746,"longitude":-84.38633,"reserved":0,"last_update":"0001-01-01T00:00:00Z","name_a2s":"Uncletopia | Atlanta | 3 | Community","protocol":17,"map":"workshop/koth_trenchfoot_b1a.ugc731436616","folder":"tf","game":"Team Fortress","app_id":440,"player_count":23,"max_players":24,"Bots":0,"server_type":"Dedicated","server_os":"Linux","password":true,"vac":true,"version":"7882260","steam_id":85568392924515187,"keywords":["cp","nocrits","nodmgspread","uncletopia"],"game_id":440,"stv_port":27036,"stv_name":"Uncletopia | Atlanta | 3 | Community | STV","players":[{"user_id":231,"name":"Seesamu Caek","steam_id":76561198075339602,"connected_time":1562000000000,"state":"active","ping":99},{"user_id":241,"name":"Lucky_Shot","steam_id":76561199208835578,"connected_time":1000000000000,"state":"active","ping":163},{"user_id":159,"name":"BUNGACOWA","steam_id":76561198979176018,"connected_time":7275000000000,"state":"active","ping":69},{"user_id":235,"name":"ManLivingWithEDIn2003","steam_id":76561198313181232,"connected_time":1210000000000,"state":"active","ping":71},{"user_id":242,"name":"gnome","steam_id":76561198052978969,"connected_time":997000000000,"state":"active","ping":60},{"user_id":226,"name":"solger","steam_id":76561199180146165,"connected_time":1796000000000,"state":"active","ping":73},{"user_id":214,"name":"troll","steam_id":76561198040890252,"connected_time":3176000000000,"state":"active","ping":52},{"user_id":234,"name":"Speakeasy","steam_id":76561198134692556,"connected_time":1215000000000,"state":"active","ping":76},{"user_id":240,"name":"Ryan (B4L)","steam_id":76561198049800876,"connected_time":1051000000000,"state":"active","ping":60},{"user_id":187,"name":"OH GOD OH 的笑容都没你的","steam_id":76561198055445565,"connected_time":4764000000000,"state":"active","ping":177},{"user_id":229,"name":"pollito_luchador","steam_id":76561199051466304,"connected_time":1655000000000,"state":"active","ping":76},{"user_id":220,"name":"PEPSI POWERED MAN","steam_id":76561198362668431,"connected_time":1915000000000,"state":"active","ping":97},{"user_id":217,"name":"jeansg","steam_id":76561199040569812,"connected_time":2043000000000,"state":"active","ping":122},{"user_id":221,"name":"White Boy Freestyle #337","steam_id":76561198880396651,"connected_time":1875000000000,"state":"active","ping":81},{"user_id":247,"name":"mari_","steam_id":76561198137855741,"connected_time":655000000000,"state":"active","ping":66},{"user_id":113,"name":"lucin","steam_id":76561198258062078,"connected_time":10884000000000,"state":"active","ping":60},{"user_id":243,"name":"Miller™","steam_id":76561198085090516,"connected_time":941000000000,"state":"active","ping":94},{"user_id":224,"name":"Avro","steam_id":76561198343276573,"connected_time":1816000000000,"state":"active","ping":81},{"user_id":246,"name":"law","steam_id":76561199377248816,"connected_time":705000000000,"state":"active","ping":81},{"user_id":210,"name":"cass","steam_id":76561198074502046,"connected_time":3445000000000,"state":"active","ping":86},{"user_id":245,"name":"Big Dick Swinging","steam_id":76561198053819929,"connected_time":847000000000,"state":"active","ping":90},{"user_id":244,"name":"Marvelzombie","steam_id":76561198129951058,"connected_time":922000000000,"state":"active","ping":173},{"user_id":228,"name":"originalakalil","steam_id":76561199481172481,"connected_time":1762000000000,"state":"active","ping":83}]},{"server_id":401,"name":"Uncletopia | Atlanta | 4 | No Payload","name_short":"atl-4","host":"atl-1.us.uncletopia.com","port":27045,"enabled":true,"region":"us-east","cc":"us","latitude":33.753746,"longitude":-84.38633,"reserved":0,"last_update":"0001-01-01T00:00:00Z","name_a2s":"","protocol":0,"map":"","folder":"","game":"","app_id":0,"player_count":0,"max_players":0,"Bots":0,"server_type":"","server_os":"","password":false,"vac":false,"version":"","steam_id":0,"keywords":null,"game_id":0,"stv_port":0,"stv_name":"","players":null},{"server_id":2,"name":"Uncletopia | Chicago | 1 | All Maps","name_short":"chi-1","host":"chi-1.us.uncletopia.com","port":27015,"enabled":true,"region":"us-central","cc":"us","latitude":41.881832,"longitude":-87.62318,"reserved":0,"last_update":"0001-01-01T00:00:00Z","name_a2s":"Uncletopia | Chicago | 1 | All Maps","protocol":17,"map":"cp_dustbowl","folder":"tf","game":"Team Fortress","app_id":440,"player_count":24,"max_players":24,"Bots":0,"server_type":"Dedicated","server_os":"Linux","password":true,"vac":true,"version":"7882260","steam_id":85568392924469984,"keywords":["cp","nocrits","nodmgspread","uncletopia"],"game_id":440,"stv_port":27016,"stv_name":"Uncletopia | Chicago | 1 | All Maps | STV","players":[{"user_id":483,"name":"Cdesmondd","steam_id":76561198072774462,"connected_time":4033000000000,"state":"active","ping":62},{"user_id":485,"name":"PKBEAST_7","steam_id":76561198177136537,"connected_time":3623000000000,"state":"active","ping":103},{"user_id":468,"name":"Snom","steam_id":76561198333827920,"connected_time":5424000000000,"state":"active","ping":157},{"user_id":474,"name":"Hylic","steam_id":76561199051314589,"connected_time":4989000000000,"state":"active","ping":58},{"user_id":502,"name":".BL14","steam_id":76561198374604922,"connected_time":1268000000000,"state":"active","ping":59},{"user_id":503,"name":"[يهودي] Bill Clinton [אל","steam_id":76561198163291190,"connected_time":762000000000,"state":"active","ping":92},{"user_id":426,"name":"Mank","steam_id":76561198189421005,"connected_time":8306000000000,"state":"active","ping":47},{"user_id":443,"name":"Der Krieger105","steam_id":76561197978384609,"connected_time":7609000000000,"state":"active","ping":84},{"user_id":493,"name":"Zoot","steam_id":76561198121944243,"connected_time":2255000000000,"state":"active","ping":80},{"user_id":450,"name":"StonedGiant","steam_id":76561197984386932,"connected_time":7192000000000,"state":"active","ping":59},{"user_id":333,"name":"Thundermonkey (SMOKE)","steam_id":76561198017631728,"connected_time":13144000000000,"state":"active","ping":63},{"user_id":480,"name":"Shakey","steam_id":76561198012340821,"connected_time":4199000000000,"state":"active","ping":145},{"user_id":507,"name":"Herdez Hot Salsa","steam_id":76561197991740906,"connected_time":88000000000,"state":"active","ping":64},{"user_id":500,"name":"Antwan","steam_id":76561198246200638,"connected_time":1956000000000,"state":"active","ping":76},{"user_id":498,"name":"Apetometrist","steam_id":76561198045391635,"connected_time":2112000000000,"state":"active","ping":69},{"user_id":505,"name":"minyun","steam_id":76561199007250598,"connected_time":561000000000,"state":"active","ping":61},{"user_id":490,"name":"Ademar","steam_id":76561199391802581,"connected_time":3017000000000,"state":"active","ping":57},{"user_id":444,"name":"HOTA","steam_id":76561199002778841,"connected_time":7574000000000,"state":"active","ping":75},{"user_id":486,"name":"chloe","steam_id":76561198369849908,"connected_time":3357000000000,"state":"active","ping":60},{"user_id":492,"name":"xavier64","steam_id":76561199405220871,"connected_time":2332000000000,"state":"active","ping":115},{"user_id":451,"name":"Lia_Rein","steam_id":76561198151569597,"connected_time":5995000000000,"state":"active","ping":149},{"user_id":506,"name":"Praise_to_the_Flashlight!","steam_id":76561199001728789,"connected_time":181000000000,"state":"active","ping":52},{"user_id":477,"name":"dweamy","steam_id":76561198119181880,"connected_time":4962000000000,"state":"active","ping":83},{"user_id":455,"name":"The Necronomiconeconomist","steam_id":76561198010358323,"connected_time":5941000000000,"state":"active","ping":69}]},{"server_id":106,"name":"Uncletopia | Chicago | 2 | All Maps","name_short":"chi-2","host":"chi-1.us.uncletopia.com","port":27025,"enabled":true,"region":"us-central","cc":"us","latitude":41.881832,"longitude":-87.62318,"reserved":0,"last_update":"0001-01-01T00:00:00Z","name_a2s":"Uncletopia | Chicago | 2 | All Maps","protocol":17,"map":"koth_viaduct","folder":"tf","game":"Team Fortress","app_id":440,"player_count":24,"max_players":24,"Bots":0,"server_type":"Dedicated","server_os":"Linux","password":true,"vac":true,"version":"7882260","steam_id":85568392924469985,"keywords":["cp","nocrits","nodmgspread","uncletopia"],"game_id":440,"stv_port":27026,"stv_name":"Uncletopia | Chicago | 2 | All Maps | STV","players":[{"user_id":379,"name":"Tarnation Bob","steam_id":76561198107382571,"connected_time":1507000000000,"state":"active","ping":128},{"user_id":405,"name":"bobo","steam_id":76561198123287268,"connected_time":279000000000,"state":"active","ping":47},{"user_id":386,"name":"Nemo","steam_id":76561198836696938,"connected_time":805000000000,"state":"active","ping":135},{"user_id":408,"name":"capeeKo","steam_id":76561197970346623,"connected_time":10000000000,"state":"active","ping":79},{"user_id":407,"name":"unfathomable depths of sadness ","steam_id":76561198048925904,"connected_time":254000000000,"state":"active","ping":105},{"user_id":356,"name":"vv","steam_id":76561198134813102,"connected_time":3165000000000,"state":"active","ping":57},{"user_id":391,"name":"M249 | Spectre","steam_id":76561198118334485,"connected_time":680000000000,"state":"active","ping":74},{"user_id":383,"name":"aphexjh","steam_id":76561197985854658,"connected_time":975000000000,"state":"active","ping":55},{"user_id":388,"name":"Luke","steam_id":76561198090671431,"connected_time":794000000000,"state":"active","ping":79},{"user_id":404,"name":"Farseer Ulwithy","steam_id":76561197965179245,"connected_time":306000000000,"state":"active","ping":89},{"user_id":368,"name":"yesod","steam_id":76561198212866289,"connected_time":1927000000000,"state":"active","ping":87},{"user_id":390,"name":"derz","steam_id":76561198010742216,"connected_time":742000000000,"state":"active","ping":54},{"user_id":400,"name":"CreativeUsername","steam_id":76561198186045503,"connected_time":516000000000,"state":"active","ping":52},{"user_id":392,"name":"SunNc","steam_id":76561198097711843,"connected_time":676000000000,"state":"active","ping":108},{"user_id":393,"name":"Ringo x Seiran","steam_id":76561198357437908,"connected_time":665000000000,"state":"active","ping":62},{"user_id":381,"name":"Fewseb","steam_id":76561198104808456,"connected_time":1184000000000,"state":"active","ping":69},{"user_id":380,"name":"Ferret","steam_id":76561198060416458,"connected_time":1371000000000,"state":"active","ping":104},{"user_id":376,"name":"Krypa","steam_id":76561198144307152,"connected_time":1635000000000,"state":"active","ping":56},{"user_id":394,"name":"Zelumie","steam_id":76561198147335801,"connected_time":665000000000,"state":"active","ping":55},{"user_id":395,"name":"Tenerance Love","steam_id":76561199132268907,"connected_time":662000000000,"state":"active","ping":56},{"user_id":396,"name":"Barlon","steam_id":76561198023717515,"connected_time":636000000000,"state":"active","ping":74},{"user_id":401,"name":"Dr. Pleasant","steam_id":76561198111945101,"connected_time":482000000000,"state":"active","ping":70},{"user_id":402,"name":"cow","steam_id":76561198117331762,"connected_time":477000000000,"state":"active","ping":46},{"user_id":378,"name":"nav","steam_id":76561198872608266,"connected_time":1521000000000,"state":"active","ping":80}]},{"server_id":402,"name":"Uncletopia | Chicago | 3 | All Maps","name_short":"chi-3","host":"chi-1.us.uncletopia.com","port":27035,"enabled":true,"region":"us-central","cc":"us","latitude":41.881832,"longitude":-87.62318,"reserved":0,"last_update":"0001-01-01T00:00:00Z","name_a2s":"Uncletopia | Chicago | 3 | All Maps","protocol":17,"map":"plr_hightower","folder":"tf","game":"Team Fortress","app_id":440,"player_count":23,"max_players":24,"Bots":0,"server_type":"Dedicated","server_os":"Linux","password":true,"vac":true,"version":"7882260","steam_id":85568392924515191,"keywords":["nocrits","nodmgspread","payload","uncletopia"],"game_id":440,"stv_port":27036,"stv_name":"Uncletopia | Chicago | 3 | All Maps | STV","players":[{"user_id":576,"name":"truck nuts","steam_id":76561198074624639,"connected_time":266000000000,"state":"active","ping":55},{"user_id":562,"name":"a bellhop","steam_id":76561198046797995,"connected_time":1839000000000,"state":"active","ping":62},{"user_id":573,"name":"Kronos_Titan","steam_id":76561199091925123,"connected_time":622000000000,"state":"active","ping":107},{"user_id":514,"name":"NUt","steam_id":76561198031007966,"connected_time":5298000000000,"state":"active","ping":70},{"user_id":363,"name":"Protato","steam_id":76561198061182563,"connected_time":15588000000000,"state":"active","ping":73},{"user_id":570,"name":"Cats in 3D","steam_id":76561198048051416,"connected_time":842000000000,"state":"active","ping":70},{"user_id":443,"name":"Triples_","steam_id":76561198094249561,"connected_time":9777000000000,"state":"active","ping":57},{"user_id":575,"name":"Feet","steam_id":76561198047302528,"connected_time":367000000000,"state":"active","ping":100},{"user_id":476,"name":"Wallem","steam_id":76561198052361822,"connected_time":7481000000000,"state":"active","ping":76},{"user_id":574,"name":"Floaty","steam_id":76561198066487242,"connected_time":591000000000,"state":"active","ping":60},{"user_id":563,"name":"superwarm07","steam_id":76561199196313157,"connected_time":1713000000000,"state":"active","ping":80},{"user_id":567,"name":"wiiblob","steam_id":76561198109106242,"connected_time":1147000000000,"state":"active","ping":136},{"user_id":568,"name":"Mister Rattlebones","steam_id":76561198065560157,"connected_time":1139000000000,"state":"active","ping":53},{"user_id":577,"name":"yomo","steam_id":76561198063175935,"connected_time":210000000000,"state":"active","ping":74},{"user_id":547,"name":"Bolty","steam_id":76561198084199165,"connected_time":2904000000000,"state":"active","ping":76},{"user_id":554,"name":"TheUltimatePybro","steam_id":76561198119425604,"connected_time":2168000000000,"state":"active","ping":70},{"user_id":548,"name":"Tay","steam_id":76561198059605568,"connected_time":2604000000000,"state":"active","ping":74},{"user_id":532,"name":"x❤x_1337_VVeed_VVizard_x❤x","steam_id":76561198067436825,"connected_time":4280000000000,"state":"active","ping":89},{"user_id":569,"name":"Dr. Robotniks Mean Bean Machine","steam_id":76561198047980627,"connected_time":1118000000000,"state":"active","ping":57},{"user_id":545,"name":"LegendaryMister151","steam_id":76561198064890524,"connected_time":3678000000000,"state":"active","ping":89},{"user_id":550,"name":"Infinitytacos","steam_id":76561198884260211,"connected_time":2369000000000,"state":"active","ping":49},{"user_id":564,"name":"Rafl","steam_id":76561198055222756,"connected_time":1571000000000,"state":"active","ping":86},{"user_id":571,"name":"pipis","steam_id":76561198140971525,"connected_time":789000000000,"state":"active","ping":72}]},{"server_id":403,"name":"Uncletopia | Chicago | 4 | All Maps","name_short":"chi-4","host":"chi-1.us.uncletopia.com","port":27045,"enabled":true,"region":"us-central","cc":"us","latitude":41.881832,"longitude":-87.62318,"reserved":0,"last_update":"0001-01-01T00:00:00Z","name_a2s":"Uncletopia | Chicago | 4 | All Maps","protocol":17,"map":"pl_swiftwater_final1","folder":"tf","game":"Team Fortress","app_id":440,"player_count":24,"max_players":24,"Bots":0,"server_type":"Dedicated","server_os":"Linux","password":true,"vac":true,"version":"7882260","steam_id":85568392924515193,"keywords":["nocrits","nodmgspread","payload","uncletopia"],"game_id":440,"stv_port":27046,"stv_name":"Uncletopia | Chicago | 4 | All Maps | STV","players":[{"user_id":390,"name":"HK™","steam_id":76561198196793415,"connected_time":2669000000000,"state":"active","ping":103},{"user_id":406,"name":"Iron","steam_id":76561198247918478,"connected_time":460000000000,"state":"active","ping":91},{"user_id":385,"name":"mashallah","steam_id":76561198075111427,"connected_time":2847000000000,"state":"active","ping":69},{"user_id":322,"name":"BlackCatSDB","steam_id":76561198257409038,"connected_time":6752000000000,"state":"active","ping":64},{"user_id":405,"name":"4d4","steam_id":76561198402360789,"connected_time":836000000000,"state":"active","ping":59},{"user_id":382,"name":"Mr. Crispy Lips","steam_id":76561198028157625,"connected_time":3057000000000,"state":"active","ping":83},{"user_id":404,"name":"Crisp","steam_id":76561198132644084,"connected_time":991000000000,"state":"active","ping":71},{"user_id":407,"name":"Life I'm Unworthioli","steam_id":76561198030291655,"connected_time":456000000000,"state":"active","ping":46},{"user_id":379,"name":"mateo","steam_id":76561198136450015,"connected_time":3139000000000,"state":"active","ping":86},{"user_id":366,"name":"laddie","steam_id":76561198063029230,"connected_time":3607000000000,"state":"active","ping":71},{"user_id":368,"name":"NoExit","steam_id":76561198065725996,"connected_time":3584000000000,"state":"active","ping":102},{"user_id":391,"name":"gayass","steam_id":76561198396326793,"connected_time":2656000000000,"state":"active","ping":93},{"user_id":376,"name":"LORD CANTI","steam_id":76561198254479725,"connected_time":3420000000000,"state":"active","ping":45},{"user_id":340,"name":"dog","steam_id":76561198263873491,"connected_time":5294000000000,"state":"active","ping":38},{"user_id":396,"name":"The destroyer of foreskin","steam_id":76561198135275966,"connected_time":1910000000000,"state":"active","ping":73},{"user_id":399,"name":"Rukks","steam_id":76561197993918954,"connected_time":1208000000000,"state":"active","ping":87},{"user_id":397,"name":"Kng","steam_id":76561198993248203,"connected_time":1674000000000,"state":"active","ping":92},{"user_id":380,"name":"blitzkriiegi","steam_id":76561198200944766,"connected_time":3138000000000,"state":"active","ping":49},{"user_id":398,"name":"machineclone","steam_id":76561198076320219,"connected_time":1215000000000,"state":"active","ping":146},{"user_id":400,"name":"3-13","steam_id":76561198063929021,"connected_time":1184000000000,"state":"active","ping":73},{"user_id":401,"name":"TOOLS","steam_id":76561199010542612,"connected_time":1150000000000,"state":"active","ping":48},{"user_id":395,"name":"The Juice","steam_id":76561198065307144,"connected_time":2255000000000,"state":"active","ping":73},{"user_id":408,"name":"Random","steam_id":76561198318879454,"connected_time":456000000000,"state":"active","ping":62},{"user_id":403,"name":"Uncle Dad","steam_id":76561198058073652,"connected_time":1131000000000,"state":"active","ping":79}]},{"server_id":36,"name":"Uncletopia | Chicago | 5 | All Maps","name_short":"chi-5","host":"chi-2.us.uncletopia.com","port":27015,"enabled":true,"region":"us-central","cc":"us","latitude":41.881832,"longitude":-87.62318,"reserved":0,"last_update":"0001-01-01T00:00:00Z","name_a2s":"Uncletopia | Chicago | 5 | All Maps","protocol":17,"map":"pl_frontier_final","folder":"tf","game":"Team Fortress","app_id":440,"player_count":24,"max_players":24,"Bots":0,"server_type":"Dedicated","server_os":"Linux","password":true,"vac":true,"version":"7882260","steam_id":85568392924866362,"keywords":["nocrits","nodmgspread","payload","uncletopia"],"game_id":440,"stv_port":27016,"stv_name":"Uncletopia | Chicago | 5 | All Maps | STV","players":[{"user_id":624,"name":"kn","steam_id":76561198388123421,"connected_time":862000000000,"state":"active","ping":106},{"user_id":477,"name":"Swshbcklr","steam_id":76561197969421355,"connected_time":8568000000000,"state":"active","ping":71},{"user_id":606,"name":"bubbles","steam_id":76561198974276335,"connected_time":1996000000000,"state":"active","ping":55},{"user_id":593,"name":"BIDEN BLAST","steam_id":76561198107343544,"connected_time":2921000000000,"state":"active","ping":86},{"user_id":534,"name":"Skeleton Dad","steam_id":76561198021489595,"connected_time":6258000000000,"state":"active","ping":83},{"user_id":619,"name":"msay","steam_id":76561198170888029,"connected_time":1149000000000,"state":"active","ping":299},{"user_id":564,"name":"Toastie","steam_id":76561198246760934,"connected_time":5506000000000,"state":"active","ping":57},{"user_id":581,"name":"MedRed™ #IATAH","steam_id":76561198002962970,"connected_time":4537000000000,"state":"active","ping":104},{"user_id":589,"name":"gorf?","steam_id":76561198142286417,"connected_time":3660000000000,"state":"active","ping":59},{"user_id":479,"name":"hej","steam_id":76561197996366940,"connected_time":8118000000000,"state":"active","ping":64},{"user_id":618,"name":"ryghehn","steam_id":76561198195359229,"connected_time":1204000000000,"state":"active","ping":89},{"user_id":620,"name":"beefmachine","steam_id":76561198001196512,"connected_time":1132000000000,"state":"active","ping":54},{"user_id":621,"name":"MasterCrafter27","steam_id":76561198151035981,"connected_time":1101000000000,"state":"active","ping":106},{"user_id":608,"name":"knight","steam_id":76561199467779621,"connected_time":1923000000000,"state":"active","ping":159},{"user_id":595,"name":"wunkem","steam_id":76561198055948497,"connected_time":2905000000000,"state":"active","ping":64},{"user_id":603,"name":"Daso","steam_id":76561198219209367,"connected_time":2640000000000,"state":"active","ping":70},{"user_id":622,"name":"Serene Salamander","steam_id":76561198001094770,"connected_time":1084000000000,"state":"active","ping":115},{"user_id":609,"name":"Dr Oshawott","steam_id":76561198042021629,"connected_time":1898000000000,"state":"active","ping":68},{"user_id":611,"name":"haxxorman","steam_id":76561199155156400,"connected_time":1860000000000,"state":"active","ping":59},{"user_id":626,"name":"oxbudy","steam_id":76561198022120207,"connected_time":186000000000,"state":"active","ping":64},{"user_id":623,"name":"RokkitFrog","steam_id":76561198046465850,"connected_time":1074000000000,"state":"active","ping":74},{"user_id":575,"name":"Lil' King Trashmouth","steam_id":76561198073442946,"connected_time":5299000000000,"state":"active","ping":81},{"user_id":576,"name":"Straight White Male","steam_id":76561199234350287,"connected_time":5293000000000,"state":"active","ping":60},{"user_id":594,"name":"JohnnyGitGud","steam_id":76561198401455467,"connected_time":2921000000000,"state":"active","ping":108}]},{"server_id":37,"name":"Uncletopia | Chicago | 6 | All Maps","name_short":"chi-6","host":"chi-2.us.uncletopia.com","port":27025,"enabled":true,"region":"us-central","cc":"us","latitude":41.881832,"longitude":-87.62318,"reserved":0,"last_update":"0001-01-01T00:00:00Z","name_a2s":"Uncletopia | Chicago | 6 | All Maps","protocol":17,"map":"cp_sunshine","folder":"tf","game":"Team Fortress","app_id":440,"player_count":24,"max_players":24,"Bots":0,"server_type":"Dedicated","server_os":"Linux","password":true,"vac":true,"version":"7882260","steam_id":85568392924866363,"keywords":["cp","nocrits","nodmgspread","uncletopia"],"game_id":440,"stv_port":27026,"stv_name":"Uncletopia | Chicago | 6 | All Maps | STV","players":[{"user_id":321,"name":"Turbocat","steam_id":76561198145431353,"connected_time":52000000000,"state":"active","ping":67},{"user_id":305,"name":"[Sc.B.V.G] Eagley Beagley Eagle","steam_id":76561198166730618,"connected_time":1778000000000,"state":"active","ping":66},{"user_id":312,"name":"Space Cops","steam_id":76561198032414253,"connected_time":1441000000000,"state":"active","ping":60},{"user_id":295,"name":"Pyroic","steam_id":76561198347123470,"connected_time":2019000000000,"state":"active","ping":92},{"user_id":282,"name":"BigBubble42","steam_id":76561198136286123,"connected_time":2569000000000,"state":"active","ping":57},{"user_id":241,"name":"nori_420 (mute)","steam_id":76561199117134203,"connected_time":5050000000000,"state":"active","ping":107},{"user_id":277,"name":"Guil","steam_id":76561197993289176,"connected_time":2717000000000,"state":"active","ping":82},{"user_id":318,"name":"[DEEP] Danmar33","steam_id":76561198056453091,"connected_time":1035000000000,"state":"active","ping":51},{"user_id":218,"name":"Rukh","steam_id":76561197999361315,"connected_time":6305000000000,"state":"active","ping":95},{"user_id":319,"name":"Induce Salt","steam_id":76561198116645978,"connected_time":1032000000000,"state":"active","ping":54},{"user_id":306,"name":"Two","steam_id":76561198207078715,"connected_time":1758000000000,"state":"active","ping":101},{"user_id":300,"name":"Getter Ray (Mute)","steam_id":76561198037784368,"connected_time":1891000000000,"state":"active","ping":87},{"user_id":285,"name":"supershyguy147","steam_id":76561199208965131,"connected_time":2512000000000,"state":"active","ping":69},{"user_id":296,"name":"Glass Joe","steam_id":76561198317365741,"connected_time":1975000000000,"state":"active","ping":65},{"user_id":287,"name":"Mainframe","steam_id":76561198097154599,"connected_time":2481000000000,"state":"active","ping":78},{"user_id":320,"name":"CloudVic","steam_id":76561198118868716,"connected_time":149000000000,"state":"active","ping":80},{"user_id":294,"name":"Testiclees Peesaschmidt","steam_id":76561198050582941,"connected_time":2204000000000,"state":"active","ping":61},{"user_id":301,"name":"thecal","steam_id":76561198307893384,"connected_time":1866000000000,"state":"active","ping":57},{"user_id":303,"name":"Isaac Clarke","steam_id":76561198317662346,"connected_time":1816000000000,"state":"active","ping":75},{"user_id":291,"name":"jayhong","steam_id":76561198046772832,"connected_time":2462000000000,"state":"active","ping":43},{"user_id":311,"name":"bravo muchacho","steam_id":76561198224614084,"connected_time":1480000000000,"state":"active","ping":68},{"user_id":292,"name":"Mathatguy","steam_id":76561198225432188,"connected_time":2461000000000,"state":"active","ping":102},{"user_id":263,"name":"Ace Chromatica","steam_id":76561198042211131,"connected_time":4296000000000,"state":"active","ping":57},{"user_id":323,"name":"Menachem","steam_id":76561198041226420,"connected_time":30000000000,"state":"active","ping":46}]},{"server_id":38,"name":"Uncletopia | Chicago | 7 | Stopwatch Beta","name_short":"chi-7","host":"chi-2.us.uncletopia.com","port":27035,"enabled":true,"region":"us-central","cc":"us","latitude":41.881832,"longitude":-87.62318,"reserved":0,"last_update":"0001-01-01T00:00:00Z","name_a2s":"Uncletopia | Chicago | 7 | Stopwatch Beta","protocol":17,"map":"pl_upward","folder":"tf","game":"Team Fortress","app_id":440,"player_count":0,"max_players":24,"Bots":0,"server_type":"Dedicated","server_os":"Linux","password":true,"vac":true,"version":"7882260","steam_id":85568392924866364,"keywords":["nocrits","nodmgspread","payload","uncletopia"],"game_id":440,"stv_port":27036,"stv_name":"Uncletopia | Chicago | 7 | Stopwatch Beta | STV","players":null},{"server_id":39,"name":"Uncletopia | Chicago | 8 | Community","name_short":"chi-8","host":"chi-2.us.uncletopia.com","port":27045,"enabled":true,"region":"us-central","cc":"us","latitude":41.881832,"longitude":-87.62318,"reserved":0,"last_update":"0001-01-01T00:00:00Z","name_a2s":"Uncletopia | Chicago | 8 | Community","protocol":17,"map":"workshop/cp_bruhstbowl_b5.ugc2878604990","folder":"tf","game":"Team Fortress","app_id":440,"player_count":0,"max_players":24,"Bots":0,"server_type":"Dedicated","server_os":"Linux","password":true,"vac":true,"version":"7882260","steam_id":85568392924866365,"keywords":["cp","nocrits","nodmgspread","uncletopia"],"game_id":440,"stv_port":27046,"stv_name":"Uncletopia | Chicago | 8 | Community | STV","players":null},{"server_id":8,"name":"Uncletopia | Dallas | 1 | All Maps","name_short":"dal-1","host":"dal-1.us.uncletopia.com","port":27015,"enabled":true,"region":"us-central","cc":"us","latitude":32.779167,"longitude":-96.80889,"reserved":0,"last_update":"0001-01-01T00:00:00Z","name_a2s":"Uncletopia | Dallas | 1 | All Maps","protocol":17,"map":"pl_pier","folder":"tf","game":"Team Fortress","app_id":440,"player_count":24,"max_players":24,"Bots":0,"server_type":"Dedicated","server_os":"Linux","password":true,"vac":true,"version":"7882260","steam_id":85568392924469986,"keywords":["nocrits","nodmgspread","payload","uncletopia"],"game_id":440,"stv_port":27016,"stv_name":"Uncletopia | Dallas | 1 | All Maps | STV","players":[{"user_id":730,"name":"semillams cuenta","steam_id":76561199223089296,"connected_time":578000000000,"state":"active","ping":167},{"user_id":725,"name":"how tf","steam_id":76561198179370087,"connected_time":952000000000,"state":"active","ping":60},{"user_id":659,"name":"MithStyck","steam_id":76561198071538489,"connected_time":6890000000000,"state":"active","ping":53},{"user_id":717,"name":"java","steam_id":76561198030276792,"connected_time":2280000000000,"state":"active","ping":75},{"user_id":691,"name":"$5 biggie bag","steam_id":76561198298310744,"connected_time":4258000000000,"state":"active","ping":93},{"user_id":703,"name":"burger king hat wearer","steam_id":76561198042444734,"connected_time":3621000000000,"state":"active","ping":69},{"user_id":711,"name":"sithreis","steam_id":76561198000564263,"connected_time":2336000000000,"state":"active","ping":68},{"user_id":642,"name":"J.G. Klaus","steam_id":76561198001111196,"connected_time":7612000000000,"state":"active","ping":47},{"user_id":481,"name":"lanoc","steam_id":76561198055415367,"connected_time":19555000000000,"state":"active","ping":64},{"user_id":680,"name":"bobby cigarette","steam_id":76561198059780866,"connected_time":5410000000000,"state":"active","ping":71},{"user_id":729,"name":"EmeraldCola","steam_id":76561198066663687,"connected_time":749000000000,"state":"active","ping":91},{"user_id":629,"name":"HappyJack","steam_id":76561197960516534,"connected_time":8373000000000,"state":"active","ping":96},{"user_id":732,"name":"Sagertooth","steam_id":76561198060863894,"connected_time":293000000000,"state":"active","ping":113},{"user_id":710,"name":"cheetara","steam_id":76561198010019214,"connected_time":2339000000000,"state":"active","ping":65},{"user_id":704,"name":"Lylith!!!","steam_id":76561198386687546,"connected_time":3463000000000,"state":"active","ping":61},{"user_id":731,"name":"Rowdyshark101","steam_id":76561199019123695,"connected_time":467000000000,"state":"active","ping":62},{"user_id":695,"name":"Moonflower ✦","steam_id":76561198191782483,"connected_time":4070000000000,"state":"active","ping":52},{"user_id":696,"name":"ChottoAMinute","steam_id":76561198873157775,"connected_time":3944000000000,"state":"active","ping":43},{"user_id":723,"name":"MoonWolf","steam_id":76561198095735033,"connected_time":1036000000000,"state":"active","ping":71},{"user_id":700,"name":"Le4n!!!","steam_id":76561198045522596,"connected_time":3654000000000,"state":"active","ping":89},{"user_id":702,"name":"Mando","steam_id":76561198139662905,"connected_time":3627000000000,"state":"active","ping":69},{"user_id":721,"name":"yomommasabitch","steam_id":76561198323217150,"connected_time":1204000000000,"state":"active","ping":45},{"user_id":727,"name":"Captain Buggy","steam_id":76561198024444448,"connected_time":936000000000,"state":"active","ping":106},{"user_id":719,"name":"Battery Acid Slurper","steam_id":76561198439793697,"connected_time":1455000000000,"state":"active","ping":114}]},{"server_id":108,"name":"Uncletopia | Dallas | 2 | All Maps","name_short":"dal-2","host":"dal-1.us.uncletopia.com","port":27025,"enabled":true,"region":"us-central","cc":"us","latitude":32.779167,"longitude":-96.80889,"reserved":0,"last_update":"0001-01-01T00:00:00Z","name_a2s":"Uncletopia | Dallas | 2 | All Maps","protocol":17,"map":"pl_goldrush","folder":"tf","game":"Team Fortress","app_id":440,"player_count":24,"max_players":24,"Bots":0,"server_type":"Dedicated","server_os":"Linux","password":true,"vac":true,"version":"7882260","steam_id":85568392924469988,"keywords":["nocrits","nodmgspread","payload","uncletopia"],"game_id":440,"stv_port":27026,"stv_name":"Uncletopia | Dallas | 2 | All Maps | STV","players":[{"user_id":726,"name":"mac_cheese","steam_id":76561198071334162,"connected_time":1611000000000,"state":"active","ping":97},{"user_id":750,"name":"Qみどり","steam_id":76561198304166877,"connected_time":213000000000,"state":"active","ping":69},{"user_id":730,"name":"Just Chuck","steam_id":76561198121697504,"connected_time":1557000000000,"state":"active","ping":74},{"user_id":683,"name":"[FOFS]billyburl","steam_id":76561198079535159,"connected_time":5874000000000,"state":"active","ping":86},{"user_id":746,"name":"lilmanband","steam_id":76561198082460728,"connected_time":788000000000,"state":"active","ping":68},{"user_id":743,"name":"SharkBearGator","steam_id":76561198071233739,"connected_time":835000000000,"state":"active","ping":104},{"user_id":751,"name":"A Bloody Meat Bicycle","steam_id":76561198358757709,"connected_time":188000000000,"state":"active","ping":86},{"user_id":739,"name":"playguy carter","steam_id":76561198080679337,"connected_time":934000000000,"state":"active","ping":81},{"user_id":702,"name":"Zero","steam_id":76561199383267408,"connected_time":4080000000000,"state":"active","ping":59},{"user_id":722,"name":"ShapedSilver","steam_id":76561199073305310,"connected_time":2528000000000,"state":"active","ping":52},{"user_id":727,"name":"danielarmvt","steam_id":76561198799723201,"connected_time":1607000000000,"state":"active","ping":88},{"user_id":757,"name":"milk, cereal, THEN bowl","steam_id":76561198149666258,"connected_time":98000000000,"state":"active","ping":85},{"user_id":744,"name":"Akornical","steam_id":76561199171025092,"connected_time":831000000000,"state":"active","ping":94},{"user_id":758,"name":"Provocator","steam_id":76561197961830410,"connected_time":52000000000,"state":"active","ping":90},{"user_id":755,"name":"Magefeus","steam_id":76561198072946192,"connected_time":115000000000,"state":"active","ping":86},{"user_id":733,"name":"0x01FE","steam_id":76561198838881917,"connected_time":1500000000000,"state":"active","ping":57},{"user_id":721,"name":"BaRs","steam_id":76561198981717009,"connected_time":2578000000000,"state":"active","ping":60},{"user_id":753,"name":"canakblasteran","steam_id":76561199472518822,"connected_time":133000000000,"state":"active","ping":86},{"user_id":754,"name":"RushHack","steam_id":76561198161169421,"connected_time":126000000000,"state":"active","ping":86},{"user_id":740,"name":"Psychosis","steam_id":76561198078659070,"connected_time":888000000000,"state":"active","ping":87},{"user_id":736,"name":"fire","steam_id":76561198044354279,"connected_time":1433000000000,"state":"active","ping":84},{"user_id":756,"name":"brains","steam_id":76561198197388678,"connected_time":114000000000,"state":"active","ping":74},{"user_id":737,"name":"Communist Zobomafoo","steam_id":76561198068173978,"connected_time":1427000000000,"state":"active","ping":55},{"user_id":742,"name":"Drez47","steam_id":76561198380714058,"connected_time":855000000000,"state":"active","ping":61}]},{"server_id":5,"name":"Uncletopia | Frankfurt | 1 | All Maps","name_short":"frk-1","host":"frk-1.de.uncletopia.com","port":27015,"enabled":true,"region":"eu","cc":"de","latitude":50.110924,"longitude":8.682127,"reserved":0,"last_update":"0001-01-01T00:00:00Z","name_a2s":"Uncletopia | Frankfurt | 1 | All Maps","protocol":17,"map":"ctf_turbine","folder":"tf","game":"Team Fortress","app_id":440,"player_count":0,"max_players":24,"Bots":0,"server_type":"Dedicated","server_os":"Linux","password":true,"vac":true,"version":"7882260","steam_id":85568392924469989,"keywords":["ctf","nocrits","nodmgspread","uncletopia"],"game_id":440,"stv_port":27016,"stv_name":"Uncletopia | Frankfurt | 1 | All Maps | STV","players":null},{"server_id":110,"name":"Uncletopia | Frankfurt | 2 | All Maps","name_short":"frk-2","host":"frk-1.de.uncletopia.com","port":27025,"enabled":true,"region":"eu","cc":"de","latitude":50.110924,"longitude":8.682127,"reserved":0,"last_update":"0001-01-01T00:00:00Z","name_a2s":"Uncletopia | Frankfurt | 2 | All Maps","protocol":17,"map":"pl_frontier_final","folder":"tf","game":"Team Fortress","app_id":440,"player_count":0,"max_players":24,"Bots":0,"server_type":"Dedicated","server_os":"Linux","password":true,"vac":true,"version":"7882260","steam_id":85568392924469990,"keywords":["nocrits","nodmgspread","payload","uncletopia"],"game_id":440,"stv_port":27026,"stv_name":"Uncletopia | Frankfurt | 2 | All Maps | STV","players":null},{"server_id":308,"name":"Uncletopia | Frankfurt | 3 | All Maps","name_short":"frk-3","host":"frk-1.de.uncletopia.com","port":27035,"enabled":true,"region":"eu","cc":"de","latitude":50.110924,"longitude":8.682127,"reserved":0,"last_update":"0001-01-01T00:00:00Z","name_a2s":"Uncletopia | Frankfurt | 3 | All Maps","protocol":17,"map":"pl_frontier_final","folder":"tf","game":"Team Fortress","app_id":440,"player_count":0,"max_players":24,"Bots":0,"server_type":"Dedicated","server_os":"Linux","password":true,"vac":true,"version":"7882260","steam_id":85568392924504274,"keywords":["nocrits","nodmgspread","payload","uncletopia"],"game_id":440,"stv_port":27036,"stv_name":"Uncletopia | Frankfurt | 3 | All Maps | STV","players":null},{"server_id":309,"name":"Uncletopia | Frankfurt | 4 | All Maps","name_short":"frk-4","host":"frk-1.de.uncletopia.com","port":27045,"enabled":true,"region":"eu","cc":"de","latitude":50.110924,"longitude":8.682127,"reserved":0,"last_update":"0001-01-01T00:00:00Z","name_a2s":"Uncletopia | Frankfurt | 4 | All Maps","protocol":17,"map":"pl_snowycoast","folder":"tf","game":"Team Fortress","app_id":440,"player_count":0,"max_players":24,"Bots":0,"server_type":"Dedicated","server_os":"Linux","password":true,"vac":true,"version":"7882260","steam_id":85568392924504275,"keywords":["nocrits","nodmgspread","payload","uncletopia"],"game_id":440,"stv_port":27046,"stv_name":"Uncletopia | Frankfurt | 4 | All Maps | STV","players":null},{"server_id":310,"name":"Uncletopia | Frankfurt | 5 | All Maps","name_short":"frk-5","host":"frk-1.de.uncletopia.com","port":27055,"enabled":true,"region":"eu","cc":"de","latitude":50.110924,"longitude":8.682127,"reserved":0,"last_update":"0001-01-01T00:00:00Z","name_a2s":"Uncletopia | Frankfurt | 5 | All Maps","protocol":17,"map":"koth_viaduct","folder":"tf","game":"Team Fortress","app_id":440,"player_count":0,"max_players":24,"Bots":0,"server_type":"Dedicated","server_os":"Linux","password":true,"vac":true,"version":"7882260","steam_id":85568392924504277,"keywords":["cp","nocrits","nodmgspread","uncletopia"],"game_id":440,"stv_port":27056,"stv_name":"Uncletopia | Frankfurt | 5 | All Maps | STV","players":null},{"server_id":311,"name":"Uncletopia | Frankfurt | 6 | All Maps","name_short":"frk-6","host":"frk-1.de.uncletopia.com","port":27065,"enabled":true,"region":"eu","cc":"de","latitude":50.110924,"longitude":8.682127,"reserved":0,"last_update":"0001-01-01T00:00:00Z","name_a2s":"Uncletopia | Frankfurt | 6 | All Maps","protocol":17,"map":"cp_dustbowl","folder":"tf","game":"Team Fortress","app_id":440,"player_count":0,"max_players":24,"Bots":0,"server_type":"Dedicated","server_os":"Linux","password":true,"vac":true,"version":"7882260","steam_id":85568392924504278,"keywords":["cp","nocrits","nodmgspread","uncletopia"],"game_id":440,"stv_port":27066,"stv_name":"Uncletopia | Frankfurt | 6 | All Maps | STV","players":null},{"server_id":23,"name":"Uncletopia | Frankfurt | 7 | Stopwatch Beta","name_short":"frk-7","host":"frk-1.de.uncletopia.com","port":27075,"enabled":true,"region":"eu","cc":"de","latitude":50.110924,"longitude":8.682127,"reserved":0,"last_update":"0001-01-01T00:00:00Z","name_a2s":"Uncletopia | Frankfurt | 7 | Stopwatch Beta","protocol":17,"map":"pl_swiftwater_final1","folder":"tf","game":"Team Fortress","app_id":440,"player_count":0,"max_players":24,"Bots":0,"server_type":"Dedicated","server_os":"Linux","password":true,"vac":true,"version":"7882260","steam_id":85568392924742827,"keywords":["nocrits","nodmgspread","payload","uncletopia"],"game_id":440,"stv_port":27076,"stv_name":"Uncletopia | Frankfurt | 7 | Stopwatch Beta | STV","players":null},{"server_id":24,"name":"Uncletopia | Frankfurt | 8 | Community","name_short":"frk-8","host":"frk-1.de.uncletopia.com","port":27085,"enabled":true,"region":"eu","cc":"de","latitude":50.110924,"longitude":8.682127,"reserved":0,"last_update":"0001-01-01T00:00:00Z","name_a2s":"Uncletopia | Frankfurt | 8 | Community","protocol":17,"map":"workshop/pl_barnblitz_pro7.ugc582280235","folder":"tf","game":"Team Fortress","app_id":440,"player_count":0,"max_players":24,"Bots":0,"server_type":"Dedicated","server_os":"Linux","password":true,"vac":true,"version":"7882260","steam_id":85568392924742828,"keywords":["nocrits","nodmgspread","payload","uncletopia"],"game_id":440,"stv_port":27086,"stv_name":"Uncletopia | Frankfurt | 8 | Community | STV","players":null},{"server_id":202,"name":"Uncletopia | Hong Kong | 1 | All Maps","name_short":"hgk-1","host":"hgk-1.hk.uncletopia.com","port":27015,"enabled":true,"region":"asia","cc":"hk","latitude":22.302711,"longitude":114.177216,"reserved":0,"last_update":"0001-01-01T00:00:00Z","name_a2s":"Uncletopia | Hong Kong | 1 | All Maps","protocol":17,"map":"koth_viaduct","folder":"tf","game":"Team Fortress","app_id":440,"player_count":0,"max_players":24,"Bots":0,"server_type":"Dedicated","server_os":"Linux","password":true,"vac":true,"version":"7882260","steam_id":85568392924494504,"keywords":["cp","nocrits","nodmgspread","uncletopia"],"game_id":440,"stv_port":27016,"stv_name":"Uncletopia | Hong Kong | 1 | All Maps | STV","players":null},{"server_id":1,"name":"Uncletopia | Los Angeles | 1 | All Maps","name_short":"lax-1","host":"lax-1.us.uncletopia.com","port":27015,"enabled":true,"region":"us-west","cc":"us","latitude":33.94279,"longitude":-118.41004,"reserved":0,"last_update":"0001-01-01T00:00:00Z","name_a2s":"Uncletopia | Los Angeles | 1 | All Maps","protocol":17,"map":"cp_sunshine","folder":"tf","game":"Team Fortress","app_id":440,"player_count":23,"max_players":24,"Bots":0,"server_type":"Dedicated","server_os":"Linux","password":true,"vac":true,"version":"7882260","steam_id":85568392924469991,"keywords":["cp","nocrits","nodmgspread","uncletopia"],"game_id":440,"stv_port":27016,"stv_name":"Uncletopia | Los Angeles | 1 | All Maps | STV","players":[{"user_id":415,"name":"Schnitz","steam_id":76561198265484253,"connected_time":9350000000000,"state":"active","ping":50},{"user_id":491,"name":"Chongo","steam_id":76561198017604393,"connected_time":2921000000000,"state":"active","ping":46},{"user_id":519,"name":"samvaluez","steam_id":76561199213743808,"connected_time":297000000000,"state":"active","ping":71},{"user_id":517,"name":"bunga unga","steam_id":76561198093353303,"connected_time":445000000000,"state":"active","ping":30},{"user_id":513,"name":"NaTuRaL","steam_id":76561197967979228,"connected_time":1136000000000,"state":"active","ping":156},{"user_id":495,"name":"Yurei","steam_id":76561198088750661,"connected_time":2293000000000,"state":"active","ping":51},{"user_id":512,"name":"The Engie Before Christmas","steam_id":76561199049493869,"connected_time":1189000000000,"state":"active","ping":61},{"user_id":522,"name":"themadlad67","steam_id":76561199309554436,"connected_time":271000000000,"state":"active","ping":64},{"user_id":481,"name":"Radio","steam_id":76561198194821053,"connected_time":3448000000000,"state":"active","ping":83},{"user_id":518,"name":"a chicken","steam_id":76561198313121580,"connected_time":445000000000,"state":"active","ping":52},{"user_id":482,"name":"Krewson","steam_id":76561199233067013,"connected_time":3446000000000,"state":"active","ping":66},{"user_id":508,"name":"Dr. Tropen","steam_id":76561198405271669,"connected_time":1215000000000,"state":"active","ping":107},{"user_id":520,"name":"flo rida","steam_id":76561198226169704,"connected_time":277000000000,"state":"active","ping":55},{"user_id":509,"name":"MegaBitmap","steam_id":76561198086027059,"connected_time":1211000000000,"state":"active","ping":95},{"user_id":501,"name":"sora","steam_id":76561198094256973,"connected_time":1591000000000,"state":"active","ping":60},{"user_id":473,"name":"Gerbias","steam_id":76561198001002427,"connected_time":4011000000000,"state":"active","ping":66},{"user_id":485,"name":"Jimmy","steam_id":76561198857959855,"connected_time":3336000000000,"state":"active","ping":42},{"user_id":499,"name":"PJROCK101","steam_id":76561198070616561,"connected_time":2094000000000,"state":"active","ping":89},{"user_id":471,"name":"The Dinkle","steam_id":76561198098155041,"connected_time":4094000000000,"state":"active","ping":70},{"user_id":458,"name":"FlashofAsh","steam_id":76561198400422981,"connected_time":5220000000000,"state":"active","ping":70},{"user_id":521,"name":"cupnoodles","steam_id":76561198076137957,"connected_time":275000000000,"state":"active","ping":54},{"user_id":510,"name":"MEEPking","steam_id":76561198277668880,"connected_time":1204000000000,"state":"active","ping":72},{"user_id":523,"name":"shadow wizard money gang","steam_id":76561198418414338,"connected_time":233000000000,"state":"active","ping":92}]},{"server_id":112,"name":"Uncletopia | Los Angeles | 2 | All Maps","name_short":"lax-2","host":"lax-1.us.uncletopia.com","port":27025,"enabled":true,"region":"us-west","cc":"us","latitude":33.94279,"longitude":-118.41004,"reserved":0,"last_update":"0001-01-01T00:00:00Z","name_a2s":"Uncletopia | Los Angeles | 2 | All Maps","protocol":17,"map":"pl_hoodoo_final","folder":"tf","game":"Team Fortress","app_id":440,"player_count":24,"max_players":24,"Bots":0,"server_type":"Dedicated","server_os":"Linux","password":true,"vac":true,"version":"7882260","steam_id":85568392924469992,"keywords":["nocrits","nodmgspread","payload","uncletopia"],"game_id":440,"stv_port":27026,"stv_name":"Uncletopia | Los Angeles | 2 | All Maps | STV","players":[{"user_id":22,"name":"HooDoo","steam_id":76561198088994018,"connected_time":5148000000000,"state":"active","ping":78},{"user_id":86,"name":"Strange Potato","steam_id":76561199059013304,"connected_time":368000000000,"state":"active","ping":67},{"user_id":39,"name":"RashestHen75","steam_id":76561199229427395,"connected_time":3674000000000,"state":"active","ping":73},{"user_id":68,"name":"dj_Beanland","steam_id":76561198047500009,"connected_time":2105000000000,"state":"active","ping":48},{"user_id":67,"name":"vareh","steam_id":76561197993190926,"connected_time":2115000000000,"state":"active","ping":95},{"user_id":50,"name":"DesertFroggo","steam_id":76561198015607829,"connected_time":3441000000000,"state":"active","ping":105},{"user_id":72,"name":"OrganizedPillow","steam_id":76561198847123476,"connected_time":1890000000000,"state":"active","ping":71},{"user_id":70,"name":"Squatter1","steam_id":76561198078987734,"connected_time":1985000000000,"state":"active","ping":82},{"user_id":34,"name":"Feel the bern","steam_id":76561198078824519,"connected_time":3920000000000,"state":"active","ping":49},{"user_id":71,"name":"Wendall555","steam_id":76561198985637603,"connected_time":1985000000000,"state":"active","ping":73},{"user_id":85,"name":"Ralph Kramden (Slim Charles)","steam_id":76561197981687895,"connected_time":404000000000,"state":"active","ping":59},{"user_id":37,"name":"Medic Boyfriend","steam_id":76561198104086771,"connected_time":3756000000000,"state":"active","ping":47},{"user_id":61,"name":"Puke Skyfucker","steam_id":76561198012846213,"connected_time":3141000000000,"state":"active","ping":113},{"user_id":73,"name":"Squishy","steam_id":76561198418729311,"connected_time":1887000000000,"state":"active","ping":77},{"user_id":62,"name":"some nerd","steam_id":76561198297272878,"connected_time":3067000000000,"state":"active","ping":40},{"user_id":88,"name":"XxDragon4321xX","steam_id":76561198046705735,"connected_time":235000000000,"state":"active","ping":69},{"user_id":74,"name":"i cant aim","steam_id":76561198065873462,"connected_time":1875000000000,"state":"active","ping":46},{"user_id":81,"name":"SCUD missile up your ass","steam_id":76561198066452726,"connected_time":1451000000000,"state":"active","ping":50},{"user_id":57,"name":"dirty30","steam_id":76561198021226566,"connected_time":3264000000000,"state":"active","ping":72},{"user_id":48,"name":"tum","steam_id":76561198084712019,"connected_time":3533000000000,"state":"active","ping":60},{"user_id":59,"name":"Carthage (TRANSRIGHTS)","steam_id":76561198049001571,"connected_time":3199000000000,"state":"active","ping":93},{"user_id":82,"name":"WaywardFinn","steam_id":76561198040391296,"connected_time":1451000000000,"state":"active","ping":124},{"user_id":56,"name":"saina","steam_id":76561198057685475,"connected_time":3349000000000,"state":"active","ping":90},{"user_id":78,"name":"Thunder","steam_id":76561198097721532,"connected_time":1800000000000,"state":"active","ping":47}]},{"server_id":324,"name":"Uncletopia | Los Angeles | 3 | All Maps","name_short":"lax-3","host":"lax-1.us.uncletopia.com","port":27035,"enabled":true,"region":"us-west","cc":"us","latitude":33.94279,"longitude":-118.41004,"reserved":0,"last_update":"0001-01-01T00:00:00Z","name_a2s":"Uncletopia | Los Angeles | 3 | All Maps","protocol":17,"map":"pl_pier","folder":"tf","game":"Team Fortress","app_id":440,"player_count":24,"max_players":24,"Bots":0,"server_type":"Dedicated","server_os":"Linux","password":true,"vac":true,"version":"7882260","steam_id":85568392924510198,"keywords":["nocrits","nodmgspread","payload","uncletopia"],"game_id":440,"stv_port":27036,"stv_name":"Uncletopia | Los Angeles | 3 | All Maps | STV","players":[{"user_id":161,"name":"...","steam_id":76561198121508845,"connected_time":6989000000000,"state":"active","ping":61},{"user_id":249,"name":"Ypuoi","steam_id":76561198170203261,"connected_time":792000000000,"state":"active","ping":58},{"user_id":250,"name":"zombiemaker101","steam_id":76561198263767459,"connected_time":782000000000,"state":"active","ping":118},{"user_id":265,"name":"Jones","steam_id":76561198046037216,"connected_time":202000000000,"state":"active","ping":96},{"user_id":248,"name":"Truffles","steam_id":76561198095868800,"connected_time":860000000000,"state":"active","ping":97},{"user_id":202,"name":"xkcd.hoverboard","steam_id":76561199079595193,"connected_time":3176000000000,"state":"active","ping":87},{"user_id":264,"name":"social distance warrior","steam_id":76561198128992994,"connected_time":214000000000,"state":"active","ping":73},{"user_id":233,"name":"UneditedAndy","steam_id":76561198982544947,"connected_time":1680000000000,"state":"active","ping":54},{"user_id":219,"name":"gerg","steam_id":76561197997127387,"connected_time":2680000000000,"state":"active","ping":56},{"user_id":245,"name":"Antifa Supersoldier","steam_id":76561198141816516,"connected_time":1128000000000,"state":"active","ping":85},{"user_id":259,"name":"Emperor Ape","steam_id":76561198969607981,"connected_time":419000000000,"state":"active","ping":62},{"user_id":261,"name":"basilberry","steam_id":76561198145275937,"connected_time":307000000000,"state":"active","ping":98},{"user_id":228,"name":"bobbymcbobington","steam_id":76561199089411172,"connected_time":1970000000000,"state":"active","ping":157},{"user_id":255,"name":"Lord Aben","steam_id":76561198135266770,"connected_time":605000000000,"state":"active","ping":45},{"user_id":246,"name":"ClosetBotany","steam_id":76561198088324821,"connected_time":930000000000,"state":"active","ping":69},{"user_id":262,"name":"fart","steam_id":76561198206922028,"connected_time":301000000000,"state":"active","ping":56},{"user_id":254,"name":"wile","steam_id":76561198125261443,"connected_time":714000000000,"state":"active","ping":83},{"user_id":215,"name":"Hope","steam_id":76561199182558088,"connected_time":2748000000000,"state":"active","ping":85},{"user_id":146,"name":"Grand","steam_id":76561198290143399,"connected_time":8118000000000,"state":"active","ping":76},{"user_id":263,"name":"(◎﹏◎)","steam_id":76561198007464245,"connected_time":296000000000,"state":"active","ping":106},{"user_id":216,"name":"walrooos","steam_id":76561198024521839,"connected_time":2718000000000,"state":"active","ping":36},{"user_id":217,"name":"Chiaki Nanami","steam_id":76561198164782653,"connected_time":2710000000000,"state":"active","ping":120},{"user_id":242,"name":"azureglxy","steam_id":76561198861388315,"connected_time":1533000000000,"state":"active","ping":40},{"user_id":257,"name":"Speedycat","steam_id":76561198024821259,"connected_time":591000000000,"state":"active","ping":46}]},{"server_id":25,"name":"Uncletopia | Los Angeles | 4 | Stopwatch Beta","name_short":"lax-4","host":"lax-1.us.uncletopia.com","port":27045,"enabled":true,"region":"us-west","cc":"us","latitude":33.94279,"longitude":-118.41004,"reserved":0,"last_update":"0001-01-01T00:00:00Z","name_a2s":"Uncletopia | Los Angeles | 4 | Stopwatch Beta","protocol":17,"map":"koth_viaduct","folder":"tf","game":"Team Fortress","app_id":440,"player_count":0,"max_players":24,"Bots":0,"server_type":"Dedicated","server_os":"Linux","password":true,"vac":true,"version":"7882260","steam_id":85568392924510199,"keywords":["cp","nocrits","nodmgspread","uncletopia"],"game_id":440,"stv_port":27046,"stv_name":"Uncletopia | Los Angeles | 4 | Stopwatch Beta | STV","players":null},{"server_id":11,"name":"Uncletopia | London | 1 | All Maps","name_short":"lon-1","host":"lon-1.uk.uncletopia.com","port":27015,"enabled":true,"region":"eu","cc":"gb","latitude":51.509865,"longitude":-0.118092,"reserved":0,"last_update":"0001-01-01T00:00:00Z","name_a2s":"Uncletopia | London | 1 | All Maps","protocol":17,"map":"pl_frontier_final","folder":"tf","game":"Team Fortress","app_id":440,"player_count":24,"max_players":24,"Bots":0,"server_type":"Dedicated","server_os":"Linux","password":true,"vac":true,"version":"7882260","steam_id":85568392924367362,"keywords":["nocrits","nodmgspread","payload","uncletopia"],"game_id":440,"stv_port":27016,"stv_name":"Uncletopia | London | 1 | All Maps | STV","players":[{"user_id":696,"name":"de_nerferno","steam_id":76561198051903037,"connected_time":998000000000,"state":"active","ping":110},{"user_id":698,"name":"Doctor Marijuana","steam_id":76561198288289879,"connected_time":154000000000,"state":"active","ping":47},{"user_id":653,"name":"shits in urinals","steam_id":76561199480942903,"connected_time":5537000000000,"state":"active","ping":75},{"user_id":669,"name":"Ebaklak","steam_id":76561198016102699,"connected_time":3357000000000,"state":"active","ping":83},{"user_id":660,"name":"dd","steam_id":76561198257836694,"connected_time":4554000000000,"state":"active","ping":43},{"user_id":681,"name":"DigyB","steam_id":76561198014442345,"connected_time":2096000000000,"state":"active","ping":51},{"user_id":699,"name":"dink boom hs","steam_id":76561199305518744,"connected_time":6000000000,"state":"spawning","ping":170},{"user_id":680,"name":"KittyKate ❤","steam_id":76561198116340817,"connected_time":2208000000000,"state":"active","ping":60},{"user_id":638,"name":"Uncletopia's Scariest Pootis","steam_id":76561197970114051,"connected_time":7474000000000,"state":"active","ping":44},{"user_id":647,"name":"frosty","steam_id":76561198094560834,"connected_time":5793000000000,"state":"active","ping":45},{"user_id":688,"name":"vadr","steam_id":76561198334528186,"connected_time":1654000000000,"state":"active","ping":43},{"user_id":673,"name":"COULANTE SURPRISE","steam_id":76561198965913840,"connected_time":2855000000000,"state":"active","ping":50},{"user_id":685,"name":"dinorno","steam_id":76561198146276830,"connected_time":1932000000000,"state":"active","ping":74},{"user_id":663,"name":"cinny","steam_id":76561198832112629,"connected_time":4185000000000,"state":"active","ping":108},{"user_id":683,"name":"S_ApplePie","steam_id":76561198106947669,"connected_time":1999000000000,"state":"active","ping":79},{"user_id":641,"name":".moe","steam_id":76561198153974095,"connected_time":7237000000000,"state":"active","ping":40},{"user_id":606,"name":"Marquis de Hoto","steam_id":76561198080687708,"connected_time":11051000000000,"state":"active","ping":76},{"user_id":691,"name":"Steen","steam_id":76561198122992510,"connected_time":1317000000000,"state":"active","ping":48},{"user_id":697,"name":"Rob","steam_id":76561198346638308,"connected_time":439000000000,"state":"active","ping":57},{"user_id":684,"name":"etc","steam_id":76561197998394797,"connected_time":1970000000000,"state":"active","ping":49},{"user_id":690,"name":"BuzzBees ❤","steam_id":76561198101502273,"connected_time":1622000000000,"state":"active","ping":51},{"user_id":687,"name":"Meterora","steam_id":76561198092422131,"connected_time":1816000000000,"state":"active","ping":55},{"user_id":650,"name":"Jon","steam_id":76561199380849468,"connected_time":5764000000000,"state":"active","ping":61},{"user_id":659,"name":"MrBreast (REAL)","steam_id":76561197989524651,"connected_time":4617000000000,"state":"active","ping":60}]},{"server_id":114,"name":"Uncletopia | London | 2 | All Maps","name_short":"lon-2","host":"lon-1.uk.uncletopia.com","port":27025,"enabled":true,"region":"eu","cc":"gb","latitude":51.509865,"longitude":-0.118092,"reserved":0,"last_update":"0001-01-01T00:00:00Z","name_a2s":"Uncletopia | London | 2 | All Maps","protocol":17,"map":"cp_process_final","folder":"tf","game":"Team Fortress","app_id":440,"player_count":0,"max_players":24,"Bots":0,"server_type":"Dedicated","server_os":"Linux","password":true,"vac":true,"version":"7882260","steam_id":85568392924470941,"keywords":["cp","nocrits","nodmgspread","uncletopia"],"game_id":440,"stv_port":27026,"stv_name":"Uncletopia | London | 2 | All Maps | STV","players":null},{"server_id":320,"name":"Uncletopia | London | 3 | All Maps","name_short":"lon-3","host":"lon-1.uk.uncletopia.com","port":27035,"enabled":true,"region":"eu","cc":"gb","latitude":51.509865,"longitude":-0.118092,"reserved":0,"last_update":"0001-01-01T00:00:00Z","name_a2s":"Uncletopia | London | 3 | All Maps","protocol":17,"map":"koth_viaduct","folder":"tf","game":"Team Fortress","app_id":440,"player_count":0,"max_players":24,"Bots":0,"server_type":"Dedicated","server_os":"Linux","password":true,"vac":true,"version":"7882260","steam_id":85568392924510192,"keywords":["cp","nocrits","nodmgspread","uncletopia"],"game_id":440,"stv_port":27036,"stv_name":"Uncletopia | London | 3 | All Maps | STV","players":null},{"server_id":321,"name":"Uncletopia | London | 4 | All Maps","name_short":"lon-4","host":"lon-1.uk.uncletopia.com","port":27045,"enabled":true,"region":"eu","cc":"gb","latitude":51.509865,"longitude":-0.118092,"reserved":0,"last_update":"0001-01-01T00:00:00Z","name_a2s":"Uncletopia | London | 4 | All Maps","protocol":17,"map":"pl_badwater","folder":"tf","game":"Team Fortress","app_id":440,"player_count":0,"max_players":24,"Bots":0,"server_type":"Dedicated","server_os":"Linux","password":true,"vac":true,"version":"7882260","steam_id":85568392924510193,"keywords":["nocrits","nodmgspread","payload","uncletopia"],"game_id":440,"stv_port":27046,"stv_name":"Uncletopia | London | 4 | All Maps | STV","players":null},{"server_id":21,"name":"Uncletopia | London | 5 | All Maps","name_short":"lon-5","host":"lon-1.uk.uncletopia.com","port":27055,"enabled":true,"region":"eu","cc":"gb","latitude":51.509865,"longitude":-0.118092,"reserved":0,"last_update":"0001-01-01T00:00:00Z","name_a2s":"Uncletopia | London | 5 | All Maps","protocol":17,"map":"cp_sunshine","folder":"tf","game":"Team Fortress","app_id":440,"player_count":0,"max_players":24,"Bots":0,"server_type":"Dedicated","server_os":"Linux","password":true,"vac":true,"version":"7882260","steam_id":85568392924742829,"keywords":["cp","nocrits","nodmgspread","uncletopia"],"game_id":440,"stv_port":27056,"stv_name":"Uncletopia | London | 5 | All Maps | STV","players":null},{"server_id":22,"name":"Uncletopia | London | 6 | All Maps","name_short":"lon-6","host":"lon-1.uk.uncletopia.com","port":27065,"enabled":true,"region":"eu","cc":"gb","latitude":51.509865,"longitude":-0.118092,"reserved":0,"last_update":"0001-01-01T00:00:00Z","name_a2s":"Uncletopia | London | 6 | All Maps","protocol":17,"map":"koth_lakeside_final","folder":"tf","game":"Team Fortress","app_id":440,"player_count":0,"max_players":24,"Bots":0,"server_type":"Dedicated","server_os":"Linux","password":true,"vac":true,"version":"7882260","steam_id":85568392924742830,"keywords":["cp","nocrits","nodmgspread","uncletopia"],"game_id":440,"stv_port":27066,"stv_name":"Uncletopia | London | 6 | All Maps | STV","players":null},{"server_id":40,"name":"Uncletopia | London | 7 | No Payload","name_short":"lon-7","host":"lon-1.uk.uncletopia.com","port":27075,"enabled":true,"region":"eu","cc":"gb","latitude":51.509865,"longitude":-0.118092,"reserved":0,"last_update":"0001-01-01T00:00:00Z","name_a2s":"Uncletopia | London | 7 | No Payload","protocol":17,"map":"koth_nucleus","folder":"tf","game":"Team Fortress","app_id":440,"player_count":0,"max_players":24,"Bots":0,"server_type":"Dedicated","server_os":"Linux","password":true,"vac":true,"version":"7882260","steam_id":85568392924964314,"keywords":["cp","nocrits","nodmgspread","uncletopia"],"game_id":440,"stv_port":27076,"stv_name":"Uncletopia | London | 7 | No Payload | STV","players":null},{"server_id":41,"name":"Uncletopia | London | 8 | Community","name_short":"lon-8","host":"lon-1.uk.uncletopia.com","port":27085,"enabled":true,"region":"eu","cc":"gb","latitude":51.509865,"longitude":-0.118092,"reserved":0,"last_update":"0001-01-01T00:00:00Z","name_a2s":"Uncletopia | London | 8 | Community","protocol":17,"map":"workshop/cp_croissant_final.ugc458840209","folder":"tf","game":"Team Fortress","app_id":440,"player_count":0,"max_players":24,"Bots":0,"server_type":"Dedicated","server_os":"Linux","password":true,"vac":true,"version":"7882260","steam_id":85568392924964315,"keywords":["cp","nocrits","nodmgspread","uncletopia"],"game_id":440,"stv_port":27086,"stv_name":"Uncletopia | London | 8 | Community | STV","players":null},{"server_id":300,"name":"Uncletopia | Montréal | 1 | All Maps","name_short":"mtl-1","host":"mtl-1.ca.uncletopia.com","port":27015,"enabled":true,"region":"us-east","cc":"ca","latitude":45.50889,"longitude":-73.56167,"reserved":0,"last_update":"0001-01-01T00:00:00Z","name_a2s":"Uncletopia | Montréal | 1 | All Maps","protocol":17,"map":"koth_lakeside_final","folder":"tf","game":"Team Fortress","app_id":440,"player_count":0,"max_players":24,"Bots":0,"server_type":"Dedicated","server_os":"Linux","password":true,"vac":true,"version":"7882260","steam_id":85568392924500087,"keywords":["cp","nocrits","nodmgspread","uncletopia"],"game_id":440,"stv_port":27016,"stv_name":"Uncletopia | Montréal | 1 | All Maps | STV","players":null},{"server_id":301,"name":"Uncletopia | Montréal | 2 | All Maps","name_short":"mtl-2","host":"mtl-1.ca.uncletopia.com","port":27025,"enabled":true,"region":"us-east","cc":"ca","latitude":45.50889,"longitude":-73.56167,"reserved":0,"last_update":"0001-01-01T00:00:00Z","name_a2s":"Uncletopia | Montréal | 2 | All Maps","protocol":17,"map":"cp_snakewater_final1","folder":"tf","game":"Team Fortress","app_id":440,"player_count":0,"max_players":24,"Bots":0,"server_type":"Dedicated","server_os":"Linux","password":true,"vac":true,"version":"7882260","steam_id":85568392924500088,"keywords":["cp","nocrits","nodmgspread","uncletopia"],"game_id":440,"stv_port":27026,"stv_name":"Uncletopia | Montréal | 2 | All Maps | STV","players":null},{"server_id":302,"name":"Uncletopia | Montréal | 3 | All Maps","name_short":"mtl-3","host":"mtl-1.ca.uncletopia.com","port":27035,"enabled":true,"region":"us-east","cc":"ca","latitude":45.50889,"longitude":-73.56167,"reserved":0,"last_update":"0001-01-01T00:00:00Z","name_a2s":"Uncletopia | Montréal | 3 | All Maps","protocol":17,"map":"cp_process_final","folder":"tf","game":"Team Fortress","app_id":440,"player_count":23,"max_players":24,"Bots":0,"server_type":"Dedicated","server_os":"Linux","password":true,"vac":true,"version":"7882260","steam_id":85568392924500089,"keywords":["cp","nocrits","nodmgspread","uncletopia"],"game_id":440,"stv_port":27036,"stv_name":"Uncletopia | Montréal | 3 | All Maps | STV","players":[{"user_id":131,"name":"arkona","steam_id":76561198368556572,"connected_time":876000000000,"state":"active","ping":160},{"user_id":114,"name":"WE'RE ALL FILTHY","steam_id":76561197995620232,"connected_time":1719000000000,"state":"active","ping":46},{"user_id":113,"name":"Fiendish Frog","steam_id":76561198029478821,"connected_time":2050000000000,"state":"active","ping":76},{"user_id":121,"name":"DiscoTraveler","steam_id":76561199240168088,"connected_time":1330000000000,"state":"active","ping":55},{"user_id":116,"name":"TACO LIMEY","steam_id":76561198044856349,"connected_time":1624000000000,"state":"active","ping":69},{"user_id":107,"name":"J21","steam_id":76561198066590783,"connected_time":2449000000000,"state":"active","ping":61},{"user_id":118,"name":"alset333","steam_id":76561198405345260,"connected_time":1546000000000,"state":"active","ping":57},{"user_id":120,"name":"who is gavin?","steam_id":76561198069415057,"connected_time":1426000000000,"state":"active","ping":58},{"user_id":122,"name":"Snipar","steam_id":76561198129725862,"connected_time":1293000000000,"state":"active","ping":71},{"user_id":106,"name":":)","steam_id":76561198079892116,"connected_time":2503000000000,"state":"active","ping":41},{"user_id":123,"name":"sphinxmagoo","steam_id":76561198057001653,"connected_time":1277000000000,"state":"active","ping":57},{"user_id":124,"name":"MOGAN","steam_id":76561198071700821,"connected_time":1187000000000,"state":"active","ping":99},{"user_id":137,"name":"sheeum","steam_id":76561198277403366,"connected_time":563000000000,"state":"active","ping":55},{"user_id":126,"name":"Genuine","steam_id":76561198253471115,"connected_time":1073000000000,"state":"active","ping":48},{"user_id":139,"name":"suckercockle","steam_id":76561197972601902,"connected_time":488000000000,"state":"active","ping":98},{"user_id":104,"name":"Aristotle Voulton","steam_id":76561198100174923,"connected_time":2853000000000,"state":"active","ping":89},{"user_id":108,"name":"Vaudeville Villain","steam_id":76561199212093339,"connected_time":2412000000000,"state":"active","ping":101},{"user_id":128,"name":"SnazzyCelestial","steam_id":76561198328763813,"connected_time":965000000000,"state":"active","ping":323},{"user_id":135,"name":"totally not a pile of beans","steam_id":76561198119851931,"connected_time":593000000000,"state":"active","ping":81},{"user_id":110,"name":"comingupooo","steam_id":76561198295958692,"connected_time":2146000000000,"state":"active","ping":119},{"user_id":130,"name":"Rainy Devil","steam_id":76561198271886440,"connected_time":947000000000,"state":"active","ping":100},{"user_id":136,"name":"pirate pete","steam_id":76561198151048590,"connected_time":586000000000,"state":"active","ping":84},{"user_id":138,"name":"scrapheap","steam_id":76561198202407087,"connected_time":558000000000,"state":"active","ping":92}]},{"server_id":303,"name":"Uncletopia | Montréal | 4 | No Payload","name_short":"mtl-4","host":"mtl-1.ca.uncletopia.com","port":27045,"enabled":true,"region":"us-east","cc":"ca","latitude":45.50889,"longitude":-73.56167,"reserved":0,"last_update":"0001-01-01T00:00:00Z","name_a2s":"Uncletopia | Montréal | 4 | No Payload","protocol":17,"map":"cp_steel","folder":"tf","game":"Team Fortress","app_id":440,"player_count":4,"max_players":24,"Bots":0,"server_type":"Dedicated","server_os":"Linux","password":true,"vac":true,"version":"7882260","steam_id":85568392924500090,"keywords":["cp","nocrits","nodmgspread","uncletopia"],"game_id":440,"stv_port":27046,"stv_name":"Uncletopia | Montréal | 4 | No Payload | STV","players":[{"user_id":17,"name":"Bread Wizard","steam_id":76561198268866941,"connected_time":2394000000000,"state":"active","ping":101},{"user_id":23,"name":"Ghworg","steam_id":76561198324891401,"connected_time":1869000000000,"state":"active","ping":62},{"user_id":20,"name":"OmegaExiled","steam_id":76561198322167154,"connected_time":2312000000000,"state":"active","ping":67},{"user_id":30,"name":"Etzel","steam_id":76561198123309120,"connected_time":1086000000000,"state":"active","ping":72}]},{"server_id":13,"name":"Uncletopia | New York City | 1 | All Maps","name_short":"nyc-1","host":"nyc-1.us.uncletopia.com","port":27015,"enabled":true,"region":"us-east","cc":"us","latitude":40.73061,"longitude":-73.93524,"reserved":0,"last_update":"0001-01-01T00:00:00Z","name_a2s":"Uncletopia | New York City | 1 | All Maps","protocol":17,"map":"pl_swiftwater_final1","folder":"tf","game":"Team Fortress","app_id":440,"player_count":24,"max_players":24,"Bots":0,"server_type":"Dedicated","server_os":"Linux","password":true,"vac":true,"version":"7882260","steam_id":85568392924469993,"keywords":["nocrits","nodmgspread","payload","uncletopia"],"game_id":440,"stv_port":27016,"stv_name":"Uncletopia | New York City | 1 | All Maps | STV","players":[{"user_id":649,"name":"Tsar of the World","steam_id":76561198276730011,"connected_time":3742000000000,"state":"active","ping":52},{"user_id":638,"name":":3","steam_id":76561198909415646,"connected_time":4557000000000,"state":"active","ping":102},{"user_id":682,"name":"Mocha","steam_id":76561198368999744,"connected_time":1440000000000,"state":"active","ping":57},{"user_id":674,"name":"bojack from the show bojack hor","steam_id":76561198053006712,"connected_time":1605000000000,"state":"active","ping":39},{"user_id":672,"name":"drwwby","steam_id":76561198067741339,"connected_time":1616000000000,"state":"active","ping":66},{"user_id":631,"name":"Colin102004","steam_id":76561198202384334,"connected_time":5142000000000,"state":"active","ping":44},{"user_id":673,"name":"wool","steam_id":76561198869689933,"connected_time":1608000000000,"state":"active","ping":59},{"user_id":685,"name":"you forgot the sauce","steam_id":76561198387016713,"connected_time":763000000000,"state":"active","ping":56},{"user_id":683,"name":"FUSION","steam_id":76561197972659738,"connected_time":852000000000,"state":"active","ping":39},{"user_id":675,"name":"GOLDIE","steam_id":76561199375258674,"connected_time":1581000000000,"state":"active","ping":121},{"user_id":647,"name":"Cream Corn","steam_id":76561198043791586,"connected_time":3791000000000,"state":"active","ping":45},{"user_id":622,"name":"echo","steam_id":76561199411724732,"connected_time":5366000000000,"state":"active","ping":44},{"user_id":687,"name":"Bear bird","steam_id":76561198166769479,"connected_time":133000000000,"state":"active","ping":75},{"user_id":684,"name":"BlueBruh","steam_id":76561199078613052,"connected_time":775000000000,"state":"active","ping":104},{"user_id":686,"name":"DeanAdamFry","steam_id":76561198054153160,"connected_time":580000000000,"state":"active","ping":127},{"user_id":659,"name":"JD","steam_id":76561198202669250,"connected_time":3256000000000,"state":"active","ping":72},{"user_id":642,"name":"scarecrow (kind and good)","steam_id":76561198082979347,"connected_time":4055000000000,"state":"active","ping":60},{"user_id":639,"name":"Urbanzpinapple","steam_id":76561198115426938,"connected_time":4521000000000,"state":"active","ping":83},{"user_id":678,"name":"Bocchi the Cock","steam_id":76561198152455316,"connected_time":1513000000000,"state":"active","ping":164},{"user_id":679,"name":"yeyoi","steam_id":76561198069821885,"connected_time":1510000000000,"state":"active","ping":60},{"user_id":479,"name":"Periculosum PhD in Funny","steam_id":76561198123370914,"connected_time":10956000000000,"state":"active","ping":89},{"user_id":627,"name":"(TTV) The_Astrum_Guardian","steam_id":76561198130134103,"connected_time":5283000000000,"state":"active","ping":59},{"user_id":666,"name":"Nicejoshua48","steam_id":76561198068277321,"connected_time":2388000000000,"state":"active","ping":91},{"user_id":680,"name":"Hautboi","steam_id":76561199012329221,"connected_time":1503000000000,"state":"active","ping":64}]},{"server_id":14,"name":"Uncletopia | New York City | 2 | All Maps","name_short":"nyc-2","host":"nyc-1.us.uncletopia.com","port":27025,"enabled":true,"region":"us-east","cc":"us","latitude":40.73061,"longitude":-73.93524,"reserved":0,"last_update":"0001-01-01T00:00:00Z","name_a2s":"Uncletopia | New York City | 2 | All Maps","protocol":17,"map":"plr_bananabay","folder":"tf","game":"Team Fortress","app_id":440,"player_count":23,"max_players":24,"Bots":0,"server_type":"Dedicated","server_os":"Linux","password":true,"vac":true,"version":"7882260","steam_id":85568392924469994,"keywords":["nocrits","nodmgspread","payload","uncletopia"],"game_id":440,"stv_port":27026,"stv_name":"Uncletopia | New York City | 2 | All Maps | STV","players":[{"user_id":289,"name":"Mike Rowe Penis","steam_id":76561198041120471,"connected_time":915000000000,"state":"active","ping":58},{"user_id":285,"name":"Femtofarad","steam_id":76561198308583053,"connected_time":1121000000000,"state":"active","ping":70},{"user_id":302,"name":"Moris","steam_id":76561198280461456,"connected_time":187000000000,"state":"active","ping":128},{"user_id":290,"name":"Oneal","steam_id":76561198026564095,"connected_time":900000000000,"state":"active","ping":57},{"user_id":293,"name":"Remmy","steam_id":76561198268857418,"connected_time":545000000000,"state":"active","ping":55},{"user_id":303,"name":"Dalokohs Bar 1# Fan","steam_id":76561198253391607,"connected_time":180000000000,"state":"active","ping":62},{"user_id":253,"name":"CreepyCook","steam_id":76561198242874622,"connected_time":3320000000000,"state":"active","ping":64},{"user_id":274,"name":"That_shroomy_boi","steam_id":76561199107324153,"connected_time":2171000000000,"state":"active","ping":83},{"user_id":275,"name":"86","steam_id":76561198843258044,"connected_time":2160000000000,"state":"active","ping":61},{"user_id":294,"name":"Mads","steam_id":76561198126137797,"connected_time":518000000000,"state":"active","ping":89},{"user_id":280,"name":"Devon","steam_id":76561198151801996,"connected_time":2091000000000,"state":"active","ping":79},{"user_id":295,"name":"Krombopulos Michael","steam_id":76561198188730073,"connected_time":484000000000,"state":"active","ping":81},{"user_id":238,"name":"Shimshaw Creamtime","steam_id":76561198087144636,"connected_time":4329000000000,"state":"active","ping":60},{"user_id":304,"name":"canadian birds","steam_id":76561198059466588,"connected_time":111000000000,"state":"active","ping":49},{"user_id":227,"name":"Gentoo Linux Gaming","steam_id":76561197999657118,"connected_time":5599000000000,"state":"active","ping":63},{"user_id":300,"name":"∰","steam_id":76561198064424202,"connected_time":327000000000,"state":"active","ping":45},{"user_id":296,"name":"Poppeloco","steam_id":76561199201527202,"connected_time":473000000000,"state":"active","ping":170},{"user_id":211,"name":"uhooter","steam_id":76561198007829078,"connected_time":6572000000000,"state":"active","ping":59},{"user_id":305,"name":"Bigsumoslammer","steam_id":76561198044505076,"connected_time":8000000000,"state":"active","ping":73},{"user_id":264,"name":"Cosmic sR","steam_id":76561198081738675,"connected_time":3034000000000,"state":"active","ping":85},{"user_id":297,"name":"Csquared","steam_id":76561198169038599,"connected_time":460000000000,"state":"active","ping":133},{"user_id":239,"name":"PrinceSimp","steam_id":76561198202793829,"connected_time":4096000000000,"state":"active","ping":49},{"user_id":301,"name":"FrostHaunt","steam_id":76561199099386444,"connected_time":261000000000,"state":"active","ping":65}]},{"server_id":15,"name":"Uncletopia | New York City | 3 | Stopwatch Beta","name_short":"nyc-3","host":"nyc-1.us.uncletopia.com","port":27035,"enabled":true,"region":"us-east","cc":"us","latitude":40.73061,"longitude":-73.93524,"reserved":0,"last_update":"0001-01-01T00:00:00Z","name_a2s":"Uncletopia | New York City | 3 | Stopwatch Beta","protocol":17,"map":"workshop/koth_ashville_final.ugc2130459942","folder":"tf","game":"Team Fortress","app_id":440,"player_count":23,"max_players":24,"Bots":0,"server_type":"Dedicated","server_os":"Linux","password":true,"vac":true,"version":"7882260","steam_id":85568392924742820,"keywords":["cp","nocrits","nodmgspread","uncletopia"],"game_id":440,"stv_port":27036,"stv_name":"Uncletopia | New York City | 3 | Stopwatch Beta | STV","players":[{"user_id":459,"name":"concrete_car","steam_id":76561198388207363,"connected_time":219000000000,"state":"active","ping":67},{"user_id":460,"name":"alan","steam_id":76561198281442409,"connected_time":176000000000,"state":"active","ping":54},{"user_id":443,"name":"You dad","steam_id":76561198044013623,"connected_time":1326000000000,"state":"active","ping":76},{"user_id":461,"name":"ShaqtusHD(She/Her)","steam_id":76561199138286233,"connected_time":165000000000,"state":"active","ping":66},{"user_id":387,"name":"Samrizo el Chorizo","steam_id":76561198009838162,"connected_time":4854000000000,"state":"active","ping":48},{"user_id":452,"name":"babe","steam_id":76561199057373810,"connected_time":1137000000000,"state":"active","ping":45},{"user_id":457,"name":"TaBunnie","steam_id":76561198197894178,"connected_time":576000000000,"state":"active","ping":73},{"user_id":458,"name":"Alice in Rubberland","steam_id":76561198087328346,"connected_time":393000000000,"state":"active","ping":61},{"user_id":435,"name":"fish","steam_id":76561198101223635,"connected_time":1669000000000,"state":"active","ping":53},{"user_id":453,"name":"c9","steam_id":76561198136642793,"connected_time":1071000000000,"state":"active","ping":86},{"user_id":404,"name":"Freddie Mercury's Ghost","steam_id":76561198140320704,"connected_time":3238000000000,"state":"active","ping":82},{"user_id":463,"name":"Talking Ben.","steam_id":76561198111259720,"connected_time":104000000000,"state":"active","ping":88},{"user_id":424,"name":"theyre 8x worse than us","steam_id":76561198144766439,"connected_time":2849000000000,"state":"active","ping":61},{"user_id":464,"name":"Arctic","steam_id":76561199134893517,"connected_time":12000000000,"state":"spawning","ping":181},{"user_id":405,"name":"Kenny","steam_id":76561198031540741,"connected_time":3228000000000,"state":"active","ping":115},{"user_id":406,"name":"Great Lord Fazzie","steam_id":76561198073628559,"connected_time":3211000000000,"state":"active","ping":131},{"user_id":447,"name":"cactusjuice","steam_id":76561198839808731,"connected_time":1271000000000,"state":"active","ping":104},{"user_id":437,"name":"Chilidestroy","steam_id":76561199101551797,"connected_time":1640000000000,"state":"active","ping":80},{"user_id":408,"name":"Dr. Hashbrown","steam_id":76561198410780370,"connected_time":3146000000000,"state":"active","ping":135},{"user_id":449,"name":"Takeover","steam_id":76561197996081461,"connected_time":1230000000000,"state":"active","ping":47},{"user_id":409,"name":"alpha turbochad sigma hypermale","steam_id":76561198200174751,"connected_time":3108000000000,"state":"active","ping":96},{"user_id":451,"name":"We believe in you!","steam_id":76561198219252313,"connected_time":1182000000000,"state":"active","ping":74},{"user_id":428,"name":"Wu Wei","steam_id":76561198128249535,"connected_time":2809000000000,"state":"active","ping":86}]},{"server_id":16,"name":"Uncletopia | New York City | 4 | Community","name_short":"nyc-4","host":"nyc-1.us.uncletopia.com","port":27045,"enabled":true,"region":"us-east","cc":"us","latitude":40.73061,"longitude":-73.93524,"reserved":0,"last_update":"0001-01-01T00:00:00Z","name_a2s":"Uncletopia | New York City | 4 | Community","protocol":17,"map":"workshop/koth_slaughter_rc1.ugc1712845210","folder":"tf","game":"Team Fortress","app_id":440,"player_count":0,"max_players":24,"Bots":0,"server_type":"Dedicated","server_os":"Linux","password":true,"vac":true,"version":"7882260","steam_id":85568392924742821,"keywords":["cp","nocrits","nodmgspread","uncletopia"],"game_id":440,"stv_port":27046,"stv_name":"Uncletopia | New York City | 4 | Community | STV","players":null},{"server_id":142,"name":"Uncletopia | São Paulo | 1 | All Maps","name_short":"sao-1","host":"sao-1.br.uncletopia.com","port":27015,"enabled":true,"region":"sa","cc":"br","latitude":-23.533773,"longitude":-46.62529,"reserved":0,"last_update":"0001-01-01T00:00:00Z","name_a2s":"Uncletopia | São Paulo | 1 | All Maps","protocol":17,"map":"koth_lakeside_final","folder":"tf","game":"Team Fortress","app_id":440,"player_count":0,"max_players":24,"Bots":0,"server_type":"Dedicated","server_os":"Linux","password":true,"vac":true,"version":"7882260","steam_id":85568392924469996,"keywords":["cp","nocrits","nodmgspread","uncletopia"],"game_id":440,"stv_port":27016,"stv_name":"Uncletopia | São Paulo | 1 | All Maps | STV","players":null},{"server_id":143,"name":"Uncletopia | São Paulo | 2 | All Maps","name_short":"sao-2","host":"sao-2.br.uncletopia.com","port":27015,"enabled":true,"region":"sa","cc":"br","latitude":-23.533773,"longitude":-46.62529,"reserved":0,"last_update":"0001-01-01T00:00:00Z","name_a2s":"Uncletopia | São Paulo | 2 | All Maps","protocol":17,"map":"koth_lakeside_final","folder":"tf","game":"Team Fortress","app_id":440,"player_count":0,"max_players":24,"Bots":0,"server_type":"Dedicated","server_os":"Linux","password":true,"vac":true,"version":"7882260","steam_id":85568392924485349,"keywords":["cp","nocrits","nodmgspread","uncletopia"],"game_id":440,"stv_port":27016,"stv_name":"Uncletopia | São Paulo | 2 | All Maps | STV","players":null},{"server_id":7,"name":"Uncletopia | Seattle | 1 | All Maps","name_short":"sea-1","host":"sea-1.us.uncletopia.com","port":27015,"enabled":true,"region":"us-west","cc":"us","latitude":47.608013,"longitude":-122.33517,"reserved":0,"last_update":"0001-01-01T00:00:00Z","name_a2s":"Uncletopia | Seattle | 1 | All Maps","protocol":17,"map":"cp_mountainlab","folder":"tf","game":"Team Fortress","app_id":440,"player_count":24,"max_players":24,"Bots":0,"server_type":"Dedicated","server_os":"Linux","password":true,"vac":true,"version":"7882260","steam_id":85568392924469997,"keywords":["cp","nocrits","nodmgspread","uncletopia"],"game_id":440,"stv_port":27016,"stv_name":"Uncletopia | Seattle | 1 | All Maps | STV","players":[{"user_id":692,"name":"TROY","steam_id":76561197983852176,"connected_time":3504000000000,"state":"active","ping":74},{"user_id":722,"name":"smeasly","steam_id":76561198028718812,"connected_time":543000000000,"state":"active","ping":37},{"user_id":716,"name":"makeshift_burrito","steam_id":76561198042510825,"connected_time":806000000000,"state":"active","ping":65},{"user_id":723,"name":"MightFall","steam_id":76561198322369718,"connected_time":476000000000,"state":"active","ping":66},{"user_id":721,"name":"Google","steam_id":76561198857237473,"connected_time":639000000000,"state":"active","ping":51},{"user_id":680,"name":"Flesh Eating Turtle","steam_id":76561198116742139,"connected_time":4391000000000,"state":"active","ping":55},{"user_id":714,"name":"professional twelve year old","steam_id":76561198858796870,"connected_time":1440000000000,"state":"active","ping":42},{"user_id":699,"name":"Moonkey","steam_id":76561199013741389,"connected_time":2969000000000,"state":"active","ping":105},{"user_id":715,"name":"SibilantSerpent","steam_id":76561198154488754,"connected_time":1318000000000,"state":"active","ping":55},{"user_id":682,"name":"Tom Skirrett","steam_id":76561198014600788,"connected_time":4148000000000,"state":"active","ping":60},{"user_id":708,"name":"Meerkat","steam_id":76561199245435539,"connected_time":1744000000000,"state":"active","ping":84},{"user_id":719,"name":"fwoov","steam_id":76561198129166260,"connected_time":752000000000,"state":"active","ping":83},{"user_id":703,"name":"Jolly","steam_id":76561198116357972,"connected_time":2473000000000,"state":"active","ping":65},{"user_id":694,"name":"a cat plushie","steam_id":76561198080046542,"connected_time":3439000000000,"state":"active","ping":45},{"user_id":709,"name":"Pastyz.Mov","steam_id":76561198050038623,"connected_time":1675000000000,"state":"active","ping":131},{"user_id":711,"name":"cl4y","steam_id":76561198281197072,"connected_time":1573000000000,"state":"active","ping":118},{"user_id":697,"name":"♥ Milo Stefferson ♥ (Soupca","steam_id":76561198056269538,"connected_time":3033000000000,"state":"active","ping":58},{"user_id":651,"name":"Finkly","steam_id":76561198049828110,"connected_time":7585000000000,"state":"active","ping":41},{"user_id":666,"name":"♥haunti","steam_id":76561199235580556,"connected_time":5992000000000,"state":"active","ping":47},{"user_id":724,"name":"Crake","steam_id":76561198001959071,"connected_time":397000000000,"state":"active","ping":58},{"user_id":695,"name":"velvet wrapped covenant","steam_id":76561198042913843,"connected_time":3326000000000,"state":"active","ping":60},{"user_id":713,"name":"RyanTheKat","steam_id":76561198261728547,"connected_time":1526000000000,"state":"active","ping":86},{"user_id":654,"name":"Coowil","steam_id":76561198070985437,"connected_time":7527000000000,"state":"active","ping":43},{"user_id":727,"name":"DOMO_MR_ROBOTO","steam_id":76561198077108345,"connected_time":62000000000,"state":"active","ping":95}]},{"server_id":119,"name":"Uncletopia | Seattle | 2 | All Maps","name_short":"sea-2","host":"sea-1.us.uncletopia.com","port":27025,"enabled":true,"region":"us-west","cc":"us","latitude":47.608013,"longitude":-122.33517,"reserved":0,"last_update":"0001-01-01T00:00:00Z","name_a2s":"Uncletopia | Seattle | 2 | All Maps","protocol":17,"map":"pl_upward","folder":"tf","game":"Team Fortress","app_id":440,"player_count":25,"max_players":24,"Bots":0,"server_type":"Dedicated","server_os":"Linux","password":true,"vac":true,"version":"7882260","steam_id":85568392924469998,"keywords":["nocrits","nodmgspread","payload","uncletopia"],"game_id":440,"stv_port":27026,"stv_name":"Uncletopia | Seattle | 2 | All Maps | STV","players":[{"user_id":536,"name":"Asolator0","steam_id":76561198095809798,"connected_time":1466000000000,"state":"active","ping":66},{"user_id":417,"name":"VerminKing","steam_id":76561198060887391,"connected_time":8507000000000,"state":"active","ping":54},{"user_id":547,"name":"Howoriginal","steam_id":76561197993701184,"connected_time":923000000000,"state":"active","ping":106},{"user_id":526,"name":"Will","steam_id":76561198063919278,"connected_time":1672000000000,"state":"active","ping":151},{"user_id":503,"name":"Burger","steam_id":76561198422412083,"connected_time":2982000000000,"state":"active","ping":135},{"user_id":558,"name":"Juuichi11","steam_id":76561198141955085,"connected_time":57000000000,"state":"active","ping":46},{"user_id":517,"name":"MantisToboggan","steam_id":76561197969447887,"connected_time":2087000000000,"state":"active","ping":72},{"user_id":519,"name":"Whapper","steam_id":76561198044029606,"connected_time":1826000000000,"state":"active","ping":77},{"user_id":534,"name":"Hatfam","steam_id":76561199192629036,"connected_time":1543000000000,"state":"active","ping":80},{"user_id":504,"name":"Thanks Ants","steam_id":76561197966221018,"connected_time":2973000000000,"state":"active","ping":53},{"user_id":478,"name":"SnareString","steam_id":76561199082119457,"connected_time":4651000000000,"state":"active","ping":64},{"user_id":555,"name":"Aqua","steam_id":76561198041119393,"connected_time":361000000000,"state":"active","ping":92},{"user_id":533,"name":"llllllL","steam_id":76561198858474714,"connected_time":1560000000000,"state":"active","ping":58},{"user_id":523,"name":"Dim","steam_id":76561198061411324,"connected_time":1720000000000,"state":"active","ping":128},{"user_id":548,"name":"slime ( ,'' w'' ) ? ??","steam_id":76561198198984282,"connected_time":795000000000,"state":"active","ping":123},{"user_id":543,"name":"gloobern","steam_id":76561198341190679,"connected_time":1080000000000,"state":"active","ping":87},{"user_id":524,"name":"Rose","steam_id":76561198955581861,"connected_time":1713000000000,"state":"active","ping":78},{"user_id":525,"name":"HazmatHarry_TTV","steam_id":76561199003107869,"connected_time":1711000000000,"state":"active","ping":69},{"user_id":546,"name":"Salazar9","steam_id":76561198049903973,"connected_time":958000000000,"state":"active","ping":60},{"user_id":508,"name":"SolarusD","steam_id":76561198029279861,"connected_time":2923000000000,"state":"active","ping":68},{"user_id":545,"name":"C^a^L","steam_id":76561198241124222,"connected_time":1006000000000,"state":"active","ping":70},{"user_id":552,"name":"stick","steam_id":76561198134334367,"connected_time":405000000000,"state":"active","ping":105},{"user_id":535,"name":"Nikm","steam_id":76561198011861824,"connected_time":1541000000000,"state":"active","ping":97},{"user_id":556,"name":"Vincent Van Bro","steam_id":76561197966919802,"connected_time":72000000000,"state":"active","ping":59},{"user_id":559,"name":"Jelly Toast Sailor","steam_id":76561198288426733,"connected_time":46000000000,"state":"spawning","ping":143}]},{"server_id":406,"name":"Uncletopia | Seattle | 3 | Stopwatch Beta","name_short":"sea-3","host":"sea-1.us.uncletopia.com","port":27035,"enabled":true,"region":"us-west","cc":"us","latitude":47.608013,"longitude":-122.33517,"reserved":0,"last_update":"0001-01-01T00:00:00Z","name_a2s":"Uncletopia | Seattle | 3 | Stopwatch Beta","protocol":17,"map":"cp_metalworks","folder":"tf","game":"Team Fortress","app_id":440,"player_count":19,"max_players":24,"Bots":0,"server_type":"Dedicated","server_os":"Linux","password":true,"vac":true,"version":"7882260","steam_id":85568392924515217,"keywords":["cp","nocrits","nodmgspread","uncletopia"],"game_id":440,"stv_port":27036,"stv_name":"Uncletopia | Seattle | 3 | Stopwatch Beta | STV","players":[{"user_id":20,"name":"srmoore 103","steam_id":76561198300291415,"connected_time":5289000000000,"state":"active","ping":44},{"user_id":61,"name":"BennBap","steam_id":76561198171881453,"connected_time":382000000000,"state":"active","ping":95},{"user_id":65,"name":"goldhed","steam_id":76561198051751133,"connected_time":191000000000,"state":"active","ping":61},{"user_id":29,"name":"Petrivus","steam_id":76561198202152453,"connected_time":2702000000000,"state":"active","ping":55},{"user_id":43,"name":"chippy","steam_id":76561198089779022,"connected_time":1441000000000,"state":"active","ping":128},{"user_id":55,"name":"BigErnesto","steam_id":76561198249446156,"connected_time":575000000000,"state":"active","ping":100},{"user_id":62,"name":"amarok","steam_id":76561198954000327,"connected_time":317000000000,"state":"active","ping":58},{"user_id":34,"name":"Owl Of Delos","steam_id":76561198437116566,"connected_time":2260000000000,"state":"active","ping":62},{"user_id":46,"name":"Mr.J","steam_id":76561198127525197,"connected_time":1138000000000,"state":"active","ping":69},{"user_id":37,"name":"Aaron","steam_id":76561199227674545,"connected_time":2123000000000,"state":"active","ping":100},{"user_id":38,"name":"de","steam_id":76561198105327039,"connected_time":2075000000000,"state":"active","ping":143},{"user_id":48,"name":"Banana Republic Heavy","steam_id":76561198279378368,"connected_time":989000000000,"state":"active","ping":166},{"user_id":50,"name":"zeel107","steam_id":76561198063892990,"connected_time":702000000000,"state":"active","ping":49},{"user_id":42,"name":"Loser","steam_id":76561198069102514,"connected_time":2065000000000,"state":"active","ping":140},{"user_id":52,"name":"tighty walter whities","steam_id":76561199122915452,"connected_time":666000000000,"state":"active","ping":56},{"user_id":53,"name":"ro","steam_id":76561198935253634,"connected_time":633000000000,"state":"active","ping":82},{"user_id":56,"name":"nukablue","steam_id":76561198215782964,"connected_time":569000000000,"state":"active","ping":117},{"user_id":57,"name":"ggjjpp360","steam_id":76561199275187032,"connected_time":564000000000,"state":"active","ping":116},{"user_id":66,"name":"Funky Kong Jr.","steam_id":76561199351137762,"connected_time":138000000000,"state":"active","ping":56}]},{"server_id":17,"name":"Uncletopia | San Francisco | 1 | All Maps","name_short":"sfo-1","host":"sfo-1.us.uncletopia.com","port":27015,"enabled":true,"region":"us-west","cc":"us","latitude":37.77397,"longitude":-122.4313,"reserved":0,"last_update":"0001-01-01T00:00:00Z","name_a2s":"Uncletopia | San Francisco | 1 | All Maps","protocol":17,"map":"cp_snakewater_final1","folder":"tf","game":"Team Fortress","app_id":440,"player_count":24,"max_players":24,"Bots":0,"server_type":"Dedicated","server_os":"Linux","password":true,"vac":true,"version":"7882260","steam_id":85568392924469999,"keywords":["cp","nocrits","nodmgspread","uncletopia"],"game_id":440,"stv_port":27016,"stv_name":"Uncletopia | San Francisco | 1 | All Maps | STV","players":[{"user_id":206,"name":"Goodra Is The Best Dragon Type","steam_id":76561199194702127,"connected_time":2727000000000,"state":"active","ping":120},{"user_id":249,"name":"Mutton","steam_id":76561198181550731,"connected_time":275000000000,"state":"active","ping":120},{"user_id":182,"name":"viciousbeatmaker","steam_id":76561198086876652,"connected_time":3889000000000,"state":"active","ping":55},{"user_id":176,"name":"caRat","steam_id":76561198859267372,"connected_time":4107000000000,"state":"active","ping":111},{"user_id":229,"name":"Shamrock Shake Oct.10.2020 @8pm","steam_id":76561198833313201,"connected_time":1774000000000,"state":"active","ping":70},{"user_id":246,"name":"Dingelsmurf the Orange","steam_id":76561198212489267,"connected_time":434000000000,"state":"active","ping":130},{"user_id":219,"name":"CPTforever","steam_id":76561198237767198,"connected_time":2121000000000,"state":"active","ping":45},{"user_id":251,"name":"Sir Elliot","steam_id":76561198357648923,"connected_time":192000000000,"state":"active","ping":103},{"user_id":244,"name":"Quietsharp","steam_id":76561198277968438,"connected_time":532000000000,"state":"active","ping":61},{"user_id":241,"name":"Flyingcat9000","steam_id":76561198179561797,"connected_time":948000000000,"state":"active","ping":31},{"user_id":232,"name":"VicLoL","steam_id":76561198045580784,"connected_time":1649000000000,"state":"active","ping":55},{"user_id":247,"name":"nory","steam_id":76561198031819070,"connected_time":302000000000,"state":"active","ping":47},{"user_id":240,"name":"Caspian","steam_id":76561199041466962,"connected_time":1028000000000,"state":"active","ping":41},{"user_id":252,"name":"hosewater","steam_id":76561198023383126,"connected_time":191000000000,"state":"active","ping":70},{"user_id":153,"name":"The Assistant Regional Manager","steam_id":76561199221484936,"connected_time":6318000000000,"state":"active","ping":73},{"user_id":253,"name":"Pyro","steam_id":76561198067663978,"connected_time":157000000000,"state":"active","ping":60},{"user_id":248,"name":"CCNikova","steam_id":76561198398190933,"connected_time":289000000000,"state":"active","ping":70},{"user_id":245,"name":"A Nyquil Chicken","steam_id":76561198344471115,"connected_time":511000000000,"state":"active","ping":55},{"user_id":255,"name":"Artyom","steam_id":76561198152149679,"connected_time":112000000000,"state":"active","ping":56},{"user_id":231,"name":"Booxy","steam_id":76561197999872470,"connected_time":1768000000000,"state":"active","ping":75},{"user_id":243,"name":"Sorasonic","steam_id":76561198042463115,"connected_time":734000000000,"state":"active","ping":65},{"user_id":254,"name":"Ad3ptus","steam_id":76561198272045750,"connected_time":156000000000,"state":"active","ping":59},{"user_id":204,"name":"D E A T H","steam_id":76561197993129867,"connected_time":3037000000000,"state":"active","ping":108},{"user_id":163,"name":"Dongus","steam_id":76561197979056451,"connected_time":5204000000000,"state":"active","ping":72}]},{"server_id":18,"name":"Uncletopia | San Francisco | 2 | All Maps","name_short":"sfo-2","host":"sfo-1.us.uncletopia.com","port":27025,"enabled":true,"region":"us-west","cc":"us","latitude":37.77397,"longitude":-122.4313,"reserved":0,"last_update":"0001-01-01T00:00:00Z","name_a2s":"Uncletopia | San Francisco | 2 | All Maps","protocol":17,"map":"pl_badwater","folder":"tf","game":"Team Fortress","app_id":440,"player_count":0,"max_players":24,"Bots":0,"server_type":"Dedicated","server_os":"Linux","password":true,"vac":true,"version":"7882260","steam_id":85568392924470000,"keywords":["nocrits","nodmgspread","payload","uncletopia"],"game_id":440,"stv_port":27026,"stv_name":"Uncletopia | San Francisco | 2 | All Maps | STV","players":null},{"server_id":19,"name":"Uncletopia | San Francisco | 3 | Stopwatch Beta","name_short":"sfo-3","host":"sfo-1.us.uncletopia.com","port":27035,"enabled":true,"region":"us-west","cc":"us","latitude":37.77397,"longitude":-122.4313,"reserved":0,"last_update":"0001-01-01T00:00:00Z","name_a2s":"Uncletopia | San Francisco | 3 | Stopwatch Beta","protocol":17,"map":"pl_snowycoast","folder":"tf","game":"Team Fortress","app_id":440,"player_count":0,"max_players":24,"Bots":0,"server_type":"Dedicated","server_os":"Linux","password":true,"vac":true,"version":"7882260","steam_id":85568392924742824,"keywords":["nocrits","nodmgspread","payload","uncletopia"],"game_id":440,"stv_port":27036,"stv_name":"Uncletopia | San Francisco | 3 | Stopwatch Beta | STV","players":null},{"server_id":20,"name":"Uncletopia | San Francisco | 4 | Community","name_short":"sfo-4","host":"sfo-1.us.uncletopia.com","port":27045,"enabled":true,"region":"us-west","cc":"us","latitude":37.77397,"longitude":-122.4313,"reserved":0,"last_update":"0001-01-01T00:00:00Z","name_a2s":"Uncletopia | San Francisco | 4 | Community","protocol":17,"map":"workshop/koth_ramjam_rc1.ugc459778887","folder":"tf","game":"Team Fortress","app_id":440,"player_count":0,"max_players":24,"Bots":0,"server_type":"Dedicated","server_os":"Linux","password":true,"vac":true,"version":"7882260","steam_id":85568392924742826,"keywords":["cp","nocrits","nodmgspread","uncletopia"],"game_id":440,"stv_port":27046,"stv_name":"Uncletopia | San Francisco | 4 | Community | STV","players":null},{"server_id":141,"name":"Uncletopia | Sydney | 1 | All Maps","name_short":"syd-1","host":"syd-1.au.uncletopia.com","port":27015,"enabled":true,"region":"au","cc":"au","latitude":-33.865143,"longitude":151.2099,"reserved":0,"last_update":"0001-01-01T00:00:00Z","name_a2s":"Uncletopia | Sydney | 1 | All Maps","protocol":17,"map":"pl_barnblitz","folder":"tf","game":"Team Fortress","app_id":440,"player_count":1,"max_players":24,"Bots":0,"server_type":"Dedicated","server_os":"Linux","password":true,"vac":true,"version":"7882260","steam_id":85568392924470001,"keywords":["nocrits","nodmgspread","payload","uncletopia"],"game_id":440,"stv_port":27016,"stv_name":"Uncletopia | Sydney | 1 | All Maps | STV","players":[{"user_id":14,"name":"Second Lieutenant Pisser","steam_id":76561198866538028,"connected_time":285000000000,"state":"active","ping":80}]},{"server_id":123,"name":"Uncletopia | Sydney | 2 | All Maps","name_short":"syd-2","host":"syd-1.au.uncletopia.com","port":27025,"enabled":true,"region":"au","cc":"au","latitude":-33.865143,"longitude":151.2099,"reserved":0,"last_update":"0001-01-01T00:00:00Z","name_a2s":"Uncletopia | Sydney | 2 | All Maps","protocol":17,"map":"cp_process_final","folder":"tf","game":"Team Fortress","app_id":440,"player_count":0,"max_players":24,"Bots":0,"server_type":"Dedicated","server_os":"Linux","password":true,"vac":true,"version":"7882260","steam_id":85568392924470002,"keywords":["cp","nocrits","nodmgspread","uncletopia"],"game_id":440,"stv_port":27026,"stv_name":"Uncletopia | Sydney | 2 | All Maps | STV","players":null},{"server_id":395,"name":"Uncletopia | Sydney | 3 | All Maps","name_short":"syd-3","host":"syd-1.au.uncletopia.com","port":27035,"enabled":true,"region":"au","cc":"au","latitude":-33.865143,"longitude":151.2099,"reserved":0,"last_update":"0001-01-01T00:00:00Z","name_a2s":"Uncletopia | Sydney | 3 | All Maps","protocol":17,"map":"pl_swiftwater_final1","folder":"tf","game":"Team Fortress","app_id":440,"player_count":0,"max_players":24,"Bots":0,"server_type":"Dedicated","server_os":"Linux","password":true,"vac":true,"version":"7882260","steam_id":85568392925194467,"keywords":["nocrits","nodmgspread","payload","uncletopia"],"game_id":440,"stv_port":27036,"stv_name":"Uncletopia | Sydney | 3 | All Maps | STV","players":null},{"server_id":396,"name":"Uncletopia | Sydney | 4 | All Maps","name_short":"syd-4","host":"syd-1.au.uncletopia.com","port":27045,"enabled":true,"region":"au","cc":"au","latitude":-33.865143,"longitude":151.2099,"reserved":0,"last_update":"0001-01-01T00:00:00Z","name_a2s":"Uncletopia | Sydney | 4 | All Maps","protocol":17,"map":"cp_mountainlab","folder":"tf","game":"Team Fortress","app_id":440,"player_count":0,"max_players":24,"Bots":0,"server_type":"Dedicated","server_os":"Linux","password":true,"vac":true,"version":"7882260","steam_id":85568392925397958,"keywords":["cp","nocrits","nodmgspread","uncletopia"],"game_id":440,"stv_port":27046,"stv_name":"Uncletopia | Sydney | 4 | All Maps | STV","players":null},{"server_id":58,"name":"Uncletopia | Sydney | 5 | Stopwatch Beta","name_short":"syd-5","host":"syd-1.au.uncletopia.com","port":27055,"enabled":true,"region":"au","cc":"au","latitude":-33.865143,"longitude":151.2099,"reserved":0,"last_update":"0001-01-01T00:00:00Z","name_a2s":"Uncletopia | Sydney | 5 | Stopwatch Beta","protocol":17,"map":"koth_viaduct","folder":"tf","game":"Team Fortress","app_id":440,"player_count":0,"max_players":24,"Bots":0,"server_type":"Dedicated","server_os":"Linux","password":true,"vac":true,"version":"7882260","steam_id":85568392925397959,"keywords":["cp","nocrits","nodmgspread","uncletopia"],"game_id":440,"stv_port":27056,"stv_name":"Uncletopia | Sydney | 5 | Stopwatch Beta | STV","players":null},{"server_id":59,"name":"Uncletopia | Sydney | 6 | Community","name_short":"syd-6","host":"syd-1.au.uncletopia.com","port":27065,"enabled":true,"region":"au","cc":"au","latitude":-33.865143,"longitude":151.2099,"reserved":0,"last_update":"0001-01-01T00:00:00Z","name_a2s":"Uncletopia | Sydney | 6 | Community","protocol":17,"map":"pl_upward","folder":"tf","game":"Team Fortress","app_id":440,"player_count":0,"max_players":24,"Bots":0,"server_type":"Dedicated","server_os":"Linux","password":true,"vac":true,"version":"7882260","steam_id":85568392925397960,"keywords":["nocrits","nodmgspread","payload","uncletopia"],"game_id":440,"stv_port":27066,"stv_name":"Uncletopia | Sydney | 6 | Community | STV","players":null},{"server_id":49,"name":"Uncletopia | Warsaw | 1 | All Maps","name_short":"waw-1","host":"waw-1.pl.uncletopia.com","port":27015,"enabled":true,"region":"eu","cc":"pl","latitude":52.2297,"longitude":21.017532,"reserved":0,"last_update":"0001-01-01T00:00:00Z","name_a2s":"","protocol":0,"map":"","folder":"","game":"","app_id":0,"player_count":0,"max_players":0,"Bots":0,"server_type":"","server_os":"","password":false,"vac":false,"version":"","steam_id":0,"keywords":null,"game_id":0,"stv_port":0,"stv_name":"","players":null},{"server_id":50,"name":"Uncletopia | Warsaw | 2 | All Maps","name_short":"waw-2","host":"waw-1.pl.uncletopia.com","port":27025,"enabled":true,"region":"eu","cc":"pl","latitude":52.2297,"longitude":21.017532,"reserved":0,"last_update":"0001-01-01T00:00:00Z","name_a2s":"Uncletopia | Warsaw | 2 | All Maps","protocol":17,"map":"pl_barnblitz","folder":"tf","game":"Team Fortress","app_id":440,"player_count":0,"max_players":24,"Bots":0,"server_type":"Dedicated","server_os":"Linux","password":true,"vac":true,"version":"7882260","steam_id":85568392925397851,"keywords":["nocrits","nodmgspread","payload","uncletopia"],"game_id":440,"stv_port":27026,"stv_name":"Uncletopia | Warsaw | 2 | All Maps | STV","players":null},{"server_id":51,"name":"Uncletopia | Warsaw | 3 | All Maps","name_short":"waw-3","host":"waw-1.pl.uncletopia.com","port":27035,"enabled":true,"region":"eu","cc":"pl","latitude":52.2297,"longitude":21.017532,"reserved":0,"last_update":"0001-01-01T00:00:00Z","name_a2s":"Uncletopia | Warsaw | 3 | All Maps","protocol":17,"map":"pl_borneo","folder":"tf","game":"Team Fortress","app_id":440,"player_count":0,"max_players":24,"Bots":0,"server_type":"Dedicated","server_os":"Linux","password":true,"vac":true,"version":"7882260","steam_id":85568392925397852,"keywords":["nocrits","nodmgspread","payload","uncletopia"],"game_id":440,"stv_port":27036,"stv_name":"Uncletopia | Warsaw | 3 | All Maps | STV","players":null},{"server_id":52,"name":"Uncletopia | Warsaw | 4 | All Maps","name_short":"waw-4","host":"waw-1.pl.uncletopia.com","port":27045,"enabled":true,"region":"eu","cc":"pl","latitude":52.2297,"longitude":21.017532,"reserved":0,"last_update":"0001-01-01T00:00:00Z","name_a2s":"Uncletopia | Warsaw | 4 | All Maps","protocol":17,"map":"pl_snowycoast","folder":"tf","game":"Team Fortress","app_id":440,"player_count":0,"max_players":24,"Bots":0,"server_type":"Dedicated","server_os":"Linux","password":true,"vac":true,"version":"7882260","steam_id":85568392925397853,"keywords":["nocrits","nodmgspread","payload","uncletopia"],"game_id":440,"stv_port":27046,"stv_name":"Uncletopia | Warsaw | 4 | All Maps | STV","players":null},{"server_id":53,"name":"Uncletopia | Warsaw | 5 | Stopwatch Beta","name_short":"waw-5","host":"waw-1.pl.uncletopia.com","port":27055,"enabled":true,"region":"eu","cc":"pl","latitude":52.2297,"longitude":21.017532,"reserved":0,"last_update":"0001-01-01T00:00:00Z","name_a2s":"Uncletopia | Warsaw | 5 | Stopwatch Beta","protocol":17,"map":"koth_highpass","folder":"tf","game":"Team Fortress","app_id":440,"player_count":0,"max_players":24,"Bots":0,"server_type":"Dedicated","server_os":"Linux","password":true,"vac":true,"version":"7882260","steam_id":85568392925397854,"keywords":["cp","nocrits","nodmgspread","uncletopia"],"game_id":440,"stv_port":27056,"stv_name":"Uncletopia | Warsaw | 5 | Stopwatch Beta | STV","players":null},{"server_id":54,"name":"Uncletopia | Warsaw | 6 | Community","name_short":"waw-6","host":"waw-1.pl.uncletopia.com","port":27065,"enabled":true,"region":"eu","cc":"pl","latitude":52.2297,"longitude":21.017532,"reserved":0,"last_update":"0001-01-01T00:00:00Z","name_a2s":"Uncletopia | Warsaw | 6 | Community","protocol":17,"map":"workshop/koth_trenchfoot_b1a.ugc731436616","folder":"tf","game":"Team Fortress","app_id":440,"player_count":0,"max_players":24,"Bots":0,"server_type":"Dedicated","server_os":"Linux","password":true,"vac":true,"version":"7882260","steam_id":85568392925397856,"keywords":["cp","nocrits","nodmgspread","uncletopia"],"game_id":440,"stv_port":27066,"stv_name":"Uncletopia | Warsaw | 6 | Community | STV","players":null}]}