{"status":true,"message":"","result":[{"server_id":9,"name":"Uncletopia | Atlanta | 1 | All Maps","name_short":"atl-1","host":"atl-1.us.uncletopia.com","port":27015,"enabled":true,"region":"us-east","cc":"us","latitude":33.753746,"longitude":-84.38633,"reserved":0,"last_update":"0001-01-01T00:00:00Z","name_a2s":"Uncletopia | Atlanta | 1 | All Maps","protocol":17,"map":"pl_swiftwater_final1","folder":"tf","game":"Team Fortress","app_id":440,"player_count":24,"max_players":24,"Bots":0,"server_type":"Dedicated","server_os":"Linux","password":true,"vac":true,"version":"7882260","steam_id":85568392924469982,"keywords":["nocrits","nodmgspread","payload","uncletopia"],"game_id":440,"stv_port":27016,"stv_name":"Uncletopia | Atlanta | 1 | All Maps | STV","players":[{"user_id":720,"name":"ArnoldGamingﾠٴ","steam_id":76561198040140247,"connected_time":413000000000,"state":"active","ping":90},{"user_id":683,"name":"freaking","steam_id":76561198148132163,"connected_time":3831000000000,"state":"active","ping":77},{"user_id":690,"name":"RogueShadow","steam_id":76561198149605648,"connected_time":2708000000000,"state":"active","ping":66},{"user_id":710,"name":"meifan1","steam_id":76561198097896026,"connected_time":1156000000000,"state":"active","ping":93},{"user_id":697,"name":"oof aim small brain","steam_id":76561198079925551,"connected_time":2278000000000,"state":"active","ping":69},{"user_id":709,"name":"Tranced","steam_id":76561198123111613,"connected_time":1241000000000,"state":"active","ping":89},{"user_id":711,"name":"Ⓑ⓪⓪ⓣⓨⓒⓐⓚⓔⓢ","steam_id":76561198088776421,"connected_time":1072000000000,"state":"active","ping":77},{"user_id":713,"name":"Tightpin","steam_id":76561198042139984,"connected_time":915000000000,"state":"active","ping":113},{"user_id":731,"name":"El Dorito","steam_id":76561198044544789,"connected_time":60000000000,"state":"connecting","ping":0},{"user_id":715,"name":"Handsome Pete","steam_id":76561198003224229,"connected_time":801000000000,"state":"active","ping":102},{"user_id":721,"name":"pigswill","steam_id":76561197999081865,"connected_time":409000000000,"state":"active","ping":75},{"user_id":722,"name":"Grognak","steam_id":76561198044710527,"connected_time":339000000000,"state":"active","ping":126},{"user_id":689,"name":"KBoneski ♡","steam_id":76561198307409065,"connected_time":2716000000000,"state":"active","ping":103},{"user_id":723,"name":"boy from the rafters","steam_id":76561198042926224,"connected_time":315000000000,"state":"active","ping":67},{"user_id":724,"name":"Combine Grunt","steam_id":76561198366834319,"connected_time":315000000000,"state":"active","ping":95},{"user_id":557,"name":"Onyx","steam_id":76561198275349640,"connected_time":14070000000000,"state":"active","ping":75},{"user_id":688,"name":"paetho YT","steam_id":76561198152690003,"connected_time":2718000000000,"state":"active","ping":45},{"user_id":619,"name":"DragonFalcon™","steam_id":76561198044559930,"connected_time":8507000000000,"state":"active","ping":51},{"user_id":725,"name":"Ven_0","steam_id":76561199142511202,"connected_time":296000000000,"state":"active","ping":140},{"user_id":726,"name":"Major_Mooseman","steam_id":76561198126438141,"connected_time":291000000000,"state":"active","ping":82},{"user_id":727,"name":"ALonelyGhostE","steam_id":76561198184787290,"connected_time":268000000000,"state":"active","ping":76},{"user_id":730,"name":"Thingy","steam_id":76561198140161202,"connected_time":227000000000,"state":"active","ping":73},{"user_id":568,"name":"eish","steam_id":76561198089463603,"connected_time":13335000000000,"state":"active","ping":123},{"user_id":604,"name":"Am da Best","steam_id":76561198163825955,"connected_time":9712000000000,"state":"active","ping":98}]},{"server_id":104,"name":"Uncletopia | Atlanta | 2 | All Maps","name_short":"atl-2","host":"atl-1.us.uncletopia.com","port":27025,"enabled":true,"region":"us-east","cc":"us","latitude":33.753746,"longitude":-84.38633,"reserved":0,"last_update":"0001-01-01T00:00:00Z","name_a2s":"Uncletopia | Atlanta | 2 | All Maps","protocol":17,"map":"koth_lakeside_final","folder":"tf","game":"Team Fortress","app_id":440,"player_count":0,"max_players":24,"Bots":0,"server_type":"Dedicated","server_os":"Linux","password":true,"vac":true,"version":"7882260","steam_id":85568392924469983,"keywords":["cp","nocrits","nodmgspread","uncletopia"],"game_id":440,"stv_port":27026,"stv_name":"Uncletopia | Atlanta | 2 | All Maps | STV","players":null},{"server_id":400,"name":"Uncletopia | Atlanta | 3 | Community","name_short":"atl-3","host":"atl-1.us.uncletopia.com","port":27035,"enabled":true,"region":"us-east","cc":"us","latitude":33.753746,"longitude":-84.38633,"reserved":0,"last_update":"0001-01-01T00:00:00Z","name_a2s":"Uncletopia | Atlanta | 3 | Community","protocol":17,"map":"workshop/koth_product_final.ugc454272353","folder":"tf","game":"Team Fortress","app_id":440,"player_count":0,"max_players":24,"Bots":0,"server_type":"Dedicated","server_os":"Linux","password":true,"vac":true,"version":"7882260","steam_id":85568392924515187,"keywords":["cp","nocrits","nodmgspread","uncletopia"],"game_id":440,"stv_port":27036,"stv_name":"Uncletopia | Atlanta | 3 | Community | STV","players":null},{"server_id":401,"name":"Uncletopia | Atlanta | 4 | No Payload","name_short":"atl-4","host":"atl-1.us.uncletopia.com","port":27045,"enabled":true,"region":"us-east","cc":"us","latitude":33.753746,"longitude":-84.38633,"reserved":0,"last_update":"0001-01-01T00:00:00Z","name_a2s":"","protocol":0,"map":"","folder":"","game":"","app_id":0,"player_count":0,"max_players":0,"Bots":0,"server_type":"","server_os":"","password":false,"vac":false,"version":"","steam_id":0,"keywords":null,"game_id":0,"stv_port":0,"stv_name":"","players":null},{"server_id":2,"name":"Uncletopia | Chicago | 1 | All Maps","name_short":"chi-1","host":"chi-1.us.uncletopia.com","port":27015,"enabled":true,"region":"us-central","cc":"us","latitude":41.881832,"longitude":-87.62318,"reserved":0,"last_update":"0001-01-01T00:00:00Z","name_a2s":"Uncletopia | Chicago | 1 | All Maps","protocol":17,"map":"pl_frontier_final","folder":"tf","game":"Team Fortress","app_id":440,"player_count":0,"max_players":24,"Bots":0,"server_type":"Dedicated","server_os":"Linux","password":true,"vac":true,"version":"7882260","steam_id":85568392924469984,"keywords":["nocrits","nodmgspread","payload","uncletopia"],"game_id":440,"stv_port":27016,"stv_name":"Uncletopia | Chicago | 1 | All Maps | STV","players":null},{"server_id":106,"name":"Uncletopia | Chicago | 2 | All Maps","name_short":"chi-2","host":"chi-1.us.uncletopia.com","port":27025,"enabled":true,"region":"us-central","cc":"us","latitude":41.881832,"longitude":-87.62318,"reserved":0,"last_update":"0001-01-01T00:00:00Z","name_a2s":"Uncletopia | Chicago | 2 | All Maps","protocol":17,"map":"koth_cascade","folder":"tf","game":"Team Fortress","app_id":440,"player_count":0,"max_players":24,"Bots":0,"server_type":"Dedicated","server_os":"Linux","password":true,"vac":true,"version":"7882260","steam_id":85568392924469985,"keywords":["cp","nocrits","nodmgspread","uncletopia"],"game_id":440,"stv_port":27026,"stv_name":"Uncletopia | Chicago | 2 | All Maps | STV","players":null},{"server_id":402,"name":"Uncletopia | Chicago | 3 | All Maps","name_short":"chi-3","host":"chi-1.us.uncletopia.com","port":27035,"enabled":true,"region":"us-central","cc":"us","latitude":41.881832,"longitude":-87.62318,"reserved":0,"last_update":"0001-01-01T00:00:00Z","name_a2s":"Uncletopia | Chicago | 3 | All Maps","protocol":17,"map":"koth_viaduct","folder":"tf","game":"Team Fortress","app_id":440,"player_count":0,"max_players":24,"Bots":0,"server_type":"Dedicated","server_os":"Linux","password":true,"vac":true,"version":"7882260","steam_id":85568392924515191,"keywords":["cp","nocrits","nodmgspread","uncletopia"],"game_id":440,"stv_port":27036,"stv_name":"Uncletopia | Chicago | 3 | All Maps | STV","players":null},{"server_id":403,"name":"Uncletopia | Chicago | 4 | All Maps","name_short":"chi-4","host":"chi-1.us.uncletopia.com","port":27045,"enabled":true,"region":"us-central","cc":"us","latitude":41.881832,"longitude":-87.62318,"reserved":0,"last_update":"0001-01-01T00:00:00Z","name_a2s":"Uncletopia | Chicago | 4 | All Maps","protocol":17,"map":"pl_badwater","folder":"tf","game":"Team Fortress","app_id":440,"player_count":19,"max_players":24,"Bots":0,"server_type":"Dedicated","server_os":"Linux","password":true,"vac":true,"version":"7882260","steam_id":85568392924515193,"keywords":["nocrits","nodmgspread","payload","uncletopia"],"game_id":440,"stv_port":27046,"stv_name":"Uncletopia | Chicago | 4 | All Maps | STV","players":[{"user_id":900,"name":"Moonadoo","steam_id":76561198133377546,"connected_time":6320000000000,"state":"active","ping":50},{"user_id":987,"name":"ROO!","steam_id":76561198950978067,"connected_time":67000000000,"state":"active","ping":119},{"user_id":988,"name":"HellaCopter","steam_id":76561198062313698,"connected_time":52000000000,"state":"active","ping":96},{"user_id":985,"name":"set","steam_id":76561198294281809,"connected_time":213000000000,"state":"active","ping":90},{"user_id":971,"name":"Bread (Cooked)","steam_id":76561199126309520,"connected_time":780000000000,"state":"active","ping":76},{"user_id":949,"name":"SpycyNoodles","steam_id":76561198309439750,"connected_time":2447000000000,"state":"active","ping":55},{"user_id":950,"name":"Waffles","steam_id":76561198147769231,"connected_time":2434000000000,"state":"active","ping":81},{"user_id":964,"name":"Trey","steam_id":76561198110024593,"connected_time":1644000000000,"state":"active","ping":82},{"user_id":952,"name":"35 years without a footjob...","steam_id":76561198799299193,"connected_time":2328000000000,"state":"active","ping":84},{"user_id":984,"name":"The Caretaker","steam_id":76561198125241411,"connected_time":289000000000,"state":"spawning","ping":500},{"user_id":986,"name":"Dreamzapp","steam_id":76561199084936632,"connected_time":189000000000,"state":"active","ping":116},{"user_id":973,"name":"Ledabmann","steam_id":76561198375415145,"connected_time":722000000000,"state":"active","ping":83},{"user_id":989,"name":"aoskde","steam_id":76561198366883780,"connected_time":22000000000,"state":"spawning","ping":62},{"user_id":976,"name":"moomert","steam_id":76561198371215034,"connected_time":706000000000,"state":"active","ping":77},{"user_id":955,"name":"dweamy","steam_id":76561198119181880,"connected_time":2230000000000,"state":"active","ping":75},{"user_id":978,"name":"Mooza","steam_id":76561199375654650,"connected_time":662000000000,"state":"active","ping":251},{"user_id":965,"name":"cringeass nae-nae girl","steam_id":76561198108753857,"connected_time":1546000000000,"state":"active","ping":65},{"user_id":980,"name":"critically in need of za","steam_id":76561198144766439,"connected_time":611000000000,"state":"active","ping":40},{"user_id":981,"name":"Oh No! It's Twister!","steam_id":76561198016791916,"connected_time":591000000000,"state":"active","ping":84}]},{"server_id":36,"name":"Uncletopia | Chicago | 5 | All Maps","name_short":"chi-5","host":"chi-2.us.uncletopia.com","port":27015,"enabled":true,"region":"us-central","cc":"us","latitude":41.881832,"longitude":-87.62318,"reserved":0,"last_update":"0001-01-01T00:00:00Z","name_a2s":"Uncletopia | Chicago | 5 | All Maps","protocol":17,"map":"pl_borneo","folder":"tf","game":"Team Fortress","app_id":440,"player_count":13,"max_players":24,"Bots":0,"server_type":"Dedicated","server_os":"Linux","password":true,"vac":true,"version":"7882260","steam_id":85568392924866362,"keywords":["nocrits","nodmgspread","payload","uncletopia"],"game_id":440,"stv_port":27016,"stv_name":"Uncletopia | Chicago | 5 | All Maps | STV","players":[{"user_id":488,"name":"shi","steam_id":76561198162989738,"connected_time":139000000000,"state":"active","ping":56},{"user_id":483,"name":"marf","steam_id":76561198259541415,"connected_time":662000000000,"state":"active","ping":70},{"user_id":485,"name":"MoistSpleenDamp","steam_id":76561199035435125,"connected_time":645000000000,"state":"active","ping":53},{"user_id":482,"name":"ursa","steam_id":76561198025394298,"connected_time":689000000000,"state":"active","ping":57},{"user_id":399,"name":"BigDeac","steam_id":76561198091237274,"connected_time":8578000000000,"state":"active","ping":59},{"user_id":400,"name":"noah","steam_id":76561198173310157,"connected_time":8513000000000,"state":"active","ping":50},{"user_id":486,"name":"sc_bill","steam_id":76561198066738853,"connected_time":580000000000,"state":"active","ping":72},{"user_id":474,"name":"Cy4nideCutie","steam_id":76561198126686695,"connected_time":1466000000000,"state":"active","ping":67},{"user_id":489,"name":"Zigadox","steam_id":76561198079813479,"connected_time":135000000000,"state":"active","ping":89},{"user_id":490,"name":"VidzCMC","steam_id":76561198848142973,"connected_time":123000000000,"state":"active","ping":45},{"user_id":477,"name":"OddSlaush","steam_id":76561198043898488,"connected_time":1254000000000,"state":"active","ping":91},{"user_id":466,"name":"Urbanzpinapple","steam_id":76561198115426938,"connected_time":2494000000000,"state":"active","ping":64},{"user_id":449,"name":"Ludcmorais","steam_id":76561198359217809,"connected_time":4221000000000,"state":"active","ping":185}]},{"server_id":37,"name":"Uncletopia | Chicago | 6 | All Maps","name_short":"chi-6","host":"chi-2.us.uncletopia.com","port":27025,"enabled":true,"region":"us-central","cc":"us","latitude":41.881832,"longitude":-87.62318,"reserved":0,"last_update":"0001-01-01T00:00:00Z","name_a2s":"Uncletopia | Chicago | 6 | All Maps","protocol":17,"map":"cp_steel","folder":"tf","game":"Team Fortress","app_id":440,"player_count":17,"max_players":24,"Bots":0,"server_type":"Dedicated","server_os":"Linux","password":true,"vac":true,"version":"7882260","steam_id":85568392924866363,"keywords":["cp","nocrits","nodmgspread","uncletopia"],"game_id":440,"stv_port":27026,"stv_name":"Uncletopia | Chicago | 6 | All Maps | STV","players":[{"user_id":426,"name":"Shadow The Hedgehog","steam_id":76561198323622980,"connected_time":176000000000,"state":"active","ping":165},{"user_id":421,"name":"AADDAAMM","steam_id":76561198068584852,"connected_time":315000000000,"state":"active","ping":76},{"user_id":422,"name":"SpectralFlare","steam_id":76561198064708832,"connected_time":313000000000,"state":"active","ping":97},{"user_id":346,"name":"come to butthead","steam_id":76561198020322241,"connected_time":6517000000000,"state":"active","ping":71},{"user_id":394,"name":"pimp chimpin","steam_id":76561199154795541,"connected_time":2724000000000,"state":"active","ping":84},{"user_id":423,"name":"GunMonkey69","steam_id":76561198025534940,"connected_time":300000000000,"state":"active","ping":64},{"user_id":396,"name":"Xruffel :3 (gay)","steam_id":76561198067697879,"connected_time":2264000000000,"state":"active","ping":52},{"user_id":425,"name":"Brendan","steam_id":76561198041079914,"connected_time":240000000000,"state":"active","ping":69},{"user_id":406,"name":"Richard 'Dick' Pingus","steam_id":76561198257724646,"connected_time":1536000000000,"state":"active","ping":67},{"user_id":413,"name":"cxcn","steam_id":76561199215821942,"connected_time":1002000000000,"state":"active","ping":64},{"user_id":383,"name":"dabob","steam_id":76561198133102865,"connected_time":3607000000000,"state":"active","ping":74},{"user_id":417,"name":"Jarik","steam_id":76561198934036339,"connected_time":711000000000,"state":"active","ping":198},{"user_id":386,"name":"Mr. Cobbweb","steam_id":76561198215079953,"connected_time":3522000000000,"state":"active","ping":140},{"user_id":387,"name":"kira","steam_id":76561198277979851,"connected_time":3405000000000,"state":"active","ping":86},{"user_id":389,"name":"DroidX19","steam_id":76561198867783457,"connected_time":3389000000000,"state":"active","ping":87},{"user_id":415,"name":"anna may","steam_id":76561198406182377,"connected_time":835000000000,"state":"active","ping":54},{"user_id":348,"name":"wsg","steam_id":76561197967761806,"connected_time":6501000000000,"state":"active","ping":158}]},{"server_id":38,"name":"Uncletopia | Chicago | 7 | Stopwatch Beta","name_short":"chi-7","host":"chi-2.us.uncletopia.com","port":27035,"enabled":true,"region":"us-central","cc":"us","latitude":41.881832,"longitude":-87.62318,"reserved":0,"last_update":"0001-01-01T00:00:00Z","name_a2s":"Uncletopia | Chicago | 7 | Stopwatch Beta","protocol":17,"map":"pl_upward","folder":"tf","game":"Team Fortress","app_id":440,"player_count":0,"max_players":24,"Bots":0,"server_type":"Dedicated","server_os":"Linux","password":true,"vac":true,"version":"7882260","steam_id":85568392924866364,"keywords":["nocrits","nodmgspread","payload","uncletopia"],"game_id":440,"stv_port":27036,"stv_name":"Uncletopia | Chicago | 7 | Stopwatch Beta | STV","players":null},{"server_id":39,"name":"Uncletopia | Chicago | 8 | Community","name_short":"chi-8","host":"chi-2.us.uncletopia.com","port":27045,"enabled":true,"region":"us-central","cc":"us","latitude":41.881832,"longitude":-87.62318,"reserved":0,"last_update":"0001-01-01T00:00:00Z","name_a2s":"Uncletopia | Chicago | 8 | Community","protocol":17,"map":"workshop/koth_product_final.ugc454272353","folder":"tf","game":"Team Fortress","app_id":440,"player_count":0,"max_players":24,"Bots":0,"server_type":"Dedicated","server_os":"Linux","password":true,"vac":true,"version":"7882260","steam_id":85568392924866365,"keywords":["cp","nocrits","nodmgspread","uncletopia"],"game_id":440,"stv_port":27046,"stv_name":"Uncletopia | Chicago | 8 | Community | STV","players":null},{"server_id":8,"name":"Uncletopia | Dallas | 1 | All Maps","name_short":"dal-1","host":"dal-1.us.uncletopia.com","port":27015,"enabled":true,"region":"us-central","cc":"us","latitude":32.779167,"longitude":-96.80889,"reserved":0,"last_update":"0001-01-01T00:00:00Z","name_a2s":"Uncletopia | Dallas | 1 | All Maps","protocol":17,"map":"koth_lakeside_final","folder":"tf","game":"Team Fortress","app_id":440,"player_count":24,"max_players":24,"Bots":0,"server_type":"Dedicated","server_os":"Linux","password":true,"vac":true,"version":"7882260","steam_id":85568392924469986,"keywords":["cp","nocrits","nodmgspread","uncletopia"],"game_id":440,"stv_port":27016,"stv_name":"Uncletopia | Dallas | 1 | All Maps | STV","players":[{"user_id":980,"name":"andrewcoolman70","steam_id":76561198859204757,"connected_time":2386000000000,"state":"active","ping":79},{"user_id":990,"name":"w","steam_id":76561198125261443,"connected_time":1411000000000,"state":"active","ping":106},{"user_id":987,"name":"adam0o0","steam_id":76561198052250279,"connected_time":1713000000000,"state":"active","ping":69},{"user_id":988,"name":"iSaH","steam_id":76561198305136202,"connected_time":1561000000000,"state":"active","ping":88},{"user_id":924,"name":"SleeplessCollin","steam_id":76561198968140914,"connected_time":5820000000000,"state":"active","ping":68},{"user_id":1001,"name":"Taco+Taco=Burrito","steam_id":76561198063128663,"connected_time":577000000000,"state":"active","ping":75},{"user_id":991,"name":"intek","steam_id":76561198052705291,"connected_time":1398000000000,"state":"active","ping":85},{"user_id":1005,"name":"Zen56","steam_id":76561198074554894,"connected_time":217000000000,"state":"active","ping":87},{"user_id":1004,"name":"Monsta","steam_id":76561197971626425,"connected_time":333000000000,"state":"active","ping":72},{"user_id":986,"name":"Crispy","steam_id":76561198037481161,"connected_time":1723000000000,"state":"active","ping":66},{"user_id":997,"name":"STILLZ","steam_id":76561198131892406,"connected_time":1171000000000,"state":"active","ping":84},{"user_id":969,"name":"skegeton","steam_id":76561198095581099,"connected_time":2982000000000,"state":"active","ping":72},{"user_id":994,"name":"+EsC|Kevinator","steam_id":76561198008475674,"connected_time":1380000000000,"state":"active","ping":84},{"user_id":941,"name":"Frank Forearms.","steam_id":76561198225910596,"connected_time":4718000000000,"state":"active","ping":57},{"user_id":995,"name":"Yummy Kabobz","steam_id":76561198067661705,"connected_time":1370000000000,"state":"active","ping":79},{"user_id":970,"name":"orgasmo","steam_id":76561198047355245,"connected_time":2978000000000,"state":"active","ping":82},{"user_id":955,"name":"BADWOLF42","steam_id":76561198055447523,"connected_time":3938000000000,"state":"active","ping":57},{"user_id":965,"name":"good soup guy","steam_id":76561199210237835,"connected_time":3457000000000,"state":"active","ping":93},{"user_id":985,"name":"Icarus the legend","steam_id":76561199013250091,"connected_time":1953000000000,"state":"active","ping":57},{"user_id":1003,"name":"gromit","steam_id":76561198037746805,"connected_time":445000000000,"state":"active","ping":92},{"user_id":1000,"name":"MeatBall","steam_id":76561199055196261,"connected_time":745000000000,"state":"active","ping":101},{"user_id":971,"name":"it's peanut time","steam_id":76561198236028020,"connected_time":2974000000000,"state":"active","ping":149},{"user_id":966,"name":"Galactamarx","steam_id":76561198028065755,"connected_time":3415000000000,"state":"active","ping":73},{"user_id":977,"name":"seats","steam_id":76561197998756039,"connected_time":2717000000000,"state":"active","ping":75}]},{"server_id":108,"name":"Uncletopia | Dallas | 2 | All Maps","name_short":"dal-2","host":"dal-1.us.uncletopia.com","port":27025,"enabled":true,"region":"us-central","cc":"us","latitude":32.779167,"longitude":-96.80889,"reserved":0,"last_update":"0001-01-01T00:00:00Z","name_a2s":"Uncletopia | Dallas | 2 | All Maps","protocol":17,"map":"cp_snakewater_final1","folder":"tf","game":"Team Fortress","app_id":440,"player_count":2,"max_players":24,"Bots":0,"server_type":"Dedicated","server_os":"Linux","password":true,"vac":true,"version":"7882260","steam_id":85568392924469988,"keywords":["cp","nocrits","nodmgspread","uncletopia"],"game_id":440,"stv_port":27026,"stv_name":"Uncletopia | Dallas | 2 | All Maps | STV","players":[{"user_id":606,"name":"birdy lala","steam_id":76561197984545865,"connected_time":501000000000,"state":"active","ping":60},{"user_id":607,"name":"malphina","steam_id":76561198064249201,"connected_time":481000000000,"state":"active","ping":99}]},{"server_id":5,"name":"Uncletopia | Frankfurt | 1 | All Maps","name_short":"frk-1","host":"frk-1.de.uncletopia.com","port":27015,"enabled":true,"region":"eu","cc":"de","latitude":50.110924,"longitude":8.682127,"reserved":0,"last_update":"0001-01-01T00:00:00Z","name_a2s":"Uncletopia | Frankfurt | 1 | All Maps","protocol":17,"map":"pl_snowycoast","folder":"tf","game":"Team Fortress","app_id":440,"player_count":13,"max_players":24,"Bots":0,"server_type":"Dedicated","server_os":"Linux","password":true,"vac":true,"version":"7882260","steam_id":85568392924469989,"keywords":["nocrits","nodmgspread","payload","uncletopia"],"game_id":440,"stv_port":27016,"stv_name":"Uncletopia | Frankfurt | 1 | All Maps | STV","players":[{"user_id":3,"name":"Vitamin Weee","steam_id":76561199183937747,"connected_time":1025000000000,"state":"active","ping":85},{"user_id":4,"name":"Anadest","steam_id":76561198992528373,"connected_time":778000000000,"state":"active","ping":71},{"user_id":5,"name":"tax evasion gaming","steam_id":76561199212653573,"connected_time":726000000000,"state":"active","ping":77},{"user_id":13,"name":"laza's boy","steam_id":76561199074095198,"connected_time":224000000000,"state":"active","ping":128},{"user_id":7,"name":"Old Frantank","steam_id":76561198356077084,"connected_time":596000000000,"state":"active","ping":60},{"user_id":8,"name":"Mr. Shadow | Folfie","steam_id":76561198037028507,"connected_time":566000000000,"state":"active","ping":55},{"user_id":9,"name":"hunte","steam_id":76561198063483484,"connected_time":546000000000,"state":"active","ping":69},{"user_id":17,"name":"ANGELFISH","steam_id":76561198027536466,"connected_time":35000000000,"state":"active","ping":86},{"user_id":12,"name":"Narvhalø","steam_id":76561198147495474,"connected_time":271000000000,"state":"active","ping":45},{"user_id":14,"name":"ShIpDI De Tartle","steam_id":76561198033099511,"connected_time":192000000000,"state":"active","ping":71},{"user_id":15,"name":".::[SerafeTTiN]::.","steam_id":76561198009471724,"connected_time":105000000000,"state":"active","ping":90},{"user_id":16,"name":"joachym","steam_id":76561198428579761,"connected_time":82000000000,"state":"active","ping":65},{"user_id":18,"name":"Fаntom","steam_id":76561198034406164,"connected_time":7000000000,"state":"active","ping":213}]},{"server_id":110,"name":"Uncletopia | Frankfurt | 2 | All Maps","name_short":"frk-2","host":"frk-1.de.uncletopia.com","port":27025,"enabled":true,"region":"eu","cc":"de","latitude":50.110924,"longitude":8.682127,"reserved":0,"last_update":"0001-01-01T00:00:00Z","name_a2s":"Uncletopia | Frankfurt | 2 | All Maps","protocol":17,"map":"pl_upward","folder":"tf","game":"Team Fortress","app_id":440,"player_count":0,"max_players":24,"Bots":0,"server_type":"Dedicated","server_os":"Linux","password":true,"vac":true,"version":"7882260","steam_id":85568392924469990,"keywords":["nocrits","nodmgspread","payload","uncletopia"],"game_id":440,"stv_port":27026,"stv_name":"Uncletopia | Frankfurt | 2 | All Maps | STV","players":null},{"server_id":308,"name":"Uncletopia | Frankfurt | 3 | All Maps","name_short":"frk-3","host":"frk-1.de.uncletopia.com","port":27035,"enabled":true,"region":"eu","cc":"de","latitude":50.110924,"longitude":8.682127,"reserved":0,"last_update":"0001-01-01T00:00:00Z","name_a2s":"Uncletopia | Frankfurt | 3 | All Maps","protocol":17,"map":"cp_process_final","folder":"tf","game":"Team Fortress","app_id":440,"player_count":0,"max_players":24,"Bots":0,"server_type":"Dedicated","server_os":"Linux","password":true,"vac":true,"version":"7882260","steam_id":85568392924504274,"keywords":["cp","nocrits","nodmgspread","uncletopia"],"game_id":440,"stv_port":27036,"stv_name":"Uncletopia | Frankfurt | 3 | All Maps | STV","players":null},{"server_id":309,"name":"Uncletopia | Frankfurt | 4 | All Maps","name_short":"frk-4","host":"frk-1.de.uncletopia.com","port":27045,"enabled":true,"region":"eu","cc":"de","latitude":50.110924,"longitude":8.682127,"reserved":0,"last_update":"0001-01-01T00:00:00Z","name_a2s":"Uncletopia | Frankfurt | 4 | All Maps","protocol":17,"map":"pl_swiftwater_final1","folder":"tf","game":"Team Fortress","app_id":440,"player_count":0,"max_players":24,"Bots":0,"server_type":"Dedicated","server_os":"Linux","password":true,"vac":true,"version":"7882260","steam_id":85568392924504275,"keywords":["nocrits","nodmgspread","payload","uncletopia"],"game_id":440,"stv_port":27046,"stv_name":"Uncletopia | Frankfurt | 4 | All Maps | STV","players":null},{"server_id":310,"name":"Uncletopia | Frankfurt | 5 | All Maps","name_short":"frk-5","host":"frk-1.de.uncletopia.com","port":27055,"enabled":true,"region":"eu","cc":"de","latitude":50.110924,"longitude":8.682127,"reserved":0,"last_update":"0001-01-01T00:00:00Z","name_a2s":"Uncletopia | Frankfurt | 5 | All Maps","protocol":17,"map":"pl_borneo","folder":"tf","game":"Team Fortress","app_id":440,"player_count":0,"max_players":24,"Bots":0,"server_type":"Dedicated","server_os":"Linux","password":true,"vac":true,"version":"7882260","steam_id":85568392924504277,"keywords":["nocrits","nodmgspread","payload","uncletopia"],"game_id":440,"stv_port":27056,"stv_name":"Uncletopia | Frankfurt | 5 | All Maps | STV","players":null},{"server_id":311,"name":"Uncletopia | Frankfurt | 6 | All Maps","name_short":"frk-6","host":"frk-1.de.uncletopia.com","port":27065,"enabled":true,"region":"eu","cc":"de","latitude":50.110924,"longitude":8.682127,"reserved":0,"last_update":"0001-01-01T00:00:00Z","name_a2s":"Uncletopia | Frankfurt | 6 | All Maps","protocol":17,"map":"koth_viaduct","folder":"tf","game":"Team Fortress","app_id":440,"player_count":0,"max_players":24,"Bots":0,"server_type":"Dedicated","server_os":"Linux","password":true,"vac":true,"version":"7882260","steam_id":85568392924504278,"keywords":["cp","nocrits","nodmgspread","uncletopia"],"game_id":440,"stv_port":27066,"stv_name":"Uncletopia | Frankfurt | 6 | All Maps | STV","players":null},{"server_id":23,"name":"Uncletopia | Frankfurt | 7 | Stopwatch Beta","name_short":"frk-7","host":"frk-1.de.uncletopia.com","port":27075,"enabled":true,"region":"eu","cc":"de","latitude":50.110924,"longitude":8.682127,"reserved":0,"last_update":"0001-01-01T00:00:00Z","name_a2s":"Uncletopia | Frankfurt | 7 | Stopwatch Beta","protocol":17,"map":"workshop/koth_clearcut_b15.ugc2107050255","folder":"tf","game":"Team Fortress","app_id":440,"player_count":0,"max_players":24,"Bots":0,"server_type":"Dedicated","server_os":"Linux","password":true,"vac":true,"version":"7882260","steam_id":85568392924742827,"keywords":["cp","nocrits","nodmgspread","uncletopia"],"game_id":440,"stv_port":27076,"stv_name":"Uncletopia | Frankfurt | 7 | Stopwatch Beta | STV","players":null},{"server_id":24,"name":"Uncletopia | Frankfurt | 8 | Community","name_short":"frk-8","host":"frk-1.de.uncletopia.com","port":27085,"enabled":true,"region":"eu","cc":"de","latitude":50.110924,"longitude":8.682127,"reserved":0,"last_update":"0001-01-01T00:00:00Z","name_a2s":"Uncletopia | Frankfurt | 8 | Community","protocol":17,"map":"cp_mountainlab","folder":"tf","game":"Team Fortress","app_id":440,"player_count":0,"max_players":24,"Bots":0,"server_type":"Dedicated","server_os":"Linux","password":true,"vac":true,"version":"7882260","steam_id":85568392924742828,"keywords":["cp","nocrits","nodmgspread","uncletopia"],"game_id":440,"stv_port":27086,"stv_name":"Uncletopia | Frankfurt | 8 | Community | STV","players":null},{"server_id":202,"name":"Uncletopia | Hong Kong | 1 | All Maps","name_short":"hgk-1","host":"hgk-1.hk.uncletopia.com","port":27015,"enabled":true,"region":"asia","cc":"hk","latitude":22.302711,"longitude":114.177216,"reserved":0,"last_update":"0001-01-01T00:00:00Z","name_a2s":"Uncletopia | Hong Kong | 1 | All Maps","protocol":17,"map":"pl_swiftwater_final1","folder":"tf","game":"Team Fortress","app_id":440,"player_count":24,"max_players":24,"Bots":0,"server_type":"Dedicated","server_os":"Linux","password":true,"vac":true,"version":"7882260","steam_id":85568392924494504,"keywords":["nocrits","nodmgspread","payload","uncletopia"],"game_id":440,"stv_port":27016,"stv_name":"Uncletopia | Hong Kong | 1 | All Maps | STV","players":[{"user_id":250,"name":"Femboy Inspector","steam_id":76561198449623395,"connected_time":367000000000,"state":"active","ping":68},{"user_id":163,"name":"3wfFbdrjEze5d2G","steam_id":76561198435900451,"connected_time":8873000000000,"state":"active","ping":153},{"user_id":203,"name":"spinach (old mouse)","steam_id":76561198042539541,"connected_time":6227000000000,"state":"active","ping":102},{"user_id":220,"name":"Crazywayne","steam_id":76561198056504010,"connected_time":3316000000000,"state":"active","ping":72},{"user_id":209,"name":"stupendous sycophant","steam_id":76561198055553140,"connected_time":5948000000000,"state":"active","ping":76},{"user_id":240,"name":"TomProPlayer","steam_id":76561199223292521,"connected_time":1117000000000,"state":"active","ping":72},{"user_id":207,"name":"Cornelius Cuntwad","steam_id":76561199122491157,"connected_time":5977000000000,"state":"active","ping":176},{"user_id":254,"name":"7853","steam_id":76561199390507975,"connected_time":78000000000,"state":"active","ping":48},{"user_id":229,"name":"Stan","steam_id":76561198065671595,"connected_time":1874000000000,"state":"active","ping":35},{"user_id":252,"name":"Dr. Potential","steam_id":76561198832129155,"connected_time":277000000000,"state":"active","ping":158},{"user_id":205,"name":"sloth of the fragment clan","steam_id":76561198214192048,"connected_time":6066000000000,"state":"active","ping":111},{"user_id":233,"name":"water tastes good","steam_id":76561199375947670,"connected_time":1851000000000,"state":"active","ping":68},{"user_id":246,"name":"BAD PYRO PLAYER","steam_id":76561198074339034,"connected_time":524000000000,"state":"active","ping":76},{"user_id":238,"name":"ObscuroLucem","steam_id":76561198875037943,"connected_time":1464000000000,"state":"active","ping":86},{"user_id":253,"name":"daigennki","steam_id":76561198046328609,"connected_time":80000000000,"state":"active","ping":107},{"user_id":206,"name":"Vortex Swagger","steam_id":76561198833527091,"connected_time":5988000000000,"state":"active","ping":97},{"user_id":213,"name":"Lelouch","steam_id":76561198828840546,"connected_time":4547000000000,"state":"active","ping":79},{"user_id":226,"name":"Noyour","steam_id":76561198323259830,"connected_time":2763000000000,"state":"active","ping":121},{"user_id":232,"name":"Michael Scott","steam_id":76561198023082794,"connected_time":1860000000000,"state":"active","ping":52},{"user_id":187,"name":"Samoyed","steam_id":76561198299150410,"connected_time":7972000000000,"state":"active","ping":98},{"user_id":248,"name":"sett.","steam_id":76561199010718657,"connected_time":407000000000,"state":"active","ping":76},{"user_id":243,"name":"NoWay","steam_id":76561198223517060,"connected_time":582000000000,"state":"active","ping":176},{"user_id":236,"name":"P","steam_id":76561198304514505,"connected_time":1577000000000,"state":"active","ping":77},{"user_id":219,"name":"LEGS","steam_id":76561199111623890,"connected_time":3317000000000,"state":"active","ping":71}]},{"server_id":1,"name":"Uncletopia | Los Angeles | 1 | All Maps","name_short":"lax-1","host":"lax-1.us.uncletopia.com","port":27015,"enabled":true,"region":"us-west","cc":"us","latitude":33.94279,"longitude":-118.41004,"reserved":0,"last_update":"0001-01-01T00:00:00Z","name_a2s":"Uncletopia | Los Angeles | 1 | All Maps","protocol":17,"map":"pl_frontier_final","folder":"tf","game":"Team Fortress","app_id":440,"player_count":24,"max_players":24,"Bots":0,"server_type":"Dedicated","server_os":"Linux","password":true,"vac":true,"version":"7882260","steam_id":85568392924469991,"keywords":["nocrits","nodmgspread","payload","uncletopia"],"game_id":440,"stv_port":27016,"stv_name":"Uncletopia | Los Angeles | 1 | All Maps | STV","players":[{"user_id":430,"name":"Tocha","steam_id":76561198119725400,"connected_time":714000000000,"state":"active","ping":101},{"user_id":431,"name":"Whistlepig","steam_id":76561198030622803,"connected_time":677000000000,"state":"active","ping":105},{"user_id":412,"name":"Cypress [ +/- ] ✔","steam_id":76561198067164431,"connected_time":2278000000000,"state":"active","ping":42},{"user_id":385,"name":"Nez","steam_id":76561197963109059,"connected_time":4781000000000,"state":"active","ping":63},{"user_id":423,"name":"American Dad Funny Moments #32","steam_id":76561198254874328,"connected_time":1410000000000,"state":"active","ping":85},{"user_id":409,"name":"Cheetose Intolerant","steam_id":76561198013399809,"connected_time":2662000000000,"state":"active","ping":45},{"user_id":421,"name":"Carl","steam_id":76561198012389116,"connected_time":1570000000000,"state":"active","ping":69},{"user_id":392,"name":"feel the bean","steam_id":76561198858328080,"connected_time":4453000000000,"state":"active","ping":45},{"user_id":435,"name":"Fred","steam_id":76561197983870604,"connected_time":447000000000,"state":"active","ping":46},{"user_id":433,"name":"Swag Messiah","steam_id":76561198970803382,"connected_time":633000000000,"state":"active","ping":55},{"user_id":436,"name":"summerlis","steam_id":76561198165324438,"connected_time":431000000000,"state":"active","ping":36},{"user_id":386,"name":"LX-24","steam_id":76561198016168993,"connected_time":4741000000000,"state":"active","ping":85},{"user_id":420,"name":"Darkspiral","steam_id":76561198080807559,"connected_time":1603000000000,"state":"active","ping":45},{"user_id":336,"name":"Ryshy02","steam_id":76561198055425447,"connected_time":9378000000000,"state":"active","ping":79},{"user_id":438,"name":"Jomdac","steam_id":76561198150447896,"connected_time":371000000000,"state":"active","ping":53},{"user_id":322,"name":"Schnitz","steam_id":76561198265484253,"connected_time":10829000000000,"state":"active","ping":57},{"user_id":424,"name":"Jokezonyu","steam_id":76561198213167893,"connected_time":1308000000000,"state":"active","ping":67},{"user_id":439,"name":"K4le","steam_id":76561198747668363,"connected_time":346000000000,"state":"active","ping":50},{"user_id":443,"name":"PoonaniTsunami","steam_id":76561197965367308,"connected_time":222000000000,"state":"active","ping":69},{"user_id":441,"name":"kenZino","steam_id":76561197967971192,"connected_time":314000000000,"state":"active","ping":75},{"user_id":384,"name":"[ØWQJØ]chubacaalatake","steam_id":76561198136201697,"connected_time":4792000000000,"state":"active","ping":92},{"user_id":422,"name":"tr","steam_id":76561198046944222,"connected_time":1462000000000,"state":"active","ping":77},{"user_id":442,"name":"Just_Bland","steam_id":76561198403482191,"connected_time":303000000000,"state":"active","ping":54},{"user_id":429,"name":"silver","steam_id":76561199020503397,"connected_time":890000000000,"state":"active","ping":46}]},{"server_id":112,"name":"Uncletopia | Los Angeles | 2 | All Maps","name_short":"lax-2","host":"lax-1.us.uncletopia.com","port":27025,"enabled":true,"region":"us-west","cc":"us","latitude":33.94279,"longitude":-118.41004,"reserved":0,"last_update":"0001-01-01T00:00:00Z","name_a2s":"Uncletopia | Los Angeles | 2 | All Maps","protocol":17,"map":"koth_cascade","folder":"tf","game":"Team Fortress","app_id":440,"player_count":0,"max_players":24,"Bots":0,"server_type":"Dedicated","server_os":"Linux","password":true,"vac":true,"version":"7882260","steam_id":85568392924469992,"keywords":["cp","nocrits","nodmgspread","uncletopia"],"game_id":440,"stv_port":27026,"stv_name":"Uncletopia | Los Angeles | 2 | All Maps | STV","players":null},{"server_id":324,"name":"Uncletopia | Los Angeles | 3 | All Maps","name_short":"lax-3","host":"lax-1.us.uncletopia.com","port":27035,"enabled":true,"region":"us-west","cc":"us","latitude":33.94279,"longitude":-118.41004,"reserved":0,"last_update":"0001-01-01T00:00:00Z","name_a2s":"Uncletopia | Los Angeles | 3 | All Maps","protocol":17,"map":"koth_cascade","folder":"tf","game":"Team Fortress","app_id":440,"player_count":0,"max_players":24,"Bots":0,"server_type":"Dedicated","server_os":"Linux","password":true,"vac":true,"version":"7882260","steam_id":85568392924510198,"keywords":["cp","nocrits","nodmgspread","uncletopia"],"game_id":440,"stv_port":27036,"stv_name":"Uncletopia | Los Angeles | 3 | All Maps | STV","players":null},{"server_id":25,"name":"Uncletopia | Los Angeles | 4 | Stopwatch Beta","name_short":"lax-4","host":"lax-1.us.uncletopia.com","port":27045,"enabled":true,"region":"us-west","cc":"us","latitude":33.94279,"longitude":-118.41004,"reserved":0,"last_update":"0001-01-01T00:00:00Z","name_a2s":"Uncletopia | Los Angeles | 4 | Stopwatch Beta","protocol":17,"map":"koth_viaduct","folder":"tf","game":"Team Fortress","app_id":440,"player_count":0,"max_players":24,"Bots":0,"server_type":"Dedicated","server_os":"Linux","password":true,"vac":true,"version":"7882260","steam_id":85568392924510199,"keywords":["cp","nocrits","nodmgspread","uncletopia"],"game_id":440,"stv_port":27046,"stv_name":"Uncletopia | Los Angeles | 4 | Stopwatch Beta | STV","players":null},{"server_id":11,"name":"Uncletopia | London | 1 | All Maps","name_short":"lon-1","host":"lon-1.uk.uncletopia.com","port":27015,"enabled":true,"region":"eu","cc":"gb","latitude":51.509865,"longitude":-0.118092,"reserved":0,"last_update":"0001-01-01T00:00:00Z","name_a2s":"Uncletopia | London | 1 | All Maps","protocol":17,"map":"cp_steel","folder":"tf","game":"Team Fortress","app_id":440,"player_count":24,"max_players":24,"Bots":0,"server_type":"Dedicated","server_os":"Linux","password":true,"vac":true,"version":"7882260","steam_id":85568392924367362,"keywords":["cp","nocrits","nodmgspread","uncletopia"],"game_id":440,"stv_port":27016,"stv_name":"Uncletopia | London | 1 | All Maps | STV","players":[{"user_id":62,"name":"[SSRB] Kiri","steam_id":76561198193983787,"connected_time":2373000000000,"state":"active","ping":136},{"user_id":65,"name":"ja","steam_id":76561199228540618,"connected_time":2324000000000,"state":"active","ping":79},{"user_id":80,"name":"dartush","steam_id":76561198067506270,"connected_time":664000000000,"state":"active","ping":89},{"user_id":66,"name":"smth","steam_id":76561197987259759,"connected_time":2308000000000,"state":"active","ping":86},{"user_id":78,"name":"Marcos","steam_id":76561198798925721,"connected_time":863000000000,"state":"active","ping":84},{"user_id":82,"name":"deloreg","steam_id":76561199487318962,"connected_time":421000000000,"state":"active","ping":75},{"user_id":51,"name":"Dr.Nefario","steam_id":76561198874586020,"connected_time":3609000000000,"state":"active","ping":67},{"user_id":81,"name":"Acbh","steam_id":76561198158271672,"connected_time":448000000000,"state":"active","ping":73},{"user_id":57,"name":"The Wolf Leader","steam_id":76561198038007462,"connected_time":2878000000000,"state":"active","ping":77},{"user_id":76,"name":"le unfunny dog","steam_id":76561198415020571,"connected_time":1207000000000,"state":"active","ping":75},{"user_id":70,"name":"i eat dettol","steam_id":76561198199117446,"connected_time":2227000000000,"state":"active","ping":48},{"user_id":71,"name":"Fish","steam_id":76561198152128484,"connected_time":2224000000000,"state":"active","ping":50},{"user_id":61,"name":"MegaKEKER","steam_id":76561199485792353,"connected_time":2610000000000,"state":"active","ping":87},{"user_id":58,"name":"Dio","steam_id":76561198117685434,"connected_time":2772000000000,"state":"active","ping":84},{"user_id":74,"name":"XPullaHiiri","steam_id":76561198031652375,"connected_time":1655000000000,"state":"active","ping":89},{"user_id":45,"name":"Jiipeeze","steam_id":76561198316154333,"connected_time":4598000000000,"state":"active","ping":89},{"user_id":21,"name":"Valkyrie","steam_id":76561198998403448,"connected_time":6575000000000,"state":"active","ping":90},{"user_id":55,"name":"Sex Man TF2","steam_id":76561198798657045,"connected_time":3412000000000,"state":"active","ping":73},{"user_id":64,"name":"fat cսnt","steam_id":76561198845550388,"connected_time":2369000000000,"state":"active","ping":102},{"user_id":44,"name":"Zedifo","steam_id":76561198044032070,"connected_time":4688000000000,"state":"active","ping":42},{"user_id":26,"name":"Tout Petit Cerveau","steam_id":76561198120837915,"connected_time":6486000000000,"state":"active","ping":32},{"user_id":33,"name":"Stefan","steam_id":76561198983111090,"connected_time":5798000000000,"state":"active","ping":65},{"user_id":73,"name":"Emma","steam_id":76561198076724979,"connected_time":2158000000000,"state":"active","ping":61},{"user_id":79,"name":"PRO100PL","steam_id":76561198307344779,"connected_time":862000000000,"state":"active","ping":72}]},{"server_id":114,"name":"Uncletopia | London | 2 | All Maps","name_short":"lon-2","host":"lon-1.uk.uncletopia.com","port":27025,"enabled":true,"region":"eu","cc":"gb","latitude":51.509865,"longitude":-0.118092,"reserved":0,"last_update":"0001-01-01T00:00:00Z","name_a2s":"Uncletopia | London | 2 | All Maps","protocol":17,"map":"koth_highpass","folder":"tf","game":"Team Fortress","app_id":440,"player_count":0,"max_players":24,"Bots":0,"server_type":"Dedicated","server_os":"Linux","password":true,"vac":true,"version":"7882260","steam_id":85568392924470941,"keywords":["cp","nocrits","nodmgspread","uncletopia"],"game_id":440,"stv_port":27026,"stv_name":"Uncletopia | London | 2 | All Maps | STV","players":null},{"server_id":320,"name":"Uncletopia | London | 3 | All Maps","name_short":"lon-3","host":"lon-1.uk.uncletopia.com","port":27035,"enabled":true,"region":"eu","cc":"gb","latitude":51.509865,"longitude":-0.118092,"reserved":0,"last_update":"0001-01-01T00:00:00Z","name_a2s":"Uncletopia | London | 3 | All Maps","protocol":17,"map":"pl_upward","folder":"tf","game":"Team Fortress","app_id":440,"player_count":0,"max_players":24,"Bots":0,"server_type":"Dedicated","server_os":"Linux","password":true,"vac":true,"version":"7882260","steam_id":85568392924510192,"keywords":["nocrits","nodmgspread","payload","uncletopia"],"game_id":440,"stv_port":27036,"stv_name":"Uncletopia | London | 3 | All Maps | STV","players":null},{"server_id":321,"name":"Uncletopia | London | 4 | All Maps","name_short":"lon-4","host":"lon-1.uk.uncletopia.com","port":27045,"enabled":true,"region":"eu","cc":"gb","latitude":51.509865,"longitude":-0.118092,"reserved":0,"last_update":"0001-01-01T00:00:00Z","name_a2s":"Uncletopia | London | 4 | All Maps","protocol":17,"map":"pl_barnblitz","folder":"tf","game":"Team Fortress","app_id":440,"player_count":0,"max_players":24,"Bots":0,"server_type":"Dedicated","server_os":"Linux","password":true,"vac":true,"version":"7882260","steam_id":85568392924510193,"keywords":["nocrits","nodmgspread","payload","uncletopia"],"game_id":440,"stv_port":27046,"stv_name":"Uncletopia | London | 4 | All Maps | STV","players":null},{"server_id":21,"name":"Uncletopia | London | 5 | All Maps","name_short":"lon-5","host":"lon-1.uk.uncletopia.com","port":27055,"enabled":true,"region":"eu","cc":"gb","latitude":51.509865,"longitude":-0.118092,"reserved":0,"last_update":"0001-01-01T00:00:00Z","name_a2s":"Uncletopia | London | 5 | All Maps","protocol":17,"map":"koth_viaduct","folder":"tf","game":"Team Fortress","app_id":440,"player_count":0,"max_players":24,"Bots":0,"server_type":"Dedicated","server_os":"Linux","password":true,"vac":true,"version":"7882260","steam_id":85568392924742829,"keywords":["cp","nocrits","nodmgspread","uncletopia"],"game_id":440,"stv_port":27056,"stv_name":"Uncletopia | London | 5 | All Maps | STV","players":null},{"server_id":22,"name":"Uncletopia | London | 6 | All Maps","name_short":"lon-6","host":"lon-1.uk.uncletopia.com","port":27065,"enabled":true,"region":"eu","cc":"gb","latitude":51.509865,"longitude":-0.118092,"reserved":0,"last_update":"0001-01-01T00:00:00Z","name_a2s":"Uncletopia | London | 6 | All Maps","protocol":17,"map":"koth_lakeside_final","folder":"tf","game":"Team Fortress","app_id":440,"player_count":0,"max_players":24,"Bots":0,"server_type":"Dedicated","server_os":"Linux","password":true,"vac":true,"version":"7882260","steam_id":85568392924742830,"keywords":["cp","nocrits","nodmgspread","uncletopia"],"game_id":440,"stv_port":27066,"stv_name":"Uncletopia | London | 6 | All Maps | STV","players":null},{"server_id":40,"name":"Uncletopia | London | 7 | No Payload","name_short":"lon-7","host":"lon-1.uk.uncletopia.com","port":27075,"enabled":true,"region":"eu","cc":"gb","latitude":51.509865,"longitude":-0.118092,"reserved":0,"last_update":"0001-01-01T00:00:00Z","name_a2s":"Uncletopia | London | 7 | No Payload","protocol":17,"map":"pl_upward","folder":"tf","game":"Team Fortress","app_id":440,"player_count":0,"max_players":24,"Bots":0,"server_type":"Dedicated","server_os":"Linux","password":true,"vac":true,"version":"7882260","steam_id":85568392924964314,"keywords":["nocrits","nodmgspread","payload","uncletopia"],"game_id":440,"stv_port":27076,"stv_name":"Uncletopia | London | 7 | No Payload | STV","players":null},{"server_id":41,"name":"Uncletopia | London | 8 | Community","name_short":"lon-8","host":"lon-1.uk.uncletopia.com","port":27085,"enabled":true,"region":"eu","cc":"gb","latitude":51.509865,"longitude":-0.118092,"reserved":0,"last_update":"0001-01-01T00:00:00Z","name_a2s":"Uncletopia | London | 8 | Community","protocol":17,"map":"pl_upward","folder":"tf","game":"Team Fortress","app_id":440,"player_count":0,"max_players":24,"Bots":0,"server_type":"Dedicated","server_os":"Linux","password":true,"vac":true,"version":"7882260","steam_id":85568392924964315,"keywords":["nocrits","nodmgspread","payload","uncletopia"],"game_id":440,"stv_port":27086,"stv_name":"Uncletopia | London | 8 | Community | STV","players":null},{"server_id":300,"name":"Uncletopia | Montréal | 1 | All Maps","name_short":"mtl-1","host":"mtl-1.ca.uncletopia.com","port":27015,"enabled":true,"region":"us-east","cc":"ca","latitude":45.50889,"longitude":-73.56167,"reserved":0,"last_update":"0001-01-01T00:00:00Z","name_a2s":"Uncletopia | Montréal | 1 | All Maps","protocol":17,"map":"cp_dustbowl","folder":"tf","game":"Team Fortress","app_id":440,"player_count":0,"max_players":24,"Bots":0,"server_type":"Dedicated","server_os":"Linux","password":true,"vac":true,"version":"7882260","steam_id":85568392924500087,"keywords":["cp","nocrits","nodmgspread","uncletopia"],"game_id":440,"stv_port":27016,"stv_name":"Uncletopia | Montréal | 1 | All Maps | STV","players":null},{"server_id":301,"name":"Uncletopia | Montréal | 2 | All Maps","name_short":"mtl-2","host":"mtl-1.ca.uncletopia.com","port":27025,"enabled":true,"region":"us-east","cc":"ca","latitude":45.50889,"longitude":-73.56167,"reserved":0,"last_update":"0001-01-01T00:00:00Z","name_a2s":"Uncletopia | Montréal | 2 | All Maps","protocol":17,"map":"koth_cascade","folder":"tf","game":"Team Fortress","app_id":440,"player_count":0,"max_players":24,"Bots":0,"server_type":"Dedicated","server_os":"Linux","password":true,"vac":true,"version":"7882260","steam_id":85568392924500088,"keywords":["cp","nocrits","nodmgspread","uncletopia"],"game_id":440,"stv_port":27026,"stv_name":"Uncletopia | Montréal | 2 | All Maps | STV","players":null},{"server_id":302,"name":"Uncletopia | Montréal | 3 | All Maps","name_short":"mtl-3","host":"mtl-1.ca.uncletopia.com","port":27035,"enabled":true,"region":"us-east","cc":"ca","latitude":45.50889,"longitude":-73.56167,"reserved":0,"last_update":"0001-01-01T00:00:00Z","name_a2s":"Uncletopia | Montréal | 3 | All Maps","protocol":17,"map":"pl_barnblitz","folder":"tf","game":"Team Fortress","app_id":440,"player_count":0,"max_players":24,"Bots":0,"server_type":"Dedicated","server_os":"Linux","password":true,"vac":true,"version":"7882260","steam_id":85568392924500089,"keywords":["nocrits","nodmgspread","payload","uncletopia"],"game_id":440,"stv_port":27036,"stv_name":"Uncletopia | Montréal | 3 | All Maps | STV","players":null},{"server_id":303,"name":"Uncletopia | Montréal | 4 | No Payload","name_short":"mtl-4","host":"mtl-1.ca.uncletopia.com","port":27045,"enabled":true,"region":"us-east","cc":"ca","latitude":45.50889,"longitude":-73.56167,"reserved":0,"last_update":"0001-01-01T00:00:00Z","name_a2s":"Uncletopia | Montréal | 4 | No Payload","protocol":17,"map":"koth_highpass","folder":"tf","game":"Team Fortress","app_id":440,"player_count":0,"max_players":24,"Bots":0,"server_type":"Dedicated","server_os":"Linux","password":true,"vac":true,"version":"7882260","steam_id":85568392924500090,"keywords":["cp","nocrits","nodmgspread","uncletopia"],"game_id":440,"stv_port":27046,"stv_name":"Uncletopia | Montréal | 4 | No Payload | STV","players":null},{"server_id":13,"name":"Uncletopia | New York City | 1 | All Maps","name_short":"nyc-1","host":"nyc-1.us.uncletopia.com","port":27015,"enabled":true,"region":"us-east","cc":"us","latitude":40.73061,"longitude":-73.93524,"reserved":0,"last_update":"0001-01-01T00:00:00Z","name_a2s":"Uncletopia | New York City | 1 | All Maps","protocol":17,"map":"pl_pier","folder":"tf","game":"Team Fortress","app_id":440,"player_count":0,"max_players":24,"Bots":0,"server_type":"Dedicated","server_os":"Linux","password":true,"vac":true,"version":"7882260","steam_id":85568392924469993,"keywords":["nocrits","nodmgspread","payload","uncletopia"],"game_id":440,"stv_port":27016,"stv_name":"Uncletopia | New York City | 1 | All Maps | STV","players":null},{"server_id":14,"name":"Uncletopia | New York City | 2 | All Maps","name_short":"nyc-2","host":"nyc-1.us.uncletopia.com","port":27025,"enabled":true,"region":"us-east","cc":"us","latitude":40.73061,"longitude":-73.93524,"reserved":0,"last_update":"0001-01-01T00:00:00Z","name_a2s":"Uncletopia | New York City | 2 | All Maps","protocol":17,"map":"koth_lakeside_final","folder":"tf","game":"Team Fortress","app_id":440,"player_count":0,"max_players":24,"Bots":0,"server_type":"Dedicated","server_os":"Linux","password":true,"vac":true,"version":"7882260","steam_id":85568392924469994,"keywords":["cp","nocrits","nodmgspread","uncletopia"],"game_id":440,"stv_port":27026,"stv_name":"Uncletopia | New York City | 2 | All Maps | STV","players":null},{"server_id":15,"name":"Uncletopia | New York City | 3 | Stopwatch Beta","name_short":"nyc-3","host":"nyc-1.us.uncletopia.com","port":27035,"enabled":true,"region":"us-east","cc":"us","latitude":40.73061,"longitude":-73.93524,"reserved":0,"last_update":"0001-01-01T00:00:00Z","name_a2s":"Uncletopia | New York City | 3 | Stopwatch Beta","protocol":17,"map":"pl_borneo","folder":"tf","game":"Team Fortress","app_id":440,"player_count":0,"max_players":24,"Bots":0,"server_type":"Dedicated","server_os":"Linux","password":true,"vac":true,"version":"7882260","steam_id":85568392924742820,"keywords":["nocrits","nodmgspread","payload","uncletopia"],"game_id":440,"stv_port":27036,"stv_name":"Uncletopia | New York City | 3 | Stopwatch Beta | STV","players":null},{"server_id":16,"name":"Uncletopia | New York City | 4 | Community","name_short":"nyc-4","host":"nyc-1.us.uncletopia.com","port":27045,"enabled":true,"region":"us-east","cc":"us","latitude":40.73061,"longitude":-73.93524,"reserved":0,"last_update":"0001-01-01T00:00:00Z","name_a2s":"Uncletopia | New York City | 4 | Community","protocol":17,"map":"workshop/rd_asteroid_redux_b1.ugc2154902912","folder":"tf","game":"Team Fortress","app_id":440,"player_count":0,"max_players":24,"Bots":0,"server_type":"Dedicated","server_os":"Linux","password":true,"vac":true,"version":"7882260","steam_id":85568392924742821,"keywords":["beta","nocrits","nodmgspread","rd","uncletopia"],"game_id":440,"stv_port":27046,"stv_name":"Uncletopia | New York City | 4 | Community | STV","players":null},{"server_id":142,"name":"Uncletopia | São Paulo | 1 | All Maps","name_short":"sao-1","host":"sao-1.br.uncletopia.com","port":27015,"enabled":true,"region":"sa","cc":"br","latitude":-23.533773,"longitude":-46.62529,"reserved":0,"last_update":"0001-01-01T00:00:00Z","name_a2s":"Uncletopia | São Paulo | 1 | All Maps","protocol":17,"map":"pl_badwater","folder":"tf","game":"Team Fortress","app_id":440,"player_count":0,"max_players":24,"Bots":0,"server_type":"Dedicated","server_os":"Linux","password":true,"vac":true,"version":"7882260","steam_id":85568392924469996,"keywords":["nocrits","nodmgspread","payload","uncletopia"],"game_id":440,"stv_port":27016,"stv_name":"Uncletopia | São Paulo | 1 | All Maps | STV","players":null},{"server_id":143,"name":"Uncletopia | São Paulo | 2 | All Maps","name_short":"sao-2","host":"sao-2.br.uncletopia.com","port":27015,"enabled":true,"region":"sa","cc":"br","latitude":-23.533773,"longitude":-46.62529,"reserved":0,"last_update":"0001-01-01T00:00:00Z","name_a2s":"Uncletopia | São Paulo | 2 | All Maps","protocol":17,"map":"cp_sunshine","folder":"tf","game":"Team Fortress","app_id":440,"player_count":0,"max_players":24,"Bots":0,"server_type":"Dedicated","server_os":"Linux","password":true,"vac":true,"version":"7882260","steam_id":85568392924485349,"keywords":["cp","nocrits","nodmgspread","uncletopia"],"game_id":440,"stv_port":27016,"stv_name":"Uncletopia | São Paulo | 2 | All Maps | STV","players":null},{"server_id":7,"name":"Uncletopia | Seattle | 1 | All Maps","name_short":"sea-1","host":"sea-1.us.uncletopia.com","port":27015,"enabled":true,"region":"us-west","cc":"us","latitude":47.608013,"longitude":-122.33517,"reserved":0,"last_update":"0001-01-01T00:00:00Z","name_a2s":"Uncletopia | Seattle | 1 | All Maps","protocol":17,"map":"pl_badwater","folder":"tf","game":"Team Fortress","app_id":440,"player_count":24,"max_players":24,"Bots":0,"server_type":"Dedicated","server_os":"Linux","password":true,"vac":true,"version":"7882260","steam_id":85568392924469997,"keywords":["nocrits","nodmgspread","payload","uncletopia"],"game_id":440,"stv_port":27016,"stv_name":"Uncletopia | Seattle | 1 | All Maps | STV","players":[{"user_id":690,"name":"NEЯO","steam_id":76561197965450216,"connected_time":99000000000,"state":"active","ping":51},{"user_id":663,"name":"Leidon","steam_id":76561198078386945,"connected_time":1575000000000,"state":"active","ping":75},{"user_id":671,"name":"goldhed","steam_id":76561198051751133,"connected_time":1224000000000,"state":"active","ping":60},{"user_id":687,"name":"...","steam_id":76561198121508845,"connected_time":322000000000,"state":"active","ping":83},{"user_id":692,"name":"Dentist","steam_id":76561198103189993,"connected_time":81000000000,"state":"active","ping":71},{"user_id":142,"name":"lili","steam_id":76561199391478575,"connected_time":44304000000000,"state":"active","ping":75},{"user_id":679,"name":"Teegii4","steam_id":76561198413653539,"connected_time":814000000000,"state":"active","ping":37},{"user_id":676,"name":"Röntgen","steam_id":76561197993492325,"connected_time":1010000000000,"state":"active","ping":70},{"user_id":632,"name":"Finkly","steam_id":76561198049828110,"connected_time":3512000000000,"state":"active","ping":41},{"user_id":678,"name":"mike, ski bum","steam_id":76561198225411004,"connected_time":892000000000,"state":"active","ping":62},{"user_id":665,"name":"Mike Bean Burritos","steam_id":76561198173430607,"connected_time":1542000000000,"state":"active","ping":48},{"user_id":680,"name":"GetNub","steam_id":76561198951458841,"connected_time":793000000000,"state":"active","ping":62},{"user_id":689,"name":"Throws Before Bros󠀡","steam_id":76561197992905530,"connected_time":111000000000,"state":"active","ping":68},{"user_id":681,"name":"Conseq","steam_id":76561198335652179,"connected_time":781000000000,"state":"active","ping":57},{"user_id":688,"name":"LilShaggy","steam_id":76561199050270312,"connected_time":123000000000,"state":"active","ping":57},{"user_id":630,"name":"kwetzal","steam_id":76561198845749671,"connected_time":3632000000000,"state":"active","ping":74},{"user_id":668,"name":"Pyrotek⁴","steam_id":76561198072747672,"connected_time":1398000000000,"state":"active","ping":74},{"user_id":655,"name":"Flesh Eating Turtle","steam_id":76561198116742139,"connected_time":2287000000000,"state":"active","ping":51},{"user_id":683,"name":"frog driving a car","steam_id":76561198253134732,"connected_time":668000000000,"state":"active","ping":100},{"user_id":623,"name":"CaiGaming","steam_id":76561198313023508,"connected_time":4211000000000,"state":"active","ping":73},{"user_id":684,"name":"fallingduck1001","steam_id":76561198048895664,"connected_time":650000000000,"state":"active","ping":98},{"user_id":685,"name":"Lone_Explorer","steam_id":76561198081972715,"connected_time":640000000000,"state":"active","ping":52},{"user_id":686,"name":"Tweek Tweak","steam_id":76561198445739792,"connected_time":607000000000,"state":"active","ping":129},{"user_id":691,"name":"Lynx","steam_id":76561198322363286,"connected_time":98000000000,"state":"active","ping":64}]},{"server_id":119,"name":"Uncletopia | Seattle | 2 | All Maps","name_short":"sea-2","host":"sea-1.us.uncletopia.com","port":27025,"enabled":true,"region":"us-west","cc":"us","latitude":47.608013,"longitude":-122.33517,"reserved":0,"last_update":"0001-01-01T00:00:00Z","name_a2s":"Uncletopia | Seattle | 2 | All Maps","protocol":17,"map":"pl_pier","folder":"tf","game":"Team Fortress","app_id":440,"player_count":24,"max_players":24,"Bots":0,"server_type":"Dedicated","server_os":"Linux","password":true,"vac":true,"version":"7882260","steam_id":85568392924469998,"keywords":["nocrits","nodmgspread","payload","uncletopia"],"game_id":440,"stv_port":27026,"stv_name":"Uncletopia | Seattle | 2 | All Maps | STV","players":[{"user_id":650,"name":"gorlab","steam_id":76561198025089694,"connected_time":2674000000000,"state":"active","ping":60},{"user_id":669,"name":"Dunkle","steam_id":76561198041903573,"connected_time":864000000000,"state":"active","ping":45},{"user_id":654,"name":"Mr Boombastic","steam_id":76561198004916219,"connected_time":2632000000000,"state":"active","ping":84},{"user_id":532,"name":"John Calibur","steam_id":76561197999986606,"connected_time":10829000000000,"state":"active","ping":71},{"user_id":670,"name":"Call Me Ishmael","steam_id":76561198030696516,"connected_time":860000000000,"state":"active","ping":91},{"user_id":671,"name":"bocaJ","steam_id":76561198374535092,"connected_time":790000000000,"state":"active","ping":74},{"user_id":653,"name":"SnoDot","steam_id":76561198062209970,"connected_time":2670000000000,"state":"active","ping":37},{"user_id":672,"name":"frozenwasanokmovie","steam_id":76561198157407952,"connected_time":779000000000,"state":"active","ping":81},{"user_id":673,"name":"00","steam_id":76561198041700636,"connected_time":732000000000,"state":"active","ping":60},{"user_id":677,"name":"Sirgioblayde","steam_id":76561198059445113,"connected_time":462000000000,"state":"active","ping":129},{"user_id":663,"name":"hart","steam_id":76561198046073848,"connected_time":1460000000000,"state":"active","ping":46},{"user_id":646,"name":"Grill Skills","steam_id":76561198053575147,"connected_time":3952000000000,"state":"active","ping":64},{"user_id":682,"name":"James","steam_id":76561198077251918,"connected_time":88000000000,"state":"active","ping":63},{"user_id":680,"name":"NEBULA","steam_id":76561198086878595,"connected_time":298000000000,"state":"active","ping":75},{"user_id":674,"name":"sushur","steam_id":76561198070229628,"connected_time":663000000000,"state":"active","ping":79},{"user_id":662,"name":"RIP LANCE REDDICK","steam_id":76561198099980149,"connected_time":1714000000000,"state":"active","ping":75},{"user_id":679,"name":"♥ Milo Stefferson ♥ (Soupca","steam_id":76561198056269538,"connected_time":332000000000,"state":"active","ping":65},{"user_id":572,"name":"Optimore","steam_id":76561198047662990,"connected_time":9295000000000,"state":"active","ping":77},{"user_id":612,"name":"jorts","steam_id":76561199041179985,"connected_time":8514000000000,"state":"active","ping":66},{"user_id":635,"name":"gloobern","steam_id":76561198341190679,"connected_time":4756000000000,"state":"active","ping":69},{"user_id":666,"name":"squash","steam_id":76561198150281353,"connected_time":1177000000000,"state":"active","ping":57},{"user_id":678,"name":"Skip Hop Doo Bop","steam_id":76561199161571849,"connected_time":460000000000,"state":"active","ping":66},{"user_id":609,"name":"delight","steam_id":76561197980280272,"connected_time":8551000000000,"state":"active","ping":49},{"user_id":611,"name":"roryisreallyoutofit","steam_id":76561198065825165,"connected_time":8527000000000,"state":"active","ping":97}]},{"server_id":406,"name":"Uncletopia | Seattle | 3 | Stopwatch Beta","name_short":"sea-3","host":"sea-1.us.uncletopia.com","port":27035,"enabled":true,"region":"us-west","cc":"us","latitude":47.608013,"longitude":-122.33517,"reserved":0,"last_update":"0001-01-01T00:00:00Z","name_a2s":"Uncletopia | Seattle | 3 | Stopwatch Beta","protocol":17,"map":"workshop/pl_summercoast_rc8e.ugc1761528829","folder":"tf","game":"Team Fortress","app_id":440,"player_count":0,"max_players":24,"Bots":0,"server_type":"Dedicated","server_os":"Linux","password":true,"vac":true,"version":"7882260","steam_id":85568392924515217,"keywords":["nocrits","nodmgspread","payload","uncletopia"],"game_id":440,"stv_port":27036,"stv_name":"Uncletopia | Seattle | 3 | Stopwatch Beta | STV","players":null},{"server_id":17,"name":"Uncletopia | San Francisco | 1 | All Maps","name_short":"sfo-1","host":"sfo-1.us.uncletopia.com","port":27015,"enabled":true,"region":"us-west","cc":"us","latitude":37.77397,"longitude":-122.4313,"reserved":0,"last_update":"0001-01-01T00:00:00Z","name_a2s":"Uncletopia | San Francisco | 1 | All Maps","protocol":17,"map":"koth_king","folder":"tf","game":"Team Fortress","app_id":440,"player_count":13,"max_players":24,"Bots":0,"server_type":"Dedicated","server_os":"Linux","password":true,"vac":true,"version":"7882260","steam_id":85568392924469999,"keywords":["cp","nocrits","nodmgspread","uncletopia"],"game_id":440,"stv_port":27016,"stv_name":"Uncletopia | San Francisco | 1 | All Maps | STV","players":[{"user_id":693,"name":"sora","steam_id":76561198094256973,"connected_time":667000000000,"state":"active","ping":110},{"user_id":698,"name":"DrakeFruit #savetf2","steam_id":76561198164411694,"connected_time":102000000000,"state":"active","ping":50},{"user_id":632,"name":"Raccoon Gaming","steam_id":76561198065662025,"connected_time":5002000000000,"state":"active","ping":49},{"user_id":695,"name":"miguelrodriguez2013","steam_id":76561198269253587,"connected_time":326000000000,"state":"active","ping":44},{"user_id":697,"name":"Canadian Caber Gaming","steam_id":76561198043115724,"connected_time":140000000000,"state":"active","ping":86},{"user_id":692,"name":"Giorno Giovanna","steam_id":76561198044106874,"connected_time":754000000000,"state":"active","ping":62},{"user_id":620,"name":"Amogous Supreme","steam_id":76561198025476774,"connected_time":5299000000000,"state":"active","ping":55},{"user_id":699,"name":"Teleport Bread","steam_id":76561198400534633,"connected_time":92000000000,"state":"active","ping":78},{"user_id":684,"name":"Junko","steam_id":76561198146089003,"connected_time":2081000000000,"state":"active","ping":56},{"user_id":678,"name":"Reisen Udongein Inaba","steam_id":76561198051082314,"connected_time":2173000000000,"state":"active","ping":56},{"user_id":679,"name":"UltShuip","steam_id":76561198074339262,"connected_time":2168000000000,"state":"active","ping":54},{"user_id":649,"name":"juju_kungfu","steam_id":76561198151291219,"connected_time":3422000000000,"state":"active","ping":67},{"user_id":690,"name":"Coolbreadguy","steam_id":76561198139544202,"connected_time":1028000000000,"state":"active","ping":56}]},{"server_id":18,"name":"Uncletopia | San Francisco | 2 | All Maps","name_short":"sfo-2","host":"sfo-1.us.uncletopia.com","port":27025,"enabled":true,"region":"us-west","cc":"us","latitude":37.77397,"longitude":-122.4313,"reserved":0,"last_update":"0001-01-01T00:00:00Z","name_a2s":"Uncletopia | San Francisco | 2 | All Maps","protocol":17,"map":"koth_harvest_final","folder":"tf","game":"Team Fortress","app_id":440,"player_count":8,"max_players":24,"Bots":0,"server_type":"Dedicated","server_os":"Linux","password":true,"vac":true,"version":"7882260","steam_id":85568392924470000,"keywords":["cp","nocrits","nodmgspread","uncletopia"],"game_id":440,"stv_port":27026,"stv_name":"Uncletopia | San Francisco | 2 | All Maps | STV","players":[{"user_id":588,"name":"otpyt","steam_id":76561198066623259,"connected_time":62000000000,"state":"active","ping":60},{"user_id":583,"name":"Pyrolimited","steam_id":76561198195455657,"connected_time":1333000000000,"state":"active","ping":59},{"user_id":585,"name":"S O U N D W A V E","steam_id":76561198093417449,"connected_time":822000000000,"state":"active","ping":49},{"user_id":586,"name":"toon","steam_id":76561198087422193,"connected_time":517000000000,"state":"active","ping":44},{"user_id":587,"name":"Dragonsalt","steam_id":76561198141927559,"connected_time":427000000000,"state":"active","ping":55},{"user_id":575,"name":"orange cat","steam_id":76561198060748016,"connected_time":2347000000000,"state":"active","ping":63},{"user_id":572,"name":"Augustraj","steam_id":76561198214054767,"connected_time":2741000000000,"state":"active","ping":52},{"user_id":567,"name":"HoneyIsCringe","steam_id":76561199011712065,"connected_time":3154000000000,"state":"active","ping":63}]},{"server_id":19,"name":"Uncletopia | San Francisco | 3 | Stopwatch Beta","name_short":"sfo-3","host":"sfo-1.us.uncletopia.com","port":27035,"enabled":true,"region":"us-west","cc":"us","latitude":37.77397,"longitude":-122.4313,"reserved":0,"last_update":"0001-01-01T00:00:00Z","name_a2s":"Uncletopia | San Francisco | 3 | Stopwatch Beta","protocol":17,"map":"workshop/koth_ramjam_rc1.ugc459778887","folder":"tf","game":"Team Fortress","app_id":440,"player_count":0,"max_players":24,"Bots":0,"server_type":"Dedicated","server_os":"Linux","password":true,"vac":true,"version":"7882260","steam_id":85568392924742824,"keywords":["cp","nocrits","nodmgspread","uncletopia"],"game_id":440,"stv_port":27036,"stv_name":"Uncletopia | San Francisco | 3 | Stopwatch Beta | STV","players":null},{"server_id":20,"name":"Uncletopia | San Francisco | 4 | Community","name_short":"sfo-4","host":"sfo-1.us.uncletopia.com","port":27045,"enabled":true,"region":"us-west","cc":"us","latitude":37.77397,"longitude":-122.4313,"reserved":0,"last_update":"0001-01-01T00:00:00Z","name_a2s":"Uncletopia | San Francisco | 4 | Community","protocol":17,"map":"workshop/koth_ashville_final.ugc2130459942","folder":"tf","game":"Team Fortress","app_id":440,"player_count":0,"max_players":24,"Bots":0,"server_type":"Dedicated","server_os":"Linux","password":true,"vac":true,"version":"7882260","steam_id":85568392924742826,"keywords":["cp","nocrits","nodmgspread","uncletopia"],"game_id":440,"stv_port":27046,"stv_name":"Uncletopia | San Francisco | 4 | Community | STV","players":null},{"server_id":141,"name":"Uncletopia | Sydney | 1 | All Maps","name_short":"syd-1","host":"syd-1.au.uncletopia.com","port":27015,"enabled":true,"region":"au","cc":"au","latitude":-33.865143,"longitude":151.2099,"reserved":0,"last_update":"0001-01-01T00:00:00Z","name_a2s":"Uncletopia | Sydney | 1 | All Maps","protocol":17,"map":"pl_pier","folder":"tf","game":"Team Fortress","app_id":440,"player_count":20,"max_players":24,"Bots":0,"server_type":"Dedicated","server_os":"Linux","password":true,"vac":true,"version":"7882260","steam_id":85568392924470001,"keywords":["nocrits","nodmgspread","payload","uncletopia"],"game_id":440,"stv_port":27016,"stv_name":"Uncletopia | Sydney | 1 | All Maps | STV","players":[{"user_id":304,"name":"Relz","steam_id":76561197972786509,"connected_time":2188000000000,"state":"active","ping":76},{"user_id":313,"name":"we will become silhouettes","steam_id":76561198071652927,"connected_time":1930000000000,"state":"active","ping":85},{"user_id":338,"name":"_MAFKEES","steam_id":76561198233733104,"connected_time":65000000000,"state":"active","ping":62},{"user_id":325,"name":"cigarette burns on my skin","steam_id":76561198027629227,"connected_time":1165000000000,"state":"active","ping":37},{"user_id":330,"name":"adammagee","steam_id":76561197972653972,"connected_time":409000000000,"state":"active","ping":52},{"user_id":281,"name":"Zepi","steam_id":76561198018887052,"connected_time":3474000000000,"state":"active","ping":48},{"user_id":335,"name":"Snipan Milat","steam_id":76561198001544539,"connected_time":301000000000,"state":"active","ping":56},{"user_id":283,"name":"two inch prince","steam_id":76561198122357685,"connected_time":3419000000000,"state":"active","ping":68},{"user_id":302,"name":"krandlez` (Any/All)","steam_id":76561198044839726,"connected_time":2358000000000,"state":"active","ping":32},{"user_id":336,"name":"Pompadouraus","steam_id":76561198327530525,"connected_time":294000000000,"state":"active","ping":75},{"user_id":315,"name":"hive","steam_id":76561199099744527,"connected_time":1874000000000,"state":"active","ping":55},{"user_id":328,"name":"Dom","steam_id":76561198846401809,"connected_time":680000000000,"state":"active","ping":57},{"user_id":333,"name":"Jeshī","steam_id":76561198105982416,"connected_time":363000000000,"state":"active","ping":46},{"user_id":297,"name":"kisses you","steam_id":76561198288970258,"connected_time":2526000000000,"state":"active","ping":51},{"user_id":319,"name":"SaltierThanYou","steam_id":76561198444395188,"connected_time":1690000000000,"state":"active","ping":106},{"user_id":305,"name":"call my girl the amigara fault","steam_id":76561198025225448,"connected_time":2177000000000,"state":"active","ping":80},{"user_id":311,"name":"fritata27","steam_id":76561198150293480,"connected_time":1953000000000,"state":"active","ping":69},{"user_id":320,"name":"Lotuses","steam_id":76561199045059964,"connected_time":1668000000000,"state":"active","ping":103},{"user_id":292,"name":"hamurai","steam_id":76561198089063459,"connected_time":2807000000000,"state":"active","ping":91},{"user_id":312,"name":"boyremoval specialist","steam_id":76561198132937542,"connected_time":1953000000000,"state":"active","ping":59}]},{"server_id":123,"name":"Uncletopia | Sydney | 2 | All Maps","name_short":"syd-2","host":"syd-1.au.uncletopia.com","port":27025,"enabled":true,"region":"au","cc":"au","latitude":-33.865143,"longitude":151.2099,"reserved":0,"last_update":"0001-01-01T00:00:00Z","name_a2s":"Uncletopia | Sydney | 2 | All Maps","protocol":17,"map":"pl_badwater","folder":"tf","game":"Team Fortress","app_id":440,"player_count":24,"max_players":24,"Bots":0,"server_type":"Dedicated","server_os":"Linux","password":true,"vac":true,"version":"7882260","steam_id":85568392924470002,"keywords":["nocrits","nodmgspread","payload","uncletopia"],"game_id":440,"stv_port":27026,"stv_name":"Uncletopia | Sydney | 2 | All Maps | STV","players":[{"user_id":156,"name":"♥ Sharpy \u003e v \u003c","steam_id":76561198091613743,"connected_time":1576000000000,"state":"active","ping":93},{"user_id":151,"name":"broccoli","steam_id":76561198838171912,"connected_time":1917000000000,"state":"active","ping":144},{"user_id":93,"name":"Mayo","steam_id":76561198290434764,"connected_time":4878000000000,"state":"active","ping":41},{"user_id":87,"name":"Marmalade Cat","steam_id":76561198086309767,"connected_time":5392000000000,"state":"active","ping":63},{"user_id":183,"name":"Jacob","steam_id":76561198059341907,"connected_time":459000000000,"state":"active","ping":39},{"user_id":89,"name":"miyamoto is daddy","steam_id":76561199483818230,"connected_time":5159000000000,"state":"active","ping":74},{"user_id":23,"name":"Lumalee ❤","steam_id":76561198157613299,"connected_time":11535000000000,"state":"active","ping":66},{"user_id":94,"name":"rawirigallagher","steam_id":76561199023135754,"connected_time":4878000000000,"state":"active","ping":55},{"user_id":150,"name":"UberFrootLoops","steam_id":76561198370963618,"connected_time":1984000000000,"state":"active","ping":59},{"user_id":192,"name":"scuba cat... my beloved","steam_id":76561198203917953,"connected_time":122000000000,"state":"active","ping":71},{"user_id":153,"name":"The_Living_Pine","steam_id":76561198133850358,"connected_time":1806000000000,"state":"active","ping":91},{"user_id":193,"name":"Tetch","steam_id":76561198259803540,"connected_time":83000000000,"state":"active","ping":60},{"user_id":90,"name":"Denszeal","steam_id":76561198313718095,"connected_time":5105000000000,"state":"active","ping":73},{"user_id":177,"name":"Lobarté","steam_id":76561198090116136,"connected_time":707000000000,"state":"active","ping":62},{"user_id":186,"name":"BOYS A LIAR","steam_id":76561198076598436,"connected_time":214000000000,"state":"active","ping":59},{"user_id":169,"name":"Kevin Parker","steam_id":76561198060677406,"connected_time":1133000000000,"state":"active","ping":90},{"user_id":187,"name":"Zeron","steam_id":76561198125778202,"connected_time":191000000000,"state":"active","ping":46},{"user_id":191,"name":"FrOStY","steam_id":76561198088155805,"connected_time":134000000000,"state":"active","ping":73},{"user_id":175,"name":"Breadnought","steam_id":76561198116436923,"connected_time":748000000000,"state":"active","ping":83},{"user_id":167,"name":"bago","steam_id":76561199057193204,"connected_time":1172000000000,"state":"active","ping":42},{"user_id":190,"name":"鬼","steam_id":76561198241303512,"connected_time":148000000000,"state":"active","ping":112},{"user_id":178,"name":"Mr Doctor","steam_id":76561198081415999,"connected_time":674000000000,"state":"active","ping":60},{"user_id":179,"name":"Tec","steam_id":76561198060991123,"connected_time":656000000000,"state":"active","ping":30},{"user_id":182,"name":"table","steam_id":76561199218095319,"connected_time":565000000000,"state":"active","ping":51}]},{"server_id":395,"name":"Uncletopia | Sydney | 3 | All Maps","name_short":"syd-3","host":"syd-1.au.uncletopia.com","port":27035,"enabled":true,"region":"au","cc":"au","latitude":-33.865143,"longitude":151.2099,"reserved":0,"last_update":"0001-01-01T00:00:00Z","name_a2s":"Uncletopia | Sydney | 3 | All Maps","protocol":17,"map":"koth_viaduct","folder":"tf","game":"Team Fortress","app_id":440,"player_count":0,"max_players":24,"Bots":0,"server_type":"Dedicated","server_os":"Linux","password":true,"vac":true,"version":"7882260","steam_id":85568392925194467,"keywords":["cp","nocrits","nodmgspread","uncletopia"],"game_id":440,"stv_port":27036,"stv_name":"Uncletopia | Sydney | 3 | All Maps | STV","players":null},{"server_id":396,"name":"Uncletopia | Sydney | 4 | All Maps","name_short":"syd-4","host":"syd-1.au.uncletopia.com","port":27045,"enabled":true,"region":"au","cc":"au","latitude":-33.865143,"longitude":151.2099,"reserved":0,"last_update":"0001-01-01T00:00:00Z","name_a2s":"Uncletopia | Sydney | 4 | All Maps","protocol":17,"map":"pl_snowycoast","folder":"tf","game":"Team Fortress","app_id":440,"player_count":0,"max_players":24,"Bots":0,"server_type":"Dedicated","server_os":"Linux","password":true,"vac":true,"version":"7882260","steam_id":85568392925397958,"keywords":["nocrits","nodmgspread","payload","uncletopia"],"game_id":440,"stv_port":27046,"stv_name":"Uncletopia | Sydney | 4 | All Maps | STV","players":null},{"server_id":58,"name":"Uncletopia | Sydney | 5 | Stopwatch Beta","name_short":"syd-5","host":"syd-1.au.uncletopia.com","port":27055,"enabled":true,"region":"au","cc":"au","latitude":-33.865143,"longitude":151.2099,"reserved":0,"last_update":"0001-01-01T00:00:00Z","name_a2s":"Uncletopia | Sydney | 5 | Stopwatch Beta","protocol":17,"map":"workshop/koth_ramjam_rc1.ugc459778887","folder":"tf","game":"Team Fortress","app_id":440,"player_count":0,"max_players":24,"Bots":0,"server_type":"Dedicated","server_os":"Linux","password":true,"vac":true,"version":"7882260","steam_id":85568392925397959,"keywords":["cp","nocrits","nodmgspread","uncletopia"],"game_id":440,"stv_port":27056,"stv_name":"Uncletopia | Sydney | 5 | Stopwatch Beta | STV","players":null},{"server_id":59,"name":"Uncletopia | Sydney | 6 | Community","name_short":"syd-6","host":"syd-1.au.uncletopia.com","port":27065,"enabled":true,"region":"au","cc":"au","latitude":-33.865143,"longitude":151.2099,"reserved":0,"last_update":"0001-01-01T00:00:00Z","name_a2s":"Uncletopia | Sydney | 6 | Community","protocol":17,"map":"workshop/koth_synthetic_rc6a.ugc1549817316","folder":"tf","game":"Team Fortress","app_id":440,"player_count":0,"max_players":24,"Bots":0,"server_type":"Dedicated","server_os":"Linux","password":true,"vac":true,"version":"7882260","steam_id":85568392925397960,"keywords":["cp","nocrits","nodmgspread","uncletopia"],"game_id":440,"stv_port":27066,"stv_name":"Uncletopia | Sydney | 6 | Community | STV","players":null},{"server_id":49,"name":"Uncletopia | Warsaw | 1 | All Maps","name_short":"waw-1","host":"waw-1.pl.uncletopia.com","port":27015,"enabled":true,"region":"eu","cc":"pl","latitude":52.2297,"longitude":21.017532,"reserved":0,"last_update":"0001-01-01T00:00:00Z","name_a2s":"","protocol":0,"map":"","folder":"","game":"","app_id":0,"player_count":0,"max_players":0,"Bots":0,"server_type":"","server_os":"","password":false,"vac":false,"version":"","steam_id":0,"keywords":null,"game_id":0,"stv_port":0,"stv_name":"","players":null},{"server_id":50,"name":"Uncletopia | Warsaw | 2 | All Maps","name_short":"waw-2","host":"waw-1.pl.uncletopia.com","port":27025,"enabled":true,"region":"eu","cc":"pl","latitude":52.2297,"longitude":21.017532,"reserved":0,"last_update":"0001-01-01T00:00:00Z","name_a2s":"Uncletopia | Warsaw | 2 | All Maps","protocol":17,"map":"koth_viaduct","folder":"tf","game":"Team Fortress","app_id":440,"player_count":0,"max_players":24,"Bots":0,"server_type":"Dedicated","server_os":"Linux","password":true,"vac":true,"version":"7882260","steam_id":85568392925397851,"keywords":["cp","nocrits","nodmgspread","uncletopia"],"game_id":440,"stv_port":27026,"stv_name":"Uncletopia | Warsaw | 2 | All Maps | STV","players":null},{"server_id":51,"name":"Uncletopia | Warsaw | 3 | All Maps","name_short":"waw-3","host":"waw-1.pl.uncletopia.com","port":27035,"enabled":true,"region":"eu","cc":"pl","latitude":52.2297,"longitude":21.017532,"reserved":0,"last_update":"0001-01-01T00:00:00Z","name_a2s":"Uncletopia | Warsaw | 3 | All Maps","protocol":17,"map":"pl_badwater","folder":"tf","game":"Team Fortress","app_id":440,"player_count":0,"max_players":24,"Bots":0,"server_type":"Dedicated","server_os":"Linux","password":true,"vac":true,"version":"7882260","steam_id":85568392925397852,"keywords":["nocrits","nodmgspread","payload","uncletopia"],"game_id":440,"stv_port":27036,"stv_name":"Uncletopia | Warsaw | 3 | All Maps | STV","players":null},{"server_id":52,"name":"Uncletopia | Warsaw | 4 | All Maps","name_short":"waw-4","host":"waw-1.pl.uncletopia.com","port":27045,"enabled":true,"region":"eu","cc":"pl","latitude":52.2297,"longitude":21.017532,"reserved":0,"last_update":"0001-01-01T00:00:00Z","name_a2s":"Uncletopia | Warsaw | 4 | All Maps","protocol":17,"map":"koth_cascade","folder":"tf","game":"Team Fortress","app_id":440,"player_count":0,"max_players":24,"Bots":0,"server_type":"Dedicated","server_os":"Linux","password":true,"vac":true,"version":"7882260","steam_id":85568392925397853,"keywords":["cp","nocrits","nodmgspread","uncletopia"],"game_id":440,"stv_port":27046,"stv_name":"Uncletopia | Warsaw | 4 | All Maps | STV","players":null},{"server_id":53,"name":"Uncletopia | Warsaw | 5 | Stopwatch Beta","name_short":"waw-5","host":"waw-1.pl.uncletopia.com","port":27055,"enabled":true,"region":"eu","cc":"pl","latitude":52.2297,"longitude":21.017532,"reserved":0,"last_update":"0001-01-01T00:00:00Z","name_a2s":"Uncletopia | Warsaw | 5 | Stopwatch Beta","protocol":17,"map":"cp_dustbowl","folder":"tf","game":"Team Fortress","app_id":440,"player_count":0,"max_players":24,"Bots":0,"server_type":"Dedicated","server_os":"Linux","password":true,"vac":true,"version":"7882260","steam_id":85568392925397854,"keywords":["cp","nocrits","nodmgspread","uncletopia"],"game_id":440,"stv_port":27056,"stv_name":"Uncletopia | Warsaw | 5 | Stopwatch Beta | STV","players":null},{"server_id":54,"name":"Uncletopia | Warsaw | 6 | Community","name_short":"waw-6","host":"waw-1.pl.uncletopia.com","port":27065,"enabled":true,"region":"eu","cc":"pl","latitude":52.2297,"longitude":21.017532,"reserved":0,"last_update":"0001-01-01T00:00:00Z","name_a2s":"Uncletopia | Warsaw | 6 | Community","protocol":17,"map":"workshop/koth_bagel_rc6.ugc2514036946","folder":"tf","game":"Team Fortress","app_id":440,"player_count":0,"max_players":24,"Bots":0,"server_type":"Dedicated","server_os":"Linux","password":true,"vac":true,"version":"7882260","steam_id":85568392925397856,"keywords":["cp","nocrits","nodmgspread","uncletopia"],"game_id":440,"stv_port":27066,"stv_name":"Uncletopia | Warsaw | 6 | Community | STV","players":null}]}